[{"id":"1819","tribuneTheaterId":"4121","providerTheaterId":"","name":"Tower Theatre - South Hadley","address":"19 College Street","city":"South Hadley","state":"MA","zip":"01075","distance":4.6393671257007,"lon":"-72.576271","lat":"42.258564","theaterChainName":"Independent Chains","ticketType":"STANDARD"},{"id":"279","tribuneTheaterId":"7173","providerTheaterId":"","name":"Rave Motion Pictures West Springfield 15","address":"864 Riverdale Street","city":"West Springfield","state":"MA","zip":"01089","distance":5.8885283322167,"lon":"-72.627826","lat":"42.127818","theaterChainName":"Cinemark","ticketType":"STANDARD"},{"id":"2630","tribuneTheaterId":"9195","providerTheaterId":"","name":"Rave Motion Pictures Eastfield 16","address":"1655 Boston Rd","city":"Springfield","state":"MA","zip":"01129","distance":5.0448951911537,"lon":"-72.486267","lat":"42.140664","theaterChainName":"Cinemark","ticketType":"STANDARD"},{"id":"3104","tribuneTheaterId":"7064","providerTheaterId":"","name":"Cinemark At Hampshire Mall","address":"367 Russell St.","city":"Hadley","state":"MA","zip":"01035","distance":11.264987655358,"lon":"-72.547842","lat":"42.356368","theaterChainName":"Cinemark","ticketType":"STANDARD"},{"id":"2696","tribuneTheaterId":"452","providerTheaterId":"","name":"Amherst Cinema","address":"28 Amity Street","city":"Amherst","state":"MA","zip":"01002","distance":12.714433076694,"lon":"-72.520517","lat":"42.375703","theaterChainName":"Independent Chains","ticketType":"STANDARD"},{"id":"885","tribuneTheaterId":"8345","providerTheaterId":"","name":"Cinemark Enfield 12","address":"90 Elm St.","city":"Enfield","state":"CT","zip":"06082","distance":13.792218173259,"lon":"-72.580946","lat":"41.994757","theaterChainName":"Cinemark","ticketType":"STANDARD"}]