[{"id":"279","name":"Rave Motion Pictures West Springfield 15","address":"864 Riverdale Street","city":"West Springfield","state":"MA","zip":"01089","distance":"23.313404083251953","lon":"-72.627823","lat":"42.127819","theaterChainName":"Cinemark","ticketType":"STANDARD"},{"id":"1819","name":"Tower Theatre - South Hadley","address":"19 College Street","city":"South Hadley","state":"MA","zip":"01075","distance":"16.96501350402832","lon":"-72.576271","lat":"42.258564","theaterChainName":"Independent Chains","ticketType":"STANDARD"},{"id":"3104","name":"Cinemark At Hampshire Mall","address":"367 Russell St.","city":"Hadley","state":"MA","zip":"01035","distance":"14.092853546142578","lon":"-72.547844","lat":"42.356369","theaterChainName":"Cinemark","ticketType":"STANDARD"},{"id":"2696","name":"Amherst Cinema","address":"28 Amity Street","city":"Amherst","state":"MA","zip":"01002","distance":"14.918984413146973","lon":"-72.520515","lat":"42.375702","theaterChainName":"Independent Chains","ticketType":"STANDARD"},{"id":"3584","name":"Greenfield Garden Cinema","address":"351 Main Street","city":"Greenfield","state":"MA","zip":"01301","distance":"14.397562026977539","lon":"-72.599701","lat":"42.587799","theaterChainName":"Independent Chains","ticketType":"STANDARD"},{"id":"1710","name":"Regal Berkshire Mall 10","address":"Route 8 and Old State Road","city":"Lanesboro","state":"MA","zip":"01237","distance":"21.107826232910156","lon":"-73.207375","lat":"42.493225","theaterChainName":"Regal Cinemas","ticketType":"STANDARD"},{"id":"4861","name":"The Beacon Cinema","address":"57 North Street","city":"Pittsfield","state":"MA","zip":"01201","distance":"23.16954803466797","lon":"-73.253738","lat":"42.449436","theaterChainName":"Independent Chains","ticketType":"STANDARD"},{"id":"4322","name":"North Adams Movieplex","address":"86 Main Street","city":"North Adams","state":"MA","zip":"01247","distance":"23.790006637573242","lon":"-73.111160","lat":"42.697025","theaterChainName":"Independent Chains","ticketType":"STANDARD"}]