[{"id":"279","name":"Rave Motion Pictures West Springfield 15","address":"864 Riverdale Street","city":"West Springfield","state":"MA","zip":"01089","distance":"1.1113896369934082","lon":"-72.627823","lat":"42.127819","theaterChainName":"Cinemark","ticketType":"STANDARD"},{"id":"885","name":"Cinemark Enfield 12","address":"90 Elm St.","city":"Enfield","state":"CT","zip":"06082","distance":"8.869535446166992","lon":"-72.580948","lat":"41.994759","theaterChainName":"Cinemark","ticketType":"STANDARD"},{"id":"2630","name":"Rave Motion Pictures Eastfield 16","address":"1655 Boston Rd","city":"Springfield","state":"MA","zip":"01129","distance":"8.128713607788086","lon":"-72.486267","lat":"42.140663","theaterChainName":"Cinemark","ticketType":"STANDARD"},{"id":"1819","name":"Tower Theatre - South Hadley","address":"19 College Street","city":"South Hadley","state":"MA","zip":"01075","distance":"10.453837394714355","lon":"-72.576271","lat":"42.258564","theaterChainName":"Independent Chains","ticketType":"STANDARD"},{"id":"877","name":"Digiplex Bloomfield","address":"863 Park Ave","city":"Bloomfield","state":"CT","zip":"06002","distance":"20.201873779296875","lon":"-72.735672","lat":"41.831314","theaterChainName":"Carmike Cinemas","ticketType":"STANDARD"},{"id":"817","name":"Rave Buckland Hills 18","address":"99 Red Stone Rd.","city":"Manchester","state":"CT","zip":"06045","distance":"22.222667694091797","lon":"-72.547852","lat":"41.801052","theaterChainName":"Cinemark","ticketType":"STANDARD"},{"id":"4302","name":"Parkade Cinemas","address":"308 Broad St","city":"Manchester","state":"CT","zip":"06040","distance":"23.850364685058594","lon":"-72.539978","lat":"41.778225","theaterChainName":"Independent Chains","ticketType":"STANDARD"},{"id":"3104","name":"Cinemark At Hampshire Mall","address":"367 Russell St.","city":"Hadley","state":"MA","zip":"01035","distance":"17.340240478515625","lon":"-72.547844","lat":"42.356369","theaterChainName":"Cinemark","ticketType":"STANDARD"},{"id":"5253","name":"Spotlight Theatres Front Street","address":"39 Front St.","city":"Hartford","state":"CT","zip":"06103","distance":"24.395998001098633","lon":"-72.670197","lat":"41.762699","theaterChainName":"Spotlight Theatres","ticketType":"STANDARD"},{"id":"876","name":"Real Art Ways Theatre","address":"56 Arbor St.","city":"Hartford","state":"CT","zip":"06106","distance":"24.786108016967773","lon":"-72.703400","lat":"41.759396","theaterChainName":"Independent Chains","ticketType":"STANDARD"},{"id":"2696","name":"Amherst Cinema","address":"28 Amity Street","city":"Amherst","state":"MA","zip":"01002","distance":"19.033958435058594","lon":"-72.520515","lat":"42.375702","theaterChainName":"Independent Chains","ticketType":"STANDARD"},{"id":"2907","name":"Simsbury","address":"530 Bushy Hill Road","city":"Simsbury","state":"CT","zip":"06070","distance":"23.406003952026367","lon":"-72.863396","lat":"41.819424","theaterChainName":"Hoyts","ticketType":"STANDARD"},{"id":"5969","name":"AMC Dine-in Holly Spring 9","address":"320 Grand Hill Place","city":"Holly Springs","state":"NC","zip":"27540","distance":"24.98230743408203","lon":"-73.042793","lat":"41.911034","theaterChainName":"AMC Theatres","ticketType":"STANDARD"},{"id":"5631","name":"Apple Cinemas Barkhamsted","address":"380 New Hartford Road","city":"Barkhamsted","state":"CT","zip":"06063","distance":"24.98230743408203","lon":"-73.042793","lat":"41.911034","theaterChainName":"Independent Chains","ticketType":"STANDARD"}]