[{"id":"3104","tribuneTheaterId":"7064","providerTheaterId":"","name":"Cinemark At Hampshire Mall","address":"367 Russell St.","city":"Hadley","state":"MA","zip":"01035","distance":16.655988522763,"lon":"-72.547842","lat":"42.356368","theaterChainName":"Cinemark","ticketType":"STANDARD"},{"id":"1710","tribuneTheaterId":"4659","providerTheaterId":"","name":"Regal Berkshire Mall 10","address":"Route 8 and Old State Road","city":"Lanesboro","state":"MA","zip":"01237","distance":18.571551579427,"lon":"-73.207371","lat":"42.493224","theaterChainName":"Regal Cinemas","ticketType":"STANDARD"},{"id":"2696","tribuneTheaterId":"452","providerTheaterId":"","name":"Amherst Cinema","address":"28 Amity Street","city":"Amherst","state":"MA","zip":"01002","distance":17.910601123681,"lon":"-72.520517","lat":"42.375703","theaterChainName":"Independent Chains","ticketType":"STANDARD"},{"id":"1819","tribuneTheaterId":"4121","providerTheaterId":"","name":"Tower Theatre - South Hadley","address":"19 College Street","city":"South Hadley","state":"MA","zip":"01075","distance":17.588978140092,"lon":"-72.576271","lat":"42.258564","theaterChainName":"Independent Chains","ticketType":"STANDARD"},{"id":"3584","tribuneTheaterId":"1973","providerTheaterId":"","name":"Greenfield Garden Cinema","address":"351 Main Street","city":"Greenfield","state":"MA","zip":"01301","distance":19.420003275636,"lon":"-72.5997","lat":"42.5878","theaterChainName":"Independent Chains","ticketType":"STANDARD"},{"id":"4861","tribuneTheaterId":"10158","providerTheaterId":"","name":"The Beacon Cinema","address":"57 North Street","city":"Pittsfield","state":"MA","zip":"01201","distance":19.949906339152,"lon":"-73.253737","lat":"42.449435","theaterChainName":"Independent Chains","ticketType":"STANDARD"},{"id":"279","tribuneTheaterId":"7173","providerTheaterId":"","name":"Rave Motion Pictures West Springfield 15","address":"864 Riverdale Street","city":"West Springfield","state":"MA","zip":"01089","distance":21.986579918936,"lon":"-72.627826","lat":"42.127818","theaterChainName":"Cinemark","ticketType":"STANDARD"},{"id":"4322","tribuneTheaterId":"9284","providerTheaterId":"","name":"North Adams Movieplex","address":"86 Main Street","city":"North Adams","state":"MA","zip":"01247","distance":24.468658316024,"lon":"-73.11116","lat":"42.697026","theaterChainName":"Independent Chains","ticketType":"STANDARD"}]