[{"id":"279","name":"Rave Motion Pictures West Springfield 15","address":"864 Riverdale Street","city":"West Springfield","state":"MA","zip":"01089","distance":"21.07474708557129","lon":"-72.627823","lat":"42.127819","theaterChainName":"Cinemark","ticketType":"STANDARD"},{"id":"885","name":"Cinemark Enfield 12","address":"90 Elm St.","city":"Enfield","state":"CT","zip":"06082","distance":"23.074750900268555","lon":"-72.580948","lat":"41.994759","theaterChainName":"Cinemark","ticketType":"STANDARD"},{"id":"2630","name":"Rave Motion Pictures Eastfield 16","address":"1655 Boston Rd","city":"Springfield","state":"MA","zip":"01129","distance":"13.859084129333496","lon":"-72.486267","lat":"42.140663","theaterChainName":"Cinemark","ticketType":"STANDARD"},{"id":"1819","name":"Tower Theatre - South Hadley","address":"19 College Street","city":"South Hadley","state":"MA","zip":"01075","distance":"18.17911720275879","lon":"-72.576271","lat":"42.258564","theaterChainName":"Independent Chains","ticketType":"STANDARD"},{"id":"3104","name":"Cinemark At Hampshire Mall","address":"367 Russell St.","city":"Hadley","state":"MA","zip":"01035","distance":"19.44629669189453","lon":"-72.547844","lat":"42.356369","theaterChainName":"Cinemark","ticketType":"STANDARD"},{"id":"2696","name":"Amherst Cinema","address":"28 Amity Street","city":"Amherst","state":"MA","zip":"01002","distance":"19.09478759765625","lon":"-72.520515","lat":"42.375702","theaterChainName":"Independent Chains","ticketType":"STANDARD"},{"id":"5534","name":"Cinemagic in Sturbridge","address":"100 Charlton Road","city":"Sturbridge","state":"MA","zip":"01566","distance":"10.145095825195312","lon":"-72.060623","lat":"42.125561","theaterChainName":"Independent Chains","ticketType":"STANDARD"},{"id":"310","name":"Showcase Cinemas Worcester North","address":"135 Brooks St.","city":"Worcester","state":"MA","zip":"01606","distance":"23.163970947265625","lon":"-71.801598","lat":"42.313900","theaterChainName":"National Amusements","ticketType":"STANDARD"},{"id":"1094","name":"Elm DraughtHouse Theatre","address":"35 Elm St.","city":"Millbury","state":"MA","zip":"01527","distance":"24.10468864440918","lon":"-71.758339","lat":"42.191975","theaterChainName":"Independent Chains","ticketType":"STANDARD"}]