[{"id":"874","name":"Gilson Theatre","address":"354 Main Street","city":"Winsted","state":"CT","zip":"06098","distance":"24.150476455688477","lon":"-73.069565","lat":"41.921246","theaterChainName":"Independent Chains","ticketType":"STANDARD"},{"id":"1710","name":"Regal Berkshire Mall 10","address":"Route 8 and Old State Road","city":"Lanesboro","state":"MA","zip":"01237","distance":"21.986160278320312","lon":"-73.207375","lat":"42.493225","theaterChainName":"Regal Cinemas","ticketType":"STANDARD"},{"id":"4861","name":"The Beacon Cinema","address":"57 North Street","city":"Pittsfield","state":"MA","zip":"01201","distance":"18.35124397277832","lon":"-73.253738","lat":"42.449436","theaterChainName":"Independent Chains","ticketType":"STANDARD"},{"id":"2808","name":"Triplex Cinema","address":"70 Railroad Street","city":"Great Barrington","state":"MA","zip":"01230","distance":"0.1252247840166092","lon":"-73.362968","lat":"42.195217","theaterChainName":"Independent Chains","ticketType":"STANDARD"},{"id":"2751","name":"Moviehouse","address":"48 Main St.","city":"Millerton","state":"NY","zip":"12546","distance":"18.419612884521484","lon":"-73.509979","lat":"41.953445","theaterChainName":"Independent Chains","ticketType":"STANDARD"},{"id":"904","name":"Crandell Theatre","address":"46-48 Main Street","city":"Chatham","state":"NY","zip":"12037","distance":"16.674894332885742","lon":"-73.595634","lat":"42.363304","theaterChainName":"Independent Chains","ticketType":"STANDARD"},{"id":"2813","name":"Hudson Movieplex","address":"350 Fairview Ave","city":"Hudson","state":"NY","zip":"12534","distance":"21.05918312072754","lon":"-73.759132","lat":"42.272472","theaterChainName":"Independent Chains","ticketType":"STANDARD"},{"id":"5656","name":"Time & Space Limited\/TSL","address":"434 Columbia Street","city":"Hudson","state":"NY","zip":"12534","distance":"22.112754821777344","lon":"-73.786400","lat":"42.251011","theaterChainName":"Independent Chains","ticketType":"STANDARD"}]