[{"id":"2808","tribuneTheaterId":"6118","providerTheaterId":"","name":"Triplex Cinema","address":"70 Railroad Street","city":"Great Barrington","state":"MA","zip":"01230","distance":13.957220750758,"lon":"-73.362968","lat":"42.195217","theaterChainName":"Independent Chains","ticketType":"STANDARD"},{"id":"5631","tribuneTheaterId":"11094","providerTheaterId":"","name":"Apple Cinemas Barkhamsted","address":"380 New Hartford Road","city":"Barkhamsted","state":"CT","zip":"06063","distance":14.215764732382,"lon":"-73.042795","lat":"41.911034","theaterChainName":"Independent Chains","ticketType":"STANDARD"},{"id":"874","tribuneTheaterId":"5168","providerTheaterId":"","name":"Gilson Theatre","address":"354 Main Street","city":"Winsted","state":"CT","zip":"06098","distance":13.219812498139,"lon":"-73.069567","lat":"41.921244","theaterChainName":"Independent Chains","ticketType":"STANDARD"},{"id":"5969","tribuneTheaterId":"11405","providerTheaterId":"","name":"AMC Dine-in Holly Spring 9","address":"320 Grand Hill Place","city":"Holly Springs","state":"NC","zip":"27540","distance":14.215764732382,"lon":"-73.042795","lat":"41.911034","theaterChainName":"AMC Theatres","ticketType":"STANDARD"},{"id":"2365","tribuneTheaterId":"4027","providerTheaterId":"","name":"Cinerom Digital Movieplex Torrington","address":"89 Farley Place","city":"Torrington","state":"CT","zip":"06790","distance":20.46533501934,"lon":"-73.123873","lat":"41.813255","theaterChainName":"Carmike Cinemas","ticketType":"STANDARD"},{"id":"2751","tribuneTheaterId":"2580","providerTheaterId":"","name":"Moviehouse","address":"48 Main St.","city":"Millerton","state":"NY","zip":"12546","distance":22.897642533023,"lon":"-73.509976","lat":"41.953446","theaterChainName":"Independent Chains","ticketType":"STANDARD"},{"id":"4861","tribuneTheaterId":"10158","providerTheaterId":"","name":"The Beacon Cinema","address":"57 North Street","city":"Pittsfield","state":"MA","zip":"01201","distance":24.522157898004,"lon":"-73.253737","lat":"42.449435","theaterChainName":"Independent Chains","ticketType":"STANDARD"},{"id":"2907","tribuneTheaterId":"5984","providerTheaterId":"","name":"Simsbury","address":"530 Bushy Hill Road","city":"Simsbury","state":"CT","zip":"06070","distance":23.879461529623,"lon":"-72.863399","lat":"41.819424","theaterChainName":"Hoyts","ticketType":"STANDARD"}]