[{"id":"2907","name":"Simsbury","address":"530 Bushy Hill Road","city":"Simsbury","state":"CT","zip":"06070","distance":"23.881221771240234","lon":"-72.863396","lat":"41.819424","theaterChainName":"Hoyts","ticketType":"STANDARD"},{"id":"5969","name":"AMC Dine-in Holly Spring 9","address":"320 Grand Hill Place","city":"Holly Springs","state":"NC","zip":"27540","distance":"14.216841697692871","lon":"-73.042793","lat":"41.911034","theaterChainName":"AMC Theatres","ticketType":"STANDARD"},{"id":"5631","name":"Apple Cinemas Barkhamsted","address":"380 New Hartford Road","city":"Barkhamsted","state":"CT","zip":"06063","distance":"14.216841697692871","lon":"-73.042793","lat":"41.911034","theaterChainName":"Independent Chains","ticketType":"STANDARD"},{"id":"874","name":"Gilson Theatre","address":"354 Main Street","city":"Winsted","state":"CT","zip":"06098","distance":"13.220684051513672","lon":"-73.069565","lat":"41.921246","theaterChainName":"Independent Chains","ticketType":"STANDARD"},{"id":"2365","name":"Cinerom Digital Movieplex Torrington","address":"89 Farley Place","city":"Torrington","state":"CT","zip":"06790","distance":"20.46669578552246","lon":"-73.123871","lat":"41.813255","theaterChainName":"Carmike Cinemas","ticketType":"STANDARD"},{"id":"4861","name":"The Beacon Cinema","address":"57 North Street","city":"Pittsfield","state":"MA","zip":"01201","distance":"24.52362823486328","lon":"-73.253738","lat":"42.449436","theaterChainName":"Independent Chains","ticketType":"STANDARD"},{"id":"2808","name":"Triplex Cinema","address":"70 Railroad Street","city":"Great Barrington","state":"MA","zip":"01230","distance":"13.957944869995117","lon":"-73.362968","lat":"42.195217","theaterChainName":"Independent Chains","ticketType":"STANDARD"},{"id":"2751","name":"Moviehouse","address":"48 Main St.","city":"Millerton","state":"NY","zip":"12546","distance":"22.899169921875","lon":"-73.509979","lat":"41.953445","theaterChainName":"Independent Chains","ticketType":"STANDARD"}]