[{"id":"3584","name":"Greenfield Garden Cinema","address":"351 Main Street","city":"Greenfield","state":"MA","zip":"01301","distance":"21.564306259155273","lon":"-72.599701","lat":"42.587799","theaterChainName":"Independent Chains","ticketType":"STANDARD"},{"id":"1710","name":"Regal Berkshire Mall 10","address":"Route 8 and Old State Road","city":"Lanesboro","state":"MA","zip":"01237","distance":"11.015752792358398","lon":"-73.207375","lat":"42.493225","theaterChainName":"Regal Cinemas","ticketType":"STANDARD"},{"id":"4861","name":"The Beacon Cinema","address":"57 North Street","city":"Pittsfield","state":"MA","zip":"01201","distance":"14.678175926208496","lon":"-73.253738","lat":"42.449436","theaterChainName":"Independent Chains","ticketType":"STANDARD"},{"id":"4322","name":"North Adams Movieplex","address":"86 Main Street","city":"North Adams","state":"MA","zip":"01247","distance":"9.419561386108398","lon":"-73.111160","lat":"42.697025","theaterChainName":"Independent Chains","ticketType":"STANDARD"},{"id":"2809","name":"Images Cinema","address":"50 Spring St.","city":"Williamstown","state":"MA","zip":"01267","distance":"13.037105560302734","lon":"-73.204231","lat":"42.710739","theaterChainName":"Independent Chains","ticketType":"STANDARD"},{"id":"2810","name":"Bennington Cinemas","address":"319 Northside Drive","city":"Bennington","state":"VT","zip":"05201","distance":"24.60197639465332","lon":"-73.216087","lat":"42.903683","theaterChainName":"Independent Chains","ticketType":"STANDARD"}]