[{"id":"4322","tribuneTheaterId":"9284","providerTheaterId":"","name":"North Adams Movieplex","address":"86 Main Street","city":"North Adams","state":"MA","zip":"01247","distance":7.0575077704266,"lon":"-73.11116","lat":"42.697026","theaterChainName":"Independent Chains","ticketType":"STANDARD"},{"id":"2809","tribuneTheaterId":"5161","providerTheaterId":"","name":"Images Cinema","address":"50 Spring St.","city":"Williamstown","state":"MA","zip":"01267","distance":11.599630706973,"lon":"-73.204229","lat":"42.710738","theaterChainName":"Independent Chains","ticketType":"STANDARD"},{"id":"2810","tribuneTheaterId":"6197","providerTheaterId":"","name":"Bennington Cinemas","address":"319 Northside Drive","city":"Bennington","state":"VT","zip":"05201","distance":17.500957232375,"lon":"-73.216088","lat":"42.903682","theaterChainName":"Independent Chains","ticketType":"STANDARD"},{"id":"1710","tribuneTheaterId":"4659","providerTheaterId":"","name":"Regal Berkshire Mall 10","address":"Route 8 and Old State Road","city":"Lanesboro","state":"MA","zip":"01237","distance":19.671437856709,"lon":"-73.207371","lat":"42.493224","theaterChainName":"Regal Cinemas","ticketType":"STANDARD"},{"id":"3584","tribuneTheaterId":"1973","providerTheaterId":"","name":"Greenfield Garden Cinema","address":"351 Main Street","city":"Greenfield","state":"MA","zip":"01301","distance":21.245216893909,"lon":"-72.5997","lat":"42.5878","theaterChainName":"Independent Chains","ticketType":"STANDARD"},{"id":"4861","tribuneTheaterId":"10158","providerTheaterId":"","name":"The Beacon Cinema","address":"57 North Street","city":"Pittsfield","state":"MA","zip":"01201","distance":23.509459867728,"lon":"-73.253737","lat":"42.449435","theaterChainName":"Independent Chains","ticketType":"STANDARD"}]