[{"id":"3104","name":"Cinemark At Hampshire Mall","address":"367 Russell St.","city":"Hadley","state":"MA","zip":"01035","distance":"21.99165916442871","lon":"-72.547844","lat":"42.356369","theaterChainName":"Cinemark","ticketType":"STANDARD"},{"id":"2696","name":"Amherst Cinema","address":"28 Amity Street","city":"Amherst","state":"MA","zip":"01002","distance":"20.092391967773438","lon":"-72.520515","lat":"42.375702","theaterChainName":"Independent Chains","ticketType":"STANDARD"},{"id":"3584","name":"Greenfield Garden Cinema","address":"351 Main Street","city":"Greenfield","state":"MA","zip":"01301","distance":"15.726116180419922","lon":"-72.599701","lat":"42.587799","theaterChainName":"Independent Chains","ticketType":"STANDARD"},{"id":"1095","name":"Gardner Cinemas","address":"336 Timpany Blvd.","city":"Gardner","state":"MA","zip":"01440","distance":"15.882469177246094","lon":"-71.988739","lat":"42.559517","theaterChainName":"Independent Chains","ticketType":"STANDARD"},{"id":"6083","name":"River Street Theatre","address":"6 River Street","city":"Jaffrey","state":"NH","zip":"03452","distance":"19.502681732177734","lon":"-72.023750","lat":"42.814648","theaterChainName":"Independent Chains","ticketType":"STANDARD"},{"id":"2803","name":"Colonial Theatre NH","address":"95 Main Street","city":"Keene","state":"NH","zip":"03431","distance":"22.04020881652832","lon":"-72.278198","lat":"42.931702","theaterChainName":"Independent Chains","ticketType":"STANDARD"}]