[{"id":"3584","tribuneTheaterId":"1973","providerTheaterId":"","name":"Greenfield Garden Cinema","address":"351 Main Street","city":"Greenfield","state":"MA","zip":"01301","distance":7.1598320446464,"lon":"-72.5997","lat":"42.5878","theaterChainName":"Independent Chains","ticketType":"STANDARD"},{"id":"4322","tribuneTheaterId":"9284","providerTheaterId":"","name":"North Adams Movieplex","address":"86 Main Street","city":"North Adams","state":"MA","zip":"01247","distance":20.010637311476,"lon":"-73.11116","lat":"42.697026","theaterChainName":"Independent Chains","ticketType":"STANDARD"},{"id":"2696","tribuneTheaterId":"452","providerTheaterId":"","name":"Amherst Cinema","address":"28 Amity Street","city":"Amherst","state":"MA","zip":"01002","distance":19.207600922392,"lon":"-72.520517","lat":"42.375703","theaterChainName":"Independent Chains","ticketType":"STANDARD"},{"id":"3104","tribuneTheaterId":"7064","providerTheaterId":"","name":"Cinemark At Hampshire Mall","address":"367 Russell St.","city":"Hadley","state":"MA","zip":"01035","distance":19.582839338454,"lon":"-72.547842","lat":"42.356368","theaterChainName":"Cinemark","ticketType":"STANDARD"},{"id":"2809","tribuneTheaterId":"5161","providerTheaterId":"","name":"Images Cinema","address":"50 Spring St.","city":"Williamstown","state":"MA","zip":"01267","distance":24.795902748782,"lon":"-73.204229","lat":"42.710738","theaterChainName":"Independent Chains","ticketType":"STANDARD"},{"id":"1710","tribuneTheaterId":"4659","providerTheaterId":"","name":"Regal Berkshire Mall 10","address":"Route 8 and Old State Road","city":"Lanesboro","state":"MA","zip":"01237","distance":24.996878190626,"lon":"-73.207371","lat":"42.493224","theaterChainName":"Regal Cinemas","ticketType":"STANDARD"}]