[{"id":"279","name":"Rave Motion Pictures West Springfield 15","address":"864 Riverdale Street","city":"West Springfield","state":"MA","zip":"01089","distance":"22.74068832397461","lon":"-72.627823","lat":"42.127819","theaterChainName":"Cinemark","ticketType":"STANDARD"},{"id":"2630","name":"Rave Motion Pictures Eastfield 16","address":"1655 Boston Rd","city":"Springfield","state":"MA","zip":"01129","distance":"22.03938865661621","lon":"-72.486267","lat":"42.140663","theaterChainName":"Cinemark","ticketType":"STANDARD"},{"id":"1819","name":"Tower Theatre - South Hadley","address":"19 College Street","city":"South Hadley","state":"MA","zip":"01075","distance":"13.504469871520996","lon":"-72.576271","lat":"42.258564","theaterChainName":"Independent Chains","ticketType":"STANDARD"},{"id":"3104","name":"Cinemark At Hampshire Mall","address":"367 Russell St.","city":"Hadley","state":"MA","zip":"01035","distance":"6.814051628112793","lon":"-72.547844","lat":"42.356369","theaterChainName":"Cinemark","ticketType":"STANDARD"},{"id":"2696","name":"Amherst Cinema","address":"28 Amity Street","city":"Amherst","state":"MA","zip":"01002","distance":"5.913006782531738","lon":"-72.520515","lat":"42.375702","theaterChainName":"Independent Chains","ticketType":"STANDARD"},{"id":"3584","name":"Greenfield Garden Cinema","address":"351 Main Street","city":"Greenfield","state":"MA","zip":"01301","distance":"9.39549732208252","lon":"-72.599701","lat":"42.587799","theaterChainName":"Independent Chains","ticketType":"STANDARD"}]