[{"id":"1095","name":"Gardner Cinemas","address":"336 Timpany Blvd.","city":"Gardner","state":"MA","zip":"01440","distance":"6.97868537902832","lon":"-71.988739","lat":"42.559517","theaterChainName":"Independent Chains","ticketType":"STANDARD"},{"id":"310","name":"Showcase Cinemas Worcester North","address":"135 Brooks St.","city":"Worcester","state":"MA","zip":"01606","distance":"24.056175231933594","lon":"-71.801598","lat":"42.313900","theaterChainName":"National Amusements","ticketType":"STANDARD"},{"id":"2800","name":"West Boylston Cinema","address":"101 West Boylston","city":"West Boylston","state":"MA","zip":"01583","distance":"21.49118995666504","lon":"-71.784401","lat":"42.356800","theaterChainName":"Independent Chains","ticketType":"STANDARD"},{"id":"1305","name":"Cinema World","address":"476 John Fitch Hwy","city":"Fitchburg","state":"MA","zip":"01420","distance":"9.02245807647705","lon":"-71.773415","lat":"42.583828","theaterChainName":"Independent Chains","ticketType":"STANDARD"},{"id":"159","name":"EMC Leominster 10","address":"45 Sack Blvd.","city":"Leominster","state":"MA","zip":"01453","distance":"12.29531192779541","lon":"-71.746223","lat":"42.531239","theaterChainName":"Entertainment Cinemas","ticketType":"STANDARD"},{"id":"6083","name":"River Street Theatre","address":"6 River Street","city":"Jaffrey","state":"NH","zip":"03452","distance":"12.422688484191895","lon":"-72.023750","lat":"42.814648","theaterChainName":"Independent Chains","ticketType":"STANDARD"},{"id":"2798","name":"Strand Theatre - Clinton","address":"58 High Street","city":"Clinton","state":"MA","zip":"01510","distance":"20.241165161132812","lon":"-71.684952","lat":"42.417053","theaterChainName":"Independent Chains","ticketType":"STANDARD"},{"id":"4779","name":"Peterborough Community Theater","address":"6 School St.","city":"Peterborough","state":"NH","zip":"03458","distance":"15.740622520446777","lon":"-71.950645","lat":"42.876724","theaterChainName":"Independent Chains","ticketType":"STANDARD"},{"id":"3420","name":"Chunky's Cinema Pub -  Nashua","address":"151 Coliseum Ave.","city":"Nashua","state":"NH","zip":"03063","distance":"23.04218864440918","lon":"-71.498398","lat":"42.759800","theaterChainName":"Independent Chains","ticketType":"STANDARD"},{"id":"500","name":"AMC Tyngsboro","address":"440 Middlesex Road","city":"Tyngsboro","state":"MA","zip":"01879","distance":"24.896991729736328","lon":"-71.441017","lat":"42.697758","theaterChainName":"AMC Theatres","ticketType":"SELECT_SEATING"}]