[{"id":"5745","tribuneTheaterId":"11187","providerTheaterId":"","name":"Fine Arts Theatre Place","address":"19 Summer Street","city":"Maynard","state":"MA","zip":"01754","distance":7.7333060091501,"lon":"-71.451874","lat":"42.433504","theaterChainName":"Independent Chains","ticketType":"STANDARD"},{"id":"2798","tribuneTheaterId":"474","providerTheaterId":"","name":"Strand Theatre - Clinton","address":"58 High Street","city":"Clinton","state":"MA","zip":"01510","distance":7.9363592645716,"lon":"-71.684948","lat":"42.417054","theaterChainName":"Independent Chains","ticketType":"STANDARD"},{"id":"159","tribuneTheaterId":"6598","providerTheaterId":"","name":"EMC Leominster 10","address":"45 Sack Blvd.","city":"Leominster","state":"MA","zip":"01453","distance":8.9921334276362,"lon":"-71.746221","lat":"42.531237","theaterChainName":"Entertainment Cinemas","ticketType":"STANDARD"},{"id":"497","tribuneTheaterId":"7579","providerTheaterId":"","name":"Regal Solomon Pond Stadium 15","address":"591 Donald Lynch Blvd.","city":"Marlborough","state":"MA","zip":"01752","distance":10.04348055853,"lon":"-71.613876","lat":"42.356055","theaterChainName":"Regal Cinemas","ticketType":"STANDARD"},{"id":"1305","tribuneTheaterId":"2219","providerTheaterId":"","name":"Cinema World","address":"476 John Fitch Hwy","city":"Fitchburg","state":"MA","zip":"01420","distance":11.678904144248,"lon":"-71.773417","lat":"42.583829","theaterChainName":"Independent Chains","ticketType":"STANDARD"},{"id":"2800","tribuneTheaterId":"1852","providerTheaterId":"","name":"West Boylston Cinema","address":"101 West Boylston","city":"West Boylston","state":"MA","zip":"01583","distance":14.481417922199,"lon":"-71.7844","lat":"42.3568","theaterChainName":"Independent Chains","ticketType":"STANDARD"},{"id":"500","tribuneTheaterId":"7505","providerTheaterId":"812","name":"AMC Tyngsboro","address":"440 Middlesex Road","city":"Tyngsboro","state":"MA","zip":"01879","distance":15.362151923884,"lon":"-71.441015","lat":"42.697757","theaterChainName":"AMC Theatres","ticketType":"SELECT_SEATING"},{"id":"579","tribuneTheaterId":"7899","providerTheaterId":"","name":"Regal Westborough Stadium 12","address":"231 Turnpike Road","city":"Westborough","state":"MA","zip":"01581","distance":14.936620285873,"lon":"-71.635398","lat":"42.287025","theaterChainName":"Regal Cinemas","ticketType":"STANDARD"},{"id":"693","tribuneTheaterId":"7041","providerTheaterId":"","name":"Showcase Cinemas Lowell","address":"32 Reiss Ave","city":"Lowell","state":"MA","zip":"01853","distance":14.999228275338,"lon":"-71.322998","lat":"42.610783","theaterChainName":"National Amusements","ticketType":"STANDARD"},{"id":"5627","tribuneTheaterId":"11090","providerTheaterId":"","name":"The Luna Theater","address":"250 Jackson St. Unit 402","city":"Lowell","state":"MA","zip":"01852","distance":16.634609625155,"lon":"-71.3122","lat":"42.6415","theaterChainName":"Independent Chains","ticketType":"STANDARD"},{"id":"463","tribuneTheaterId":"7976","providerTheaterId":"810","name":"AMC Framingham 16","address":"22 Flutie Pass","city":"Framingham","state":"MA","zip":"01701","distance":16.472022642121,"lon":"-71.390731","lat":"42.302999","theaterChainName":"AMC Theatres","ticketType":"SELECT_SEATING"},{"id":"310","tribuneTheaterId":"7477","providerTheaterId":"","name":"Showcase Cinemas Worcester North","address":"135 Brooks St.","city":"Worcester","state":"MA","zip":"01606","distance":17.20887969971,"lon":"-71.801598","lat":"42.3139","theaterChainName":"National Amusements","ticketType":"STANDARD"},{"id":"461","tribuneTheaterId":"8863","providerTheaterId":"814","name":"AMC Burlington 10","address":"20 South Ave.","city":"Burlington","state":"MA","zip":"01803","distance":18.294219411084,"lon":"-71.21715","lat":"42.479718","theaterChainName":"AMC Theatres","ticketType":"SELECT_SEATING"},{"id":"465","tribuneTheaterId":"6245","providerTheaterId":"","name":"Lexington Venue","address":"1794 Massachussetts Ave.","city":"Lexington","state":"MA","zip":"02420","distance":18.032529070059,"lon":"-71.228203","lat":"42.447899","theaterChainName":"Independent Chains","ticketType":"STANDARD"},{"id":"3420","tribuneTheaterId":"1963","providerTheaterId":"","name":"Chunky's Cinema Pub -  Nashua","address":"151 Coliseum Ave.","city":"Nashua","state":"NH","zip":"03063","distance":18.465712354315,"lon":"-71.4984","lat":"42.7598","theaterChainName":"Independent Chains","ticketType":"STANDARD"},{"id":"1095","tribuneTheaterId":"4025","providerTheaterId":"","name":"Gardner Cinemas","address":"336 Timpany Blvd.","city":"Gardner","state":"MA","zip":"01440","distance":21.467869157128,"lon":"-71.988741","lat":"42.559515","theaterChainName":"Independent Chains","ticketType":"STANDARD"},{"id":"221","tribuneTheaterId":"8343","providerTheaterId":"","name":"Showcase Cinemas Woburn","address":"25 Middlesex Canal Parkway","city":"Woburn","state":"MA","zip":"01801","distance":21.114672292955,"lon":"-71.160824","lat":"42.49726","theaterChainName":"National Amusements","ticketType":"STANDARD"},{"id":"2801","tribuneTheaterId":"1853","providerTheaterId":"","name":"Chunky's Pelham Cinema & Pub","address":"150 Bridge Street","city":"Pelham","state":"NH","zip":"03076","distance":20.268494919744,"lon":"-71.319055","lat":"42.723297","theaterChainName":"Independent Chains","ticketType":"STANDARD"},{"id":"70","tribuneTheaterId":"6066","providerTheaterId":"","name":"Freshpond 10","address":"168 Alwife Brook Parkway","city":"Cambridge","state":"MA","zip":"02138","distance":23.476295325836,"lon":"-71.138424","lat":"42.391277","theaterChainName":"Independent Chains","ticketType":"STANDARD"},{"id":"457","tribuneTheaterId":"6525","providerTheaterId":"","name":"Capitol Theatre - Arlington","address":"204 Massachussetts Ave.","city":"Arlington","state":"MA","zip":"02474","distance":22.966110721068,"lon":"-71.142675","lat":"42.40591","theaterChainName":"Independent Chains","ticketType":"STANDARD"},{"id":"481","tribuneTheaterId":"5179","providerTheaterId":"","name":"Somerville Theatre","address":"55 Davis Square","city":"Somerville","state":"MA","zip":"02144","distance":24.115472930612,"lon":"-71.122887","lat":"42.396736","theaterChainName":"Independent Chains","ticketType":"STANDARD"},{"id":"1094","tribuneTheaterId":"237","providerTheaterId":"","name":"Elm DraughtHouse Theatre","address":"35 Elm St.","city":"Millbury","state":"MA","zip":"01527","distance":23.156099738606,"lon":"-71.758339","lat":"42.191975","theaterChainName":"Independent Chains","ticketType":"STANDARD"},{"id":"453","tribuneTheaterId":"6097","providerTheaterId":"","name":"Brattle Theatre","address":"40 Brattle St.","city":"Cambridge","state":"MA","zip":"02138","distance":24.706892917758,"lon":"-71.1213","lat":"42.373699","theaterChainName":"Independent Chains","ticketType":"STANDARD"},{"id":"3972","tribuneTheaterId":"2318","providerTheaterId":"","name":"Merrimack Cinemagic","address":"11 Executive Park Drive","city":"Merrimack","state":"NH","zip":"03054","distance":24.37122588685,"lon":"-71.497135","lat":"42.846616","theaterChainName":"Zyacorp Entertainment","ticketType":"STANDARD"}]