[{"id":"1095","name":"Gardner Cinemas","address":"336 Timpany Blvd.","city":"Gardner","state":"MA","zip":"01440","distance":"21.46902084350586","lon":"-71.988739","lat":"42.559517","theaterChainName":"Independent Chains","ticketType":"STANDARD"},{"id":"310","name":"Showcase Cinemas Worcester North","address":"135 Brooks St.","city":"Worcester","state":"MA","zip":"01606","distance":"17.20985984802246","lon":"-71.801598","lat":"42.313900","theaterChainName":"National Amusements","ticketType":"STANDARD"},{"id":"2800","name":"West Boylston Cinema","address":"101 West Boylston","city":"West Boylston","state":"MA","zip":"01583","distance":"14.482267379760742","lon":"-71.784401","lat":"42.356800","theaterChainName":"Independent Chains","ticketType":"STANDARD"},{"id":"1094","name":"Elm DraughtHouse Theatre","address":"35 Elm St.","city":"Millbury","state":"MA","zip":"01527","distance":"23.157512664794922","lon":"-71.758339","lat":"42.191975","theaterChainName":"Independent Chains","ticketType":"STANDARD"},{"id":"1305","name":"Cinema World","address":"476 John Fitch Hwy","city":"Fitchburg","state":"MA","zip":"01420","distance":"11.679393768310547","lon":"-71.773415","lat":"42.583828","theaterChainName":"Independent Chains","ticketType":"STANDARD"},{"id":"159","name":"EMC Leominster 10","address":"45 Sack Blvd.","city":"Leominster","state":"MA","zip":"01453","distance":"8.9927339553833","lon":"-71.746223","lat":"42.531239","theaterChainName":"Entertainment Cinemas","ticketType":"STANDARD"},{"id":"2798","name":"Strand Theatre - Clinton","address":"58 High Street","city":"Clinton","state":"MA","zip":"01510","distance":"7.936949253082275","lon":"-71.684952","lat":"42.417053","theaterChainName":"Independent Chains","ticketType":"STANDARD"},{"id":"579","name":"Regal Westborough Stadium 12","address":"231 Turnpike Road","city":"Westborough","state":"MA","zip":"01581","distance":"14.93750286102295","lon":"-71.635399","lat":"42.287025","theaterChainName":"Regal Cinemas","ticketType":"STANDARD"},{"id":"497","name":"Regal Solomon Pond Stadium 15","address":"591 Donald Lynch Blvd.","city":"Marlborough","state":"MA","zip":"01752","distance":"10.0440034866333","lon":"-71.613876","lat":"42.356056","theaterChainName":"Regal Cinemas","ticketType":"STANDARD"},{"id":"5745","name":"Fine Arts Theatre Place","address":"19 Summer Street","city":"Maynard","state":"MA","zip":"01754","distance":"7.733955383300781","lon":"-71.451874","lat":"42.433502","theaterChainName":"Independent Chains","ticketType":"STANDARD"},{"id":"463","name":"AMC Framingham 16","address":"22 Flutie Pass","city":"Framingham","state":"MA","zip":"01701","distance":"16.473161697387695","lon":"-71.390732","lat":"42.302998","theaterChainName":"AMC Theatres","ticketType":"SELECT_SEATING"},{"id":"3420","name":"Chunky's Cinema Pub -  Nashua","address":"151 Coliseum Ave.","city":"Nashua","state":"NH","zip":"03063","distance":"18.466899871826172","lon":"-71.498398","lat":"42.759800","theaterChainName":"Independent Chains","ticketType":"STANDARD"},{"id":"500","name":"AMC Tyngsboro","address":"440 Middlesex Road","city":"Tyngsboro","state":"MA","zip":"01879","distance":"15.363147735595703","lon":"-71.441017","lat":"42.697758","theaterChainName":"AMC Theatres","ticketType":"SELECT_SEATING"},{"id":"3972","name":"Merrimack Cinemagic","address":"11 Executive Park Drive","city":"Merrimack","state":"NH","zip":"03054","distance":"24.372705459594727","lon":"-71.497131","lat":"42.846615","theaterChainName":"Zyacorp Entertainment","ticketType":"STANDARD"},{"id":"693","name":"Showcase Cinemas Lowell","address":"32 Reiss Ave","city":"Lowell","state":"MA","zip":"01853","distance":"15.000234603881836","lon":"-71.322998","lat":"42.610783","theaterChainName":"National Amusements","ticketType":"STANDARD"},{"id":"5627","name":"The Luna Theater","address":"250 Jackson St. Unit 402","city":"Lowell","state":"MA","zip":"01852","distance":"16.635568618774414","lon":"-71.312202","lat":"42.641499","theaterChainName":"Independent Chains","ticketType":"STANDARD"},{"id":"2801","name":"Chunky's Pelham Cinema & Pub","address":"150 Bridge Street","city":"Pelham","state":"NH","zip":"03076","distance":"20.26987075805664","lon":"-71.319054","lat":"42.723297","theaterChainName":"Independent Chains","ticketType":"STANDARD"},{"id":"465","name":"Lexington Venue","address":"1794 Massachussetts Ave.","city":"Lexington","state":"MA","zip":"02420","distance":"18.033763885498047","lon":"-71.228203","lat":"42.447899","theaterChainName":"Independent Chains","ticketType":"STANDARD"},{"id":"461","name":"AMC Burlington 10","address":"20 South Ave.","city":"Burlington","state":"MA","zip":"01803","distance":"18.295576095581055","lon":"-71.217148","lat":"42.479717","theaterChainName":"AMC Theatres","ticketType":"SELECT_SEATING"},{"id":"221","name":"Showcase Cinemas Woburn","address":"25 Middlesex Canal Parkway","city":"Woburn","state":"MA","zip":"01801","distance":"21.115903854370117","lon":"-71.160828","lat":"42.497261","theaterChainName":"National Amusements","ticketType":"STANDARD"},{"id":"457","name":"Capitol Theatre - Arlington","address":"204 Massachussetts Ave.","city":"Arlington","state":"MA","zip":"02474","distance":"22.96751594543457","lon":"-71.142677","lat":"42.405910","theaterChainName":"Independent Chains","ticketType":"STANDARD"},{"id":"70","name":"Freshpond 10","address":"168 Alwife Brook Parkway","city":"Cambridge","state":"MA","zip":"02138","distance":"23.477664947509766","lon":"-71.138428","lat":"42.391277","theaterChainName":"Independent Chains","ticketType":"STANDARD"},{"id":"481","name":"Somerville Theatre","address":"55 Davis Square","city":"Somerville","state":"MA","zip":"02144","distance":"24.117084503173828","lon":"-71.122887","lat":"42.396736","theaterChainName":"Independent Chains","ticketType":"STANDARD"},{"id":"453","name":"Brattle Theatre","address":"40 Brattle St.","city":"Cambridge","state":"MA","zip":"02138","distance":"24.708534240722656","lon":"-71.121300","lat":"42.373699","theaterChainName":"Independent Chains","ticketType":"STANDARD"}]