[{"id":"1095","name":"Gardner Cinemas","address":"336 Timpany Blvd.","city":"Gardner","state":"MA","zip":"01440","distance":"14.165687561035156","lon":"-71.988739","lat":"42.559517","theaterChainName":"Independent Chains","ticketType":"STANDARD"},{"id":"310","name":"Showcase Cinemas Worcester North","address":"135 Brooks St.","city":"Worcester","state":"MA","zip":"01606","distance":"24.58289337158203","lon":"-71.801598","lat":"42.313900","theaterChainName":"National Amusements","ticketType":"STANDARD"},{"id":"2800","name":"West Boylston Cinema","address":"101 West Boylston","city":"West Boylston","state":"MA","zip":"01583","distance":"21.55191421508789","lon":"-71.784401","lat":"42.356800","theaterChainName":"Independent Chains","ticketType":"STANDARD"},{"id":"1305","name":"Cinema World","address":"476 John Fitch Hwy","city":"Fitchburg","state":"MA","zip":"01420","distance":"5.901748180389404","lon":"-71.773415","lat":"42.583828","theaterChainName":"Independent Chains","ticketType":"STANDARD"},{"id":"159","name":"EMC Leominster 10","address":"45 Sack Blvd.","city":"Leominster","state":"MA","zip":"01453","distance":"9.441019058227539","lon":"-71.746223","lat":"42.531239","theaterChainName":"Entertainment Cinemas","ticketType":"STANDARD"},{"id":"6083","name":"River Street Theatre","address":"6 River Street","city":"Jaffrey","state":"NH","zip":"03452","distance":"17.113126754760742","lon":"-72.023750","lat":"42.814648","theaterChainName":"Independent Chains","ticketType":"STANDARD"},{"id":"2798","name":"Strand Theatre - Clinton","address":"58 High Street","city":"Clinton","state":"MA","zip":"01510","distance":"17.661035537719727","lon":"-71.684952","lat":"42.417053","theaterChainName":"Independent Chains","ticketType":"STANDARD"},{"id":"497","name":"Regal Solomon Pond Stadium 15","address":"591 Donald Lynch Blvd.","city":"Marlborough","state":"MA","zip":"01752","distance":"22.66366958618164","lon":"-71.613876","lat":"42.356056","theaterChainName":"Regal Cinemas","ticketType":"STANDARD"},{"id":"5745","name":"Fine Arts Theatre Place","address":"19 Summer Street","city":"Maynard","state":"MA","zip":"01754","distance":"22.26655387878418","lon":"-71.451874","lat":"42.433502","theaterChainName":"Independent Chains","ticketType":"STANDARD"},{"id":"4779","name":"Peterborough Community Theater","address":"6 School St.","city":"Peterborough","state":"NH","zip":"03458","distance":"17.598787307739258","lon":"-71.950645","lat":"42.876724","theaterChainName":"Independent Chains","ticketType":"STANDARD"},{"id":"3420","name":"Chunky's Cinema Pub -  Nashua","address":"151 Coliseum Ave.","city":"Nashua","state":"NH","zip":"03063","distance":"14.368038177490234","lon":"-71.498398","lat":"42.759800","theaterChainName":"Independent Chains","ticketType":"STANDARD"},{"id":"500","name":"AMC Tyngsboro","address":"440 Middlesex Road","city":"Tyngsboro","state":"MA","zip":"01879","distance":"15.941314697265625","lon":"-71.441017","lat":"42.697758","theaterChainName":"AMC Theatres","ticketType":"SELECT_SEATING"},{"id":"3972","name":"Merrimack Cinemagic","address":"11 Executive Park Drive","city":"Merrimack","state":"NH","zip":"03054","distance":"17.891828536987305","lon":"-71.497131","lat":"42.846615","theaterChainName":"Zyacorp Entertainment","ticketType":"STANDARD"},{"id":"693","name":"Showcase Cinemas Lowell","address":"32 Reiss Ave","city":"Lowell","state":"MA","zip":"01853","distance":"22.169254302978516","lon":"-71.322998","lat":"42.610783","theaterChainName":"National Amusements","ticketType":"STANDARD"},{"id":"5627","name":"The Luna Theater","address":"250 Jackson St. Unit 402","city":"Lowell","state":"MA","zip":"01852","distance":"22.433324813842773","lon":"-71.312202","lat":"42.641499","theaterChainName":"Independent Chains","ticketType":"STANDARD"},{"id":"2801","name":"Chunky's Pelham Cinema & Pub","address":"150 Bridge Street","city":"Pelham","state":"NH","zip":"03076","distance":"22.328678131103516","lon":"-71.319054","lat":"42.723297","theaterChainName":"Independent Chains","ticketType":"STANDARD"},{"id":"5566","name":"Londonderry 10","address":"16 Orchard View Drive","city":"Londonderry","state":"NH","zip":"03053","distance":"24.184465408325195","lon":"-71.354301","lat":"42.860600","theaterChainName":"Carmike Cinemas","ticketType":"STANDARD"}]