[{"id":"1095","name":"Gardner Cinemas","address":"336 Timpany Blvd.","city":"Gardner","state":"MA","zip":"01440","distance":"18.647756576538086","lon":"-71.988739","lat":"42.559517","theaterChainName":"Independent Chains","ticketType":"STANDARD"},{"id":"310","name":"Showcase Cinemas Worcester North","address":"135 Brooks St.","city":"Worcester","state":"MA","zip":"01606","distance":"21.945295333862305","lon":"-71.801598","lat":"42.313900","theaterChainName":"National Amusements","ticketType":"STANDARD"},{"id":"2800","name":"West Boylston Cinema","address":"101 West Boylston","city":"West Boylston","state":"MA","zip":"01583","distance":"18.882953643798828","lon":"-71.784401","lat":"42.356800","theaterChainName":"Independent Chains","ticketType":"STANDARD"},{"id":"1305","name":"Cinema World","address":"476 John Fitch Hwy","city":"Fitchburg","state":"MA","zip":"01420","distance":"7.566076755523682","lon":"-71.773415","lat":"42.583828","theaterChainName":"Independent Chains","ticketType":"STANDARD"},{"id":"159","name":"EMC Leominster 10","address":"45 Sack Blvd.","city":"Leominster","state":"MA","zip":"01453","distance":"7.881269454956055","lon":"-71.746223","lat":"42.531239","theaterChainName":"Entertainment Cinemas","ticketType":"STANDARD"},{"id":"6083","name":"River Street Theatre","address":"6 River Street","city":"Jaffrey","state":"NH","zip":"03452","distance":"24.828025817871094","lon":"-72.023750","lat":"42.814648","theaterChainName":"Independent Chains","ticketType":"STANDARD"},{"id":"2798","name":"Strand Theatre - Clinton","address":"58 High Street","city":"Clinton","state":"MA","zip":"01510","distance":"13.26749324798584","lon":"-71.684952","lat":"42.417053","theaterChainName":"Independent Chains","ticketType":"STANDARD"},{"id":"579","name":"Regal Westborough Stadium 12","address":"231 Turnpike Road","city":"Westborough","state":"MA","zip":"01581","distance":"21.926897048950195","lon":"-71.635399","lat":"42.287025","theaterChainName":"Regal Cinemas","ticketType":"STANDARD"},{"id":"497","name":"Regal Solomon Pond Stadium 15","address":"591 Donald Lynch Blvd.","city":"Marlborough","state":"MA","zip":"01752","distance":"17.16677474975586","lon":"-71.613876","lat":"42.356056","theaterChainName":"Regal Cinemas","ticketType":"STANDARD"},{"id":"5745","name":"Fine Arts Theatre Place","address":"19 Summer Street","city":"Maynard","state":"MA","zip":"01754","distance":"14.802020072937012","lon":"-71.451874","lat":"42.433502","theaterChainName":"Independent Chains","ticketType":"STANDARD"},{"id":"463","name":"AMC Framingham 16","address":"22 Flutie Pass","city":"Framingham","state":"MA","zip":"01701","distance":"24.06035041809082","lon":"-71.390732","lat":"42.302998","theaterChainName":"AMC Theatres","ticketType":"SELECT_SEATING"},{"id":"4779","name":"Peterborough Community Theater","address":"6 School St.","city":"Peterborough","state":"NH","zip":"03458","distance":"24.97186279296875","lon":"-71.950645","lat":"42.876724","theaterChainName":"Independent Chains","ticketType":"STANDARD"},{"id":"3420","name":"Chunky's Cinema Pub -  Nashua","address":"151 Coliseum Ave.","city":"Nashua","state":"NH","zip":"03063","distance":"12.582331657409668","lon":"-71.498398","lat":"42.759800","theaterChainName":"Independent Chains","ticketType":"STANDARD"},{"id":"500","name":"AMC Tyngsboro","address":"440 Middlesex Road","city":"Tyngsboro","state":"MA","zip":"01879","distance":"11.459589958190918","lon":"-71.441017","lat":"42.697758","theaterChainName":"AMC Theatres","ticketType":"SELECT_SEATING"},{"id":"3972","name":"Merrimack Cinemagic","address":"11 Executive Park Drive","city":"Merrimack","state":"NH","zip":"03054","distance":"17.99976921081543","lon":"-71.497131","lat":"42.846615","theaterChainName":"Zyacorp Entertainment","ticketType":"STANDARD"},{"id":"693","name":"Showcase Cinemas Lowell","address":"32 Reiss Ave","city":"Lowell","state":"MA","zip":"01853","distance":"15.481983184814453","lon":"-71.322998","lat":"42.610783","theaterChainName":"National Amusements","ticketType":"STANDARD"},{"id":"5627","name":"The Luna Theater","address":"250 Jackson St. Unit 402","city":"Lowell","state":"MA","zip":"01852","distance":"16.225440979003906","lon":"-71.312202","lat":"42.641499","theaterChainName":"Independent Chains","ticketType":"STANDARD"},{"id":"2801","name":"Chunky's Pelham Cinema & Pub","address":"150 Bridge Street","city":"Pelham","state":"NH","zip":"03076","distance":"17.68904685974121","lon":"-71.319054","lat":"42.723297","theaterChainName":"Independent Chains","ticketType":"STANDARD"},{"id":"5566","name":"Londonderry 10","address":"16 Orchard View Drive","city":"Londonderry","state":"NH","zip":"03053","distance":"22.4857120513916","lon":"-71.354301","lat":"42.860600","theaterChainName":"Carmike Cinemas","ticketType":"STANDARD"},{"id":"465","name":"Lexington Venue","address":"1794 Massachussetts Ave.","city":"Lexington","state":"MA","zip":"02420","distance":"23.01767921447754","lon":"-71.228203","lat":"42.447899","theaterChainName":"Independent Chains","ticketType":"STANDARD"},{"id":"461","name":"AMC Burlington 10","address":"20 South Ave.","city":"Burlington","state":"MA","zip":"01803","distance":"22.585477828979492","lon":"-71.217148","lat":"42.479717","theaterChainName":"AMC Theatres","ticketType":"SELECT_SEATING"},{"id":"221","name":"Showcase Cinemas Woburn","address":"25 Middlesex Canal Parkway","city":"Woburn","state":"MA","zip":"01801","distance":"24.869747161865234","lon":"-71.160828","lat":"42.497261","theaterChainName":"National Amusements","ticketType":"STANDARD"}]