[{"id":"1094","tribuneTheaterId":"237","providerTheaterId":"","name":"Elm DraughtHouse Theatre","address":"35 Elm St.","city":"Millbury","state":"MA","zip":"01527","distance":9.6236143830771,"lon":"-71.758339","lat":"42.191975","theaterChainName":"Independent Chains","ticketType":"STANDARD"},{"id":"724","tribuneTheaterId":"7748","providerTheaterId":"","name":"Regal Bellingham Stadium 14","address":"259 Hartford Ave.","city":"Bellingham","state":"MA","zip":"02019","distance":15.427657164072,"lon":"-71.460233","lat":"42.110399","theaterChainName":"Regal Cinemas","ticketType":"STANDARD"},{"id":"4155","tribuneTheaterId":"2390","providerTheaterId":"","name":"Cinemaworld Lincoln","address":"622 George Washington Hwy. Lincoln Mall","city":"Lincoln","state":"RI","zip":"02865","distance":16.075396429449,"lon":"-71.477611","lat":"41.939311","theaterChainName":"Cinemaworld","ticketType":"STANDARD"},{"id":"5534","tribuneTheaterId":"10967","providerTheaterId":"","name":"Cinemagic in Sturbridge","address":"100 Charlton Road","city":"Sturbridge","state":"MA","zip":"01566","distance":16.657625526539,"lon":"-72.060624","lat":"42.125562","theaterChainName":"Independent Chains","ticketType":"STANDARD"},{"id":"579","tribuneTheaterId":"7899","providerTheaterId":"","name":"Regal Westborough Stadium 12","address":"231 Turnpike Road","city":"Westborough","state":"MA","zip":"01581","distance":17.230372893805,"lon":"-71.635398","lat":"42.287025","theaterChainName":"Regal Cinemas","ticketType":"STANDARD"},{"id":"310","tribuneTheaterId":"7477","providerTheaterId":"","name":"Showcase Cinemas Worcester North","address":"135 Brooks St.","city":"Worcester","state":"MA","zip":"01606","distance":18.226034901673,"lon":"-71.801598","lat":"42.3139","theaterChainName":"National Amusements","ticketType":"STANDARD"},{"id":"2800","tribuneTheaterId":"1852","providerTheaterId":"","name":"West Boylston Cinema","address":"101 West Boylston","city":"West Boylston","state":"MA","zip":"01583","distance":21.074225580663,"lon":"-71.7844","lat":"42.3568","theaterChainName":"Independent Chains","ticketType":"STANDARD"},{"id":"309","tribuneTheaterId":"9010","providerTheaterId":"","name":"Showcase Cinemas North Attleboro","address":"640 South Washington St.","city":"North Attleboro","state":"MA","zip":"02760","distance":22.068159907806,"lon":"-71.342055","lat":"41.954254","theaterChainName":"National Amusements","ticketType":"STANDARD"},{"id":"497","tribuneTheaterId":"7579","providerTheaterId":"","name":"Regal Solomon Pond Stadium 15","address":"591 Donald Lynch Blvd.","city":"Marlborough","state":"MA","zip":"01752","distance":22.095379402528,"lon":"-71.613876","lat":"42.356055","theaterChainName":"Regal Cinemas","ticketType":"STANDARD"},{"id":"1025","tribuneTheaterId":"2442","providerTheaterId":"","name":"Cable Car","address":"204 S Main","city":"Providence","state":"RI","zip":"02903","distance":23.812450034191,"lon":"-71.405486","lat":"41.823107","theaterChainName":"Independent Chains","ticketType":"STANDARD"},{"id":"1024","tribuneTheaterId":"228","providerTheaterId":"","name":"Avon Cinema","address":"260 Thayer Street","city":"Providence","state":"RI","zip":"02906","distance":23.728254288418,"lon":"-71.400873","lat":"41.828855","theaterChainName":"Independent Chains","ticketType":"STANDARD"},{"id":"2764","tribuneTheaterId":"8232","providerTheaterId":"","name":"Providence Place Cinemas 16","address":"10 Providence Place","city":"Providence","state":"RI","zip":"02903","distance":23.199225929294,"lon":"-71.416717","lat":"41.827085","theaterChainName":"National Amusements","ticketType":"STANDARD"}]