[{"id":"310","tribuneTheaterId":"7477","providerTheaterId":"","name":"Showcase Cinemas Worcester North","address":"135 Brooks St.","city":"Worcester","state":"MA","zip":"01606","distance":2.8112427716566,"lon":"-71.801598","lat":"42.3139","theaterChainName":"National Amusements","ticketType":"STANDARD"},{"id":"2800","tribuneTheaterId":"1852","providerTheaterId":"","name":"West Boylston Cinema","address":"101 West Boylston","city":"West Boylston","state":"MA","zip":"01583","distance":3.0850216137753,"lon":"-71.7844","lat":"42.3568","theaterChainName":"Independent Chains","ticketType":"STANDARD"},{"id":"2798","tribuneTheaterId":"474","providerTheaterId":"","name":"Strand Theatre - Clinton","address":"58 High Street","city":"Clinton","state":"MA","zip":"01510","distance":9.5212561129368,"lon":"-71.684948","lat":"42.417054","theaterChainName":"Independent Chains","ticketType":"STANDARD"},{"id":"579","tribuneTheaterId":"7899","providerTheaterId":"","name":"Regal Westborough Stadium 12","address":"231 Turnpike Road","city":"Westborough","state":"MA","zip":"01581","distance":11.189440694685,"lon":"-71.635398","lat":"42.287025","theaterChainName":"Regal Cinemas","ticketType":"STANDARD"},{"id":"1094","tribuneTheaterId":"237","providerTheaterId":"","name":"Elm DraughtHouse Theatre","address":"35 Elm St.","city":"Millbury","state":"MA","zip":"01527","distance":11.201992931385,"lon":"-71.758339","lat":"42.191975","theaterChainName":"Independent Chains","ticketType":"STANDARD"},{"id":"497","tribuneTheaterId":"7579","providerTheaterId":"","name":"Regal Solomon Pond Stadium 15","address":"591 Donald Lynch Blvd.","city":"Marlborough","state":"MA","zip":"01752","distance":11.658738442316,"lon":"-71.613876","lat":"42.356055","theaterChainName":"Regal Cinemas","ticketType":"STANDARD"},{"id":"159","tribuneTheaterId":"6598","providerTheaterId":"","name":"EMC Leominster 10","address":"45 Sack Blvd.","city":"Leominster","state":"MA","zip":"01453","distance":13.946736523582,"lon":"-71.746221","lat":"42.531237","theaterChainName":"Entertainment Cinemas","ticketType":"STANDARD"},{"id":"1305","tribuneTheaterId":"2219","providerTheaterId":"","name":"Cinema World","address":"476 John Fitch Hwy","city":"Fitchburg","state":"MA","zip":"01420","distance":17.064294495601,"lon":"-71.773417","lat":"42.583829","theaterChainName":"Independent Chains","ticketType":"STANDARD"},{"id":"1095","tribuneTheaterId":"4025","providerTheaterId":"","name":"Gardner Cinemas","address":"336 Timpany Blvd.","city":"Gardner","state":"MA","zip":"01440","distance":16.80147417917,"lon":"-71.988741","lat":"42.559515","theaterChainName":"Independent Chains","ticketType":"STANDARD"},{"id":"5534","tribuneTheaterId":"10967","providerTheaterId":"","name":"Cinemagic in Sturbridge","address":"100 Charlton Road","city":"Sturbridge","state":"MA","zip":"01566","distance":18.692457263486,"lon":"-72.060624","lat":"42.125562","theaterChainName":"Independent Chains","ticketType":"STANDARD"},{"id":"5745","tribuneTheaterId":"11187","providerTheaterId":"","name":"Fine Arts Theatre Place","address":"19 Summer Street","city":"Maynard","state":"MA","zip":"01754","distance":20.859563615502,"lon":"-71.451874","lat":"42.433504","theaterChainName":"Independent Chains","ticketType":"STANDARD"},{"id":"463","tribuneTheaterId":"7976","providerTheaterId":"810","name":"AMC Framingham 16","address":"22 Flutie Pass","city":"Framingham","state":"MA","zip":"01701","distance":23.179695192323,"lon":"-71.390731","lat":"42.302999","theaterChainName":"AMC Theatres","ticketType":"SELECT_SEATING"}]