[{"id":"5745","tribuneTheaterId":"11187","providerTheaterId":"","name":"Fine Arts Theatre Place","address":"19 Summer Street","city":"Maynard","state":"MA","zip":"01754","distance":3.6469102302202,"lon":"-71.451874","lat":"42.433504","theaterChainName":"Independent Chains","ticketType":"STANDARD"},{"id":"463","tribuneTheaterId":"7976","providerTheaterId":"810","name":"AMC Framingham 16","address":"22 Flutie Pass","city":"Framingham","state":"MA","zip":"01701","distance":5.8950869611288,"lon":"-71.390731","lat":"42.302999","theaterChainName":"AMC Theatres","ticketType":"SELECT_SEATING"},{"id":"497","tribuneTheaterId":"7579","providerTheaterId":"","name":"Regal Solomon Pond Stadium 15","address":"591 Donald Lynch Blvd.","city":"Marlborough","state":"MA","zip":"01752","distance":9.6687136200259,"lon":"-71.613876","lat":"42.356055","theaterChainName":"Regal Cinemas","ticketType":"STANDARD"},{"id":"465","tribuneTheaterId":"6245","providerTheaterId":"","name":"Lexington Venue","address":"1794 Massachussetts Ave.","city":"Lexington","state":"MA","zip":"02420","distance":11.124344909222,"lon":"-71.228203","lat":"42.447899","theaterChainName":"Independent Chains","ticketType":"STANDARD"},{"id":"579","tribuneTheaterId":"7899","providerTheaterId":"","name":"Regal Westborough Stadium 12","address":"231 Turnpike Road","city":"Westborough","state":"MA","zip":"01581","distance":12.514327336413,"lon":"-71.635398","lat":"42.287025","theaterChainName":"Regal Cinemas","ticketType":"STANDARD"},{"id":"2798","tribuneTheaterId":"474","providerTheaterId":"","name":"Strand Theatre - Clinton","address":"58 High Street","city":"Clinton","state":"MA","zip":"01510","distance":13.300958423808,"lon":"-71.684948","lat":"42.417054","theaterChainName":"Independent Chains","ticketType":"STANDARD"},{"id":"461","tribuneTheaterId":"8863","providerTheaterId":"814","name":"AMC Burlington 10","address":"20 South Ave.","city":"Burlington","state":"MA","zip":"01803","distance":12.643207396866,"lon":"-71.21715","lat":"42.479718","theaterChainName":"AMC Theatres","ticketType":"SELECT_SEATING"},{"id":"481","tribuneTheaterId":"5179","providerTheaterId":"","name":"Somerville Theatre","address":"55 Davis Square","city":"Somerville","state":"MA","zip":"02144","distance":15.6062101882,"lon":"-71.122887","lat":"42.396736","theaterChainName":"Independent Chains","ticketType":"STANDARD"},{"id":"70","tribuneTheaterId":"6066","providerTheaterId":"","name":"Freshpond 10","address":"168 Alwife Brook Parkway","city":"Cambridge","state":"MA","zip":"02138","distance":14.797247725256,"lon":"-71.138424","lat":"42.391277","theaterChainName":"Independent Chains","ticketType":"STANDARD"},{"id":"457","tribuneTheaterId":"6525","providerTheaterId":"","name":"Capitol Theatre - Arlington","address":"204 Massachussetts Ave.","city":"Arlington","state":"MA","zip":"02474","distance":14.649939766206,"lon":"-71.142675","lat":"42.40591","theaterChainName":"Independent Chains","ticketType":"STANDARD"},{"id":"693","tribuneTheaterId":"7041","providerTheaterId":"","name":"Showcase Cinemas Lowell","address":"32 Reiss Ave","city":"Lowell","state":"MA","zip":"01853","distance":16.579976813393,"lon":"-71.322998","lat":"42.610783","theaterChainName":"National Amusements","ticketType":"STANDARD"},{"id":"221","tribuneTheaterId":"8343","providerTheaterId":"","name":"Showcase Cinemas Woburn","address":"25 Middlesex Canal Parkway","city":"Woburn","state":"MA","zip":"01801","distance":15.729938872746,"lon":"-71.160824","lat":"42.49726","theaterChainName":"National Amusements","ticketType":"STANDARD"},{"id":"453","tribuneTheaterId":"6097","providerTheaterId":"","name":"Brattle Theatre","address":"40 Brattle St.","city":"Cambridge","state":"MA","zip":"02138","distance":15.679289477067,"lon":"-71.1213","lat":"42.373699","theaterChainName":"Independent Chains","ticketType":"STANDARD"},{"id":"3038","tribuneTheaterId":"5658","providerTheaterId":"","name":"Regal Fenway Stadium 13","address":"201 Brookline Ave","city":"Boston","state":"MA","zip":"02115","distance":16.889580399635,"lon":"-71.101653","lat":"42.344474","theaterChainName":"Regal Cinemas","ticketType":"STANDARD"},{"id":"459","tribuneTheaterId":"5165","providerTheaterId":"","name":"Dedham Community Theatre","address":"580 High St.","city":"Dedham","state":"MA","zip":"02026","distance":16.054014459955,"lon":"-71.173155","lat":"42.247976","theaterChainName":"Independent Chains","ticketType":"STANDARD"},{"id":"3226","tribuneTheaterId":"9277","providerTheaterId":"2657","name":"AMC Loews Boston Common 19","address":"175 Tremont Street","city":"Boston","state":"MA","zip":"02111","distance":18.701987573528,"lon":"-71.06417","lat":"42.353212","theaterChainName":"AMC Theatres","ticketType":"E_TICKET"},{"id":"5492","tribuneTheaterId":"10934","providerTheaterId":"504","name":"AMC Assembly Row 12","address":"395 Artisan Way","city":"Somerville","state":"MA","zip":"02145","distance":17.819673232288,"lon":"-71.079347","lat":"42.395091","theaterChainName":"AMC Theatres","ticketType":"SELECT_SEATING"},{"id":"5627","tribuneTheaterId":"11090","providerTheaterId":"","name":"The Luna Theater","address":"250 Jackson St. Unit 402","city":"Lowell","state":"MA","zip":"01852","distance":18.766462392791,"lon":"-71.3122","lat":"42.6415","theaterChainName":"Independent Chains","ticketType":"STANDARD"},{"id":"2800","tribuneTheaterId":"1852","providerTheaterId":"","name":"West Boylston Cinema","address":"101 West Boylston","city":"West Boylston","state":"MA","zip":"01583","distance":18.277495473607,"lon":"-71.7844","lat":"42.3568","theaterChainName":"Independent Chains","ticketType":"STANDARD"},{"id":"724","tribuneTheaterId":"7748","providerTheaterId":"","name":"Regal Bellingham Stadium 14","address":"259 Hartford Ave.","city":"Bellingham","state":"MA","zip":"02019","distance":18.954210526858,"lon":"-71.460233","lat":"42.110399","theaterChainName":"Regal Cinemas","ticketType":"STANDARD"},{"id":"310","tribuneTheaterId":"7477","providerTheaterId":"","name":"Showcase Cinemas Worcester North","address":"135 Brooks St.","city":"Worcester","state":"MA","zip":"01606","distance":19.667607301776,"lon":"-71.801598","lat":"42.3139","theaterChainName":"National Amusements","ticketType":"STANDARD"},{"id":"159","tribuneTheaterId":"6598","providerTheaterId":"","name":"EMC Leominster 10","address":"45 Sack Blvd.","city":"Leominster","state":"MA","zip":"01453","distance":19.149917700355,"lon":"-71.746221","lat":"42.531237","theaterChainName":"Entertainment Cinemas","ticketType":"STANDARD"},{"id":"222","tribuneTheaterId":"7618","providerTheaterId":"","name":"Showcase Cinemas de Lux Revere","address":"565 Squire Road","city":"Revere","state":"MA","zip":"02151","distance":21.093933198867,"lon":"-71.020026","lat":"42.432449","theaterChainName":"National Amusements","ticketType":"STANDARD"},{"id":"1305","tribuneTheaterId":"2219","providerTheaterId":"","name":"Cinema World","address":"476 John Fitch Hwy","city":"Fitchburg","state":"MA","zip":"01420","distance":22.374467018435,"lon":"-71.773417","lat":"42.583829","theaterChainName":"Independent Chains","ticketType":"STANDARD"},{"id":"1094","tribuneTheaterId":"237","providerTheaterId":"","name":"Elm DraughtHouse Theatre","address":"35 Elm St.","city":"Millbury","state":"MA","zip":"01527","distance":21.452957059545,"lon":"-71.758339","lat":"42.191975","theaterChainName":"Independent Chains","ticketType":"STANDARD"},{"id":"500","tribuneTheaterId":"7505","providerTheaterId":"812","name":"AMC Tyngsboro","address":"440 Middlesex Road","city":"Tyngsboro","state":"MA","zip":"01879","distance":21.709039951675,"lon":"-71.441015","lat":"42.697757","theaterChainName":"AMC Theatres","ticketType":"SELECT_SEATING"},{"id":"460","tribuneTheaterId":"7504","providerTheaterId":"813","name":"AMC Braintree","address":"121 Grandview Road","city":"Braintree","state":"MA","zip":"02184","distance":23.200391302756,"lon":"-71.033059","lat":"42.218356","theaterChainName":"AMC Theatres","ticketType":"SELECT_SEATING"},{"id":"2801","tribuneTheaterId":"1853","providerTheaterId":"","name":"Chunky's Pelham Cinema & Pub","address":"150 Bridge Street","city":"Pelham","state":"NH","zip":"03076","distance":24.112514924351,"lon":"-71.319055","lat":"42.723297","theaterChainName":"Independent Chains","ticketType":"STANDARD"}]