[{"id":"5745","tribuneTheaterId":"11187","providerTheaterId":"","name":"Fine Arts Theatre Place","address":"19 Summer Street","city":"Maynard","state":"MA","zip":"01754","distance":3.2246007278499,"lon":"-71.451874","lat":"42.433504","theaterChainName":"Independent Chains","ticketType":"STANDARD"},{"id":"497","tribuneTheaterId":"7579","providerTheaterId":"","name":"Regal Solomon Pond Stadium 15","address":"591 Donald Lynch Blvd.","city":"Marlborough","state":"MA","zip":"01752","distance":7.2199008168266,"lon":"-71.613876","lat":"42.356055","theaterChainName":"Regal Cinemas","ticketType":"STANDARD"},{"id":"2798","tribuneTheaterId":"474","providerTheaterId":"","name":"Strand Theatre - Clinton","address":"58 High Street","city":"Clinton","state":"MA","zip":"01510","distance":8.7197105446187,"lon":"-71.684948","lat":"42.417054","theaterChainName":"Independent Chains","ticketType":"STANDARD"},{"id":"463","tribuneTheaterId":"7976","providerTheaterId":"810","name":"AMC Framingham 16","address":"22 Flutie Pass","city":"Framingham","state":"MA","zip":"01701","distance":10.872741322793,"lon":"-71.390731","lat":"42.302999","theaterChainName":"AMC Theatres","ticketType":"SELECT_SEATING"},{"id":"579","tribuneTheaterId":"7899","providerTheaterId":"","name":"Regal Westborough Stadium 12","address":"231 Turnpike Road","city":"Westborough","state":"MA","zip":"01581","distance":11.681942053289,"lon":"-71.635398","lat":"42.287025","theaterChainName":"Regal Cinemas","ticketType":"STANDARD"},{"id":"159","tribuneTheaterId":"6598","providerTheaterId":"","name":"EMC Leominster 10","address":"45 Sack Blvd.","city":"Leominster","state":"MA","zip":"01453","distance":13.673942792057,"lon":"-71.746221","lat":"42.531237","theaterChainName":"Entertainment Cinemas","ticketType":"STANDARD"},{"id":"2800","tribuneTheaterId":"1852","providerTheaterId":"","name":"West Boylston Cinema","address":"101 West Boylston","city":"West Boylston","state":"MA","zip":"01583","distance":14.666807610139,"lon":"-71.7844","lat":"42.3568","theaterChainName":"Independent Chains","ticketType":"STANDARD"},{"id":"461","tribuneTheaterId":"8863","providerTheaterId":"814","name":"AMC Burlington 10","address":"20 South Ave.","city":"Burlington","state":"MA","zip":"01803","distance":15.555237122394,"lon":"-71.21715","lat":"42.479718","theaterChainName":"AMC Theatres","ticketType":"SELECT_SEATING"},{"id":"465","tribuneTheaterId":"6245","providerTheaterId":"","name":"Lexington Venue","address":"1794 Massachussetts Ave.","city":"Lexington","state":"MA","zip":"02420","distance":14.671505343213,"lon":"-71.228203","lat":"42.447899","theaterChainName":"Independent Chains","ticketType":"STANDARD"},{"id":"310","tribuneTheaterId":"7477","providerTheaterId":"","name":"Showcase Cinemas Worcester North","address":"135 Brooks St.","city":"Worcester","state":"MA","zip":"01606","distance":16.710926534589,"lon":"-71.801598","lat":"42.3139","theaterChainName":"National Amusements","ticketType":"STANDARD"},{"id":"693","tribuneTheaterId":"7041","providerTheaterId":"","name":"Showcase Cinemas Lowell","address":"32 Reiss Ave","city":"Lowell","state":"MA","zip":"01853","distance":15.819101236786,"lon":"-71.322998","lat":"42.610783","theaterChainName":"National Amusements","ticketType":"STANDARD"},{"id":"1305","tribuneTheaterId":"2219","providerTheaterId":"","name":"Cinema World","address":"476 John Fitch Hwy","city":"Fitchburg","state":"MA","zip":"01420","distance":16.883249692633,"lon":"-71.773417","lat":"42.583829","theaterChainName":"Independent Chains","ticketType":"STANDARD"},{"id":"457","tribuneTheaterId":"6525","providerTheaterId":"","name":"Capitol Theatre - Arlington","address":"204 Massachussetts Ave.","city":"Arlington","state":"MA","zip":"02474","distance":19.069015992015,"lon":"-71.142675","lat":"42.40591","theaterChainName":"Independent Chains","ticketType":"STANDARD"},{"id":"70","tribuneTheaterId":"6066","providerTheaterId":"","name":"Freshpond 10","address":"168 Alwife Brook Parkway","city":"Cambridge","state":"MA","zip":"02138","distance":19.403503474968,"lon":"-71.138424","lat":"42.391277","theaterChainName":"Independent Chains","ticketType":"STANDARD"},{"id":"221","tribuneTheaterId":"8343","providerTheaterId":"","name":"Showcase Cinemas Woburn","address":"25 Middlesex Canal Parkway","city":"Woburn","state":"MA","zip":"01801","distance":18.627278684163,"lon":"-71.160824","lat":"42.49726","theaterChainName":"National Amusements","ticketType":"STANDARD"},{"id":"5627","tribuneTheaterId":"11090","providerTheaterId":"","name":"The Luna Theater","address":"250 Jackson St. Unit 402","city":"Lowell","state":"MA","zip":"01852","distance":17.847580177464,"lon":"-71.3122","lat":"42.6415","theaterChainName":"Independent Chains","ticketType":"STANDARD"},{"id":"500","tribuneTheaterId":"7505","providerTheaterId":"812","name":"AMC Tyngsboro","address":"440 Middlesex Road","city":"Tyngsboro","state":"MA","zip":"01879","distance":18.825272444139,"lon":"-71.441015","lat":"42.697757","theaterChainName":"AMC Theatres","ticketType":"SELECT_SEATING"},{"id":"453","tribuneTheaterId":"6097","providerTheaterId":"","name":"Brattle Theatre","address":"40 Brattle St.","city":"Cambridge","state":"MA","zip":"02138","distance":20.470532961438,"lon":"-71.1213","lat":"42.373699","theaterChainName":"Independent Chains","ticketType":"STANDARD"},{"id":"1094","tribuneTheaterId":"237","providerTheaterId":"","name":"Elm DraughtHouse Theatre","address":"35 Elm St.","city":"Millbury","state":"MA","zip":"01527","distance":20.660939207759,"lon":"-71.758339","lat":"42.191975","theaterChainName":"Independent Chains","ticketType":"STANDARD"},{"id":"481","tribuneTheaterId":"5179","providerTheaterId":"","name":"Somerville Theatre","address":"55 Davis Square","city":"Somerville","state":"MA","zip":"02144","distance":20.140099685874,"lon":"-71.122887","lat":"42.396736","theaterChainName":"Independent Chains","ticketType":"STANDARD"},{"id":"5492","tribuneTheaterId":"10934","providerTheaterId":"504","name":"AMC Assembly Row 12","address":"395 Artisan Way","city":"Somerville","state":"MA","zip":"02145","distance":22.35995225709,"lon":"-71.079347","lat":"42.395091","theaterChainName":"AMC Theatres","ticketType":"SELECT_SEATING"},{"id":"3038","tribuneTheaterId":"5658","providerTheaterId":"","name":"Regal Fenway Stadium 13","address":"201 Brookline Ave","city":"Boston","state":"MA","zip":"02115","distance":21.921102973635,"lon":"-71.101653","lat":"42.344474","theaterChainName":"Regal Cinemas","ticketType":"STANDARD"},{"id":"2801","tribuneTheaterId":"1853","providerTheaterId":"","name":"Chunky's Pelham Cinema & Pub","address":"150 Bridge Street","city":"Pelham","state":"NH","zip":"03076","distance":22.53472060252,"lon":"-71.319055","lat":"42.723297","theaterChainName":"Independent Chains","ticketType":"STANDARD"},{"id":"459","tribuneTheaterId":"5165","providerTheaterId":"","name":"Dedham Community Theatre","address":"580 High St.","city":"Dedham","state":"MA","zip":"02026","distance":21.549138242823,"lon":"-71.173155","lat":"42.247976","theaterChainName":"Independent Chains","ticketType":"STANDARD"},{"id":"3420","tribuneTheaterId":"1963","providerTheaterId":"","name":"Chunky's Cinema Pub -  Nashua","address":"151 Coliseum Ave.","city":"Nashua","state":"NH","zip":"03063","distance":22.747371626157,"lon":"-71.4984","lat":"42.7598","theaterChainName":"Independent Chains","ticketType":"STANDARD"},{"id":"724","tribuneTheaterId":"7748","providerTheaterId":"","name":"Regal Bellingham Stadium 14","address":"259 Hartford Ave.","city":"Bellingham","state":"MA","zip":"02019","distance":22.313945607694,"lon":"-71.460233","lat":"42.110399","theaterChainName":"Regal Cinemas","ticketType":"STANDARD"},{"id":"3226","tribuneTheaterId":"9277","providerTheaterId":"2657","name":"AMC Loews Boston Common 19","address":"175 Tremont Street","city":"Boston","state":"MA","zip":"02111","distance":23.62163452881,"lon":"-71.06417","lat":"42.353212","theaterChainName":"AMC Theatres","ticketType":"E_TICKET"}]