[{"id":"5745","name":"Fine Arts Theatre Place","address":"19 Summer Street","city":"Maynard","state":"MA","zip":"01754","distance":"20.093610763549805","lon":"-71.451874","lat":"42.433502","theaterChainName":"Independent Chains","ticketType":"STANDARD"},{"id":"3420","name":"Chunky's Cinema Pub -  Nashua","address":"151 Coliseum Ave.","city":"Nashua","state":"NH","zip":"03063","distance":"17.750446319580078","lon":"-71.498398","lat":"42.759800","theaterChainName":"Independent Chains","ticketType":"STANDARD"},{"id":"500","name":"AMC Tyngsboro","address":"440 Middlesex Road","city":"Tyngsboro","state":"MA","zip":"01879","distance":"13.506896018981934","lon":"-71.441017","lat":"42.697758","theaterChainName":"AMC Theatres","ticketType":"SELECT_SEATING"},{"id":"3972","name":"Merrimack Cinemagic","address":"11 Executive Park Drive","city":"Merrimack","state":"NH","zip":"03054","distance":"21.023895263671875","lon":"-71.497131","lat":"42.846615","theaterChainName":"Zyacorp Entertainment","ticketType":"STANDARD"},{"id":"693","name":"Showcase Cinemas Lowell","address":"32 Reiss Ave","city":"Lowell","state":"MA","zip":"01853","distance":"7.491791248321533","lon":"-71.322998","lat":"42.610783","theaterChainName":"National Amusements","ticketType":"STANDARD"},{"id":"5627","name":"The Luna Theater","address":"250 Jackson St. Unit 402","city":"Lowell","state":"MA","zip":"01852","distance":"6.517994403839111","lon":"-71.312202","lat":"42.641499","theaterChainName":"Independent Chains","ticketType":"STANDARD"},{"id":"2801","name":"Chunky's Pelham Cinema & Pub","address":"150 Bridge Street","city":"Pelham","state":"NH","zip":"03076","distance":"8.635178565979004","lon":"-71.319054","lat":"42.723297","theaterChainName":"Independent Chains","ticketType":"STANDARD"},{"id":"6142","name":"Chunky's Cinema Pub","address":"707 Huse Road","city":"Manchester","state":"NH","zip":"03103","distance":"24.48920249938965","lon":"-71.432449","lat":"42.951225","theaterChainName":"Independent Chains","ticketType":"STANDARD"},{"id":"5566","name":"Londonderry 10","address":"16 Orchard View Drive","city":"Londonderry","state":"NH","zip":"03053","distance":"17.085369110107422","lon":"-71.354301","lat":"42.860600","theaterChainName":"Carmike Cinemas","ticketType":"STANDARD"},{"id":"3701","name":"Derry Cinemas","address":"10 Ashleigh Drive","city":"Derry","state":"NH","zip":"03038","distance":"19.102745056152344","lon":"-71.336693","lat":"42.899986","theaterChainName":"Independent Chains","ticketType":"STANDARD"},{"id":"465","name":"Lexington Venue","address":"1794 Massachussetts Ave.","city":"Lexington","state":"MA","zip":"02420","distance":"13.952343940734863","lon":"-71.228203","lat":"42.447899","theaterChainName":"Independent Chains","ticketType":"STANDARD"},{"id":"461","name":"AMC Burlington 10","address":"20 South Ave.","city":"Burlington","state":"MA","zip":"01803","distance":"11.69363021850586","lon":"-71.217148","lat":"42.479717","theaterChainName":"AMC Theatres","ticketType":"SELECT_SEATING"},{"id":"221","name":"Showcase Cinemas Woburn","address":"25 Middlesex Canal Parkway","city":"Woburn","state":"MA","zip":"01801","distance":"10.428543090820312","lon":"-71.160828","lat":"42.497261","theaterChainName":"National Amusements","ticketType":"STANDARD"},{"id":"2901","name":"Showcase Cinemas Lawrence","address":"6 Chickering Street","city":"Lawrence","state":"MA","zip":"01843","distance":"3.5527637004852295","lon":"-71.143669","lat":"42.689102","theaterChainName":"National Amusements","ticketType":"STANDARD"},{"id":"3076","name":"AMC Loews Methuen 20","address":"90 Pleasant Valley St.","city":"Methuen","state":"MA","zip":"01844","distance":"6.842408180236816","lon":"-71.157341","lat":"42.744240","theaterChainName":"AMC Theatres","ticketType":"SELECT_SEATING"},{"id":"457","name":"Capitol Theatre - Arlington","address":"204 Massachussetts Ave.","city":"Arlington","state":"MA","zip":"02474","distance":"16.806148529052734","lon":"-71.142677","lat":"42.405910","theaterChainName":"Independent Chains","ticketType":"STANDARD"},{"id":"70","name":"Freshpond 10","address":"168 Alwife Brook Parkway","city":"Cambridge","state":"MA","zip":"02138","distance":"17.836706161499023","lon":"-71.138428","lat":"42.391277","theaterChainName":"Independent Chains","ticketType":"STANDARD"},{"id":"2799","name":"Chunky's Haverhill Cinema & Pub","address":"371 Lowell Avenue","city":"Haverhill","state":"MA","zip":"01832","distance":"9.48694896697998","lon":"-71.116638","lat":"42.775211","theaterChainName":"Independent Chains","ticketType":"STANDARD"},{"id":"481","name":"Somerville Theatre","address":"55 Davis Square","city":"Somerville","state":"MA","zip":"02144","distance":"17.585941314697266","lon":"-71.122887","lat":"42.396736","theaterChainName":"Independent Chains","ticketType":"STANDARD"},{"id":"453","name":"Brattle Theatre","address":"40 Brattle St.","city":"Cambridge","state":"MA","zip":"02138","distance":"19.167972564697266","lon":"-71.121300","lat":"42.373699","theaterChainName":"Independent Chains","ticketType":"STANDARD"},{"id":"5492","name":"AMC Assembly Row 12","address":"395 Artisan Way","city":"Somerville","state":"MA","zip":"02145","distance":"18.220165252685547","lon":"-71.079346","lat":"42.395092","theaterChainName":"AMC Theatres","ticketType":"SELECT_SEATING"},{"id":"3038","name":"Regal Fenway Stadium 13","address":"201 Brookline Ave","city":"Boston","state":"MA","zip":"02115","distance":"21.336219787597656","lon":"-71.101654","lat":"42.344475","theaterChainName":"Regal Cinemas","ticketType":"STANDARD"},{"id":"3226","name":"AMC Loews Boston Common 19","address":"175 Tremont Street","city":"Boston","state":"MA","zip":"02111","distance":"21.214366912841797","lon":"-71.064171","lat":"42.353210","theaterChainName":"AMC Theatres","ticketType":"E_TICKET"},{"id":"222","name":"Showcase Cinemas de Lux Revere","address":"565 Squire Road","city":"Revere","state":"MA","zip":"02151","distance":"17.030845642089844","lon":"-71.020027","lat":"42.432449","theaterChainName":"National Amusements","ticketType":"STANDARD"},{"id":"71","name":"AMC Loews Liberty Tree Mall 20","address":"100 Independence Way","city":"Danvers","state":"MA","zip":"01923","distance":"13.981027603149414","lon":"-70.940765","lat":"42.553223","theaterChainName":"AMC Theatres","ticketType":"E_TICKET"},{"id":"2722","name":"Hollywood Hits Theatre","address":"7 Hutchinson Drive","city":"Danvers","state":"MA","zip":"01923","distance":"14.35965633392334","lon":"-70.932022","lat":"42.553757","theaterChainName":"Independent Chains","ticketType":"STANDARD"},{"id":"4218","name":"CinemaSalem","address":"1 E. India Square","city":"Salem","state":"MA","zip":"01970","distance":"17.5712947845459","lon":"-70.882202","lat":"42.523800","theaterChainName":"Independent Chains","ticketType":"STANDARD"},{"id":"1099","name":"Stage II Cinema Pub","address":"109 Main Street","city":"Amesbury","state":"MA","zip":"01913","distance":"19.30116081237793","lon":"-70.931503","lat":"42.855999","theaterChainName":"Independent Chains","ticketType":"STANDARD"},{"id":"467","name":"Newburyport Screening Room","address":"82 State St.","city":"Newburyport","state":"MA","zip":"01950","distance":"19.453506469726562","lon":"-70.870911","lat":"42.809380","theaterChainName":"Independent Chains","ticketType":"STANDARD"},{"id":"3126","name":"Cinemagic Salisbury","address":"6 Merrill Street","city":"Salisbury","state":"MA","zip":"01952","distance":"19.797359466552734","lon":"-70.900009","lat":"42.843502","theaterChainName":"Zyacorp Entertainment","ticketType":"STANDARD"},{"id":"831","name":"Cinema 95","address":"201 Elm St.","city":"Salisbury","state":"MA","zip":"01952","distance":"19.99369239807129","lon":"-70.895599","lat":"42.844200","theaterChainName":"Independent Chains","ticketType":"STANDARD"}]