[{"id":"5745","name":"Fine Arts Theatre Place","address":"19 Summer Street","city":"Maynard","state":"MA","zip":"01754","distance":"20.884113311767578","lon":"-71.451874","lat":"42.433502","theaterChainName":"Independent Chains","ticketType":"STANDARD"},{"id":"463","name":"AMC Framingham 16","address":"22 Flutie Pass","city":"Framingham","state":"MA","zip":"01701","distance":"24.479461669921875","lon":"-71.390732","lat":"42.302998","theaterChainName":"AMC Theatres","ticketType":"SELECT_SEATING"},{"id":"3420","name":"Chunky's Cinema Pub -  Nashua","address":"151 Coliseum Ave.","city":"Nashua","state":"NH","zip":"03063","distance":"23.91111183166504","lon":"-71.498398","lat":"42.759800","theaterChainName":"Independent Chains","ticketType":"STANDARD"},{"id":"500","name":"AMC Tyngsboro","address":"440 Middlesex Road","city":"Tyngsboro","state":"MA","zip":"01879","distance":"19.33791732788086","lon":"-71.441017","lat":"42.697758","theaterChainName":"AMC Theatres","ticketType":"SELECT_SEATING"},{"id":"693","name":"Showcase Cinemas Lowell","address":"32 Reiss Ave","city":"Lowell","state":"MA","zip":"01853","distance":"11.782535552978516","lon":"-71.322998","lat":"42.610783","theaterChainName":"National Amusements","ticketType":"STANDARD"},{"id":"5627","name":"The Luna Theater","address":"250 Jackson St. Unit 402","city":"Lowell","state":"MA","zip":"01852","distance":"11.802189826965332","lon":"-71.312202","lat":"42.641499","theaterChainName":"Independent Chains","ticketType":"STANDARD"},{"id":"2801","name":"Chunky's Pelham Cinema & Pub","address":"150 Bridge Street","city":"Pelham","state":"NH","zip":"03076","distance":"15.014846801757812","lon":"-71.319054","lat":"42.723297","theaterChainName":"Independent Chains","ticketType":"STANDARD"},{"id":"5566","name":"Londonderry 10","address":"16 Orchard View Drive","city":"Londonderry","state":"NH","zip":"03053","distance":"23.33465576171875","lon":"-71.354301","lat":"42.860600","theaterChainName":"Carmike Cinemas","ticketType":"STANDARD"},{"id":"465","name":"Lexington Venue","address":"1794 Massachussetts Ave.","city":"Lexington","state":"MA","zip":"02420","distance":"11.487614631652832","lon":"-71.228203","lat":"42.447899","theaterChainName":"Independent Chains","ticketType":"STANDARD"},{"id":"461","name":"AMC Burlington 10","address":"20 South Ave.","city":"Burlington","state":"MA","zip":"01803","distance":"9.419402122497559","lon":"-71.217148","lat":"42.479717","theaterChainName":"AMC Theatres","ticketType":"SELECT_SEATING"},{"id":"221","name":"Showcase Cinemas Woburn","address":"25 Middlesex Canal Parkway","city":"Woburn","state":"MA","zip":"01801","distance":"6.7481608390808105","lon":"-71.160828","lat":"42.497261","theaterChainName":"National Amusements","ticketType":"STANDARD"},{"id":"2901","name":"Showcase Cinemas Lawrence","address":"6 Chickering Street","city":"Lawrence","state":"MA","zip":"01843","distance":"7.814326763153076","lon":"-71.143669","lat":"42.689102","theaterChainName":"National Amusements","ticketType":"STANDARD"},{"id":"3076","name":"AMC Loews Methuen 20","address":"90 Pleasant Valley St.","city":"Methuen","state":"MA","zip":"01844","distance":"11.659953117370605","lon":"-71.157341","lat":"42.744240","theaterChainName":"AMC Theatres","ticketType":"SELECT_SEATING"},{"id":"457","name":"Capitol Theatre - Arlington","address":"204 Massachussetts Ave.","city":"Arlington","state":"MA","zip":"02474","distance":"12.403761863708496","lon":"-71.142677","lat":"42.405910","theaterChainName":"Independent Chains","ticketType":"STANDARD"},{"id":"70","name":"Freshpond 10","address":"168 Alwife Brook Parkway","city":"Cambridge","state":"MA","zip":"02138","distance":"13.358772277832031","lon":"-71.138428","lat":"42.391277","theaterChainName":"Independent Chains","ticketType":"STANDARD"},{"id":"2799","name":"Chunky's Haverhill Cinema & Pub","address":"371 Lowell Avenue","city":"Haverhill","state":"MA","zip":"01832","distance":"13.403632164001465","lon":"-71.116638","lat":"42.775211","theaterChainName":"Independent Chains","ticketType":"STANDARD"},{"id":"481","name":"Somerville Theatre","address":"55 Davis Square","city":"Somerville","state":"MA","zip":"02144","distance":"12.874814987182617","lon":"-71.122887","lat":"42.396736","theaterChainName":"Independent Chains","ticketType":"STANDARD"},{"id":"453","name":"Brattle Theatre","address":"40 Brattle St.","city":"Cambridge","state":"MA","zip":"02138","distance":"14.449987411499023","lon":"-71.121300","lat":"42.373699","theaterChainName":"Independent Chains","ticketType":"STANDARD"},{"id":"459","name":"Dedham Community Theatre","address":"580 High St.","city":"Dedham","state":"MA","zip":"02026","distance":"23.418075561523438","lon":"-71.173157","lat":"42.247974","theaterChainName":"Independent Chains","ticketType":"STANDARD"},{"id":"5492","name":"AMC Assembly Row 12","address":"395 Artisan Way","city":"Somerville","state":"MA","zip":"02145","distance":"12.93178653717041","lon":"-71.079346","lat":"42.395092","theaterChainName":"AMC Theatres","ticketType":"SELECT_SEATING"},{"id":"3038","name":"Regal Fenway Stadium 13","address":"201 Brookline Ave","city":"Boston","state":"MA","zip":"02115","distance":"16.409440994262695","lon":"-71.101654","lat":"42.344475","theaterChainName":"Regal Cinemas","ticketType":"STANDARD"},{"id":"3226","name":"AMC Loews Boston Common 19","address":"175 Tremont Street","city":"Boston","state":"MA","zip":"02111","distance":"15.878453254699707","lon":"-71.064171","lat":"42.353210","theaterChainName":"AMC Theatres","ticketType":"E_TICKET"},{"id":"222","name":"Showcase Cinemas de Lux Revere","address":"565 Squire Road","city":"Revere","state":"MA","zip":"02151","distance":"11.00509262084961","lon":"-71.020027","lat":"42.432449","theaterChainName":"National Amusements","ticketType":"STANDARD"},{"id":"71","name":"AMC Loews Liberty Tree Mall 20","address":"100 Independence Way","city":"Danvers","state":"MA","zip":"01923","distance":"8.08051872253418","lon":"-70.940765","lat":"42.553223","theaterChainName":"AMC Theatres","ticketType":"E_TICKET"},{"id":"2722","name":"Hollywood Hits Theatre","address":"7 Hutchinson Drive","city":"Danvers","state":"MA","zip":"01923","distance":"8.504018783569336","lon":"-70.932022","lat":"42.553757","theaterChainName":"Independent Chains","ticketType":"STANDARD"},{"id":"4218","name":"CinemaSalem","address":"1 E. India Square","city":"Salem","state":"MA","zip":"01970","distance":"11.537553787231445","lon":"-70.882202","lat":"42.523800","theaterChainName":"Independent Chains","ticketType":"STANDARD"},{"id":"4788","name":"Patriot Cinemas at Hingham Shipyard","address":"25 Shipyard Drive","city":"Hingham","state":"MA","zip":"02043","distance":"24.48817253112793","lon":"-70.921875","lat":"42.251266","theaterChainName":"Patriot Cinemas","ticketType":"STANDARD"},{"id":"1099","name":"Stage II Cinema Pub","address":"109 Main Street","city":"Amesbury","state":"MA","zip":"01913","distance":"20.67227554321289","lon":"-70.931503","lat":"42.855999","theaterChainName":"Independent Chains","ticketType":"STANDARD"},{"id":"467","name":"Newburyport Screening Room","address":"82 State St.","city":"Newburyport","state":"MA","zip":"01950","distance":"19.396602630615234","lon":"-70.870911","lat":"42.809380","theaterChainName":"Independent Chains","ticketType":"STANDARD"},{"id":"3126","name":"Cinemagic Salisbury","address":"6 Merrill Street","city":"Salisbury","state":"MA","zip":"01952","distance":"20.60212516784668","lon":"-70.900009","lat":"42.843502","theaterChainName":"Zyacorp Entertainment","ticketType":"STANDARD"},{"id":"831","name":"Cinema 95","address":"201 Elm St.","city":"Salisbury","state":"MA","zip":"01952","distance":"20.752561569213867","lon":"-70.895599","lat":"42.844200","theaterChainName":"Independent Chains","ticketType":"STANDARD"},{"id":"1096","name":"Gloucester Cinema 3","address":"74 Essex Ave.","city":"Gloucester","state":"MA","zip":"01930","distance":"21.053247451782227","lon":"-70.682846","lat":"42.612171","theaterChainName":"Independent Chains","ticketType":"STANDARD"}]