[{"id":"1099","tribuneTheaterId":"2686","providerTheaterId":"","name":"Stage II Cinema Pub","address":"109 Main Street","city":"Amesbury","state":"MA","zip":"01913","distance":3.9921312758023,"lon":"-70.9315","lat":"42.856","theaterChainName":"Independent Chains","ticketType":"STANDARD"},{"id":"3126","tribuneTheaterId":"5184","providerTheaterId":"","name":"Cinemagic Salisbury","address":"6 Merrill Street","city":"Salisbury","state":"MA","zip":"01952","distance":5.3394794447812,"lon":"-70.900011","lat":"42.843501","theaterChainName":"Zyacorp Entertainment","ticketType":"STANDARD"},{"id":"831","tribuneTheaterId":"6821","providerTheaterId":"","name":"Cinema 95","address":"201 Elm St.","city":"Salisbury","state":"MA","zip":"01952","distance":5.5670462550637,"lon":"-70.8956","lat":"42.8442","theaterChainName":"Independent Chains","ticketType":"STANDARD"},{"id":"467","tribuneTheaterId":"207","providerTheaterId":"","name":"Newburyport Screening Room","address":"82 State St.","city":"Newburyport","state":"MA","zip":"01950","distance":7.0006186035003,"lon":"-70.870908","lat":"42.80938","theaterChainName":"Independent Chains","ticketType":"STANDARD"},{"id":"2799","tribuneTheaterId":"1714","providerTheaterId":"","name":"Chunky's Haverhill Cinema & Pub","address":"371 Lowell Avenue","city":"Haverhill","state":"MA","zip":"01832","distance":7.0024786550058,"lon":"-71.116637","lat":"42.775212","theaterChainName":"Independent Chains","ticketType":"STANDARD"},{"id":"3076","tribuneTheaterId":"9083","providerTheaterId":"2660","name":"AMC Loews Methuen 20","address":"90 Pleasant Valley St.","city":"Methuen","state":"MA","zip":"01844","distance":9.9438579186846,"lon":"-71.157342","lat":"42.74424","theaterChainName":"AMC Theatres","ticketType":"SELECT_SEATING"},{"id":"2901","tribuneTheaterId":"7040","providerTheaterId":"","name":"Showcase Cinemas Lawrence","address":"6 Chickering Street","city":"Lawrence","state":"MA","zip":"01843","distance":12.278274764572,"lon":"-71.143668","lat":"42.689102","theaterChainName":"National Amusements","ticketType":"STANDARD"},{"id":"5249","tribuneTheaterId":"10678","providerTheaterId":"","name":"O'Neil Cinemas at Brickyard Square","address":"24 Calef Highway","city":"Epping","state":"NH","zip":"03042","distance":13.486388364777,"lon":"-71.0739","lat":"43.0231","theaterChainName":"O'Neil Cinemas","ticketType":"STANDARD"},{"id":"5469","tribuneTheaterId":"10911","providerTheaterId":"","name":"Cinemagic Stadium 10","address":"2454 Lafayette Rd","city":"Portsmouth","state":"NH","zip":"03801","distance":17.767807827407,"lon":"-70.7824","lat":"43.0337","theaterChainName":"Independent Chains","ticketType":"STANDARD"},{"id":"3701","tribuneTheaterId":"6281","providerTheaterId":"","name":"Derry Cinemas","address":"10 Ashleigh Drive","city":"Derry","state":"NH","zip":"03038","distance":17.408923141798,"lon":"-71.336696","lat":"42.899988","theaterChainName":"Independent Chains","ticketType":"STANDARD"},{"id":"5566","tribuneTheaterId":"11013","providerTheaterId":"","name":"Londonderry 10","address":"16 Orchard View Drive","city":"Londonderry","state":"NH","zip":"03053","distance":17.800484247005,"lon":"-71.3543","lat":"42.8606","theaterChainName":"Carmike Cinemas","ticketType":"STANDARD"},{"id":"2801","tribuneTheaterId":"1853","providerTheaterId":"","name":"Chunky's Pelham Cinema & Pub","address":"150 Bridge Street","city":"Pelham","state":"NH","zip":"03076","distance":17.699840640398,"lon":"-71.319055","lat":"42.723297","theaterChainName":"Independent Chains","ticketType":"STANDARD"},{"id":"5627","tribuneTheaterId":"11090","providerTheaterId":"","name":"The Luna Theater","address":"250 Jackson St. Unit 402","city":"Lowell","state":"MA","zip":"01852","distance":20.530661408695,"lon":"-71.3122","lat":"42.6415","theaterChainName":"Independent Chains","ticketType":"STANDARD"},{"id":"834","tribuneTheaterId":"8417","providerTheaterId":"","name":"Fox Run Stadium 15 & RPX","address":"45 Gosling Road","city":"Newington","state":"NH","zip":"03801","distance":20.709831881044,"lon":"-70.800938","lat":"43.094618","theaterChainName":"Regal Cinemas","ticketType":"STANDARD"},{"id":"2722","tribuneTheaterId":"3058","providerTheaterId":"","name":"Hollywood Hits Theatre","address":"7 Hutchinson Drive","city":"Danvers","state":"MA","zip":"01923","distance":19.752324012462,"lon":"-70.932021","lat":"42.553756","theaterChainName":"Independent Chains","ticketType":"STANDARD"},{"id":"71","tribuneTheaterId":"7490","providerTheaterId":"2790","name":"AMC Loews Liberty Tree Mall 20","address":"100 Independence Way","city":"Danvers","state":"MA","zip":"01923","distance":19.710514884483,"lon":"-70.940765","lat":"42.553223","theaterChainName":"AMC Theatres","ticketType":"E_TICKET"},{"id":"1096","tribuneTheaterId":"2807","providerTheaterId":"","name":"Gloucester Cinema 3","address":"74 Essex Ave.","city":"Gloucester","state":"MA","zip":"01930","distance":22.429260940591,"lon":"-70.682848","lat":"42.612172","theaterChainName":"Independent Chains","ticketType":"STANDARD"},{"id":"4218","tribuneTheaterId":"2859","providerTheaterId":"","name":"CinemaSalem","address":"1 E. India Square","city":"Salem","state":"MA","zip":"01970","distance":22.357515088121,"lon":"-70.8822","lat":"42.5238","theaterChainName":"Independent Chains","ticketType":"STANDARD"},{"id":"693","tribuneTheaterId":"7041","providerTheaterId":"","name":"Showcase Cinemas Lowell","address":"32 Reiss Ave","city":"Lowell","state":"MA","zip":"01853","distance":22.364592887038,"lon":"-71.322998","lat":"42.610783","theaterChainName":"National Amusements","ticketType":"STANDARD"},{"id":"6142","tribuneTheaterId":"11564","providerTheaterId":"","name":"Chunky's Cinema Pub","address":"707 Huse Road","city":"Manchester","state":"NH","zip":"03103","distance":23.103468671961,"lon":"-71.432453","lat":"42.951226","theaterChainName":"Independent Chains","ticketType":"STANDARD"},{"id":"221","tribuneTheaterId":"8343","providerTheaterId":"","name":"Showcase Cinemas Woburn","address":"25 Middlesex Canal Parkway","city":"Woburn","state":"MA","zip":"01801","distance":24.620625292656,"lon":"-71.160824","lat":"42.49726","theaterChainName":"National Amusements","ticketType":"STANDARD"},{"id":"3972","tribuneTheaterId":"2318","providerTheaterId":"","name":"Merrimack Cinemagic","address":"11 Executive Park Drive","city":"Merrimack","state":"NH","zip":"03054","distance":24.961780210557,"lon":"-71.497135","lat":"42.846616","theaterChainName":"Zyacorp Entertainment","ticketType":"STANDARD"},{"id":"500","tribuneTheaterId":"7505","providerTheaterId":"812","name":"AMC Tyngsboro","address":"440 Middlesex Road","city":"Tyngsboro","state":"MA","zip":"01879","distance":24.066454330642,"lon":"-71.441015","lat":"42.697757","theaterChainName":"AMC Theatres","ticketType":"SELECT_SEATING"}]