[{"id":"2901","tribuneTheaterId":"7040","providerTheaterId":"","name":"Showcase Cinemas Lawrence","address":"6 Chickering Street","city":"Lawrence","state":"MA","zip":"01843","distance":2.1481763732289,"lon":"-71.143668","lat":"42.689102","theaterChainName":"National Amusements","ticketType":"STANDARD"},{"id":"3076","tribuneTheaterId":"9083","providerTheaterId":"2660","name":"AMC Loews Methuen 20","address":"90 Pleasant Valley St.","city":"Methuen","state":"MA","zip":"01844","distance":6.020238465872,"lon":"-71.157342","lat":"42.74424","theaterChainName":"AMC Theatres","ticketType":"SELECT_SEATING"},{"id":"2799","tribuneTheaterId":"1714","providerTheaterId":"","name":"Chunky's Haverhill Cinema & Pub","address":"371 Lowell Avenue","city":"Haverhill","state":"MA","zip":"01832","distance":8.1368548804227,"lon":"-71.116637","lat":"42.775212","theaterChainName":"Independent Chains","ticketType":"STANDARD"},{"id":"5627","tribuneTheaterId":"11090","providerTheaterId":"","name":"The Luna Theater","address":"250 Jackson St. Unit 402","city":"Lowell","state":"MA","zip":"01852","distance":8.9796584636262,"lon":"-71.3122","lat":"42.6415","theaterChainName":"Independent Chains","ticketType":"STANDARD"},{"id":"693","tribuneTheaterId":"7041","providerTheaterId":"","name":"Showcase Cinemas Lowell","address":"32 Reiss Ave","city":"Lowell","state":"MA","zip":"01853","distance":10.010570324902,"lon":"-71.322998","lat":"42.610783","theaterChainName":"National Amusements","ticketType":"STANDARD"},{"id":"2801","tribuneTheaterId":"1853","providerTheaterId":"","name":"Chunky's Pelham Cinema & Pub","address":"150 Bridge Street","city":"Pelham","state":"NH","zip":"03076","distance":10.275628987342,"lon":"-71.319055","lat":"42.723297","theaterChainName":"Independent Chains","ticketType":"STANDARD"},{"id":"221","tribuneTheaterId":"8343","providerTheaterId":"","name":"Showcase Cinemas Woburn","address":"25 Middlesex Canal Parkway","city":"Woburn","state":"MA","zip":"01801","distance":11.199480115881,"lon":"-71.160824","lat":"42.49726","theaterChainName":"National Amusements","ticketType":"STANDARD"},{"id":"71","tribuneTheaterId":"7490","providerTheaterId":"2790","name":"AMC Loews Liberty Tree Mall 20","address":"100 Independence Way","city":"Danvers","state":"MA","zip":"01923","distance":12.345004484678,"lon":"-70.940765","lat":"42.553223","theaterChainName":"AMC Theatres","ticketType":"E_TICKET"},{"id":"2722","tribuneTheaterId":"3058","providerTheaterId":"","name":"Hollywood Hits Theatre","address":"7 Hutchinson Drive","city":"Danvers","state":"MA","zip":"01923","distance":12.686103774117,"lon":"-70.932021","lat":"42.553756","theaterChainName":"Independent Chains","ticketType":"STANDARD"},{"id":"461","tribuneTheaterId":"8863","providerTheaterId":"814","name":"AMC Burlington 10","address":"20 South Ave.","city":"Burlington","state":"MA","zip":"01803","distance":13.001936721448,"lon":"-71.21715","lat":"42.479718","theaterChainName":"AMC Theatres","ticketType":"SELECT_SEATING"},{"id":"4218","tribuneTheaterId":"2859","providerTheaterId":"","name":"CinemaSalem","address":"1 E. India Square","city":"Salem","state":"MA","zip":"01970","distance":15.952169134337,"lon":"-70.8822","lat":"42.5238","theaterChainName":"Independent Chains","ticketType":"STANDARD"},{"id":"465","tribuneTheaterId":"6245","providerTheaterId":"","name":"Lexington Venue","address":"1794 Massachussetts Ave.","city":"Lexington","state":"MA","zip":"02420","distance":15.267030901098,"lon":"-71.228203","lat":"42.447899","theaterChainName":"Independent Chains","ticketType":"STANDARD"},{"id":"500","tribuneTheaterId":"7505","providerTheaterId":"812","name":"AMC Tyngsboro","address":"440 Middlesex Road","city":"Tyngsboro","state":"MA","zip":"01879","distance":15.680209771653,"lon":"-71.441015","lat":"42.697757","theaterChainName":"AMC Theatres","ticketType":"SELECT_SEATING"},{"id":"831","tribuneTheaterId":"6821","providerTheaterId":"","name":"Cinema 95","address":"201 Elm St.","city":"Salisbury","state":"MA","zip":"01952","distance":17.742757024902,"lon":"-70.8956","lat":"42.8442","theaterChainName":"Independent Chains","ticketType":"STANDARD"},{"id":"3126","tribuneTheaterId":"5184","providerTheaterId":"","name":"Cinemagic Salisbury","address":"6 Merrill Street","city":"Salisbury","state":"MA","zip":"01952","distance":17.55384816988,"lon":"-70.900011","lat":"42.843501","theaterChainName":"Zyacorp Entertainment","ticketType":"STANDARD"},{"id":"467","tribuneTheaterId":"207","providerTheaterId":"","name":"Newburyport Screening Room","address":"82 State St.","city":"Newburyport","state":"MA","zip":"01950","distance":17.06406226721,"lon":"-70.870908","lat":"42.80938","theaterChainName":"Independent Chains","ticketType":"STANDARD"},{"id":"1099","tribuneTheaterId":"2686","providerTheaterId":"","name":"Stage II Cinema Pub","address":"109 Main Street","city":"Amesbury","state":"MA","zip":"01913","distance":17.178014731497,"lon":"-70.9315","lat":"42.856","theaterChainName":"Independent Chains","ticketType":"STANDARD"},{"id":"457","tribuneTheaterId":"6525","providerTheaterId":"","name":"Capitol Theatre - Arlington","address":"204 Massachussetts Ave.","city":"Arlington","state":"MA","zip":"02474","distance":17.447760647903,"lon":"-71.142675","lat":"42.40591","theaterChainName":"Independent Chains","ticketType":"STANDARD"},{"id":"222","tribuneTheaterId":"7618","providerTheaterId":"","name":"Showcase Cinemas de Lux Revere","address":"565 Squire Road","city":"Revere","state":"MA","zip":"02151","distance":16.708689653906,"lon":"-71.020026","lat":"42.432449","theaterChainName":"National Amusements","ticketType":"STANDARD"},{"id":"70","tribuneTheaterId":"6066","providerTheaterId":"","name":"Freshpond 10","address":"168 Alwife Brook Parkway","city":"Cambridge","state":"MA","zip":"02138","distance":18.456552752543,"lon":"-71.138424","lat":"42.391277","theaterChainName":"Independent Chains","ticketType":"STANDARD"},{"id":"481","tribuneTheaterId":"5179","providerTheaterId":"","name":"Somerville Theatre","address":"55 Davis Square","city":"Somerville","state":"MA","zip":"02144","distance":18.093505930361,"lon":"-71.122887","lat":"42.396736","theaterChainName":"Independent Chains","ticketType":"STANDARD"},{"id":"5492","tribuneTheaterId":"10934","providerTheaterId":"504","name":"AMC Assembly Row 12","address":"395 Artisan Way","city":"Somerville","state":"MA","zip":"02145","distance":18.42821539917,"lon":"-71.079347","lat":"42.395091","theaterChainName":"AMC Theatres","ticketType":"SELECT_SEATING"},{"id":"5566","tribuneTheaterId":"11013","providerTheaterId":"","name":"Londonderry 10","address":"16 Orchard View Drive","city":"Londonderry","state":"NH","zip":"03053","distance":17.795913744263,"lon":"-71.3543","lat":"42.8606","theaterChainName":"Carmike Cinemas","ticketType":"STANDARD"},{"id":"3701","tribuneTheaterId":"6281","providerTheaterId":"","name":"Derry Cinemas","address":"10 Ashleigh Drive","city":"Derry","state":"NH","zip":"03038","distance":19.5239680701,"lon":"-71.336696","lat":"42.899988","theaterChainName":"Independent Chains","ticketType":"STANDARD"},{"id":"3420","tribuneTheaterId":"1963","providerTheaterId":"","name":"Chunky's Cinema Pub -  Nashua","address":"151 Coliseum Ave.","city":"Nashua","state":"NH","zip":"03063","distance":19.640429546427,"lon":"-71.4984","lat":"42.7598","theaterChainName":"Independent Chains","ticketType":"STANDARD"},{"id":"453","tribuneTheaterId":"6097","providerTheaterId":"","name":"Brattle Theatre","address":"40 Brattle St.","city":"Cambridge","state":"MA","zip":"02138","distance":19.687175628176,"lon":"-71.1213","lat":"42.373699","theaterChainName":"Independent Chains","ticketType":"STANDARD"},{"id":"1096","tribuneTheaterId":"2807","providerTheaterId":"","name":"Gloucester Cinema 3","address":"74 Essex Ave.","city":"Gloucester","state":"MA","zip":"01930","distance":23.304692765317,"lon":"-70.682848","lat":"42.612172","theaterChainName":"Independent Chains","ticketType":"STANDARD"},{"id":"3972","tribuneTheaterId":"2318","providerTheaterId":"","name":"Merrimack Cinemagic","address":"11 Executive Park Drive","city":"Merrimack","state":"NH","zip":"03054","distance":22.426694679528,"lon":"-71.497135","lat":"42.846616","theaterChainName":"Zyacorp Entertainment","ticketType":"STANDARD"},{"id":"5745","tribuneTheaterId":"11187","providerTheaterId":"","name":"Fine Arts Theatre Place","address":"19 Summer Street","city":"Maynard","state":"MA","zip":"01754","distance":22.323880371003,"lon":"-71.451874","lat":"42.433504","theaterChainName":"Independent Chains","ticketType":"STANDARD"},{"id":"3226","tribuneTheaterId":"9277","providerTheaterId":"2657","name":"AMC Loews Boston Common 19","address":"175 Tremont Street","city":"Boston","state":"MA","zip":"02111","distance":21.410275006213,"lon":"-71.06417","lat":"42.353212","theaterChainName":"AMC Theatres","ticketType":"E_TICKET"},{"id":"3038","tribuneTheaterId":"5658","providerTheaterId":"","name":"Regal Fenway Stadium 13","address":"201 Brookline Ave","city":"Boston","state":"MA","zip":"02115","distance":21.764790463428,"lon":"-71.101653","lat":"42.344474","theaterChainName":"Regal Cinemas","ticketType":"STANDARD"}]