[{"id":"724","tribuneTheaterId":"7748","providerTheaterId":"","name":"Regal Bellingham Stadium 14","address":"259 Hartford Ave.","city":"Bellingham","state":"MA","zip":"02019","distance":6.4222193638529,"lon":"-71.460233","lat":"42.110399","theaterChainName":"Regal Cinemas","ticketType":"STANDARD"},{"id":"463","tribuneTheaterId":"7976","providerTheaterId":"810","name":"AMC Framingham 16","address":"22 Flutie Pass","city":"Framingham","state":"MA","zip":"01701","distance":9.5281951841503,"lon":"-71.390731","lat":"42.302999","theaterChainName":"AMC Theatres","ticketType":"SELECT_SEATING"},{"id":"459","tribuneTheaterId":"5165","providerTheaterId":"","name":"Dedham Community Theatre","address":"580 High St.","city":"Dedham","state":"MA","zip":"02026","distance":11.113387849205,"lon":"-71.173155","lat":"42.247976","theaterChainName":"Independent Chains","ticketType":"STANDARD"},{"id":"309","tribuneTheaterId":"9010","providerTheaterId":"","name":"Showcase Cinemas North Attleboro","address":"640 South Washington St.","city":"North Attleboro","state":"MA","zip":"02760","distance":14.723512397621,"lon":"-71.342055","lat":"41.954254","theaterChainName":"National Amusements","ticketType":"STANDARD"},{"id":"3038","tribuneTheaterId":"5658","providerTheaterId":"","name":"Regal Fenway Stadium 13","address":"201 Brookline Ave","city":"Boston","state":"MA","zip":"02115","distance":18.056278569254,"lon":"-71.101653","lat":"42.344474","theaterChainName":"Regal Cinemas","ticketType":"STANDARD"},{"id":"460","tribuneTheaterId":"7504","providerTheaterId":"813","name":"AMC Braintree","address":"121 Grandview Road","city":"Braintree","state":"MA","zip":"02184","distance":17.144802076627,"lon":"-71.033059","lat":"42.218356","theaterChainName":"AMC Theatres","ticketType":"SELECT_SEATING"},{"id":"4155","tribuneTheaterId":"2390","providerTheaterId":"","name":"Cinemaworld Lincoln","address":"622 George Washington Hwy. Lincoln Mall","city":"Lincoln","state":"RI","zip":"02865","distance":16.82993799126,"lon":"-71.477611","lat":"41.939311","theaterChainName":"Cinemaworld","ticketType":"STANDARD"},{"id":"579","tribuneTheaterId":"7899","providerTheaterId":"","name":"Regal Westborough Stadium 12","address":"231 Turnpike Road","city":"Westborough","state":"MA","zip":"01581","distance":16.322089549547,"lon":"-71.635398","lat":"42.287025","theaterChainName":"Regal Cinemas","ticketType":"STANDARD"},{"id":"70","tribuneTheaterId":"6066","providerTheaterId":"","name":"Freshpond 10","address":"168 Alwife Brook Parkway","city":"Cambridge","state":"MA","zip":"02138","distance":19.221224207738,"lon":"-71.138424","lat":"42.391277","theaterChainName":"Independent Chains","ticketType":"STANDARD"},{"id":"453","tribuneTheaterId":"6097","providerTheaterId":"","name":"Brattle Theatre","address":"40 Brattle St.","city":"Cambridge","state":"MA","zip":"02138","distance":18.814225318649,"lon":"-71.1213","lat":"42.373699","theaterChainName":"Independent Chains","ticketType":"STANDARD"},{"id":"5745","tribuneTheaterId":"11187","providerTheaterId":"","name":"Fine Arts Theatre Place","address":"19 Summer Street","city":"Maynard","state":"MA","zip":"01754","distance":19.000674687187,"lon":"-71.451874","lat":"42.433504","theaterChainName":"Independent Chains","ticketType":"STANDARD"},{"id":"497","tribuneTheaterId":"7579","providerTheaterId":"","name":"Regal Solomon Pond Stadium 15","address":"591 Donald Lynch Blvd.","city":"Marlborough","state":"MA","zip":"01752","distance":18.395889668393,"lon":"-71.613876","lat":"42.356055","theaterChainName":"Regal Cinemas","ticketType":"STANDARD"},{"id":"481","tribuneTheaterId":"5179","providerTheaterId":"","name":"Somerville Theatre","address":"55 Davis Square","city":"Somerville","state":"MA","zip":"02144","distance":19.999014345277,"lon":"-71.122887","lat":"42.396736","theaterChainName":"Independent Chains","ticketType":"STANDARD"},{"id":"1094","tribuneTheaterId":"237","providerTheaterId":"","name":"Elm DraughtHouse Theatre","address":"35 Elm St.","city":"Millbury","state":"MA","zip":"01527","distance":20.433192239985,"lon":"-71.758339","lat":"42.191975","theaterChainName":"Independent Chains","ticketType":"STANDARD"},{"id":"457","tribuneTheaterId":"6525","providerTheaterId":"","name":"Capitol Theatre - Arlington","address":"204 Massachussetts Ave.","city":"Arlington","state":"MA","zip":"02474","distance":19.922491425843,"lon":"-71.142675","lat":"42.40591","theaterChainName":"Independent Chains","ticketType":"STANDARD"},{"id":"3226","tribuneTheaterId":"9277","providerTheaterId":"2657","name":"AMC Loews Boston Common 19","address":"175 Tremont Street","city":"Boston","state":"MA","zip":"02111","distance":19.8906507829,"lon":"-71.06417","lat":"42.353212","theaterChainName":"AMC Theatres","ticketType":"E_TICKET"},{"id":"454","tribuneTheaterId":"9139","providerTheaterId":"","name":"Cameo Theatres 1 & 2","address":"14 Columbian St.","city":"South Weymouth","state":"MA","zip":"02190","distance":20.962805924208,"lon":"-70.951467","lat":"42.174561","theaterChainName":"South Shore Cinemas","ticketType":"STANDARD"},{"id":"5492","tribuneTheaterId":"10934","providerTheaterId":"504","name":"AMC Assembly Row 12","address":"395 Artisan Way","city":"Somerville","state":"MA","zip":"02145","distance":21.340948561672,"lon":"-71.079347","lat":"42.395091","theaterChainName":"AMC Theatres","ticketType":"SELECT_SEATING"},{"id":"465","tribuneTheaterId":"6245","providerTheaterId":"","name":"Lexington Venue","address":"1794 Massachussetts Ave.","city":"Lexington","state":"MA","zip":"02420","distance":20.561718400355,"lon":"-71.228203","lat":"42.447899","theaterChainName":"Independent Chains","ticketType":"STANDARD"},{"id":"4788","tribuneTheaterId":"10038","providerTheaterId":"","name":"Patriot Cinemas at Hingham Shipyard","address":"25 Shipyard Drive","city":"Hingham","state":"MA","zip":"02043","distance":23.201992487582,"lon":"-70.921876","lat":"42.251268","theaterChainName":"Patriot Cinemas","ticketType":"STANDARD"},{"id":"461","tribuneTheaterId":"8863","providerTheaterId":"814","name":"AMC Burlington 10","address":"20 South Ave.","city":"Burlington","state":"MA","zip":"01803","distance":22.823765692259,"lon":"-71.21715","lat":"42.479718","theaterChainName":"AMC Theatres","ticketType":"SELECT_SEATING"},{"id":"471","tribuneTheaterId":"7776","providerTheaterId":"","name":"East Bridgewater Cinema 6","address":"225 Bedford St.","city":"East Bridgewater","state":"MA","zip":"02333","distance":22.71013796093,"lon":"-70.960175","lat":"42.026504","theaterChainName":"South Shore Cinemas","ticketType":"STANDARD"},{"id":"466","tribuneTheaterId":"8975","providerTheaterId":"","name":"Patriot Loring Hall Cinema","address":"65 Main St.","city":"Hingham","state":"MA","zip":"02043","distance":24.721911334389,"lon":"-70.888183","lat":"42.241131","theaterChainName":"Patriot Cinemas","ticketType":"STANDARD"},{"id":"2798","tribuneTheaterId":"474","providerTheaterId":"","name":"Strand Theatre - Clinton","address":"58 High Street","city":"Clinton","state":"MA","zip":"01510","distance":23.945270414675,"lon":"-71.684948","lat":"42.417054","theaterChainName":"Independent Chains","ticketType":"STANDARD"},{"id":"2764","tribuneTheaterId":"8232","providerTheaterId":"","name":"Providence Place Cinemas 16","address":"10 Providence Place","city":"Providence","state":"RI","zip":"02903","distance":23.654476700645,"lon":"-71.416717","lat":"41.827085","theaterChainName":"National Amusements","ticketType":"STANDARD"},{"id":"1024","tribuneTheaterId":"228","providerTheaterId":"","name":"Avon Cinema","address":"260 Thayer Street","city":"Providence","state":"RI","zip":"02906","distance":23.447558770655,"lon":"-71.400873","lat":"41.828855","theaterChainName":"Independent Chains","ticketType":"STANDARD"},{"id":"310","tribuneTheaterId":"7477","providerTheaterId":"","name":"Showcase Cinemas Worcester North","address":"135 Brooks St.","city":"Worcester","state":"MA","zip":"01606","distance":24.734271465256,"lon":"-71.801598","lat":"42.3139","theaterChainName":"National Amusements","ticketType":"STANDARD"},{"id":"1025","tribuneTheaterId":"2442","providerTheaterId":"","name":"Cable Car","address":"204 S Main","city":"Providence","state":"RI","zip":"02903","distance":23.864862093956,"lon":"-71.405486","lat":"41.823107","theaterChainName":"Independent Chains","ticketType":"STANDARD"}]