[{"id":"1094","name":"Elm DraughtHouse Theatre","address":"35 Elm St.","city":"Millbury","state":"MA","zip":"01527","distance":"23.22559928894043","lon":"-71.758339","lat":"42.191975","theaterChainName":"Independent Chains","ticketType":"STANDARD"},{"id":"579","name":"Regal Westborough Stadium 12","address":"231 Turnpike Road","city":"Westborough","state":"MA","zip":"01581","distance":"18.336641311645508","lon":"-71.635399","lat":"42.287025","theaterChainName":"Regal Cinemas","ticketType":"STANDARD"},{"id":"497","name":"Regal Solomon Pond Stadium 15","address":"591 Donald Lynch Blvd.","city":"Marlborough","state":"MA","zip":"01752","distance":"19.754966735839844","lon":"-71.613876","lat":"42.356056","theaterChainName":"Regal Cinemas","ticketType":"STANDARD"},{"id":"5745","name":"Fine Arts Theatre Place","address":"19 Summer Street","city":"Maynard","state":"MA","zip":"01754","distance":"18.775056838989258","lon":"-71.451874","lat":"42.433502","theaterChainName":"Independent Chains","ticketType":"STANDARD"},{"id":"724","name":"Regal Bellingham Stadium 14","address":"259 Hartford Ave.","city":"Bellingham","state":"MA","zip":"02019","distance":"9.467146873474121","lon":"-71.460236","lat":"42.110397","theaterChainName":"Regal Cinemas","ticketType":"STANDARD"},{"id":"463","name":"AMC Framingham 16","address":"22 Flutie Pass","city":"Framingham","state":"MA","zip":"01701","distance":"9.293025970458984","lon":"-71.390732","lat":"42.302998","theaterChainName":"AMC Theatres","ticketType":"SELECT_SEATING"},{"id":"465","name":"Lexington Venue","address":"1794 Massachussetts Ave.","city":"Lexington","state":"MA","zip":"02420","distance":"18.616153717041016","lon":"-71.228203","lat":"42.447899","theaterChainName":"Independent Chains","ticketType":"STANDARD"},{"id":"461","name":"AMC Burlington 10","address":"20 South Ave.","city":"Burlington","state":"MA","zip":"01803","distance":"20.88429069519043","lon":"-71.217148","lat":"42.479717","theaterChainName":"AMC Theatres","ticketType":"SELECT_SEATING"},{"id":"221","name":"Showcase Cinemas Woburn","address":"25 Middlesex Canal Parkway","city":"Woburn","state":"MA","zip":"01801","distance":"22.827659606933594","lon":"-71.160828","lat":"42.497261","theaterChainName":"National Amusements","ticketType":"STANDARD"},{"id":"457","name":"Capitol Theatre - Arlington","address":"204 Massachussetts Ave.","city":"Arlington","state":"MA","zip":"02474","distance":"17.39873695373535","lon":"-71.142677","lat":"42.405910","theaterChainName":"Independent Chains","ticketType":"STANDARD"},{"id":"70","name":"Freshpond 10","address":"168 Alwife Brook Parkway","city":"Cambridge","state":"MA","zip":"02138","distance":"16.62721061706543","lon":"-71.138428","lat":"42.391277","theaterChainName":"Independent Chains","ticketType":"STANDARD"},{"id":"481","name":"Somerville Theatre","address":"55 Davis Square","city":"Somerville","state":"MA","zip":"02144","distance":"17.364341735839844","lon":"-71.122887","lat":"42.396736","theaterChainName":"Independent Chains","ticketType":"STANDARD"},{"id":"453","name":"Brattle Theatre","address":"40 Brattle St.","city":"Cambridge","state":"MA","zip":"02138","distance":"16.090816497802734","lon":"-71.121300","lat":"42.373699","theaterChainName":"Independent Chains","ticketType":"STANDARD"},{"id":"459","name":"Dedham Community Theatre","address":"580 High St.","city":"Dedham","state":"MA","zip":"02026","distance":"8.038726806640625","lon":"-71.173157","lat":"42.247974","theaterChainName":"Independent Chains","ticketType":"STANDARD"},{"id":"5492","name":"AMC Assembly Row 12","address":"395 Artisan Way","city":"Somerville","state":"MA","zip":"02145","distance":"18.561962127685547","lon":"-71.079346","lat":"42.395092","theaterChainName":"AMC Theatres","ticketType":"SELECT_SEATING"},{"id":"3038","name":"Regal Fenway Stadium 13","address":"201 Brookline Ave","city":"Boston","state":"MA","zip":"02115","distance":"15.168961524963379","lon":"-71.101654","lat":"42.344475","theaterChainName":"Regal Cinemas","ticketType":"STANDARD"},{"id":"3226","name":"AMC Loews Boston Common 19","address":"175 Tremont Street","city":"Boston","state":"MA","zip":"02111","distance":"16.949363708496094","lon":"-71.064171","lat":"42.353210","theaterChainName":"AMC Theatres","ticketType":"E_TICKET"},{"id":"222","name":"Showcase Cinemas de Lux Revere","address":"565 Squire Road","city":"Revere","state":"MA","zip":"02151","distance":"22.47850799560547","lon":"-71.020027","lat":"42.432449","theaterChainName":"National Amusements","ticketType":"STANDARD"},{"id":"460","name":"AMC Braintree","address":"121 Grandview Road","city":"Braintree","state":"MA","zip":"02184","distance":"14.104990005493164","lon":"-71.033058","lat":"42.218357","theaterChainName":"AMC Theatres","ticketType":"SELECT_SEATING"},{"id":"4155","name":"Cinemaworld Lincoln","address":"622 George Washington Hwy. Lincoln Mall","city":"Lincoln","state":"RI","zip":"02865","distance":"19.12111473083496","lon":"-71.477608","lat":"41.939312","theaterChainName":"Cinemaworld","ticketType":"STANDARD"},{"id":"309","name":"Showcase Cinemas North Attleboro","address":"640 South Washington St.","city":"North Attleboro","state":"MA","zip":"02760","distance":"16.023895263671875","lon":"-71.342056","lat":"41.954254","theaterChainName":"National Amusements","ticketType":"STANDARD"},{"id":"471","name":"East Bridgewater Cinema 6","address":"225 Bedford St.","city":"East Bridgewater","state":"MA","zip":"02333","distance":"20.768009185791016","lon":"-70.960175","lat":"42.026505","theaterChainName":"South Shore Cinemas","ticketType":"STANDARD"},{"id":"454","name":"Cameo Theatres 1 & 2","address":"14 Columbian St.","city":"South Weymouth","state":"MA","zip":"02190","distance":"18.10519790649414","lon":"-70.951469","lat":"42.174561","theaterChainName":"South Shore Cinemas","ticketType":"STANDARD"},{"id":"4788","name":"Patriot Cinemas at Hingham Shipyard","address":"25 Shipyard Drive","city":"Hingham","state":"MA","zip":"02043","distance":"20.13134002685547","lon":"-70.921875","lat":"42.251266","theaterChainName":"Patriot Cinemas","ticketType":"STANDARD"},{"id":"466","name":"Patriot Loring Hall Cinema","address":"65 Main St.","city":"Hingham","state":"MA","zip":"02043","distance":"21.67751121520996","lon":"-70.888184","lat":"42.241131","theaterChainName":"Patriot Cinemas","ticketType":"STANDARD"},{"id":"3473","name":"Patriot Cinemas at Hanover Mall","address":"1775 Washington Street","city":"Hanover","state":"MA","zip":"02339","distance":"24.037405014038086","lon":"-70.838531","lat":"42.144840","theaterChainName":"Patriot Cinemas","ticketType":"STANDARD"}]