[{"id":"463","name":"AMC Framingham 16","address":"22 Flutie Pass","city":"Framingham","state":"MA","zip":"01701","distance":"20.43122673034668","lon":"-71.390732","lat":"42.302998","theaterChainName":"AMC Theatres","ticketType":"SELECT_SEATING"},{"id":"465","name":"Lexington Venue","address":"1794 Massachussetts Ave.","city":"Lexington","state":"MA","zip":"02420","distance":"18.086702346801758","lon":"-71.228203","lat":"42.447899","theaterChainName":"Independent Chains","ticketType":"STANDARD"},{"id":"461","name":"AMC Burlington 10","address":"20 South Ave.","city":"Burlington","state":"MA","zip":"01803","distance":"19.47650909423828","lon":"-71.217148","lat":"42.479717","theaterChainName":"AMC Theatres","ticketType":"SELECT_SEATING"},{"id":"221","name":"Showcase Cinemas Woburn","address":"25 Middlesex Canal Parkway","city":"Woburn","state":"MA","zip":"01801","distance":"19.060075759887695","lon":"-71.160828","lat":"42.497261","theaterChainName":"National Amusements","ticketType":"STANDARD"},{"id":"457","name":"Capitol Theatre - Arlington","address":"204 Massachussetts Ave.","city":"Arlington","state":"MA","zip":"02474","distance":"13.121535301208496","lon":"-71.142677","lat":"42.405910","theaterChainName":"Independent Chains","ticketType":"STANDARD"},{"id":"70","name":"Freshpond 10","address":"168 Alwife Brook Parkway","city":"Cambridge","state":"MA","zip":"02138","distance":"12.170929908752441","lon":"-71.138428","lat":"42.391277","theaterChainName":"Independent Chains","ticketType":"STANDARD"},{"id":"481","name":"Somerville Theatre","address":"55 Davis Square","city":"Somerville","state":"MA","zip":"02144","distance":"12.037557601928711","lon":"-71.122887","lat":"42.396736","theaterChainName":"Independent Chains","ticketType":"STANDARD"},{"id":"453","name":"Brattle Theatre","address":"40 Brattle St.","city":"Cambridge","state":"MA","zip":"02138","distance":"10.674490928649902","lon":"-71.121300","lat":"42.373699","theaterChainName":"Independent Chains","ticketType":"STANDARD"},{"id":"459","name":"Dedham Community Theatre","address":"580 High St.","city":"Dedham","state":"MA","zip":"02026","distance":"8.9694242477417","lon":"-71.173157","lat":"42.247974","theaterChainName":"Independent Chains","ticketType":"STANDARD"},{"id":"5492","name":"AMC Assembly Row 12","address":"395 Artisan Way","city":"Somerville","state":"MA","zip":"02145","distance":"10.914070129394531","lon":"-71.079346","lat":"42.395092","theaterChainName":"AMC Theatres","ticketType":"SELECT_SEATING"},{"id":"3038","name":"Regal Fenway Stadium 13","address":"201 Brookline Ave","city":"Boston","state":"MA","zip":"02115","distance":"8.461853981018066","lon":"-71.101654","lat":"42.344475","theaterChainName":"Regal Cinemas","ticketType":"STANDARD"},{"id":"3226","name":"AMC Loews Boston Common 19","address":"175 Tremont Street","city":"Boston","state":"MA","zip":"02111","distance":"7.953301429748535","lon":"-71.064171","lat":"42.353210","theaterChainName":"AMC Theatres","ticketType":"E_TICKET"},{"id":"222","name":"Showcase Cinemas de Lux Revere","address":"565 Squire Road","city":"Revere","state":"MA","zip":"02151","distance":"12.719762802124023","lon":"-71.020027","lat":"42.432449","theaterChainName":"National Amusements","ticketType":"STANDARD"},{"id":"460","name":"AMC Braintree","address":"121 Grandview Road","city":"Braintree","state":"MA","zip":"02184","distance":"2.7866978645324707","lon":"-71.033058","lat":"42.218357","theaterChainName":"AMC Theatres","ticketType":"SELECT_SEATING"},{"id":"71","name":"AMC Loews Liberty Tree Mall 20","address":"100 Independence Way","city":"Danvers","state":"MA","zip":"01923","distance":"21.21472930908203","lon":"-70.940765","lat":"42.553223","theaterChainName":"AMC Theatres","ticketType":"E_TICKET"},{"id":"2722","name":"Hollywood Hits Theatre","address":"7 Hutchinson Drive","city":"Danvers","state":"MA","zip":"01923","distance":"21.31695556640625","lon":"-70.932022","lat":"42.553757","theaterChainName":"Independent Chains","ticketType":"STANDARD"},{"id":"4218","name":"CinemaSalem","address":"1 E. India Square","city":"Salem","state":"MA","zip":"01970","distance":"19.87689208984375","lon":"-70.882202","lat":"42.523800","theaterChainName":"Independent Chains","ticketType":"STANDARD"},{"id":"471","name":"East Bridgewater Cinema 6","address":"225 Bedford St.","city":"East Bridgewater","state":"MA","zip":"02333","distance":"15.501158714294434","lon":"-70.960175","lat":"42.026505","theaterChainName":"South Shore Cinemas","ticketType":"STANDARD"},{"id":"454","name":"Cameo Theatres 1 & 2","address":"14 Columbian St.","city":"South Weymouth","state":"MA","zip":"02190","distance":"5.670121192932129","lon":"-70.951469","lat":"42.174561","theaterChainName":"South Shore Cinemas","ticketType":"STANDARD"},{"id":"4788","name":"Patriot Cinemas at Hingham Shipyard","address":"25 Shipyard Drive","city":"Hingham","state":"MA","zip":"02043","distance":"3.886370897293091","lon":"-70.921875","lat":"42.251266","theaterChainName":"Patriot Cinemas","ticketType":"STANDARD"},{"id":"466","name":"Patriot Loring Hall Cinema","address":"65 Main St.","city":"Hingham","state":"MA","zip":"02043","distance":"5.634126663208008","lon":"-70.888184","lat":"42.241131","theaterChainName":"Patriot Cinemas","ticketType":"STANDARD"},{"id":"3473","name":"Patriot Cinemas at Hanover Mall","address":"1775 Washington Street","city":"Hanover","state":"MA","zip":"02339","distance":"10.879903793334961","lon":"-70.838531","lat":"42.144840","theaterChainName":"Patriot Cinemas","ticketType":"STANDARD"},{"id":"3851","name":"Mill Wharf Cinema","address":"1 Mill Wharf Plaza","city":"Scituate","state":"MA","zip":"02066","distance":"14.481950759887695","lon":"-70.724358","lat":"42.195053","theaterChainName":"South Shore Cinemas","ticketType":"STANDARD"},{"id":"472","name":"Regal Independence Mall 14","address":"101 Independence Mall Way","city":"Kingston","state":"MA","zip":"02364","distance":"24.132230758666992","lon":"-70.716782","lat":"41.968903","theaterChainName":"Regal Cinemas","ticketType":"STANDARD"}]