[{"id":"459","name":"Dedham Community Theatre","address":"580 High St.","city":"Dedham","state":"MA","zip":"02026","distance":"20.73362159729004","lon":"-71.173157","lat":"42.247974","theaterChainName":"Independent Chains","ticketType":"STANDARD"},{"id":"460","name":"AMC Braintree","address":"121 Grandview Road","city":"Braintree","state":"MA","zip":"02184","distance":"16.26154136657715","lon":"-71.033058","lat":"42.218357","theaterChainName":"AMC Theatres","ticketType":"SELECT_SEATING"},{"id":"309","name":"Showcase Cinemas North Attleboro","address":"640 South Washington St.","city":"North Attleboro","state":"MA","zip":"02760","distance":"19.1066951751709","lon":"-71.342056","lat":"41.954254","theaterChainName":"National Amusements","ticketType":"STANDARD"},{"id":"1024","name":"Avon Cinema","address":"260 Thayer Street","city":"Providence","state":"RI","zip":"02906","distance":"24.585201263427734","lon":"-71.400871","lat":"41.828854","theaterChainName":"Independent Chains","ticketType":"STANDARD"},{"id":"1025","name":"Cable Car","address":"204 S Main","city":"Providence","state":"RI","zip":"02903","distance":"24.976640701293945","lon":"-71.405487","lat":"41.823109","theaterChainName":"Independent Chains","ticketType":"STANDARD"},{"id":"692","name":"Showcase Cinemas Seekonk Rt. 6","address":"100 Commerce Way","city":"Seekonk","state":"MA","zip":"02771","distance":"22.334854125976562","lon":"-71.323387","lat":"41.796585","theaterChainName":"National Amusements","ticketType":"STANDARD"},{"id":"3142","name":"Regal Swansea Stadium 12","address":"207 Swansea Mall Drive","city":"Swansea","state":"MA","zip":"02777","distance":"20.430343627929688","lon":"-71.213638","lat":"41.752228","theaterChainName":"Regal Cinemas","ticketType":"STANDARD"},{"id":"475","name":"Regal Silver City Galleria 10","address":"2 Galleria Mall Drive Suite 2832","city":"Taunton","state":"MA","zip":"02780","distance":"9.36524772644043","lon":"-71.051163","lat":"41.864944","theaterChainName":"Regal Cinemas","ticketType":"STANDARD"},{"id":"471","name":"East Bridgewater Cinema 6","address":"225 Bedford St.","city":"East Bridgewater","state":"MA","zip":"02333","distance":"2.785374402999878","lon":"-70.960175","lat":"42.026505","theaterChainName":"South Shore Cinemas","ticketType":"STANDARD"},{"id":"454","name":"Cameo Theatres 1 & 2","address":"14 Columbian St.","city":"South Weymouth","state":"MA","zip":"02190","distance":"12.985355377197266","lon":"-70.951469","lat":"42.174561","theaterChainName":"South Shore Cinemas","ticketType":"STANDARD"},{"id":"4788","name":"Patriot Cinemas at Hingham Shipyard","address":"25 Shipyard Drive","city":"Hingham","state":"MA","zip":"02043","distance":"18.42519760131836","lon":"-70.921875","lat":"42.251266","theaterChainName":"Patriot Cinemas","ticketType":"STANDARD"},{"id":"466","name":"Patriot Loring Hall Cinema","address":"65 Main St.","city":"Hingham","state":"MA","zip":"02043","distance":"18.06736183166504","lon":"-70.888184","lat":"42.241131","theaterChainName":"Patriot Cinemas","ticketType":"STANDARD"},{"id":"3473","name":"Patriot Cinemas at Hanover Mall","address":"1775 Washington Street","city":"Hanover","state":"MA","zip":"02339","distance":"12.8815336227417","lon":"-70.838531","lat":"42.144840","theaterChainName":"Patriot Cinemas","ticketType":"STANDARD"},{"id":"3851","name":"Mill Wharf Cinema","address":"1 Mill Wharf Plaza","city":"Scituate","state":"MA","zip":"02066","distance":"19.19261932373047","lon":"-70.724358","lat":"42.195053","theaterChainName":"South Shore Cinemas","ticketType":"STANDARD"},{"id":"472","name":"Regal Independence Mall 14","address":"101 Independence Mall Way","city":"Kingston","state":"MA","zip":"02364","distance":"13.212302207946777","lon":"-70.716782","lat":"41.968903","theaterChainName":"Regal Cinemas","ticketType":"STANDARD"},{"id":"3645","name":"Flagship Cinemas Wareham 8","address":"39 Doty Street","city":"West Wareham","state":"MA","zip":"02576","distance":"16.414493560791016","lon":"-70.768837","lat":"41.804592","theaterChainName":"Flagship Cinemas","ticketType":"STANDARD"},{"id":"3131","name":"Flagship Cinemas New Bedford","address":"500 Kings Hwy","city":"New Bedford","state":"MA","zip":"02745","distance":"21.754711151123047","lon":"-70.940903","lat":"41.673359","theaterChainName":"Flagship Cinemas","ticketType":"STANDARD"},{"id":"720","name":"AMC N. Dartmouth Mall 12","address":"140 N. Dartmouth Mall","city":"North Dartmouth","state":"MA","zip":"02747","distance":"23.959880828857422","lon":"-70.990601","lat":"41.640800","theaterChainName":"AMC Theatres","ticketType":"STANDARD"}]