[{"id":"459","name":"Dedham Community Theatre","address":"580 High St.","city":"Dedham","state":"MA","zip":"02026","distance":"18.983917236328125","lon":"-71.173157","lat":"42.247974","theaterChainName":"Independent Chains","ticketType":"STANDARD"},{"id":"3038","name":"Regal Fenway Stadium 13","address":"201 Brookline Ave","city":"Boston","state":"MA","zip":"02115","distance":"23.06501579284668","lon":"-71.101654","lat":"42.344475","theaterChainName":"Regal Cinemas","ticketType":"STANDARD"},{"id":"3226","name":"AMC Loews Boston Common 19","address":"175 Tremont Street","city":"Boston","state":"MA","zip":"02111","distance":"23.051279067993164","lon":"-71.064171","lat":"42.353210","theaterChainName":"AMC Theatres","ticketType":"E_TICKET"},{"id":"460","name":"AMC Braintree","address":"121 Grandview Road","city":"Braintree","state":"MA","zip":"02184","distance":"13.677220344543457","lon":"-71.033058","lat":"42.218357","theaterChainName":"AMC Theatres","ticketType":"SELECT_SEATING"},{"id":"309","name":"Showcase Cinemas North Attleboro","address":"640 South Washington St.","city":"North Attleboro","state":"MA","zip":"02760","distance":"21.07794761657715","lon":"-71.342056","lat":"41.954254","theaterChainName":"National Amusements","ticketType":"STANDARD"},{"id":"3142","name":"Regal Swansea Stadium 12","address":"207 Swansea Mall Drive","city":"Swansea","state":"MA","zip":"02777","distance":"23.734209060668945","lon":"-71.213638","lat":"41.752228","theaterChainName":"Regal Cinemas","ticketType":"STANDARD"},{"id":"475","name":"Regal Silver City Galleria 10","address":"2 Galleria Mall Drive Suite 2832","city":"Taunton","state":"MA","zip":"02780","distance":"12.736429214477539","lon":"-71.051163","lat":"41.864944","theaterChainName":"Regal Cinemas","ticketType":"STANDARD"},{"id":"471","name":"East Bridgewater Cinema 6","address":"225 Bedford St.","city":"East Bridgewater","state":"MA","zip":"02333","distance":"0.8519766330718994","lon":"-70.960175","lat":"42.026505","theaterChainName":"South Shore Cinemas","ticketType":"STANDARD"},{"id":"454","name":"Cameo Theatres 1 & 2","address":"14 Columbian St.","city":"South Weymouth","state":"MA","zip":"02190","distance":"9.890579223632812","lon":"-70.951469","lat":"42.174561","theaterChainName":"South Shore Cinemas","ticketType":"STANDARD"},{"id":"4788","name":"Patriot Cinemas at Hingham Shipyard","address":"25 Shipyard Drive","city":"Hingham","state":"MA","zip":"02043","distance":"15.231361389160156","lon":"-70.921875","lat":"42.251266","theaterChainName":"Patriot Cinemas","ticketType":"STANDARD"},{"id":"466","name":"Patriot Loring Hall Cinema","address":"65 Main St.","city":"Hingham","state":"MA","zip":"02043","distance":"14.774518013000488","lon":"-70.888184","lat":"42.241131","theaterChainName":"Patriot Cinemas","ticketType":"STANDARD"},{"id":"3473","name":"Patriot Cinemas at Hanover Mall","address":"1775 Washington Street","city":"Hanover","state":"MA","zip":"02339","distance":"9.54658317565918","lon":"-70.838531","lat":"42.144840","theaterChainName":"Patriot Cinemas","ticketType":"STANDARD"},{"id":"3851","name":"Mill Wharf Cinema","address":"1 Mill Wharf Plaza","city":"Scituate","state":"MA","zip":"02066","distance":"15.988150596618652","lon":"-70.724358","lat":"42.195053","theaterChainName":"South Shore Cinemas","ticketType":"STANDARD"},{"id":"472","name":"Regal Independence Mall 14","address":"101 Independence Mall Way","city":"Kingston","state":"MA","zip":"02364","distance":"12.491631507873535","lon":"-70.716782","lat":"41.968903","theaterChainName":"Regal Cinemas","ticketType":"STANDARD"},{"id":"3645","name":"Flagship Cinemas Wareham 8","address":"39 Doty Street","city":"West Wareham","state":"MA","zip":"02576","distance":"18.107078552246094","lon":"-70.768837","lat":"41.804592","theaterChainName":"Flagship Cinemas","ticketType":"STANDARD"},{"id":"3131","name":"Flagship Cinemas New Bedford","address":"500 Kings Hwy","city":"New Bedford","state":"MA","zip":"02745","distance":"24.747705459594727","lon":"-70.940903","lat":"41.673359","theaterChainName":"Flagship Cinemas","ticketType":"STANDARD"}]