[{"id":"454","tribuneTheaterId":"9139","providerTheaterId":"","name":"Cameo Theatres 1 & 2","address":"14 Columbian St.","city":"South Weymouth","state":"MA","zip":"02190","distance":3.5012308728145,"lon":"-70.951467","lat":"42.174561","theaterChainName":"South Shore Cinemas","ticketType":"STANDARD"},{"id":"460","tribuneTheaterId":"7504","providerTheaterId":"813","name":"AMC Braintree","address":"121 Grandview Road","city":"Braintree","state":"MA","zip":"02184","distance":5.1307381260692,"lon":"-71.033059","lat":"42.218356","theaterChainName":"AMC Theatres","ticketType":"SELECT_SEATING"},{"id":"471","tribuneTheaterId":"7776","providerTheaterId":"","name":"East Bridgewater Cinema 6","address":"225 Bedford St.","city":"East Bridgewater","state":"MA","zip":"02333","distance":8.6437422270195,"lon":"-70.960175","lat":"42.026504","theaterChainName":"South Shore Cinemas","ticketType":"STANDARD"},{"id":"4788","tribuneTheaterId":"10038","providerTheaterId":"","name":"Patriot Cinemas at Hingham Shipyard","address":"25 Shipyard Drive","city":"Hingham","state":"MA","zip":"02043","distance":8.4893225894177,"lon":"-70.921876","lat":"42.251268","theaterChainName":"Patriot Cinemas","ticketType":"STANDARD"},{"id":"466","tribuneTheaterId":"8975","providerTheaterId":"","name":"Patriot Loring Hall Cinema","address":"65 Main St.","city":"Hingham","state":"MA","zip":"02043","distance":8.9804102872016,"lon":"-70.888183","lat":"42.241131","theaterChainName":"Patriot Cinemas","ticketType":"STANDARD"},{"id":"3473","tribuneTheaterId":"8976","providerTheaterId":"","name":"Patriot Cinemas at Hanover Mall","address":"1775 Washington Street","city":"Hanover","state":"MA","zip":"02339","distance":8.6974994715936,"lon":"-70.838535","lat":"42.144841","theaterChainName":"Patriot Cinemas","ticketType":"STANDARD"},{"id":"459","tribuneTheaterId":"5165","providerTheaterId":"","name":"Dedham Community Theatre","address":"580 High St.","city":"Dedham","state":"MA","zip":"02026","distance":10.975529782969,"lon":"-71.173155","lat":"42.247976","theaterChainName":"Independent Chains","ticketType":"STANDARD"},{"id":"3851","tribuneTheaterId":"4901","providerTheaterId":"","name":"Mill Wharf Cinema","address":"1 Mill Wharf Plaza","city":"Scituate","state":"MA","zip":"02066","distance":14.923703078469,"lon":"-70.724359","lat":"42.195055","theaterChainName":"South Shore Cinemas","ticketType":"STANDARD"},{"id":"3038","tribuneTheaterId":"5658","providerTheaterId":"","name":"Regal Fenway Stadium 13","address":"201 Brookline Ave","city":"Boston","state":"MA","zip":"02115","distance":14.494617621065,"lon":"-71.101653","lat":"42.344474","theaterChainName":"Regal Cinemas","ticketType":"STANDARD"},{"id":"3226","tribuneTheaterId":"9277","providerTheaterId":"2657","name":"AMC Loews Boston Common 19","address":"175 Tremont Street","city":"Boston","state":"MA","zip":"02111","distance":14.572222277791,"lon":"-71.06417","lat":"42.353212","theaterChainName":"AMC Theatres","ticketType":"E_TICKET"},{"id":"5492","tribuneTheaterId":"10934","providerTheaterId":"504","name":"AMC Assembly Row 12","address":"395 Artisan Way","city":"Somerville","state":"MA","zip":"02145","distance":17.562630932641,"lon":"-71.079347","lat":"42.395091","theaterChainName":"AMC Theatres","ticketType":"SELECT_SEATING"},{"id":"453","tribuneTheaterId":"6097","providerTheaterId":"","name":"Brattle Theatre","address":"40 Brattle St.","city":"Cambridge","state":"MA","zip":"02138","distance":16.734135521116,"lon":"-71.1213","lat":"42.373699","theaterChainName":"Independent Chains","ticketType":"STANDARD"},{"id":"70","tribuneTheaterId":"6066","providerTheaterId":"","name":"Freshpond 10","address":"168 Alwife Brook Parkway","city":"Cambridge","state":"MA","zip":"02138","distance":18.180432217541,"lon":"-71.138424","lat":"42.391277","theaterChainName":"Independent Chains","ticketType":"STANDARD"},{"id":"457","tribuneTheaterId":"6525","providerTheaterId":"","name":"Capitol Theatre - Arlington","address":"204 Massachussetts Ave.","city":"Arlington","state":"MA","zip":"02474","distance":19.201328506068,"lon":"-71.142675","lat":"42.40591","theaterChainName":"Independent Chains","ticketType":"STANDARD"},{"id":"481","tribuneTheaterId":"5179","providerTheaterId":"","name":"Somerville Theatre","address":"55 Davis Square","city":"Somerville","state":"MA","zip":"02144","distance":18.26175051373,"lon":"-71.122887","lat":"42.396736","theaterChainName":"Independent Chains","ticketType":"STANDARD"},{"id":"472","tribuneTheaterId":"8735","providerTheaterId":"","name":"Regal Independence Mall 14","address":"101 Independence Mall Way","city":"Kingston","state":"MA","zip":"02364","distance":19.340188167797,"lon":"-70.716784","lat":"41.968904","theaterChainName":"Regal Cinemas","ticketType":"STANDARD"},{"id":"475","tribuneTheaterId":"8199","providerTheaterId":"","name":"Regal Silver City Galleria 10","address":"2 Galleria Mall Drive Suite 2832","city":"Taunton","state":"MA","zip":"02780","distance":19.570821969184,"lon":"-71.051159","lat":"41.864944","theaterChainName":"Regal Cinemas","ticketType":"STANDARD"},{"id":"222","tribuneTheaterId":"7618","providerTheaterId":"","name":"Showcase Cinemas de Lux Revere","address":"565 Squire Road","city":"Revere","state":"MA","zip":"02151","distance":19.773155446825,"lon":"-71.020026","lat":"42.432449","theaterChainName":"National Amusements","ticketType":"STANDARD"},{"id":"463","tribuneTheaterId":"7976","providerTheaterId":"810","name":"AMC Framingham 16","address":"22 Flutie Pass","city":"Framingham","state":"MA","zip":"01701","distance":22.359220814617,"lon":"-71.390731","lat":"42.302999","theaterChainName":"AMC Theatres","ticketType":"SELECT_SEATING"},{"id":"309","tribuneTheaterId":"9010","providerTheaterId":"","name":"Showcase Cinemas North Attleboro","address":"640 South Washington St.","city":"North Attleboro","state":"MA","zip":"02760","distance":21.667171798887,"lon":"-71.342055","lat":"41.954254","theaterChainName":"National Amusements","ticketType":"STANDARD"},{"id":"724","tribuneTheaterId":"7748","providerTheaterId":"","name":"Regal Bellingham Stadium 14","address":"259 Hartford Ave.","city":"Bellingham","state":"MA","zip":"02019","distance":23.291395919405,"lon":"-71.460233","lat":"42.110399","theaterChainName":"Regal Cinemas","ticketType":"STANDARD"},{"id":"465","tribuneTheaterId":"6245","providerTheaterId":"","name":"Lexington Venue","address":"1794 Massachussetts Ave.","city":"Lexington","state":"MA","zip":"02420","distance":23.669664634172,"lon":"-71.228203","lat":"42.447899","theaterChainName":"Independent Chains","ticketType":"STANDARD"}]