[{"id":"472","tribuneTheaterId":"8735","providerTheaterId":"","name":"Regal Independence Mall 14","address":"101 Independence Mall Way","city":"Kingston","state":"MA","zip":"02364","distance":8.4050005443874,"lon":"-70.716784","lat":"41.968904","theaterChainName":"Regal Cinemas","ticketType":"STANDARD"},{"id":"3645","tribuneTheaterId":"2133","providerTheaterId":"","name":"Flagship Cinemas Wareham 8","address":"39 Doty Street","city":"West Wareham","state":"MA","zip":"02576","distance":13.829578918106,"lon":"-70.76884","lat":"41.804592","theaterChainName":"Flagship Cinemas","ticketType":"STANDARD"},{"id":"3223","tribuneTheaterId":"3985","providerTheaterId":"","name":"Heritage Theaters","address":"280 Rt. 130","city":"Sandwich","state":"MA","zip":"02563","distance":15.660298882896,"lon":"-70.490515","lat":"41.711134","theaterChainName":"Independent Chains","ticketType":"STANDARD"},{"id":"3473","tribuneTheaterId":"8976","providerTheaterId":"","name":"Patriot Cinemas at Hanover Mall","address":"1775 Washington Street","city":"Hanover","state":"MA","zip":"02339","distance":20.488037531057,"lon":"-70.838535","lat":"42.144841","theaterChainName":"Patriot Cinemas","ticketType":"STANDARD"},{"id":"3851","tribuneTheaterId":"4901","providerTheaterId":"","name":"Mill Wharf Cinema","address":"1 Mill Wharf Plaza","city":"Scituate","state":"MA","zip":"02066","distance":20.036928827568,"lon":"-70.724359","lat":"42.195055","theaterChainName":"South Shore Cinemas","ticketType":"STANDARD"},{"id":"4629","tribuneTheaterId":"9812","providerTheaterId":"","name":"Cape Cinema","address":"35 Hope Lane","city":"Dennis","state":"MA","zip":"02638","distance":23.084140406717,"lon":"-70.193421","lat":"41.740342","theaterChainName":"Independent Chains","ticketType":"STANDARD"},{"id":"473","tribuneTheaterId":"7580","providerTheaterId":"","name":"Regal Mashpee Commons 6","address":"11 Steeple St.","city":"Mashpee","state":"MA","zip":"02649","distance":22.102747123618,"lon":"-70.490481","lat":"41.616068","theaterChainName":"Regal Cinemas","ticketType":"STANDARD"},{"id":"471","tribuneTheaterId":"7776","providerTheaterId":"","name":"East Bridgewater Cinema 6","address":"225 Bedford St.","city":"East Bridgewater","state":"MA","zip":"02333","distance":21.521041209897,"lon":"-70.960175","lat":"42.026504","theaterChainName":"South Shore Cinemas","ticketType":"STANDARD"},{"id":"2763","tribuneTheaterId":"7019","providerTheaterId":"","name":"Regal Cape Cod Mall Stadium 12","address":"Rt 28 ","city":"Hyannis","state":"MA","zip":"02601","distance":23.172554389833,"lon":"-70.2878","lat":"41.6652","theaterChainName":"Regal Cinemas","ticketType":"STANDARD"}]