[{"id":"2798","name":"Strand Theatre - Clinton","address":"58 High Street","city":"Clinton","state":"MA","zip":"01510","distance":"23.854061126708984","lon":"-71.684952","lat":"42.417053","theaterChainName":"Independent Chains","ticketType":"STANDARD"},{"id":"579","name":"Regal Westborough Stadium 12","address":"231 Turnpike Road","city":"Westborough","state":"MA","zip":"01581","distance":"21.318613052368164","lon":"-71.635399","lat":"42.287025","theaterChainName":"Regal Cinemas","ticketType":"STANDARD"},{"id":"497","name":"Regal Solomon Pond Stadium 15","address":"591 Donald Lynch Blvd.","city":"Marlborough","state":"MA","zip":"01752","distance":"19.776432037353516","lon":"-71.613876","lat":"42.356056","theaterChainName":"Regal Cinemas","ticketType":"STANDARD"},{"id":"5745","name":"Fine Arts Theatre Place","address":"19 Summer Street","city":"Maynard","state":"MA","zip":"01754","distance":"12.883241653442383","lon":"-71.451874","lat":"42.433502","theaterChainName":"Independent Chains","ticketType":"STANDARD"},{"id":"724","name":"Regal Bellingham Stadium 14","address":"259 Hartford Ave.","city":"Bellingham","state":"MA","zip":"02019","distance":"20.372587203979492","lon":"-71.460236","lat":"42.110397","theaterChainName":"Regal Cinemas","ticketType":"STANDARD"},{"id":"463","name":"AMC Framingham 16","address":"22 Flutie Pass","city":"Framingham","state":"MA","zip":"01701","distance":"8.967225074768066","lon":"-71.390732","lat":"42.302998","theaterChainName":"AMC Theatres","ticketType":"SELECT_SEATING"},{"id":"693","name":"Showcase Cinemas Lowell","address":"32 Reiss Ave","city":"Lowell","state":"MA","zip":"01853","distance":"18.728992462158203","lon":"-71.322998","lat":"42.610783","theaterChainName":"National Amusements","ticketType":"STANDARD"},{"id":"5627","name":"The Luna Theater","address":"250 Jackson St. Unit 402","city":"Lowell","state":"MA","zip":"01852","distance":"20.661476135253906","lon":"-71.312202","lat":"42.641499","theaterChainName":"Independent Chains","ticketType":"STANDARD"},{"id":"465","name":"Lexington Venue","address":"1794 Massachussetts Ave.","city":"Lexington","state":"MA","zip":"02420","distance":"6.820201396942139","lon":"-71.228203","lat":"42.447899","theaterChainName":"Independent Chains","ticketType":"STANDARD"},{"id":"461","name":"AMC Burlington 10","address":"20 South Ave.","city":"Burlington","state":"MA","zip":"01803","distance":"9.031498908996582","lon":"-71.217148","lat":"42.479717","theaterChainName":"AMC Theatres","ticketType":"SELECT_SEATING"},{"id":"221","name":"Showcase Cinemas Woburn","address":"25 Middlesex Canal Parkway","city":"Woburn","state":"MA","zip":"01801","distance":"10.768181800842285","lon":"-71.160828","lat":"42.497261","theaterChainName":"National Amusements","ticketType":"STANDARD"},{"id":"2901","name":"Showcase Cinemas Lawrence","address":"6 Chickering Street","city":"Lawrence","state":"MA","zip":"01843","distance":"23.863969802856445","lon":"-71.143669","lat":"42.689102","theaterChainName":"National Amusements","ticketType":"STANDARD"},{"id":"457","name":"Capitol Theatre - Arlington","address":"204 Massachussetts Ave.","city":"Arlington","state":"MA","zip":"02474","distance":"5.809340953826904","lon":"-71.142677","lat":"42.405910","theaterChainName":"Independent Chains","ticketType":"STANDARD"},{"id":"70","name":"Freshpond 10","address":"168 Alwife Brook Parkway","city":"Cambridge","state":"MA","zip":"02138","distance":"5.362752914428711","lon":"-71.138428","lat":"42.391277","theaterChainName":"Independent Chains","ticketType":"STANDARD"},{"id":"481","name":"Somerville Theatre","address":"55 Davis Square","city":"Somerville","state":"MA","zip":"02144","distance":"6.234731674194336","lon":"-71.122887","lat":"42.396736","theaterChainName":"Independent Chains","ticketType":"STANDARD"},{"id":"453","name":"Brattle Theatre","address":"40 Brattle St.","city":"Cambridge","state":"MA","zip":"02138","distance":"5.6413469314575195","lon":"-71.121300","lat":"42.373699","theaterChainName":"Independent Chains","ticketType":"STANDARD"},{"id":"459","name":"Dedham Community Theatre","address":"580 High St.","city":"Dedham","state":"MA","zip":"02026","distance":"7.510772228240967","lon":"-71.173157","lat":"42.247974","theaterChainName":"Independent Chains","ticketType":"STANDARD"},{"id":"5492","name":"AMC Assembly Row 12","address":"395 Artisan Way","city":"Somerville","state":"MA","zip":"02145","distance":"8.163187026977539","lon":"-71.079346","lat":"42.395092","theaterChainName":"AMC Theatres","ticketType":"SELECT_SEATING"},{"id":"3038","name":"Regal Fenway Stadium 13","address":"201 Brookline Ave","city":"Boston","state":"MA","zip":"02115","distance":"6.394268989562988","lon":"-71.101654","lat":"42.344475","theaterChainName":"Regal Cinemas","ticketType":"STANDARD"},{"id":"3226","name":"AMC Loews Boston Common 19","address":"175 Tremont Street","city":"Boston","state":"MA","zip":"02111","distance":"8.304186820983887","lon":"-71.064171","lat":"42.353210","theaterChainName":"AMC Theatres","ticketType":"E_TICKET"},{"id":"222","name":"Showcase Cinemas de Lux Revere","address":"565 Squire Road","city":"Revere","state":"MA","zip":"02151","distance":"12.013734817504883","lon":"-71.020027","lat":"42.432449","theaterChainName":"National Amusements","ticketType":"STANDARD"},{"id":"460","name":"AMC Braintree","address":"121 Grandview Road","city":"Braintree","state":"MA","zip":"02184","distance":"13.406293869018555","lon":"-71.033058","lat":"42.218357","theaterChainName":"AMC Theatres","ticketType":"SELECT_SEATING"},{"id":"71","name":"AMC Loews Liberty Tree Mall 20","address":"100 Independence Way","city":"Danvers","state":"MA","zip":"01923","distance":"20.279407501220703","lon":"-70.940765","lat":"42.553223","theaterChainName":"AMC Theatres","ticketType":"E_TICKET"},{"id":"2722","name":"Hollywood Hits Theatre","address":"7 Hutchinson Drive","city":"Danvers","state":"MA","zip":"01923","distance":"20.627399444580078","lon":"-70.932022","lat":"42.553757","theaterChainName":"Independent Chains","ticketType":"STANDARD"},{"id":"4218","name":"CinemaSalem","address":"1 E. India Square","city":"Salem","state":"MA","zip":"01970","distance":"21.311485290527344","lon":"-70.882202","lat":"42.523800","theaterChainName":"Independent Chains","ticketType":"STANDARD"},{"id":"454","name":"Cameo Theatres 1 & 2","address":"14 Columbian St.","city":"South Weymouth","state":"MA","zip":"02190","distance":"18.53950309753418","lon":"-70.951469","lat":"42.174561","theaterChainName":"South Shore Cinemas","ticketType":"STANDARD"},{"id":"4788","name":"Patriot Cinemas at Hingham Shipyard","address":"25 Shipyard Drive","city":"Hingham","state":"MA","zip":"02043","distance":"16.984800338745117","lon":"-70.921875","lat":"42.251266","theaterChainName":"Patriot Cinemas","ticketType":"STANDARD"},{"id":"466","name":"Patriot Loring Hall Cinema","address":"65 Main St.","city":"Hingham","state":"MA","zip":"02043","distance":"18.844444274902344","lon":"-70.888184","lat":"42.241131","theaterChainName":"Patriot Cinemas","ticketType":"STANDARD"},{"id":"3473","name":"Patriot Cinemas at Hanover Mall","address":"1775 Washington Street","city":"Hanover","state":"MA","zip":"02339","distance":"24.364013671875","lon":"-70.838531","lat":"42.144840","theaterChainName":"Patriot Cinemas","ticketType":"STANDARD"}]