[{"id":"4772","tribuneTheaterId":"10012","providerTheaterId":"","name":"Falmouth Cinema Pub","address":"137 Teaticket Highway","city":"Falmouth","state":"MA","zip":"02541","distance":12.375656936837,"lon":"-70.595913","lat":"41.561884","theaterChainName":"Entertainment Cinemas","ticketType":"STANDARD"},{"id":"473","tribuneTheaterId":"7580","providerTheaterId":"","name":"Regal Mashpee Commons 6","address":"11 Steeple St.","city":"Mashpee","state":"MA","zip":"02649","distance":15.855775515297,"lon":"-70.490481","lat":"41.616068","theaterChainName":"Regal Cinemas","ticketType":"STANDARD"},{"id":"2804","tribuneTheaterId":"476","providerTheaterId":"","name":"Starlight Theater and Cafe","address":"1 Union Street","city":"Nantucket","state":"MA","zip":"02554","distance":23.77327321664,"lon":"-70.097823","lat":"41.28317","theaterChainName":"Independent Chains","ticketType":"STANDARD"},{"id":"2763","tribuneTheaterId":"7019","providerTheaterId":"","name":"Regal Cape Cod Mall Stadium 12","address":"Rt 28 ","city":"Hyannis","state":"MA","zip":"02601","distance":22.94544692728,"lon":"-70.2878","lat":"41.6652","theaterChainName":"Regal Cinemas","ticketType":"STANDARD"},{"id":"3223","tribuneTheaterId":"3985","providerTheaterId":"","name":"Heritage Theaters","address":"280 Rt. 130","city":"Sandwich","state":"MA","zip":"02563","distance":22.376944742723,"lon":"-70.490515","lat":"41.711134","theaterChainName":"Independent Chains","ticketType":"STANDARD"}]