[{"id":"3223","name":"Heritage Theaters","address":"280 Rt. 130","city":"Sandwich","state":"MA","zip":"02563","distance":"22.378385543823242","lon":"-70.490517","lat":"41.711136","theaterChainName":"Independent Chains","ticketType":"STANDARD"},{"id":"473","name":"Regal Mashpee Commons 6","address":"11 Steeple St.","city":"Mashpee","state":"MA","zip":"02649","distance":"15.856828689575195","lon":"-70.490479","lat":"41.616070","theaterChainName":"Regal Cinemas","ticketType":"STANDARD"},{"id":"2763","name":"Regal Cape Cod Mall Stadium 12","address":"Rt 28 ","city":"Hyannis","state":"MA","zip":"02601","distance":"22.946605682373047","lon":"-70.287804","lat":"41.665199","theaterChainName":"Regal Cinemas","ticketType":"STANDARD"},{"id":"4772","name":"Falmouth Cinema Pub","address":"137 Teaticket Highway","city":"Falmouth","state":"MA","zip":"02541","distance":"12.376581192016602","lon":"-70.595917","lat":"41.561886","theaterChainName":"Entertainment Cinemas","ticketType":"STANDARD"},{"id":"2804","name":"Starlight Theater and Cafe","address":"1 Union Street","city":"Nantucket","state":"MA","zip":"02554","distance":"23.774606704711914","lon":"-70.097824","lat":"41.283169","theaterChainName":"Independent Chains","ticketType":"STANDARD"}]