[{"id":"4772","tribuneTheaterId":"10012","providerTheaterId":"","name":"Falmouth Cinema Pub","address":"137 Teaticket Highway","city":"Falmouth","state":"MA","zip":"02541","distance":3.6336993973909,"lon":"-70.595913","lat":"41.561884","theaterChainName":"Entertainment Cinemas","ticketType":"STANDARD"},{"id":"473","tribuneTheaterId":"7580","providerTheaterId":"","name":"Regal Mashpee Commons 6","address":"11 Steeple St.","city":"Mashpee","state":"MA","zip":"02649","distance":7.6773117863052,"lon":"-70.490481","lat":"41.616068","theaterChainName":"Regal Cinemas","ticketType":"STANDARD"},{"id":"3223","tribuneTheaterId":"3985","providerTheaterId":"","name":"Heritage Theaters","address":"280 Rt. 130","city":"Sandwich","state":"MA","zip":"02563","distance":10.630953391828,"lon":"-70.490515","lat":"41.711134","theaterChainName":"Independent Chains","ticketType":"STANDARD"},{"id":"3131","tribuneTheaterId":"6079","providerTheaterId":"","name":"Flagship Cinemas New Bedford","address":"500 Kings Hwy","city":"New Bedford","state":"MA","zip":"02745","distance":16.350648688336,"lon":"-70.9409","lat":"41.673359","theaterChainName":"Flagship Cinemas","ticketType":"STANDARD"},{"id":"3645","tribuneTheaterId":"2133","providerTheaterId":"","name":"Flagship Cinemas Wareham 8","address":"39 Doty Street","city":"West Wareham","state":"MA","zip":"02576","distance":15.417284222192,"lon":"-70.76884","lat":"41.804592","theaterChainName":"Flagship Cinemas","ticketType":"STANDARD"},{"id":"720","tribuneTheaterId":"8558","providerTheaterId":"876","name":"AMC N. Dartmouth Mall 12","address":"140 N. Dartmouth Mall","city":"North Dartmouth","state":"MA","zip":"02747","distance":18.379120467596,"lon":"-70.9906","lat":"41.6408","theaterChainName":"AMC Theatres","ticketType":"STANDARD"},{"id":"2763","tribuneTheaterId":"7019","providerTheaterId":"","name":"Regal Cape Cod Mall Stadium 12","address":"Rt 28 ","city":"Hyannis","state":"MA","zip":"02601","distance":18.583781543228,"lon":"-70.2878","lat":"41.6652","theaterChainName":"Regal Cinemas","ticketType":"STANDARD"},{"id":"4629","tribuneTheaterId":"9812","providerTheaterId":"","name":"Cape Cinema","address":"35 Hope Lane","city":"Dennis","state":"MA","zip":"02638","distance":24.81543538785,"lon":"-70.193421","lat":"41.740342","theaterChainName":"Independent Chains","ticketType":"STANDARD"}]