[{"id":"475","name":"Regal Silver City Galleria 10","address":"2 Galleria Mall Drive Suite 2832","city":"Taunton","state":"MA","zip":"02780","distance":"19.092002868652344","lon":"-71.051163","lat":"41.864944","theaterChainName":"Regal Cinemas","ticketType":"STANDARD"},{"id":"471","name":"East Bridgewater Cinema 6","address":"225 Bedford St.","city":"East Bridgewater","state":"MA","zip":"02333","distance":"22.754501342773438","lon":"-70.960175","lat":"42.026505","theaterChainName":"South Shore Cinemas","ticketType":"STANDARD"},{"id":"472","name":"Regal Independence Mall 14","address":"101 Independence Mall Way","city":"Kingston","state":"MA","zip":"02364","distance":"14.84467887878418","lon":"-70.716782","lat":"41.968903","theaterChainName":"Regal Cinemas","ticketType":"STANDARD"},{"id":"3645","name":"Flagship Cinemas Wareham 8","address":"39 Doty Street","city":"West Wareham","state":"MA","zip":"02576","distance":"4.568334579467773","lon":"-70.768837","lat":"41.804592","theaterChainName":"Flagship Cinemas","ticketType":"STANDARD"},{"id":"3131","name":"Flagship Cinemas New Bedford","address":"500 Kings Hwy","city":"New Bedford","state":"MA","zip":"02745","distance":"13.077150344848633","lon":"-70.940903","lat":"41.673359","theaterChainName":"Flagship Cinemas","ticketType":"STANDARD"},{"id":"3223","name":"Heritage Theaters","address":"280 Rt. 130","city":"Sandwich","state":"MA","zip":"02563","distance":"11.780377388000488","lon":"-70.490517","lat":"41.711136","theaterChainName":"Independent Chains","ticketType":"STANDARD"},{"id":"473","name":"Regal Mashpee Commons 6","address":"11 Steeple St.","city":"Mashpee","state":"MA","zip":"02649","distance":"14.871674537658691","lon":"-70.490479","lat":"41.616070","theaterChainName":"Regal Cinemas","ticketType":"STANDARD"},{"id":"2763","name":"Regal Cape Cod Mall Stadium 12","address":"Rt 28 ","city":"Hyannis","state":"MA","zip":"02601","distance":"22.70746612548828","lon":"-70.287804","lat":"41.665199","theaterChainName":"Regal Cinemas","ticketType":"STANDARD"},{"id":"720","name":"AMC N. Dartmouth Mall 12","address":"140 N. Dartmouth Mall","city":"North Dartmouth","state":"MA","zip":"02747","distance":"16.385602951049805","lon":"-70.990601","lat":"41.640800","theaterChainName":"AMC Theatres","ticketType":"STANDARD"},{"id":"4772","name":"Falmouth Cinema Pub","address":"137 Teaticket Highway","city":"Falmouth","state":"MA","zip":"02541","distance":"14.562529563903809","lon":"-70.595917","lat":"41.561886","theaterChainName":"Entertainment Cinemas","ticketType":"STANDARD"}]