[{"id":"3223","name":"Heritage Theaters","address":"280 Rt. 130","city":"Sandwich","state":"MA","zip":"02563","distance":"10.604951858520508","lon":"-70.490517","lat":"41.711136","theaterChainName":"Independent Chains","ticketType":"STANDARD"},{"id":"473","name":"Regal Mashpee Commons 6","address":"11 Steeple St.","city":"Mashpee","state":"MA","zip":"02649","distance":"10.45909595489502","lon":"-70.490479","lat":"41.616070","theaterChainName":"Regal Cinemas","ticketType":"STANDARD"},{"id":"2763","name":"Regal Cape Cod Mall Stadium 12","address":"Rt 28 ","city":"Hyannis","state":"MA","zip":"02601","distance":"0.578854501247406","lon":"-70.287804","lat":"41.665199","theaterChainName":"Regal Cinemas","ticketType":"STANDARD"},{"id":"4629","name":"Cape Cinema","address":"35 Hope Lane","city":"Dennis","state":"MA","zip":"02638","distance":"7.6897382736206055","lon":"-70.193420","lat":"41.740341","theaterChainName":"Independent Chains","ticketType":"STANDARD"},{"id":"4772","name":"Falmouth Cinema Pub","address":"137 Teaticket Highway","city":"Falmouth","state":"MA","zip":"02541","distance":"16.882247924804688","lon":"-70.595917","lat":"41.561886","theaterChainName":"Entertainment Cinemas","ticketType":"STANDARD"},{"id":"476","name":"Entertainment Cinemas South Dennis","address":"2-6 Enterprise Road","city":"South Dennis","state":"MA","zip":"02660","distance":"7.874152183532715","lon":"-70.150528","lat":"41.692757","theaterChainName":"Entertainment Cinemas","ticketType":"STANDARD"},{"id":"2397","name":"Wellfleet Cinemas","address":"51 State Hwy Rte 6","city":"Wellfleet","state":"MA","zip":"02667","distance":"21.942087173461914","lon":"-69.987999","lat":"41.878799","theaterChainName":"Independent Chains","ticketType":"STANDARD"},{"id":"5423","name":"Chatham Orpheum Theater","address":"637 Main Street","city":"Chatham","state":"MA","zip":"02633","distance":"17.435823440551758","lon":"-69.960197","lat":"41.682301","theaterChainName":"Independent Chains","ticketType":"STANDARD"}]