[{"id":"4629","tribuneTheaterId":"9812","providerTheaterId":"","name":"Cape Cinema","address":"35 Hope Lane","city":"Dennis","state":"MA","zip":"02638","distance":0.57514471331807,"lon":"-70.193421","lat":"41.740342","theaterChainName":"Independent Chains","ticketType":"STANDARD"},{"id":"476","tribuneTheaterId":"6277","providerTheaterId":"","name":"Entertainment Cinemas South Dennis","address":"2-6 Enterprise Road","city":"South Dennis","state":"MA","zip":"02660","distance":3.4359527968287,"lon":"-70.150529","lat":"41.692757","theaterChainName":"Entertainment Cinemas","ticketType":"STANDARD"},{"id":"2763","tribuneTheaterId":"7019","providerTheaterId":"","name":"Regal Cape Cod Mall Stadium 12","address":"Rt 28 ","city":"Hyannis","state":"MA","zip":"02601","distance":6.8056151005506,"lon":"-70.2878","lat":"41.6652","theaterChainName":"Regal Cinemas","ticketType":"STANDARD"},{"id":"5423","tribuneTheaterId":"10860","providerTheaterId":"","name":"Chatham Orpheum Theater","address":"637 Main Street","city":"Chatham","state":"MA","zip":"02633","distance":12.399238431834,"lon":"-69.9602","lat":"41.6823","theaterChainName":"Independent Chains","ticketType":"STANDARD"},{"id":"2397","tribuneTheaterId":"4021","providerTheaterId":"","name":"Wellfleet Cinemas","address":"51 State Hwy Rte 6","city":"Wellfleet","state":"MA","zip":"02667","distance":14.56072049964,"lon":"-69.987999","lat":"41.878799","theaterChainName":"Independent Chains","ticketType":"STANDARD"},{"id":"3223","tribuneTheaterId":"3985","providerTheaterId":"","name":"Heritage Theaters","address":"280 Rt. 130","city":"Sandwich","state":"MA","zip":"02563","distance":15.509366847378,"lon":"-70.490515","lat":"41.711134","theaterChainName":"Independent Chains","ticketType":"STANDARD"},{"id":"473","tribuneTheaterId":"7580","providerTheaterId":"","name":"Regal Mashpee Commons 6","address":"11 Steeple St.","city":"Mashpee","state":"MA","zip":"02649","distance":17.409876369551,"lon":"-70.490481","lat":"41.616068","theaterChainName":"Regal Cinemas","ticketType":"STANDARD"},{"id":"4772","tribuneTheaterId":"10012","providerTheaterId":"","name":"Falmouth Cinema Pub","address":"137 Teaticket Highway","city":"Falmouth","state":"MA","zip":"02541","distance":23.985623795496,"lon":"-70.595913","lat":"41.561884","theaterChainName":"Entertainment Cinemas","ticketType":"STANDARD"}]