[{"id":"5423","tribuneTheaterId":"10860","providerTheaterId":"","name":"Chatham Orpheum Theater","address":"637 Main Street","city":"Chatham","state":"MA","zip":"02633","distance":6.7905629518723,"lon":"-69.9602","lat":"41.6823","theaterChainName":"Independent Chains","ticketType":"STANDARD"},{"id":"2397","tribuneTheaterId":"4021","providerTheaterId":"","name":"Wellfleet Cinemas","address":"51 State Hwy Rte 6","city":"Wellfleet","state":"MA","zip":"02667","distance":6.888097175962,"lon":"-69.987999","lat":"41.878799","theaterChainName":"Independent Chains","ticketType":"STANDARD"},{"id":"476","tribuneTheaterId":"6277","providerTheaterId":"","name":"Entertainment Cinemas South Dennis","address":"2-6 Enterprise Road","city":"South Dennis","state":"MA","zip":"02660","distance":10.535398683702,"lon":"-70.150529","lat":"41.692757","theaterChainName":"Entertainment Cinemas","ticketType":"STANDARD"},{"id":"4629","tribuneTheaterId":"9812","providerTheaterId":"","name":"Cape Cinema","address":"35 Hope Lane","city":"Dennis","state":"MA","zip":"02638","distance":11.212454270786,"lon":"-70.193421","lat":"41.740342","theaterChainName":"Independent Chains","ticketType":"STANDARD"},{"id":"2763","tribuneTheaterId":"7019","providerTheaterId":"","name":"Regal Cape Cod Mall Stadium 12","address":"Rt 28 ","city":"Hyannis","state":"MA","zip":"02601","distance":17.61847900149,"lon":"-70.2878","lat":"41.6652","theaterChainName":"Regal Cinemas","ticketType":"STANDARD"}]