[{"id":"2763","name":"Regal Cape Cod Mall Stadium 12","address":"Rt 28 ","city":"Hyannis","state":"MA","zip":"02601","distance":"15.353608131408691","lon":"-70.287804","lat":"41.665199","theaterChainName":"Regal Cinemas","ticketType":"STANDARD"},{"id":"4629","name":"Cape Cinema","address":"35 Hope Lane","city":"Dennis","state":"MA","zip":"02638","distance":"11.207917213439941","lon":"-70.193420","lat":"41.740341","theaterChainName":"Independent Chains","ticketType":"STANDARD"},{"id":"476","name":"Entertainment Cinemas South Dennis","address":"2-6 Enterprise Road","city":"South Dennis","state":"MA","zip":"02660","distance":"8.265552520751953","lon":"-70.150528","lat":"41.692757","theaterChainName":"Entertainment Cinemas","ticketType":"STANDARD"},{"id":"2397","name":"Wellfleet Cinemas","address":"51 State Hwy Rte 6","city":"Wellfleet","state":"MA","zip":"02667","distance":"13.654706954956055","lon":"-69.987999","lat":"41.878799","theaterChainName":"Independent Chains","ticketType":"STANDARD"},{"id":"5423","name":"Chatham Orpheum Theater","address":"637 Main Street","city":"Chatham","state":"MA","zip":"02633","distance":"1.596380352973938","lon":"-69.960197","lat":"41.682301","theaterChainName":"Independent Chains","ticketType":"STANDARD"}]