[{"id":"724","name":"Regal Bellingham Stadium 14","address":"259 Hartford Ave.","city":"Bellingham","state":"MA","zip":"02019","distance":"14.93197250366211","lon":"-71.460236","lat":"42.110397","theaterChainName":"Regal Cinemas","ticketType":"STANDARD"},{"id":"459","name":"Dedham Community Theatre","address":"580 High St.","city":"Dedham","state":"MA","zip":"02026","distance":"22.953472137451172","lon":"-71.173157","lat":"42.247974","theaterChainName":"Independent Chains","ticketType":"STANDARD"},{"id":"460","name":"AMC Braintree","address":"121 Grandview Road","city":"Braintree","state":"MA","zip":"02184","distance":"24.224428176879883","lon":"-71.033058","lat":"42.218357","theaterChainName":"AMC Theatres","ticketType":"SELECT_SEATING"},{"id":"4155","name":"Cinemaworld Lincoln","address":"622 George Washington Hwy. Lincoln Mall","city":"Lincoln","state":"RI","zip":"02865","distance":"9.107781410217285","lon":"-71.477608","lat":"41.939312","theaterChainName":"Cinemaworld","ticketType":"STANDARD"},{"id":"309","name":"Showcase Cinemas North Attleboro","address":"640 South Washington St.","city":"North Attleboro","state":"MA","zip":"02760","distance":"2.71584415435791","lon":"-71.342056","lat":"41.954254","theaterChainName":"National Amusements","ticketType":"STANDARD"},{"id":"2764","name":"Providence Place Cinemas 16","address":"10 Providence Place","city":"Providence","state":"RI","zip":"02903","distance":"9.256332397460938","lon":"-71.416718","lat":"41.827084","theaterChainName":"National Amusements","ticketType":"STANDARD"},{"id":"1024","name":"Avon Cinema","address":"260 Thayer Street","city":"Providence","state":"RI","zip":"02906","distance":"8.655097961425781","lon":"-71.400871","lat":"41.828854","theaterChainName":"Independent Chains","ticketType":"STANDARD"},{"id":"1025","name":"Cable Car","address":"204 S Main","city":"Providence","state":"RI","zip":"02903","distance":"9.11573600769043","lon":"-71.405487","lat":"41.823109","theaterChainName":"Independent Chains","ticketType":"STANDARD"},{"id":"692","name":"Showcase Cinemas Seekonk Rt. 6","address":"100 Commerce Way","city":"Seekonk","state":"MA","zip":"02771","distance":"9.263532638549805","lon":"-71.323387","lat":"41.796585","theaterChainName":"National Amusements","ticketType":"STANDARD"},{"id":"3214","name":"Showcase Cinemas Warwick Mall","address":"400 Bald Hill Road","city":"Warwick","state":"RI","zip":"02886","distance":"16.870019912719727","lon":"-71.473412","lat":"41.722034","theaterChainName":"National Amusements","ticketType":"STANDARD"},{"id":"98","name":"Showcase Warwick","address":"1200 Quaker Lane","city":"East Greenwich","state":"RI","zip":"02818","distance":"20.922136306762695","lon":"-71.495857","lat":"41.663971","theaterChainName":"National Amusements","ticketType":"STANDARD"},{"id":"3142","name":"Regal Swansea Stadium 12","address":"207 Swansea Mall Drive","city":"Swansea","state":"MA","zip":"02777","distance":"13.053303718566895","lon":"-71.213638","lat":"41.752228","theaterChainName":"Regal Cinemas","ticketType":"STANDARD"},{"id":"475","name":"Regal Silver City Galleria 10","address":"2 Galleria Mall Drive Suite 2832","city":"Taunton","state":"MA","zip":"02780","distance":"13.599483489990234","lon":"-71.051163","lat":"41.864944","theaterChainName":"Regal Cinemas","ticketType":"STANDARD"},{"id":"471","name":"East Bridgewater Cinema 6","address":"225 Bedford St.","city":"East Bridgewater","state":"MA","zip":"02333","distance":"18.7393798828125","lon":"-70.960175","lat":"42.026505","theaterChainName":"South Shore Cinemas","ticketType":"STANDARD"},{"id":"454","name":"Cameo Theatres 1 & 2","address":"14 Columbian St.","city":"South Weymouth","state":"MA","zip":"02190","distance":"24.656187057495117","lon":"-70.951469","lat":"42.174561","theaterChainName":"South Shore Cinemas","ticketType":"STANDARD"}]