[{"id":"3131","name":"Flagship Cinemas New Bedford","address":"500 Kings Hwy","city":"New Bedford","state":"MA","zip":"02745","distance":"17.389299392700195","lon":"-70.940903","lat":"41.673359","theaterChainName":"Flagship Cinemas","ticketType":"STANDARD"},{"id":"720","name":"AMC N. Dartmouth Mall 12","address":"140 N. Dartmouth Mall","city":"North Dartmouth","state":"MA","zip":"02747","distance":"15.440272331237793","lon":"-70.990601","lat":"41.640800","theaterChainName":"AMC Theatres","ticketType":"STANDARD"},{"id":"4772","name":"Falmouth Cinema Pub","address":"137 Teaticket Highway","city":"Falmouth","state":"MA","zip":"02541","distance":"19.874910354614258","lon":"-70.595917","lat":"41.561886","theaterChainName":"Entertainment Cinemas","ticketType":"STANDARD"},{"id":"1027","name":"Island Cinemas 10","address":"866 W. Main Rd.","city":"Middletown","state":"RI","zip":"02842","distance":"19.49846839904785","lon":"-71.283455","lat":"41.521824","theaterChainName":"Boston Culinary Group","ticketType":"STANDARD"},{"id":"1029","name":"Jane Pickens Theatre","address":"49 Touro Street","city":"Newport","state":"RI","zip":"02840","distance":"20.35455322265625","lon":"-71.313766","lat":"41.489685","theaterChainName":"Independent Chains","ticketType":"STANDARD"}]