[{"id":"2306","tribuneTheaterId":"4661","providerTheaterId":"","name":"Regal Stonington 10","address":"85 Voluntown Road","city":"Pawcatuck","state":"CT","zip":"06379","distance":5.1751270259486,"lon":"-71.846","lat":"41.405","theaterChainName":"Regal Cinemas","ticketType":"STANDARD"},{"id":"2179","tribuneTheaterId":"3896","providerTheaterId":"","name":"Mystic Luxury Cinema","address":"27 Coogan Blvd","city":"Mystic","state":"CT","zip":"06355","distance":11.28674843652,"lon":"-71.958262","lat":"41.373357","theaterChainName":"Independent Chains","ticketType":"STANDARD"},{"id":"3532","tribuneTheaterId":"7471","providerTheaterId":"","name":"Entertainment Cinemas South Kingstown 8","address":"30 Village Square Dr.","city":"South Kingstown","state":"RI","zip":"02879","distance":14.639449479338,"lon":"-71.469922","lat":"41.454937","theaterChainName":"Boston Culinary Group","ticketType":"STANDARD"},{"id":"4008","tribuneTheaterId":"2319","providerTheaterId":"","name":"Digiplex Lisbon 12","address":"162 River Road","city":"Lisbon","state":"CT","zip":"06351","distance":17.24383262099,"lon":"-71.990275","lat":"41.581544","theaterChainName":"Carmike Cinemas","ticketType":"STANDARD"},{"id":"884","tribuneTheaterId":"6913","providerTheaterId":"","name":"Regal Waterford 9","address":"123 Cross Rd.","city":"Waterford","state":"CT","zip":"06385","distance":21.677828976169,"lon":"-72.161551","lat":"41.372865","theaterChainName":"Regal Cinemas","ticketType":"STANDARD"},{"id":"98","tribuneTheaterId":"8347","providerTheaterId":"","name":"Showcase Warwick","address":"1200 Quaker Lane","city":"East Greenwich","state":"RI","zip":"02818","distance":21.738408940771,"lon":"-71.495861","lat":"41.66397","theaterChainName":"National Amusements","ticketType":"STANDARD"},{"id":"2776","tribuneTheaterId":"2956","providerTheaterId":"","name":"Niantic Cinema","address":"279 Main Street","city":"Niantic","state":"CT","zip":"06357","distance":23.997424499079,"lon":"-72.194165","lat":"41.323326","theaterChainName":"Independent Chains","ticketType":"STANDARD"},{"id":"1029","tribuneTheaterId":"2444","providerTheaterId":"","name":"Jane Pickens Theatre","address":"49 Touro Street","city":"Newport","state":"RI","zip":"02840","distance":23.053412222733,"lon":"-71.31377","lat":"41.489684","theaterChainName":"Independent Chains","ticketType":"STANDARD"}]