[{"id":"3214","name":"Showcase Cinemas Warwick Mall","address":"400 Bald Hill Road","city":"Warwick","state":"RI","zip":"02886","distance":"24.239606857299805","lon":"-71.473412","lat":"41.722034","theaterChainName":"National Amusements","ticketType":"STANDARD"},{"id":"98","name":"Showcase Warwick","address":"1200 Quaker Lane","city":"East Greenwich","state":"RI","zip":"02818","distance":"20.10808563232422","lon":"-71.495857","lat":"41.663971","theaterChainName":"National Amusements","ticketType":"STANDARD"},{"id":"4008","name":"Digiplex Lisbon 12","address":"162 River Road","city":"Lisbon","state":"CT","zip":"06351","distance":"21.111913681030273","lon":"-71.990273","lat":"41.581543","theaterChainName":"Carmike Cinemas","ticketType":"STANDARD"},{"id":"1027","name":"Island Cinemas 10","address":"866 W. Main Rd.","city":"Middletown","state":"RI","zip":"02842","distance":"21.289913177490234","lon":"-71.283455","lat":"41.521824","theaterChainName":"Boston Culinary Group","ticketType":"STANDARD"},{"id":"1029","name":"Jane Pickens Theatre","address":"49 Touro Street","city":"Newport","state":"RI","zip":"02840","distance":"19.03135108947754","lon":"-71.313766","lat":"41.489685","theaterChainName":"Independent Chains","ticketType":"STANDARD"},{"id":"3532","name":"Entertainment Cinemas South Kingstown 8","address":"30 Village Square Dr.","city":"South Kingstown","state":"RI","zip":"02879","distance":"10.609172821044922","lon":"-71.469925","lat":"41.454937","theaterChainName":"Boston Culinary Group","ticketType":"STANDARD"},{"id":"2306","name":"Regal Stonington 10","address":"85 Voluntown Road","city":"Pawcatuck","state":"CT","zip":"06379","distance":"9.567071914672852","lon":"-71.846001","lat":"41.404999","theaterChainName":"Regal Cinemas","ticketType":"STANDARD"},{"id":"2179","name":"Mystic Luxury Cinema","address":"27 Coogan Blvd","city":"Mystic","state":"CT","zip":"06355","distance":"15.50000286102295","lon":"-71.958260","lat":"41.373356","theaterChainName":"Independent Chains","ticketType":"STANDARD"}]