[{"id":"3214","tribuneTheaterId":"5148","providerTheaterId":"","name":"Showcase Cinemas Warwick Mall","address":"400 Bald Hill Road","city":"Warwick","state":"RI","zip":"02886","distance":10.870496073255,"lon":"-71.473408","lat":"41.722036","theaterChainName":"National Amusements","ticketType":"STANDARD"},{"id":"98","tribuneTheaterId":"8347","providerTheaterId":"","name":"Showcase Warwick","address":"1200 Quaker Lane","city":"East Greenwich","state":"RI","zip":"02818","distance":11.960882083833,"lon":"-71.495861","lat":"41.66397","theaterChainName":"National Amusements","ticketType":"STANDARD"},{"id":"1025","tribuneTheaterId":"2442","providerTheaterId":"","name":"Cable Car","address":"204 S Main","city":"Providence","state":"RI","zip":"02903","distance":14.009452375339,"lon":"-71.405486","lat":"41.823107","theaterChainName":"Independent Chains","ticketType":"STANDARD"},{"id":"2764","tribuneTheaterId":"8232","providerTheaterId":"","name":"Providence Place Cinemas 16","address":"10 Providence Place","city":"Providence","state":"RI","zip":"02903","distance":13.512464859671,"lon":"-71.416717","lat":"41.827085","theaterChainName":"National Amusements","ticketType":"STANDARD"},{"id":"4155","tribuneTheaterId":"2390","providerTheaterId":"","name":"Cinemaworld Lincoln","address":"622 George Washington Hwy. Lincoln Mall","city":"Lincoln","state":"RI","zip":"02865","distance":14.938558575591,"lon":"-71.477611","lat":"41.939311","theaterChainName":"Cinemaworld","ticketType":"STANDARD"},{"id":"1024","tribuneTheaterId":"228","providerTheaterId":"","name":"Avon Cinema","address":"260 Thayer Street","city":"Providence","state":"RI","zip":"02906","distance":14.33307709346,"lon":"-71.400873","lat":"41.828855","theaterChainName":"Independent Chains","ticketType":"STANDARD"},{"id":"692","tribuneTheaterId":"8346","providerTheaterId":"","name":"Showcase Cinemas Seekonk Rt. 6","address":"100 Commerce Way","city":"Seekonk","state":"MA","zip":"02771","distance":17.934780518617,"lon":"-71.323384","lat":"41.796585","theaterChainName":"National Amusements","ticketType":"STANDARD"},{"id":"4008","tribuneTheaterId":"2319","providerTheaterId":"","name":"Digiplex Lisbon 12","address":"162 River Road","city":"Lisbon","state":"CT","zip":"06351","distance":21.354309568643,"lon":"-71.990275","lat":"41.581544","theaterChainName":"Carmike Cinemas","ticketType":"STANDARD"},{"id":"309","tribuneTheaterId":"9010","providerTheaterId":"","name":"Showcase Cinemas North Attleboro","address":"640 South Washington St.","city":"North Attleboro","state":"MA","zip":"02760","distance":20.84272930165,"lon":"-71.342055","lat":"41.954254","theaterChainName":"National Amusements","ticketType":"STANDARD"},{"id":"3532","tribuneTheaterId":"7471","providerTheaterId":"","name":"Entertainment Cinemas South Kingstown 8","address":"30 Village Square Dr.","city":"South Kingstown","state":"RI","zip":"02879","distance":24.598465022728,"lon":"-71.469922","lat":"41.454937","theaterChainName":"Boston Culinary Group","ticketType":"STANDARD"},{"id":"3142","tribuneTheaterId":"4662","providerTheaterId":"","name":"Regal Swansea Stadium 12","address":"207 Swansea Mall Drive","city":"Swansea","state":"MA","zip":"02777","distance":23.616042351164,"lon":"-71.213636","lat":"41.752226","theaterChainName":"Regal Cinemas","ticketType":"STANDARD"}]