[{"id":"2306","tribuneTheaterId":"4661","providerTheaterId":"","name":"Regal Stonington 10","address":"85 Voluntown Road","city":"Pawcatuck","state":"CT","zip":"06379","distance":9.2696801874646,"lon":"-71.846","lat":"41.405","theaterChainName":"Regal Cinemas","ticketType":"STANDARD"},{"id":"2179","tribuneTheaterId":"3896","providerTheaterId":"","name":"Mystic Luxury Cinema","address":"27 Coogan Blvd","city":"Mystic","state":"CT","zip":"06355","distance":14.955088882988,"lon":"-71.958262","lat":"41.373357","theaterChainName":"Independent Chains","ticketType":"STANDARD"},{"id":"3532","tribuneTheaterId":"7471","providerTheaterId":"","name":"Entertainment Cinemas South Kingstown 8","address":"30 Village Square Dr.","city":"South Kingstown","state":"RI","zip":"02879","distance":14.176389106902,"lon":"-71.469922","lat":"41.454937","theaterChainName":"Boston Culinary Group","ticketType":"STANDARD"},{"id":"4008","tribuneTheaterId":"2319","providerTheaterId":"","name":"Digiplex Lisbon 12","address":"162 River Road","city":"Lisbon","state":"CT","zip":"06351","distance":14.15876619072,"lon":"-71.990275","lat":"41.581544","theaterChainName":"Carmike Cinemas","ticketType":"STANDARD"},{"id":"98","tribuneTheaterId":"8347","providerTheaterId":"","name":"Showcase Warwick","address":"1200 Quaker Lane","city":"East Greenwich","state":"RI","zip":"02818","distance":16.2815268135,"lon":"-71.495861","lat":"41.66397","theaterChainName":"National Amusements","ticketType":"STANDARD"},{"id":"3214","tribuneTheaterId":"5148","providerTheaterId":"","name":"Showcase Cinemas Warwick Mall","address":"400 Bald Hill Road","city":"Warwick","state":"RI","zip":"02886","distance":19.912245422491,"lon":"-71.473408","lat":"41.722036","theaterChainName":"National Amusements","ticketType":"STANDARD"},{"id":"1029","tribuneTheaterId":"2444","providerTheaterId":"","name":"Jane Pickens Theatre","address":"49 Touro Street","city":"Newport","state":"RI","zip":"02840","distance":21.784416375767,"lon":"-71.31377","lat":"41.489684","theaterChainName":"Independent Chains","ticketType":"STANDARD"},{"id":"884","tribuneTheaterId":"6913","providerTheaterId":"","name":"Regal Waterford 9","address":"123 Cross Rd.","city":"Waterford","state":"CT","zip":"06385","distance":24.080676275093,"lon":"-72.161551","lat":"41.372865","theaterChainName":"Regal Cinemas","ticketType":"STANDARD"},{"id":"1027","tribuneTheaterId":"5982","providerTheaterId":"","name":"Island Cinemas 10","address":"866 W. Main Rd.","city":"Middletown","state":"RI","zip":"02842","distance":23.319218052595,"lon":"-71.283454","lat":"41.521824","theaterChainName":"Boston Culinary Group","ticketType":"STANDARD"}]