[{"id":"5534","name":"Cinemagic in Sturbridge","address":"100 Charlton Road","city":"Sturbridge","state":"MA","zip":"01566","distance":"21.225608825683594","lon":"-72.060623","lat":"42.125561","theaterChainName":"Independent Chains","ticketType":"STANDARD"},{"id":"310","name":"Showcase Cinemas Worcester North","address":"135 Brooks St.","city":"Worcester","state":"MA","zip":"01606","distance":"24.71772003173828","lon":"-71.801598","lat":"42.313900","theaterChainName":"National Amusements","ticketType":"STANDARD"},{"id":"1094","name":"Elm DraughtHouse Theatre","address":"35 Elm St.","city":"Millbury","state":"MA","zip":"01527","distance":"16.035932540893555","lon":"-71.758339","lat":"42.191975","theaterChainName":"Independent Chains","ticketType":"STANDARD"},{"id":"579","name":"Regal Westborough Stadium 12","address":"231 Turnpike Road","city":"Westborough","state":"MA","zip":"01581","distance":"22.7330322265625","lon":"-71.635399","lat":"42.287025","theaterChainName":"Regal Cinemas","ticketType":"STANDARD"},{"id":"724","name":"Regal Bellingham Stadium 14","address":"259 Hartford Ave.","city":"Bellingham","state":"MA","zip":"02019","distance":"16.380468368530273","lon":"-71.460236","lat":"42.110397","theaterChainName":"Regal Cinemas","ticketType":"STANDARD"},{"id":"4155","name":"Cinemaworld Lincoln","address":"622 George Washington Hwy. Lincoln Mall","city":"Lincoln","state":"RI","zip":"02865","distance":"12.046157836914062","lon":"-71.477608","lat":"41.939312","theaterChainName":"Cinemaworld","ticketType":"STANDARD"},{"id":"309","name":"Showcase Cinemas North Attleboro","address":"640 South Washington St.","city":"North Attleboro","state":"MA","zip":"02760","distance":"18.90990447998047","lon":"-71.342056","lat":"41.954254","theaterChainName":"National Amusements","ticketType":"STANDARD"},{"id":"2764","name":"Providence Place Cinemas 16","address":"10 Providence Place","city":"Providence","state":"RI","zip":"02903","distance":"17.7540225982666","lon":"-71.416718","lat":"41.827084","theaterChainName":"National Amusements","ticketType":"STANDARD"},{"id":"1024","name":"Avon Cinema","address":"260 Thayer Street","city":"Providence","state":"RI","zip":"02906","distance":"18.389297485351562","lon":"-71.400871","lat":"41.828854","theaterChainName":"Independent Chains","ticketType":"STANDARD"},{"id":"1025","name":"Cable Car","address":"204 S Main","city":"Providence","state":"RI","zip":"02903","distance":"18.390159606933594","lon":"-71.405487","lat":"41.823109","theaterChainName":"Independent Chains","ticketType":"STANDARD"},{"id":"692","name":"Showcase Cinemas Seekonk Rt. 6","address":"100 Commerce Way","city":"Seekonk","state":"MA","zip":"02771","distance":"22.959718704223633","lon":"-71.323387","lat":"41.796585","theaterChainName":"National Amusements","ticketType":"STANDARD"},{"id":"3214","name":"Showcase Cinemas Warwick Mall","address":"400 Bald Hill Road","city":"Warwick","state":"RI","zip":"02886","distance":"20.609041213989258","lon":"-71.473412","lat":"41.722034","theaterChainName":"National Amusements","ticketType":"STANDARD"},{"id":"98","name":"Showcase Warwick","address":"1200 Quaker Lane","city":"East Greenwich","state":"RI","zip":"02818","distance":"23.40039825439453","lon":"-71.495857","lat":"41.663971","theaterChainName":"National Amusements","ticketType":"STANDARD"}]