[{"id":"4155","tribuneTheaterId":"2390","providerTheaterId":"","name":"Cinemaworld Lincoln","address":"622 George Washington Hwy. Lincoln Mall","city":"Lincoln","state":"RI","zip":"02865","distance":12.045259962613,"lon":"-71.477611","lat":"41.939311","theaterChainName":"Cinemaworld","ticketType":"STANDARD"},{"id":"724","tribuneTheaterId":"7748","providerTheaterId":"","name":"Regal Bellingham Stadium 14","address":"259 Hartford Ave.","city":"Bellingham","state":"MA","zip":"02019","distance":16.37962804511,"lon":"-71.460233","lat":"42.110399","theaterChainName":"Regal Cinemas","ticketType":"STANDARD"},{"id":"1094","tribuneTheaterId":"237","providerTheaterId":"","name":"Elm DraughtHouse Theatre","address":"35 Elm St.","city":"Millbury","state":"MA","zip":"01527","distance":16.034956511594,"lon":"-71.758339","lat":"42.191975","theaterChainName":"Independent Chains","ticketType":"STANDARD"},{"id":"1025","tribuneTheaterId":"2442","providerTheaterId":"","name":"Cable Car","address":"204 S Main","city":"Providence","state":"RI","zip":"02903","distance":18.389134559949,"lon":"-71.405486","lat":"41.823107","theaterChainName":"Independent Chains","ticketType":"STANDARD"},{"id":"2764","tribuneTheaterId":"8232","providerTheaterId":"","name":"Providence Place Cinemas 16","address":"10 Providence Place","city":"Providence","state":"RI","zip":"02903","distance":17.752901321555,"lon":"-71.416717","lat":"41.827085","theaterChainName":"National Amusements","ticketType":"STANDARD"},{"id":"1024","tribuneTheaterId":"228","providerTheaterId":"","name":"Avon Cinema","address":"260 Thayer Street","city":"Providence","state":"RI","zip":"02906","distance":18.388041083333,"lon":"-71.400873","lat":"41.828855","theaterChainName":"Independent Chains","ticketType":"STANDARD"},{"id":"309","tribuneTheaterId":"9010","providerTheaterId":"","name":"Showcase Cinemas North Attleboro","address":"640 South Washington St.","city":"North Attleboro","state":"MA","zip":"02760","distance":18.908803195222,"lon":"-71.342055","lat":"41.954254","theaterChainName":"National Amusements","ticketType":"STANDARD"},{"id":"3214","tribuneTheaterId":"5148","providerTheaterId":"","name":"Showcase Cinemas Warwick Mall","address":"400 Bald Hill Road","city":"Warwick","state":"RI","zip":"02886","distance":20.607795345041,"lon":"-71.473408","lat":"41.722036","theaterChainName":"National Amusements","ticketType":"STANDARD"},{"id":"5534","tribuneTheaterId":"10967","providerTheaterId":"","name":"Cinemagic in Sturbridge","address":"100 Charlton Road","city":"Sturbridge","state":"MA","zip":"01566","distance":21.224366313871,"lon":"-72.060624","lat":"42.125562","theaterChainName":"Independent Chains","ticketType":"STANDARD"},{"id":"579","tribuneTheaterId":"7899","providerTheaterId":"","name":"Regal Westborough Stadium 12","address":"231 Turnpike Road","city":"Westborough","state":"MA","zip":"01581","distance":22.731593058739,"lon":"-71.635398","lat":"42.287025","theaterChainName":"Regal Cinemas","ticketType":"STANDARD"},{"id":"692","tribuneTheaterId":"8346","providerTheaterId":"","name":"Showcase Cinemas Seekonk Rt. 6","address":"100 Commerce Way","city":"Seekonk","state":"MA","zip":"02771","distance":22.958446939631,"lon":"-71.323384","lat":"41.796585","theaterChainName":"National Amusements","ticketType":"STANDARD"},{"id":"98","tribuneTheaterId":"8347","providerTheaterId":"","name":"Showcase Warwick","address":"1200 Quaker Lane","city":"East Greenwich","state":"RI","zip":"02818","distance":23.398924163739,"lon":"-71.495861","lat":"41.66397","theaterChainName":"National Amusements","ticketType":"STANDARD"},{"id":"310","tribuneTheaterId":"7477","providerTheaterId":"","name":"Showcase Cinemas Worcester North","address":"135 Brooks St.","city":"Worcester","state":"MA","zip":"01606","distance":24.716184463731,"lon":"-71.801598","lat":"42.3139","theaterChainName":"National Amusements","ticketType":"STANDARD"}]