[{"id":"1024","tribuneTheaterId":"228","providerTheaterId":"","name":"Avon Cinema","address":"260 Thayer Street","city":"Providence","state":"RI","zip":"02906","distance":1.9517407801204,"lon":"-71.400873","lat":"41.828855","theaterChainName":"Independent Chains","ticketType":"STANDARD"},{"id":"2764","tribuneTheaterId":"8232","providerTheaterId":"","name":"Providence Place Cinemas 16","address":"10 Providence Place","city":"Providence","state":"RI","zip":"02903","distance":2.6325046964506,"lon":"-71.416717","lat":"41.827085","theaterChainName":"National Amusements","ticketType":"STANDARD"},{"id":"692","tribuneTheaterId":"8346","providerTheaterId":"","name":"Showcase Cinemas Seekonk Rt. 6","address":"100 Commerce Way","city":"Seekonk","state":"MA","zip":"02771","distance":2.624122861889,"lon":"-71.323384","lat":"41.796585","theaterChainName":"National Amusements","ticketType":"STANDARD"},{"id":"1025","tribuneTheaterId":"2442","providerTheaterId":"","name":"Cable Car","address":"204 S Main","city":"Providence","state":"RI","zip":"02903","distance":1.9955070267139,"lon":"-71.405486","lat":"41.823107","theaterChainName":"Independent Chains","ticketType":"STANDARD"},{"id":"3142","tribuneTheaterId":"4662","providerTheaterId":"","name":"Regal Swansea Stadium 12","address":"207 Swansea Mall Drive","city":"Swansea","state":"MA","zip":"02777","distance":9.055765797523,"lon":"-71.213636","lat":"41.752226","theaterChainName":"Regal Cinemas","ticketType":"STANDARD"},{"id":"3214","tribuneTheaterId":"5148","providerTheaterId":"","name":"Showcase Cinemas Warwick Mall","address":"400 Bald Hill Road","city":"Warwick","state":"RI","zip":"02886","distance":8.322237430685,"lon":"-71.473408","lat":"41.722036","theaterChainName":"National Amusements","ticketType":"STANDARD"},{"id":"4155","tribuneTheaterId":"2390","providerTheaterId":"","name":"Cinemaworld Lincoln","address":"622 George Washington Hwy. Lincoln Mall","city":"Lincoln","state":"RI","zip":"02865","distance":10.321781291349,"lon":"-71.477611","lat":"41.939311","theaterChainName":"Cinemaworld","ticketType":"STANDARD"},{"id":"309","tribuneTheaterId":"9010","providerTheaterId":"","name":"Showcase Cinemas North Attleboro","address":"640 South Washington St.","city":"North Attleboro","state":"MA","zip":"02760","distance":9.8014632467133,"lon":"-71.342055","lat":"41.954254","theaterChainName":"National Amusements","ticketType":"STANDARD"},{"id":"98","tribuneTheaterId":"8347","providerTheaterId":"","name":"Showcase Warwick","address":"1200 Quaker Lane","city":"East Greenwich","state":"RI","zip":"02818","distance":12.250804707163,"lon":"-71.495861","lat":"41.66397","theaterChainName":"National Amusements","ticketType":"STANDARD"},{"id":"475","tribuneTheaterId":"8199","providerTheaterId":"","name":"Regal Silver City Galleria 10","address":"2 Galleria Mall Drive Suite 2832","city":"Taunton","state":"MA","zip":"02780","distance":16.728286625591,"lon":"-71.051159","lat":"41.864944","theaterChainName":"Regal Cinemas","ticketType":"STANDARD"},{"id":"1027","tribuneTheaterId":"5982","providerTheaterId":"","name":"Island Cinemas 10","address":"866 W. Main Rd.","city":"Middletown","state":"RI","zip":"02842","distance":20.648910862201,"lon":"-71.283454","lat":"41.521824","theaterChainName":"Boston Culinary Group","ticketType":"STANDARD"},{"id":"724","tribuneTheaterId":"7748","providerTheaterId":"","name":"Regal Bellingham Stadium 14","address":"259 Hartford Ave.","city":"Bellingham","state":"MA","zip":"02019","distance":21.024509139702,"lon":"-71.460233","lat":"42.110399","theaterChainName":"Regal Cinemas","ticketType":"STANDARD"},{"id":"1029","tribuneTheaterId":"2444","providerTheaterId":"","name":"Jane Pickens Theatre","address":"49 Touro Street","city":"Newport","state":"RI","zip":"02840","distance":22.57373287136,"lon":"-71.31377","lat":"41.489684","theaterChainName":"Independent Chains","ticketType":"STANDARD"},{"id":"720","tribuneTheaterId":"8558","providerTheaterId":"876","name":"AMC N. Dartmouth Mall 12","address":"140 N. Dartmouth Mall","city":"North Dartmouth","state":"MA","zip":"02747","distance":22.873808629249,"lon":"-70.9906","lat":"41.6408","theaterChainName":"AMC Theatres","ticketType":"STANDARD"},{"id":"3131","tribuneTheaterId":"6079","providerTheaterId":"","name":"Flagship Cinemas New Bedford","address":"500 Kings Hwy","city":"New Bedford","state":"MA","zip":"02745","distance":24.099259314424,"lon":"-70.9409","lat":"41.673359","theaterChainName":"Flagship Cinemas","ticketType":"STANDARD"}]