[{"id":"724","name":"Regal Bellingham Stadium 14","address":"259 Hartford Ave.","city":"Bellingham","state":"MA","zip":"02019","distance":"21.025707244873047","lon":"-71.460236","lat":"42.110397","theaterChainName":"Regal Cinemas","ticketType":"STANDARD"},{"id":"4155","name":"Cinemaworld Lincoln","address":"622 George Washington Hwy. Lincoln Mall","city":"Lincoln","state":"RI","zip":"02865","distance":"10.32241439819336","lon":"-71.477608","lat":"41.939312","theaterChainName":"Cinemaworld","ticketType":"STANDARD"},{"id":"309","name":"Showcase Cinemas North Attleboro","address":"640 South Washington St.","city":"North Attleboro","state":"MA","zip":"02760","distance":"9.801997184753418","lon":"-71.342056","lat":"41.954254","theaterChainName":"National Amusements","ticketType":"STANDARD"},{"id":"2764","name":"Providence Place Cinemas 16","address":"10 Providence Place","city":"Providence","state":"RI","zip":"02903","distance":"2.63277006149292","lon":"-71.416718","lat":"41.827084","theaterChainName":"National Amusements","ticketType":"STANDARD"},{"id":"1024","name":"Avon Cinema","address":"260 Thayer Street","city":"Providence","state":"RI","zip":"02906","distance":"1.9518229961395264","lon":"-71.400871","lat":"41.828854","theaterChainName":"Independent Chains","ticketType":"STANDARD"},{"id":"1025","name":"Cable Car","address":"204 S Main","city":"Providence","state":"RI","zip":"02903","distance":"1.9958330392837524","lon":"-71.405487","lat":"41.823109","theaterChainName":"Independent Chains","ticketType":"STANDARD"},{"id":"692","name":"Showcase Cinemas Seekonk Rt. 6","address":"100 Commerce Way","city":"Seekonk","state":"MA","zip":"02771","distance":"2.624040126800537","lon":"-71.323387","lat":"41.796585","theaterChainName":"National Amusements","ticketType":"STANDARD"},{"id":"3214","name":"Showcase Cinemas Warwick Mall","address":"400 Bald Hill Road","city":"Warwick","state":"RI","zip":"02886","distance":"8.32308578491211","lon":"-71.473412","lat":"41.722034","theaterChainName":"National Amusements","ticketType":"STANDARD"},{"id":"98","name":"Showcase Warwick","address":"1200 Quaker Lane","city":"East Greenwich","state":"RI","zip":"02818","distance":"12.251526832580566","lon":"-71.495857","lat":"41.663971","theaterChainName":"National Amusements","ticketType":"STANDARD"},{"id":"3142","name":"Regal Swansea Stadium 12","address":"207 Swansea Mall Drive","city":"Swansea","state":"MA","zip":"02777","distance":"9.05606746673584","lon":"-71.213638","lat":"41.752228","theaterChainName":"Regal Cinemas","ticketType":"STANDARD"},{"id":"475","name":"Regal Silver City Galleria 10","address":"2 Galleria Mall Drive Suite 2832","city":"Taunton","state":"MA","zip":"02780","distance":"16.728994369506836","lon":"-71.051163","lat":"41.864944","theaterChainName":"Regal Cinemas","ticketType":"STANDARD"},{"id":"3131","name":"Flagship Cinemas New Bedford","address":"500 Kings Hwy","city":"New Bedford","state":"MA","zip":"02745","distance":"24.100522994995117","lon":"-70.940903","lat":"41.673359","theaterChainName":"Flagship Cinemas","ticketType":"STANDARD"},{"id":"720","name":"AMC N. Dartmouth Mall 12","address":"140 N. Dartmouth Mall","city":"North Dartmouth","state":"MA","zip":"02747","distance":"22.875093460083008","lon":"-70.990601","lat":"41.640800","theaterChainName":"AMC Theatres","ticketType":"STANDARD"},{"id":"1027","name":"Island Cinemas 10","address":"866 W. Main Rd.","city":"Middletown","state":"RI","zip":"02842","distance":"20.65021324157715","lon":"-71.283455","lat":"41.521824","theaterChainName":"Boston Culinary Group","ticketType":"STANDARD"},{"id":"1029","name":"Jane Pickens Theatre","address":"49 Touro Street","city":"Newport","state":"RI","zip":"02840","distance":"22.57512092590332","lon":"-71.313766","lat":"41.489685","theaterChainName":"Independent Chains","ticketType":"STANDARD"}]