[{"id":"1305","name":"Cinema World","address":"476 John Fitch Hwy","city":"Fitchburg","state":"MA","zip":"01420","distance":"17.36665153503418","lon":"-71.773415","lat":"42.583828","theaterChainName":"Independent Chains","ticketType":"STANDARD"},{"id":"159","name":"EMC Leominster 10","address":"45 Sack Blvd.","city":"Leominster","state":"MA","zip":"01453","distance":"18.630512237548828","lon":"-71.746223","lat":"42.531239","theaterChainName":"Entertainment Cinemas","ticketType":"STANDARD"},{"id":"2798","name":"Strand Theatre - Clinton","address":"58 High Street","city":"Clinton","state":"MA","zip":"01510","distance":"23.398427963256836","lon":"-71.684952","lat":"42.417053","theaterChainName":"Independent Chains","ticketType":"STANDARD"},{"id":"5745","name":"Fine Arts Theatre Place","address":"19 Summer Street","city":"Maynard","state":"MA","zip":"01754","distance":"20.128395080566406","lon":"-71.451874","lat":"42.433502","theaterChainName":"Independent Chains","ticketType":"STANDARD"},{"id":"3420","name":"Chunky's Cinema Pub -  Nashua","address":"151 Coliseum Ave.","city":"Nashua","state":"NH","zip":"03063","distance":"2.5503907203674316","lon":"-71.498398","lat":"42.759800","theaterChainName":"Independent Chains","ticketType":"STANDARD"},{"id":"500","name":"AMC Tyngsboro","address":"440 Middlesex Road","city":"Tyngsboro","state":"MA","zip":"01879","distance":"3.0288732051849365","lon":"-71.441017","lat":"42.697758","theaterChainName":"AMC Theatres","ticketType":"SELECT_SEATING"},{"id":"3972","name":"Merrimack Cinemagic","address":"11 Executive Park Drive","city":"Merrimack","state":"NH","zip":"03054","distance":"8.516242980957031","lon":"-71.497131","lat":"42.846615","theaterChainName":"Zyacorp Entertainment","ticketType":"STANDARD"},{"id":"693","name":"Showcase Cinemas Lowell","address":"32 Reiss Ave","city":"Lowell","state":"MA","zip":"01853","distance":"11.491544723510742","lon":"-71.322998","lat":"42.610783","theaterChainName":"National Amusements","ticketType":"STANDARD"},{"id":"5627","name":"The Luna Theater","address":"250 Jackson St. Unit 402","city":"Lowell","state":"MA","zip":"01852","distance":"10.631549835205078","lon":"-71.312202","lat":"42.641499","theaterChainName":"Independent Chains","ticketType":"STANDARD"},{"id":"2801","name":"Chunky's Pelham Cinema & Pub","address":"150 Bridge Street","city":"Pelham","state":"NH","zip":"03076","distance":"8.642183303833008","lon":"-71.319054","lat":"42.723297","theaterChainName":"Independent Chains","ticketType":"STANDARD"},{"id":"6142","name":"Chunky's Cinema Pub","address":"707 Huse Road","city":"Manchester","state":"NH","zip":"03103","distance":"15.996830940246582","lon":"-71.432449","lat":"42.951225","theaterChainName":"Independent Chains","ticketType":"STANDARD"},{"id":"5566","name":"Londonderry 10","address":"16 Orchard View Drive","city":"Londonderry","state":"NH","zip":"03053","distance":"11.6876859664917","lon":"-71.354301","lat":"42.860600","theaterChainName":"Carmike Cinemas","ticketType":"STANDARD"},{"id":"3701","name":"Derry Cinemas","address":"10 Ashleigh Drive","city":"Derry","state":"NH","zip":"03038","distance":"14.44144058227539","lon":"-71.336693","lat":"42.899986","theaterChainName":"Independent Chains","ticketType":"STANDARD"},{"id":"465","name":"Lexington Venue","address":"1794 Massachussetts Ave.","city":"Lexington","state":"MA","zip":"02420","distance":"23.21837043762207","lon":"-71.228203","lat":"42.447899","theaterChainName":"Independent Chains","ticketType":"STANDARD"},{"id":"461","name":"AMC Burlington 10","address":"20 South Ave.","city":"Burlington","state":"MA","zip":"01803","distance":"21.802526473999023","lon":"-71.217148","lat":"42.479717","theaterChainName":"AMC Theatres","ticketType":"SELECT_SEATING"},{"id":"221","name":"Showcase Cinemas Woburn","address":"25 Middlesex Canal Parkway","city":"Woburn","state":"MA","zip":"01801","distance":"22.878128051757812","lon":"-71.160828","lat":"42.497261","theaterChainName":"National Amusements","ticketType":"STANDARD"},{"id":"2901","name":"Showcase Cinemas Lawrence","address":"6 Chickering Street","city":"Lawrence","state":"MA","zip":"01843","distance":"17.710018157958984","lon":"-71.143669","lat":"42.689102","theaterChainName":"National Amusements","ticketType":"STANDARD"},{"id":"455","name":"Regal Hooksett 8","address":"100 Technology Drive","city":"Hooksett","state":"NH","zip":"03106","distance":"22.340137481689453","lon":"-71.465202","lat":"43.046329","theaterChainName":"Regal Cinemas","ticketType":"STANDARD"},{"id":"4387","name":"Hooksett Cinemagic & IMAX","address":"1226 Hooksett Road","city":"Hooksett","state":"NH","zip":"03106","distance":"22.103992462158203","lon":"-71.439041","lat":"43.041267","theaterChainName":"Zyacorp Entertainment","ticketType":"STANDARD"},{"id":"3076","name":"AMC Loews Methuen 20","address":"90 Pleasant Valley St.","city":"Methuen","state":"MA","zip":"01844","distance":"16.908966064453125","lon":"-71.157341","lat":"42.744240","theaterChainName":"AMC Theatres","ticketType":"SELECT_SEATING"},{"id":"2799","name":"Chunky's Haverhill Cinema & Pub","address":"371 Lowell Avenue","city":"Haverhill","state":"MA","zip":"01832","distance":"19.24382972717285","lon":"-71.116638","lat":"42.775211","theaterChainName":"Independent Chains","ticketType":"STANDARD"}]