[{"id":"455","tribuneTheaterId":"7897","providerTheaterId":"","name":"Regal Hooksett 8","address":"100 Technology Drive","city":"Hooksett","state":"NH","zip":"03106","distance":1.493813337968,"lon":"-71.465206","lat":"43.046328","theaterChainName":"Regal Cinemas","ticketType":"STANDARD"},{"id":"4387","tribuneTheaterId":"9435","providerTheaterId":"","name":"Hooksett Cinemagic & IMAX","address":"1226 Hooksett Road","city":"Hooksett","state":"NH","zip":"03106","distance":1.4375359251445,"lon":"-71.439042","lat":"43.041266","theaterChainName":"Zyacorp Entertainment","ticketType":"STANDARD"},{"id":"6142","tribuneTheaterId":"11564","providerTheaterId":"","name":"Chunky's Cinema Pub","address":"707 Huse Road","city":"Manchester","state":"NH","zip":"03103","distance":7.656844911907,"lon":"-71.432453","lat":"42.951226","theaterChainName":"Independent Chains","ticketType":"STANDARD"},{"id":"4551","tribuneTheaterId":"9687","providerTheaterId":"","name":"Red River Theatres","address":"11 S. Main St.","city":"Concord","state":"NH","zip":"03301","distance":10.834109102257,"lon":"-71.535212","lat":"43.203811","theaterChainName":"Independent Chains","ticketType":"STANDARD"},{"id":"456","tribuneTheaterId":"7146","providerTheaterId":"","name":"Regal Concord 10","address":"282 Loudon Road","city":"Concord","state":"NH","zip":"03301","distance":11.47612625974,"lon":"-71.485912","lat":"43.225011","theaterChainName":"Regal Cinemas","ticketType":"STANDARD"},{"id":"3701","tribuneTheaterId":"6281","providerTheaterId":"","name":"Derry Cinemas","address":"10 Ashleigh Drive","city":"Derry","state":"NH","zip":"03038","distance":12.428979255548,"lon":"-71.336696","lat":"42.899988","theaterChainName":"Independent Chains","ticketType":"STANDARD"},{"id":"5566","tribuneTheaterId":"11013","providerTheaterId":"","name":"Londonderry 10","address":"16 Orchard View Drive","city":"Londonderry","state":"NH","zip":"03053","distance":14.622472654136,"lon":"-71.3543","lat":"42.8606","theaterChainName":"Carmike Cinemas","ticketType":"STANDARD"},{"id":"3972","tribuneTheaterId":"2318","providerTheaterId":"","name":"Merrimack Cinemagic","address":"11 Executive Park Drive","city":"Merrimack","state":"NH","zip":"03054","distance":15.098242530635,"lon":"-71.497135","lat":"42.846616","theaterChainName":"Zyacorp Entertainment","ticketType":"STANDARD"},{"id":"5249","tribuneTheaterId":"10678","providerTheaterId":"","name":"O'Neil Cinemas at Brickyard Square","address":"24 Calef Highway","city":"Epping","state":"NH","zip":"03042","distance":18.898168959706,"lon":"-71.0739","lat":"43.0231","theaterChainName":"O'Neil Cinemas","ticketType":"STANDARD"},{"id":"3420","tribuneTheaterId":"1963","providerTheaterId":"","name":"Chunky's Cinema Pub -  Nashua","address":"151 Coliseum Ave.","city":"Nashua","state":"NH","zip":"03063","distance":21.037501843322,"lon":"-71.4984","lat":"42.7598","theaterChainName":"Independent Chains","ticketType":"STANDARD"},{"id":"2801","tribuneTheaterId":"1853","providerTheaterId":"","name":"Chunky's Pelham Cinema & Pub","address":"150 Bridge Street","city":"Pelham","state":"NH","zip":"03076","distance":24.226990307008,"lon":"-71.319055","lat":"42.723297","theaterChainName":"Independent Chains","ticketType":"STANDARD"},{"id":"4856","tribuneTheaterId":"10151","providerTheaterId":"","name":"BarnZ's Barrington Cinema","address":"586 Calef Highway, Suite One","city":"Barrington","state":"NH","zip":"03825","distance":24.624941539382,"lon":"-70.998397","lat":"43.206925","theaterChainName":"Independent Chains","ticketType":"STANDARD"}]