[{"id":"6142","tribuneTheaterId":"11564","providerTheaterId":"","name":"Chunky's Cinema Pub","address":"707 Huse Road","city":"Manchester","state":"NH","zip":"03103","distance":1.6858548672765,"lon":"-71.432453","lat":"42.951226","theaterChainName":"Independent Chains","ticketType":"STANDARD"},{"id":"455","tribuneTheaterId":"7897","providerTheaterId":"","name":"Regal Hooksett 8","address":"100 Technology Drive","city":"Hooksett","state":"NH","zip":"03106","distance":5.8049856953623,"lon":"-71.465206","lat":"43.046328","theaterChainName":"Regal Cinemas","ticketType":"STANDARD"},{"id":"4387","tribuneTheaterId":"9435","providerTheaterId":"","name":"Hooksett Cinemagic & IMAX","address":"1226 Hooksett Road","city":"Hooksett","state":"NH","zip":"03106","distance":5.0034815080209,"lon":"-71.439042","lat":"43.041266","theaterChainName":"Zyacorp Entertainment","ticketType":"STANDARD"},{"id":"3701","tribuneTheaterId":"6281","providerTheaterId":"","name":"Derry Cinemas","address":"10 Ashleigh Drive","city":"Derry","state":"NH","zip":"03038","distance":6.2746372877399,"lon":"-71.336696","lat":"42.899988","theaterChainName":"Independent Chains","ticketType":"STANDARD"},{"id":"5566","tribuneTheaterId":"11013","providerTheaterId":"","name":"Londonderry 10","address":"16 Orchard View Drive","city":"Londonderry","state":"NH","zip":"03053","distance":8.2143108251396,"lon":"-71.3543","lat":"42.8606","theaterChainName":"Carmike Cinemas","ticketType":"STANDARD"},{"id":"3972","tribuneTheaterId":"2318","providerTheaterId":"","name":"Merrimack Cinemagic","address":"11 Executive Park Drive","city":"Merrimack","state":"NH","zip":"03054","distance":9.5983887763631,"lon":"-71.497135","lat":"42.846616","theaterChainName":"Zyacorp Entertainment","ticketType":"STANDARD"},{"id":"3420","tribuneTheaterId":"1963","providerTheaterId":"","name":"Chunky's Cinema Pub -  Nashua","address":"151 Coliseum Ave.","city":"Nashua","state":"NH","zip":"03063","distance":15.23260729703,"lon":"-71.4984","lat":"42.7598","theaterChainName":"Independent Chains","ticketType":"STANDARD"},{"id":"4551","tribuneTheaterId":"9687","providerTheaterId":"","name":"Red River Theatres","address":"11 S. Main St.","city":"Concord","state":"NH","zip":"03301","distance":17.198865696155,"lon":"-71.535212","lat":"43.203811","theaterChainName":"Independent Chains","ticketType":"STANDARD"},{"id":"2801","tribuneTheaterId":"1853","providerTheaterId":"","name":"Chunky's Pelham Cinema & Pub","address":"150 Bridge Street","city":"Pelham","state":"NH","zip":"03076","distance":17.790714958363,"lon":"-71.319055","lat":"42.723297","theaterChainName":"Independent Chains","ticketType":"STANDARD"},{"id":"456","tribuneTheaterId":"7146","providerTheaterId":"","name":"Regal Concord 10","address":"282 Loudon Road","city":"Concord","state":"NH","zip":"03301","distance":17.906356313049,"lon":"-71.485912","lat":"43.225011","theaterChainName":"Regal Cinemas","ticketType":"STANDARD"},{"id":"5249","tribuneTheaterId":"10678","providerTheaterId":"","name":"O'Neil Cinemas at Brickyard Square","address":"24 Calef Highway","city":"Epping","state":"NH","zip":"03042","distance":17.5305498785,"lon":"-71.0739","lat":"43.0231","theaterChainName":"O'Neil Cinemas","ticketType":"STANDARD"},{"id":"500","tribuneTheaterId":"7505","providerTheaterId":"812","name":"AMC Tyngsboro","address":"440 Middlesex Road","city":"Tyngsboro","state":"MA","zip":"01879","distance":18.951336223736,"lon":"-71.441015","lat":"42.697757","theaterChainName":"AMC Theatres","ticketType":"SELECT_SEATING"},{"id":"2799","tribuneTheaterId":"1714","providerTheaterId":"","name":"Chunky's Haverhill Cinema & Pub","address":"371 Lowell Avenue","city":"Haverhill","state":"MA","zip":"01832","distance":20.236470362806,"lon":"-71.116637","lat":"42.775212","theaterChainName":"Independent Chains","ticketType":"STANDARD"},{"id":"3076","tribuneTheaterId":"9083","providerTheaterId":"2660","name":"AMC Loews Methuen 20","address":"90 Pleasant Valley St.","city":"Methuen","state":"MA","zip":"01844","distance":20.357984310455,"lon":"-71.157342","lat":"42.74424","theaterChainName":"AMC Theatres","ticketType":"SELECT_SEATING"},{"id":"2901","tribuneTheaterId":"7040","providerTheaterId":"","name":"Showcase Cinemas Lawrence","address":"6 Chickering Street","city":"Lawrence","state":"MA","zip":"01843","distance":23.81411830784,"lon":"-71.143668","lat":"42.689102","theaterChainName":"National Amusements","ticketType":"STANDARD"},{"id":"5627","tribuneTheaterId":"11090","providerTheaterId":"","name":"The Luna Theater","address":"250 Jackson St. Unit 402","city":"Lowell","state":"MA","zip":"01852","distance":23.35837240614,"lon":"-71.3122","lat":"42.6415","theaterChainName":"Independent Chains","ticketType":"STANDARD"}]