[{"id":"4551","name":"Red River Theatres","address":"11 S. Main St.","city":"Concord","state":"NH","zip":"03301","distance":"19.916048049926758","lon":"-71.535210","lat":"43.203812","theaterChainName":"Independent Chains","ticketType":"STANDARD"},{"id":"456","name":"Regal Concord 10","address":"282 Loudon Road","city":"Concord","state":"NH","zip":"03301","distance":"20.52046775817871","lon":"-71.485909","lat":"43.225010","theaterChainName":"Regal Cinemas","ticketType":"STANDARD"},{"id":"4604","name":"Smitty's Cinema","address":"630 W. Main St.","city":"Tilton","state":"NH","zip":"03276","distance":"8.296815872192383","lon":"-71.619507","lat":"43.446720","theaterChainName":"Independent Chains","ticketType":"STANDARD"},{"id":"6074","name":"The Flying Monkey Movie House & Performance Center","address":"39 Main Street","city":"Plymouth","state":"NH","zip":"03264","distance":"23.08487319946289","lon":"-71.687935","lat":"43.755619","theaterChainName":"Independent Chains","ticketType":"STANDARD"},{"id":"4449","name":"BarnZ's Meredith Cinema","address":"38 Route 25 Unit D","city":"Meredith","state":"NH","zip":"03253","distance":"24.097164154052734","lon":"-71.457703","lat":"43.685699","theaterChainName":"Independent Chains","ticketType":"STANDARD"}]