[{"id":"455","name":"Regal Hooksett 8","address":"100 Technology Drive","city":"Hooksett","state":"NH","zip":"03106","distance":"21.83233642578125","lon":"-71.465202","lat":"43.046329","theaterChainName":"Regal Cinemas","ticketType":"STANDARD"},{"id":"4387","name":"Hooksett Cinemagic & IMAX","address":"1226 Hooksett Road","city":"Hooksett","state":"NH","zip":"03106","distance":"21.65700340270996","lon":"-71.439041","lat":"43.041267","theaterChainName":"Zyacorp Entertainment","ticketType":"STANDARD"},{"id":"5249","name":"O'Neil Cinemas at Brickyard Square","address":"24 Calef Highway","city":"Epping","state":"NH","zip":"03042","distance":"24.1102352142334","lon":"-71.073898","lat":"43.023102","theaterChainName":"O'Neil Cinemas","ticketType":"STANDARD"},{"id":"4856","name":"BarnZ's Barrington Cinema","address":"586 Calef Highway, Suite One","city":"Barrington","state":"NH","zip":"03825","distance":"17.073659896850586","lon":"-70.998398","lat":"43.206924","theaterChainName":"Independent Chains","ticketType":"STANDARD"},{"id":"4551","name":"Red River Theatres","address":"11 S. Main St.","city":"Concord","state":"NH","zip":"03301","distance":"15.358158111572266","lon":"-71.535210","lat":"43.203812","theaterChainName":"Independent Chains","ticketType":"STANDARD"},{"id":"456","name":"Regal Concord 10","address":"282 Loudon Road","city":"Concord","state":"NH","zip":"03301","distance":"12.492908477783203","lon":"-71.485909","lat":"43.225010","theaterChainName":"Regal Cinemas","ticketType":"STANDARD"},{"id":"4604","name":"Smitty's Cinema","address":"630 W. Main St.","city":"Tilton","state":"NH","zip":"03276","distance":"18.319772720336914","lon":"-71.619507","lat":"43.446720","theaterChainName":"Independent Chains","ticketType":"STANDARD"}]