[{"id":"4604","tribuneTheaterId":"9776","providerTheaterId":"","name":"Smitty's Cinema","address":"630 W. Main St.","city":"Tilton","state":"NH","zip":"03276","distance":6.9479936094262,"lon":"-71.619508","lat":"43.44672","theaterChainName":"Independent Chains","ticketType":"STANDARD"},{"id":"456","tribuneTheaterId":"7146","providerTheaterId":"","name":"Regal Concord 10","address":"282 Loudon Road","city":"Concord","state":"NH","zip":"03301","distance":9.7952978306462,"lon":"-71.485912","lat":"43.225011","theaterChainName":"Regal Cinemas","ticketType":"STANDARD"},{"id":"4551","tribuneTheaterId":"9687","providerTheaterId":"","name":"Red River Theatres","address":"11 S. Main St.","city":"Concord","state":"NH","zip":"03301","distance":10.640921934643,"lon":"-71.535212","lat":"43.203811","theaterChainName":"Independent Chains","ticketType":"STANDARD"},{"id":"4449","tribuneTheaterId":"9530","providerTheaterId":"","name":"BarnZ's Meredith Cinema","address":"38 Route 25 Unit D","city":"Meredith","state":"NH","zip":"03253","distance":23.249385194499,"lon":"-71.457703","lat":"43.685699","theaterChainName":"Independent Chains","ticketType":"STANDARD"},{"id":"4387","tribuneTheaterId":"9435","providerTheaterId":"","name":"Hooksett Cinemagic & IMAX","address":"1226 Hooksett Road","city":"Hooksett","state":"NH","zip":"03106","distance":22.609666228463,"lon":"-71.439042","lat":"43.041266","theaterChainName":"Zyacorp Entertainment","ticketType":"STANDARD"},{"id":"455","tribuneTheaterId":"7897","providerTheaterId":"","name":"Regal Hooksett 8","address":"100 Technology Drive","city":"Hooksett","state":"NH","zip":"03106","distance":21.95758821571,"lon":"-71.465206","lat":"43.046328","theaterChainName":"Regal Cinemas","ticketType":"STANDARD"}]