[{"id":"6074","tribuneTheaterId":"11481","providerTheaterId":"","name":"The Flying Monkey Movie House & Performance Center","address":"39 Main Street","city":"Plymouth","state":"NH","zip":"03264","distance":6.0615876697865,"lon":"-71.687936","lat":"43.755618","theaterChainName":"Independent Chains","ticketType":"STANDARD"},{"id":"4068","tribuneTheaterId":"1799","providerTheaterId":"","name":"Lincoln Cinema IV","address":"Main Street Route 112","city":"Lincoln","state":"NH","zip":"03251","distance":13.786510358969,"lon":"-71.669816","lat":"44.041307","theaterChainName":"Independent Chains","ticketType":"STANDARD"},{"id":"5307","tribuneTheaterId":"10744","providerTheaterId":"","name":"BarnZ's Lincoln Cinema","address":"24 Lumber Yard Road","city":"Lincoln","state":"NH","zip":"03251","distance":13.862260149936,"lon":"-71.6701","lat":"44.0424","theaterChainName":"Independent Chains","ticketType":"STANDARD"},{"id":"4449","tribuneTheaterId":"9530","providerTheaterId":"","name":"BarnZ's Meredith Cinema","address":"38 Route 25 Unit D","city":"Meredith","state":"NH","zip":"03253","distance":14.95094378406,"lon":"-71.457703","lat":"43.685699","theaterChainName":"Independent Chains","ticketType":"STANDARD"}]