[{"id":"4604","name":"Smitty's Cinema","address":"630 W. Main St.","city":"Tilton","state":"NH","zip":"03276","distance":"21.466032028198242","lon":"-71.619507","lat":"43.446720","theaterChainName":"Independent Chains","ticketType":"STANDARD"},{"id":"6074","name":"The Flying Monkey Movie House & Performance Center","address":"39 Main Street","city":"Plymouth","state":"NH","zip":"03264","distance":"7.39909029006958","lon":"-71.687935","lat":"43.755619","theaterChainName":"Independent Chains","ticketType":"STANDARD"},{"id":"4449","name":"BarnZ's Meredith Cinema","address":"38 Route 25 Unit D","city":"Meredith","state":"NH","zip":"03253","distance":"18.587406158447266","lon":"-71.457703","lat":"43.685699","theaterChainName":"Independent Chains","ticketType":"STANDARD"},{"id":"158","name":"EMC Lebanon 6","address":"36 U.S. Highway","city":"Lebanon","state":"NH","zip":"03766","distance":"23.80672836303711","lon":"-72.289757","lat":"43.636772","theaterChainName":"Entertainment Cinemas","ticketType":"STANDARD"},{"id":"2792","name":"The Nugget Theatre","address":"57 S. Main Street","city":"Hanover","state":"NH","zip":"03755","distance":"23.133100509643555","lon":"-72.289490","lat":"43.700668","theaterChainName":"Independent Chains","ticketType":"STANDARD"},{"id":"4068","name":"Lincoln Cinema IV","address":"Main Street Route 112","city":"Lincoln","state":"NH","zip":"03251","distance":"23.632478713989258","lon":"-71.669815","lat":"44.041306","theaterChainName":"Independent Chains","ticketType":"STANDARD"},{"id":"5307","name":"BarnZ's Lincoln Cinema","address":"24 Lumber Yard Road","city":"Lincoln","state":"NH","zip":"03251","distance":"23.69920539855957","lon":"-71.670097","lat":"44.042400","theaterChainName":"Independent Chains","ticketType":"STANDARD"}]