[{"id":"4604","tribuneTheaterId":"9776","providerTheaterId":"","name":"Smitty's Cinema","address":"630 W. Main St.","city":"Tilton","state":"NH","zip":"03276","distance":7.8301341874145,"lon":"-71.619508","lat":"43.44672","theaterChainName":"Independent Chains","ticketType":"STANDARD"},{"id":"6074","tribuneTheaterId":"11481","providerTheaterId":"","name":"The Flying Monkey Movie House & Performance Center","address":"39 Main Street","city":"Plymouth","state":"NH","zip":"03264","distance":15.902745849959,"lon":"-71.687936","lat":"43.755618","theaterChainName":"Independent Chains","ticketType":"STANDARD"},{"id":"4449","tribuneTheaterId":"9530","providerTheaterId":"","name":"BarnZ's Meredith Cinema","address":"38 Route 25 Unit D","city":"Meredith","state":"NH","zip":"03253","distance":17.439143536499,"lon":"-71.457703","lat":"43.685699","theaterChainName":"Independent Chains","ticketType":"STANDARD"},{"id":"4551","tribuneTheaterId":"9687","providerTheaterId":"","name":"Red River Theatres","address":"11 S. Main St.","city":"Concord","state":"NH","zip":"03301","distance":24.388877220758,"lon":"-71.535212","lat":"43.203811","theaterChainName":"Independent Chains","ticketType":"STANDARD"},{"id":"456","tribuneTheaterId":"7146","providerTheaterId":"","name":"Regal Concord 10","address":"282 Loudon Road","city":"Concord","state":"NH","zip":"03301","distance":24.203364870505,"lon":"-71.485912","lat":"43.225011","theaterChainName":"Regal Cinemas","ticketType":"STANDARD"}]