[{"id":"6074","tribuneTheaterId":"11481","providerTheaterId":"","name":"The Flying Monkey Movie House & Performance Center","address":"39 Main Street","city":"Plymouth","state":"NH","zip":"03264","distance":7.3984206425115,"lon":"-71.687936","lat":"43.755618","theaterChainName":"Independent Chains","ticketType":"STANDARD"},{"id":"4449","tribuneTheaterId":"9530","providerTheaterId":"","name":"BarnZ's Meredith Cinema","address":"38 Route 25 Unit D","city":"Meredith","state":"NH","zip":"03253","distance":18.586057989437,"lon":"-71.457703","lat":"43.685699","theaterChainName":"Independent Chains","ticketType":"STANDARD"},{"id":"4604","tribuneTheaterId":"9776","providerTheaterId":"","name":"Smitty's Cinema","address":"630 W. Main St.","city":"Tilton","state":"NH","zip":"03276","distance":21.464522231541,"lon":"-71.619508","lat":"43.44672","theaterChainName":"Independent Chains","ticketType":"STANDARD"},{"id":"5307","tribuneTheaterId":"10744","providerTheaterId":"","name":"BarnZ's Lincoln Cinema","address":"24 Lumber Yard Road","city":"Lincoln","state":"NH","zip":"03251","distance":23.697692737191,"lon":"-71.6701","lat":"44.0424","theaterChainName":"Independent Chains","ticketType":"STANDARD"},{"id":"4068","tribuneTheaterId":"1799","providerTheaterId":"","name":"Lincoln Cinema IV","address":"Main Street Route 112","city":"Lincoln","state":"NH","zip":"03251","distance":23.631115500774,"lon":"-71.669816","lat":"44.041307","theaterChainName":"Independent Chains","ticketType":"STANDARD"},{"id":"158","tribuneTheaterId":"6263","providerTheaterId":"","name":"EMC Lebanon 6","address":"36 U.S. Highway","city":"Lebanon","state":"NH","zip":"03766","distance":23.805560924118,"lon":"-72.28976","lat":"43.636772","theaterChainName":"Entertainment Cinemas","ticketType":"STANDARD"},{"id":"2792","tribuneTheaterId":"1713","providerTheaterId":"","name":"The Nugget Theatre","address":"57 S. Main Street","city":"Hanover","state":"NH","zip":"03755","distance":23.131903164576,"lon":"-72.289491","lat":"43.700667","theaterChainName":"Independent Chains","ticketType":"STANDARD"}]