[{"id":"6142","name":"Chunky's Cinema Pub","address":"707 Huse Road","city":"Manchester","state":"NH","zip":"03103","distance":"21.201580047607422","lon":"-71.432449","lat":"42.951225","theaterChainName":"Independent Chains","ticketType":"STANDARD"},{"id":"3701","name":"Derry Cinemas","address":"10 Ashleigh Drive","city":"Derry","state":"NH","zip":"03038","distance":"22.302154541015625","lon":"-71.336693","lat":"42.899986","theaterChainName":"Independent Chains","ticketType":"STANDARD"},{"id":"455","name":"Regal Hooksett 8","address":"100 Technology Drive","city":"Hooksett","state":"NH","zip":"03106","distance":"17.36617660522461","lon":"-71.465202","lat":"43.046329","theaterChainName":"Regal Cinemas","ticketType":"STANDARD"},{"id":"4387","name":"Hooksett Cinemagic & IMAX","address":"1226 Hooksett Road","city":"Hooksett","state":"NH","zip":"03106","distance":"16.6129207611084","lon":"-71.439041","lat":"43.041267","theaterChainName":"Zyacorp Entertainment","ticketType":"STANDARD"},{"id":"5249","name":"O'Neil Cinemas at Brickyard Square","address":"24 Calef Highway","city":"Epping","state":"NH","zip":"03042","distance":"14.21906566619873","lon":"-71.073898","lat":"43.023102","theaterChainName":"O'Neil Cinemas","ticketType":"STANDARD"},{"id":"5469","name":"Cinemagic Stadium 10","address":"2454 Lafayette Rd","city":"Portsmouth","state":"NH","zip":"03801","distance":"24.245534896850586","lon":"-70.782402","lat":"43.033699","theaterChainName":"Independent Chains","ticketType":"STANDARD"},{"id":"834","name":"Fox Run Stadium 15 & RPX","address":"45 Gosling Road","city":"Newington","state":"NH","zip":"03801","distance":"21.582319259643555","lon":"-70.800941","lat":"43.094620","theaterChainName":"Regal Cinemas","ticketType":"STANDARD"},{"id":"4856","name":"BarnZ's Barrington Cinema","address":"586 Calef Highway, Suite One","city":"Barrington","state":"NH","zip":"03825","distance":"10.173747062683105","lon":"-70.998398","lat":"43.206924","theaterChainName":"Independent Chains","ticketType":"STANDARD"},{"id":"4551","name":"Red River Theatres","address":"11 S. Main St.","city":"Concord","state":"NH","zip":"03301","distance":"16.864221572875977","lon":"-71.535210","lat":"43.203812","theaterChainName":"Independent Chains","ticketType":"STANDARD"},{"id":"456","name":"Regal Concord 10","address":"282 Loudon Road","city":"Concord","state":"NH","zip":"03301","distance":"14.430961608886719","lon":"-71.485909","lat":"43.225010","theaterChainName":"Regal Cinemas","ticketType":"STANDARD"}]