[{"id":"456","tribuneTheaterId":"7146","providerTheaterId":"","name":"Regal Concord 10","address":"282 Loudon Road","city":"Concord","state":"NH","zip":"03301","distance":8.8197844397742,"lon":"-71.485912","lat":"43.225011","theaterChainName":"Regal Cinemas","ticketType":"STANDARD"},{"id":"4551","tribuneTheaterId":"9687","providerTheaterId":"","name":"Red River Theatres","address":"11 S. Main St.","city":"Concord","state":"NH","zip":"03301","distance":11.701721613921,"lon":"-71.535212","lat":"43.203811","theaterChainName":"Independent Chains","ticketType":"STANDARD"},{"id":"4856","tribuneTheaterId":"10151","providerTheaterId":"","name":"BarnZ's Barrington Cinema","address":"586 Calef Highway, Suite One","city":"Barrington","state":"NH","zip":"03825","distance":17.734071918776,"lon":"-70.998397","lat":"43.206925","theaterChainName":"Independent Chains","ticketType":"STANDARD"},{"id":"4387","tribuneTheaterId":"9435","providerTheaterId":"","name":"Hooksett Cinemagic & IMAX","address":"1226 Hooksett Road","city":"Hooksett","state":"NH","zip":"03106","distance":17.826123964754,"lon":"-71.439042","lat":"43.041266","theaterChainName":"Zyacorp Entertainment","ticketType":"STANDARD"},{"id":"455","tribuneTheaterId":"7897","providerTheaterId":"","name":"Regal Hooksett 8","address":"100 Technology Drive","city":"Hooksett","state":"NH","zip":"03106","distance":17.939487410913,"lon":"-71.465206","lat":"43.046328","theaterChainName":"Regal Cinemas","ticketType":"STANDARD"},{"id":"4604","tribuneTheaterId":"9776","providerTheaterId":"","name":"Smitty's Cinema","address":"630 W. Main St.","city":"Tilton","state":"NH","zip":"03276","distance":18.118308327423,"lon":"-71.619508","lat":"43.44672","theaterChainName":"Independent Chains","ticketType":"STANDARD"},{"id":"5249","tribuneTheaterId":"10678","providerTheaterId":"","name":"O'Neil Cinemas at Brickyard Square","address":"24 Calef Highway","city":"Epping","state":"NH","zip":"03042","distance":22.450604904327,"lon":"-71.0739","lat":"43.0231","theaterChainName":"O'Neil Cinemas","ticketType":"STANDARD"},{"id":"6142","tribuneTheaterId":"11564","providerTheaterId":"","name":"Chunky's Cinema Pub","address":"707 Huse Road","city":"Manchester","state":"NH","zip":"03103","distance":23.762750849829,"lon":"-71.432453","lat":"42.951226","theaterChainName":"Independent Chains","ticketType":"STANDARD"}]