[{"id":"1795","tribuneTheaterId":"5980","providerTheaterId":"","name":"Claremont Cinema 6","address":"345 Washington Street","city":"Claremont","state":"NH","zip":"03743","distance":17.745271781264,"lon":"-72.3202","lat":"43.364386","theaterChainName":"Boston Culinary Group","ticketType":"STANDARD"},{"id":"832","tribuneTheaterId":"8090","providerTheaterId":"","name":"Gilford Cinema 8","address":"9 Old Lake Shore Road","city":"Gilford","state":"NH","zip":"03249","distance":17.745271781264,"lon":"-72.3202","lat":"43.364386","theaterChainName":"Boston Culinary Group","ticketType":"STANDARD"},{"id":"2803","tribuneTheaterId":"475","providerTheaterId":"","name":"Colonial Theatre NH","address":"95 Main Street","city":"Keene","state":"NH","zip":"03431","distance":19.483740043217,"lon":"-72.2782","lat":"42.9317","theaterChainName":"Independent Chains","ticketType":"STANDARD"},{"id":"4099","tribuneTheaterId":"1645","providerTheaterId":"","name":"Springfield Cinemas 3","address":"26 Main St.","city":"Springfield","state":"VT","zip":"05156","distance":21.853689789995,"lon":"-72.481415","lat":"43.299355","theaterChainName":"Independent Chains","ticketType":"STANDARD"},{"id":"4779","tribuneTheaterId":"10021","providerTheaterId":"","name":"Peterborough Community Theater","address":"6 School St.","city":"Peterborough","state":"NH","zip":"03458","distance":21.637021452172,"lon":"-71.950649","lat":"42.876723","theaterChainName":"Independent Chains","ticketType":"STANDARD"}]