[{"id":"6142","name":"Chunky's Cinema Pub","address":"707 Huse Road","city":"Manchester","state":"NH","zip":"03103","distance":"21.759326934814453","lon":"-71.432449","lat":"42.951225","theaterChainName":"Independent Chains","ticketType":"STANDARD"},{"id":"5566","name":"Londonderry 10","address":"16 Orchard View Drive","city":"Londonderry","state":"NH","zip":"03053","distance":"24.733617782592773","lon":"-71.354301","lat":"42.860600","theaterChainName":"Carmike Cinemas","ticketType":"STANDARD"},{"id":"3701","name":"Derry Cinemas","address":"10 Ashleigh Drive","city":"Derry","state":"NH","zip":"03038","distance":"21.899734497070312","lon":"-71.336693","lat":"42.899986","theaterChainName":"Independent Chains","ticketType":"STANDARD"},{"id":"455","name":"Regal Hooksett 8","address":"100 Technology Drive","city":"Hooksett","state":"NH","zip":"03106","distance":"18.9208984375","lon":"-71.465202","lat":"43.046329","theaterChainName":"Regal Cinemas","ticketType":"STANDARD"},{"id":"4387","name":"Hooksett Cinemagic & IMAX","address":"1226 Hooksett Road","city":"Hooksett","state":"NH","zip":"03106","distance":"17.97529411315918","lon":"-71.439041","lat":"43.041267","theaterChainName":"Zyacorp Entertainment","ticketType":"STANDARD"},{"id":"1099","name":"Stage II Cinema Pub","address":"109 Main Street","city":"Amesbury","state":"MA","zip":"01913","distance":"24.877159118652344","lon":"-70.931503","lat":"42.855999","theaterChainName":"Independent Chains","ticketType":"STANDARD"},{"id":"5249","name":"O'Neil Cinemas at Brickyard Square","address":"24 Calef Highway","city":"Epping","state":"NH","zip":"03042","distance":"11.488836288452148","lon":"-71.073898","lat":"43.023102","theaterChainName":"O'Neil Cinemas","ticketType":"STANDARD"},{"id":"5469","name":"Cinemagic Stadium 10","address":"2454 Lafayette Rd","city":"Portsmouth","state":"NH","zip":"03801","distance":"20.739471435546875","lon":"-70.782402","lat":"43.033699","theaterChainName":"Independent Chains","ticketType":"STANDARD"},{"id":"834","name":"Fox Run Stadium 15 & RPX","address":"45 Gosling Road","city":"Newington","state":"NH","zip":"03801","distance":"18.118488311767578","lon":"-70.800941","lat":"43.094620","theaterChainName":"Regal Cinemas","ticketType":"STANDARD"},{"id":"4856","name":"BarnZ's Barrington Cinema","address":"586 Calef Highway, Suite One","city":"Barrington","state":"NH","zip":"03825","distance":"7.313772678375244","lon":"-70.998398","lat":"43.206924","theaterChainName":"Independent Chains","ticketType":"STANDARD"},{"id":"4551","name":"Red River Theatres","address":"11 S. Main St.","city":"Concord","state":"NH","zip":"03301","distance":"19.98431396484375","lon":"-71.535210","lat":"43.203812","theaterChainName":"Independent Chains","ticketType":"STANDARD"},{"id":"456","name":"Regal Concord 10","address":"282 Loudon Road","city":"Concord","state":"NH","zip":"03301","distance":"17.690248489379883","lon":"-71.485909","lat":"43.225010","theaterChainName":"Regal Cinemas","ticketType":"STANDARD"}]