[{"id":"6083","tribuneTheaterId":"11494","providerTheaterId":"","name":"River Street Theatre","address":"6 River Street","city":"Jaffrey","state":"NH","zip":"03452","distance":7.1755286085191,"lon":"-72.023747","lat":"42.814646","theaterChainName":"Independent Chains","ticketType":"STANDARD"},{"id":"4779","tribuneTheaterId":"10021","providerTheaterId":"","name":"Peterborough Community Theater","address":"6 School St.","city":"Peterborough","state":"NH","zip":"03458","distance":12.682206355075,"lon":"-71.950649","lat":"42.876723","theaterChainName":"Independent Chains","ticketType":"STANDARD"},{"id":"2803","tribuneTheaterId":"475","providerTheaterId":"","name":"Colonial Theatre NH","address":"95 Main Street","city":"Keene","state":"NH","zip":"03431","distance":13.582012313345,"lon":"-72.2782","lat":"42.9317","theaterChainName":"Independent Chains","ticketType":"STANDARD"},{"id":"1095","tribuneTheaterId":"4025","providerTheaterId":"","name":"Gardner Cinemas","address":"336 Timpany Blvd.","city":"Gardner","state":"MA","zip":"01440","distance":16.032156777193,"lon":"-71.988741","lat":"42.559515","theaterChainName":"Independent Chains","ticketType":"STANDARD"},{"id":"1305","tribuneTheaterId":"2219","providerTheaterId":"","name":"Cinema World","address":"476 John Fitch Hwy","city":"Fitchburg","state":"MA","zip":"01420","distance":22.501989313689,"lon":"-71.773417","lat":"42.583829","theaterChainName":"Independent Chains","ticketType":"STANDARD"}]