[{"id":"6083","name":"River Street Theatre","address":"6 River Street","city":"Jaffrey","state":"NH","zip":"03452","distance":"18.42291831970215","lon":"-72.023750","lat":"42.814648","theaterChainName":"Independent Chains","ticketType":"STANDARD"},{"id":"2803","name":"Colonial Theatre NH","address":"95 Main Street","city":"Keene","state":"NH","zip":"03431","distance":"13.031205177307129","lon":"-72.278198","lat":"42.931702","theaterChainName":"Independent Chains","ticketType":"STANDARD"},{"id":"4779","name":"Peterborough Community Theater","address":"6 School St.","city":"Peterborough","state":"NH","zip":"03458","distance":"15.797168731689453","lon":"-71.950645","lat":"42.876724","theaterChainName":"Independent Chains","ticketType":"STANDARD"},{"id":"832","name":"Gilford Cinema 8","address":"9 Old Lake Shore Road","city":"Gilford","state":"NH","zip":"03249","distance":"22.719959259033203","lon":"-72.320198","lat":"43.364388","theaterChainName":"Boston Culinary Group","ticketType":"STANDARD"},{"id":"1795","name":"Claremont Cinema 6","address":"345 Washington Street","city":"Claremont","state":"NH","zip":"03743","distance":"22.719959259033203","lon":"-72.320198","lat":"43.364388","theaterChainName":"Boston Culinary Group","ticketType":"STANDARD"},{"id":"4099","name":"Springfield Cinemas 3","address":"26 Main St.","city":"Springfield","state":"VT","zip":"05156","distance":"24.394594192504883","lon":"-72.481415","lat":"43.299355","theaterChainName":"Independent Chains","ticketType":"STANDARD"}]