[{"id":"6083","tribuneTheaterId":"11494","providerTheaterId":"","name":"River Street Theatre","address":"6 River Street","city":"Jaffrey","state":"NH","zip":"03452","distance":4.1695492521049,"lon":"-72.023747","lat":"42.814646","theaterChainName":"Independent Chains","ticketType":"STANDARD"},{"id":"4779","tribuneTheaterId":"10021","providerTheaterId":"","name":"Peterborough Community Theater","address":"6 School St.","city":"Peterborough","state":"NH","zip":"03458","distance":9.134120897092,"lon":"-71.950649","lat":"42.876723","theaterChainName":"Independent Chains","ticketType":"STANDARD"},{"id":"1095","tribuneTheaterId":"4025","providerTheaterId":"","name":"Gardner Cinemas","address":"336 Timpany Blvd.","city":"Gardner","state":"MA","zip":"01440","distance":13.552747059253,"lon":"-71.988741","lat":"42.559515","theaterChainName":"Independent Chains","ticketType":"STANDARD"},{"id":"2803","tribuneTheaterId":"475","providerTheaterId":"","name":"Colonial Theatre NH","address":"95 Main Street","city":"Keene","state":"NH","zip":"03431","distance":17.958187343643,"lon":"-72.2782","lat":"42.9317","theaterChainName":"Independent Chains","ticketType":"STANDARD"},{"id":"1305","tribuneTheaterId":"2219","providerTheaterId":"","name":"Cinema World","address":"476 John Fitch Hwy","city":"Fitchburg","state":"MA","zip":"01420","distance":17.162518610006,"lon":"-71.773417","lat":"42.583829","theaterChainName":"Independent Chains","ticketType":"STANDARD"},{"id":"159","tribuneTheaterId":"6598","providerTheaterId":"","name":"EMC Leominster 10","address":"45 Sack Blvd.","city":"Leominster","state":"MA","zip":"01453","distance":20.735296342484,"lon":"-71.746221","lat":"42.531237","theaterChainName":"Entertainment Cinemas","ticketType":"STANDARD"}]