[{"id":"3584","name":"Greenfield Garden Cinema","address":"351 Main Street","city":"Greenfield","state":"MA","zip":"01301","distance":"18.51678466796875","lon":"-72.599701","lat":"42.587799","theaterChainName":"Independent Chains","ticketType":"STANDARD"},{"id":"1095","name":"Gardner Cinemas","address":"336 Timpany Blvd.","city":"Gardner","state":"MA","zip":"01440","distance":"23.566192626953125","lon":"-71.988739","lat":"42.559517","theaterChainName":"Independent Chains","ticketType":"STANDARD"},{"id":"6083","name":"River Street Theatre","address":"6 River Street","city":"Jaffrey","state":"NH","zip":"03452","distance":"16.425100326538086","lon":"-72.023750","lat":"42.814648","theaterChainName":"Independent Chains","ticketType":"STANDARD"},{"id":"2803","name":"Colonial Theatre NH","address":"95 Main Street","city":"Keene","state":"NH","zip":"03431","distance":"11.078393936157227","lon":"-72.278198","lat":"42.931702","theaterChainName":"Independent Chains","ticketType":"STANDARD"},{"id":"4779","name":"Peterborough Community Theater","address":"6 School St.","city":"Peterborough","state":"NH","zip":"03458","distance":"21.050840377807617","lon":"-71.950645","lat":"42.876724","theaterChainName":"Independent Chains","ticketType":"STANDARD"}]