[{"id":"4068","name":"Lincoln Cinema IV","address":"Main Street Route 112","city":"Lincoln","state":"NH","zip":"03251","distance":"16.438671112060547","lon":"-71.669815","lat":"44.041306","theaterChainName":"Independent Chains","ticketType":"STANDARD"},{"id":"5307","name":"BarnZ's Lincoln Cinema","address":"24 Lumber Yard Road","city":"Lincoln","state":"NH","zip":"03251","distance":"16.373905181884766","lon":"-71.670097","lat":"44.042400","theaterChainName":"Independent Chains","ticketType":"STANDARD"},{"id":"5400","name":"The Colonial","address":"2050","city":"Bethlehem","state":"NH","zip":"03574","distance":"11.161940574645996","lon":"-71.690292","lat":"44.280029","theaterChainName":"Independent Chains","ticketType":"STANDARD"},{"id":"4664","name":"Star 3 Cinemas","address":"23 Hastings St","city":"Saint Johnsbury","state":"VT","zip":"05819","distance":"15.209545135498047","lon":"-72.016342","lat":"44.417561","theaterChainName":"Independent Chains","ticketType":"STANDARD"},{"id":"4671","name":"Catamount Arts","address":"115 Eastern Avenue","city":"Saint Johnsbury","state":"VT","zip":"05819","distance":"15.288582801818848","lon":"-72.018234","lat":"44.418228","theaterChainName":"Independent Chains","ticketType":"STANDARD"}]