[{"id":"6074","name":"The Flying Monkey Movie House & Performance Center","address":"39 Main Street","city":"Plymouth","state":"NH","zip":"03264","distance":"22.561861038208008","lon":"-71.687935","lat":"43.755619","theaterChainName":"Independent Chains","ticketType":"STANDARD"},{"id":"158","name":"EMC Lebanon 6","address":"36 U.S. Highway","city":"Lebanon","state":"NH","zip":"03766","distance":"20.196687698364258","lon":"-72.289757","lat":"43.636772","theaterChainName":"Entertainment Cinemas","ticketType":"STANDARD"},{"id":"2792","name":"The Nugget Theatre","address":"57 S. Main Street","city":"Hanover","state":"NH","zip":"03755","distance":"16.432893753051758","lon":"-72.289490","lat":"43.700668","theaterChainName":"Independent Chains","ticketType":"STANDARD"},{"id":"4068","name":"Lincoln Cinema IV","address":"Main Street Route 112","city":"Lincoln","state":"NH","zip":"03251","distance":"23.589977264404297","lon":"-71.669815","lat":"44.041306","theaterChainName":"Independent Chains","ticketType":"STANDARD"},{"id":"5307","name":"BarnZ's Lincoln Cinema","address":"24 Lumber Yard Road","city":"Lincoln","state":"NH","zip":"03251","distance":"23.6098690032959","lon":"-71.670097","lat":"44.042400","theaterChainName":"Independent Chains","ticketType":"STANDARD"}]