[{"id":"5469","tribuneTheaterId":"10911","providerTheaterId":"","name":"Cinemagic Stadium 10","address":"2454 Lafayette Rd","city":"Portsmouth","state":"NH","zip":"03801","distance":3.2896201919911,"lon":"-70.7824","lat":"43.0337","theaterChainName":"Independent Chains","ticketType":"STANDARD"},{"id":"834","tribuneTheaterId":"8417","providerTheaterId":"","name":"Fox Run Stadium 15 & RPX","address":"45 Gosling Road","city":"Newington","state":"NH","zip":"03801","distance":4.7245872902827,"lon":"-70.800938","lat":"43.094618","theaterChainName":"Regal Cinemas","ticketType":"STANDARD"},{"id":"5249","tribuneTheaterId":"10678","providerTheaterId":"","name":"O'Neil Cinemas at Brickyard Square","address":"24 Calef Highway","city":"Epping","state":"NH","zip":"03042","distance":11.465948914669,"lon":"-71.0739","lat":"43.0231","theaterChainName":"O'Neil Cinemas","ticketType":"STANDARD"},{"id":"4856","tribuneTheaterId":"10151","providerTheaterId":"","name":"BarnZ's Barrington Cinema","address":"586 Calef Highway, Suite One","city":"Barrington","state":"NH","zip":"03825","distance":14.089988006659,"lon":"-70.998397","lat":"43.206925","theaterChainName":"Independent Chains","ticketType":"STANDARD"},{"id":"831","tribuneTheaterId":"6821","providerTheaterId":"","name":"Cinema 95","address":"201 Elm St.","city":"Salisbury","state":"MA","zip":"01952","distance":13.426009673358,"lon":"-70.8956","lat":"42.8442","theaterChainName":"Independent Chains","ticketType":"STANDARD"},{"id":"1099","tribuneTheaterId":"2686","providerTheaterId":"","name":"Stage II Cinema Pub","address":"109 Main Street","city":"Amesbury","state":"MA","zip":"01913","distance":13.096645270629,"lon":"-70.9315","lat":"42.856","theaterChainName":"Independent Chains","ticketType":"STANDARD"},{"id":"3126","tribuneTheaterId":"5184","providerTheaterId":"","name":"Cinemagic Salisbury","address":"6 Merrill Street","city":"Salisbury","state":"MA","zip":"01952","distance":13.515581910122,"lon":"-70.900011","lat":"42.843501","theaterChainName":"Zyacorp Entertainment","ticketType":"STANDARD"},{"id":"467","tribuneTheaterId":"207","providerTheaterId":"","name":"Newburyport Screening Room","address":"82 State St.","city":"Newburyport","state":"MA","zip":"01950","distance":15.654423734909,"lon":"-70.870908","lat":"42.80938","theaterChainName":"Independent Chains","ticketType":"STANDARD"},{"id":"2799","tribuneTheaterId":"1714","providerTheaterId":"","name":"Chunky's Haverhill Cinema & Pub","address":"371 Lowell Avenue","city":"Haverhill","state":"MA","zip":"01832","distance":22.549065358008,"lon":"-71.116637","lat":"42.775212","theaterChainName":"Independent Chains","ticketType":"STANDARD"}]