[{"id":"2799","name":"Chunky's Haverhill Cinema & Pub","address":"371 Lowell Avenue","city":"Haverhill","state":"MA","zip":"01832","distance":"22.49704933166504","lon":"-71.116638","lat":"42.775211","theaterChainName":"Independent Chains","ticketType":"STANDARD"},{"id":"1099","name":"Stage II Cinema Pub","address":"109 Main Street","city":"Amesbury","state":"MA","zip":"01913","distance":"11.804756164550781","lon":"-70.931503","lat":"42.855999","theaterChainName":"Independent Chains","ticketType":"STANDARD"},{"id":"467","name":"Newburyport Screening Room","address":"82 State St.","city":"Newburyport","state":"MA","zip":"01950","distance":"12.84874439239502","lon":"-70.870911","lat":"42.809380","theaterChainName":"Independent Chains","ticketType":"STANDARD"},{"id":"3126","name":"Cinemagic Salisbury","address":"6 Merrill Street","city":"Salisbury","state":"MA","zip":"01952","distance":"11.479235649108887","lon":"-70.900009","lat":"42.843502","theaterChainName":"Zyacorp Entertainment","ticketType":"STANDARD"},{"id":"831","name":"Cinema 95","address":"201 Elm St.","city":"Salisbury","state":"MA","zip":"01952","distance":"11.314455032348633","lon":"-70.895599","lat":"42.844200","theaterChainName":"Independent Chains","ticketType":"STANDARD"},{"id":"5249","name":"O'Neil Cinemas at Brickyard Square","address":"24 Calef Highway","city":"Epping","state":"NH","zip":"03042","distance":"15.541152000427246","lon":"-71.073898","lat":"43.023102","theaterChainName":"O'Neil Cinemas","ticketType":"STANDARD"},{"id":"5469","name":"Cinemagic Stadium 10","address":"2454 Lafayette Rd","city":"Portsmouth","state":"NH","zip":"03801","distance":"3.7073237895965576","lon":"-70.782402","lat":"43.033699","theaterChainName":"Independent Chains","ticketType":"STANDARD"},{"id":"834","name":"Fox Run Stadium 15 & RPX","address":"45 Gosling Road","city":"Newington","state":"NH","zip":"03801","distance":"8.01399040222168","lon":"-70.800941","lat":"43.094620","theaterChainName":"Regal Cinemas","ticketType":"STANDARD"},{"id":"4856","name":"BarnZ's Barrington Cinema","address":"586 Calef Highway, Suite One","city":"Barrington","state":"NH","zip":"03825","distance":"19.369565963745117","lon":"-70.998398","lat":"43.206924","theaterChainName":"Independent Chains","ticketType":"STANDARD"}]