[{"id":"831","tribuneTheaterId":"6821","providerTheaterId":"","name":"Cinema 95","address":"201 Elm St.","city":"Salisbury","state":"MA","zip":"01952","distance":3.2508524889046,"lon":"-70.8956","lat":"42.8442","theaterChainName":"Independent Chains","ticketType":"STANDARD"},{"id":"3126","tribuneTheaterId":"5184","providerTheaterId":"","name":"Cinemagic Salisbury","address":"6 Merrill Street","city":"Salisbury","state":"MA","zip":"01952","distance":3.405388419521,"lon":"-70.900011","lat":"42.843501","theaterChainName":"Zyacorp Entertainment","ticketType":"STANDARD"},{"id":"1099","tribuneTheaterId":"2686","providerTheaterId":"","name":"Stage II Cinema Pub","address":"109 Main Street","city":"Amesbury","state":"MA","zip":"01913","distance":3.9500224837254,"lon":"-70.9315","lat":"42.856","theaterChainName":"Independent Chains","ticketType":"STANDARD"},{"id":"467","tribuneTheaterId":"207","providerTheaterId":"","name":"Newburyport Screening Room","address":"82 State St.","city":"Newburyport","state":"MA","zip":"01950","distance":5.2621839335219,"lon":"-70.870908","lat":"42.80938","theaterChainName":"Independent Chains","ticketType":"STANDARD"},{"id":"5469","tribuneTheaterId":"10911","providerTheaterId":"","name":"Cinemagic Stadium 10","address":"2454 Lafayette Rd","city":"Portsmouth","state":"NH","zip":"03801","distance":11.057460309043,"lon":"-70.7824","lat":"43.0337","theaterChainName":"Independent Chains","ticketType":"STANDARD"},{"id":"5249","tribuneTheaterId":"10678","providerTheaterId":"","name":"O'Neil Cinemas at Brickyard Square","address":"24 Calef Highway","city":"Epping","state":"NH","zip":"03042","distance":14.231755775024,"lon":"-71.0739","lat":"43.0231","theaterChainName":"O'Neil Cinemas","ticketType":"STANDARD"},{"id":"834","tribuneTheaterId":"8417","providerTheaterId":"","name":"Fox Run Stadium 15 & RPX","address":"45 Gosling Road","city":"Newington","state":"NH","zip":"03801","distance":14.809299514413,"lon":"-70.800938","lat":"43.094618","theaterChainName":"Regal Cinemas","ticketType":"STANDARD"},{"id":"2799","tribuneTheaterId":"1714","providerTheaterId":"","name":"Chunky's Haverhill Cinema & Pub","address":"371 Lowell Avenue","city":"Haverhill","state":"MA","zip":"01832","distance":14.868046029786,"lon":"-71.116637","lat":"42.775212","theaterChainName":"Independent Chains","ticketType":"STANDARD"},{"id":"3076","tribuneTheaterId":"9083","providerTheaterId":"2660","name":"AMC Loews Methuen 20","address":"90 Pleasant Valley St.","city":"Methuen","state":"MA","zip":"01844","distance":17.755793511179,"lon":"-71.157342","lat":"42.74424","theaterChainName":"AMC Theatres","ticketType":"SELECT_SEATING"},{"id":"2901","tribuneTheaterId":"7040","providerTheaterId":"","name":"Showcase Cinemas Lawrence","address":"6 Chickering Street","city":"Lawrence","state":"MA","zip":"01843","distance":19.600696015226,"lon":"-71.143668","lat":"42.689102","theaterChainName":"National Amusements","ticketType":"STANDARD"},{"id":"1096","tribuneTheaterId":"2807","providerTheaterId":"","name":"Gloucester Cinema 3","address":"74 Essex Ave.","city":"Gloucester","state":"MA","zip":"01930","distance":21.010148212757,"lon":"-70.682848","lat":"42.612172","theaterChainName":"Independent Chains","ticketType":"STANDARD"},{"id":"2722","tribuneTheaterId":"3058","providerTheaterId":"","name":"Hollywood Hits Theatre","address":"7 Hutchinson Drive","city":"Danvers","state":"MA","zip":"01923","distance":23.168545438684,"lon":"-70.932021","lat":"42.553756","theaterChainName":"Independent Chains","ticketType":"STANDARD"},{"id":"4856","tribuneTheaterId":"10151","providerTheaterId":"","name":"BarnZ's Barrington Cinema","address":"586 Calef Highway, Suite One","city":"Barrington","state":"NH","zip":"03825","distance":23.219774588663,"lon":"-70.998397","lat":"43.206925","theaterChainName":"Independent Chains","ticketType":"STANDARD"},{"id":"71","tribuneTheaterId":"7490","providerTheaterId":"2790","name":"AMC Loews Liberty Tree Mall 20","address":"100 Independence Way","city":"Danvers","state":"MA","zip":"01923","distance":23.274574518069,"lon":"-70.940765","lat":"42.553223","theaterChainName":"AMC Theatres","ticketType":"E_TICKET"},{"id":"5566","tribuneTheaterId":"11013","providerTheaterId":"","name":"Londonderry 10","address":"16 Orchard View Drive","city":"Londonderry","state":"NH","zip":"03053","distance":24.855531455496,"lon":"-71.3543","lat":"42.8606","theaterChainName":"Carmike Cinemas","ticketType":"STANDARD"},{"id":"3701","tribuneTheaterId":"6281","providerTheaterId":"","name":"Derry Cinemas","address":"10 Ashleigh Drive","city":"Derry","state":"NH","zip":"03038","distance":23.918622676181,"lon":"-71.336696","lat":"42.899988","theaterChainName":"Independent Chains","ticketType":"STANDARD"}]