[{"id":"1099","name":"Stage II Cinema Pub","address":"109 Main Street","city":"Amesbury","state":"MA","zip":"01913","distance":"24.827667236328125","lon":"-70.931503","lat":"42.855999","theaterChainName":"Independent Chains","ticketType":"STANDARD"},{"id":"3126","name":"Cinemagic Salisbury","address":"6 Merrill Street","city":"Salisbury","state":"MA","zip":"01952","distance":"24.724708557128906","lon":"-70.900009","lat":"42.843502","theaterChainName":"Zyacorp Entertainment","ticketType":"STANDARD"},{"id":"831","name":"Cinema 95","address":"201 Elm St.","city":"Salisbury","state":"MA","zip":"01952","distance":"24.573026657104492","lon":"-70.895599","lat":"42.844200","theaterChainName":"Independent Chains","ticketType":"STANDARD"},{"id":"5249","name":"O'Neil Cinemas at Brickyard Square","address":"24 Calef Highway","city":"Epping","state":"NH","zip":"03042","distance":"22.873228073120117","lon":"-71.073898","lat":"43.023102","theaterChainName":"O'Neil Cinemas","ticketType":"STANDARD"},{"id":"5469","name":"Cinemagic Stadium 10","address":"2454 Lafayette Rd","city":"Portsmouth","state":"NH","zip":"03801","distance":"10.444428443908691","lon":"-70.782402","lat":"43.033699","theaterChainName":"Independent Chains","ticketType":"STANDARD"},{"id":"834","name":"Fox Run Stadium 15 & RPX","address":"45 Gosling Road","city":"Newington","state":"NH","zip":"03801","distance":"8.317235946655273","lon":"-70.800941","lat":"43.094620","theaterChainName":"Regal Cinemas","ticketType":"STANDARD"},{"id":"4856","name":"BarnZ's Barrington Cinema","address":"586 Calef Highway, Suite One","city":"Barrington","state":"NH","zip":"03825","distance":"17.540958404541016","lon":"-70.998398","lat":"43.206924","theaterChainName":"Independent Chains","ticketType":"STANDARD"},{"id":"3208","name":"Smitty's Sanford Cinema & Pub","address":"1364 Main Street","city":"Sanford","state":"ME","zip":"04073","distance":"18.518016815185547","lon":"-70.745148","lat":"43.414745","theaterChainName":"Independent Chains","ticketType":"STANDARD"},{"id":"827","name":"Smitty's Cinema - Biddeford","address":"420 Alfred Street","city":"Biddeford","state":"ME","zip":"04005","distance":"24.3651065826416","lon":"-70.479691","lat":"43.482346","theaterChainName":"Independent Chains","ticketType":"STANDARD"}]