[{"id":"3208","name":"Smitty's Sanford Cinema & Pub","address":"1364 Main Street","city":"Sanford","state":"ME","zip":"04073","distance":"20.366147994995117","lon":"-70.745148","lat":"43.414745","theaterChainName":"Independent Chains","ticketType":"STANDARD"},{"id":"827","name":"Smitty's Cinema - Biddeford","address":"420 Alfred Street","city":"Biddeford","state":"ME","zip":"04005","distance":"7.404820919036865","lon":"-70.479691","lat":"43.482346","theaterChainName":"Independent Chains","ticketType":"STANDARD"},{"id":"3128","name":"Cinemagic & IMAX in Saco","address":"779 Portland Rd.","city":"Saco","state":"ME","zip":"04072","distance":"7.1286725997924805","lon":"-70.424332","lat":"43.528606","theaterChainName":"Zyacorp Entertainment","ticketType":"STANDARD"},{"id":"4224","name":"Cinemagic in Westbrook","address":"183 County Road","city":"Westbrook","state":"ME","zip":"04092","distance":"14.279183387756348","lon":"-70.350349","lat":"43.651352","theaterChainName":"Zyacorp Entertainment","ticketType":"STANDARD"},{"id":"4572","name":"Cinemagic Grand Stadium at Clarks Pond","address":"333 Clarks Pond Parkway","city":"South Portland","state":"ME","zip":"04106","distance":"12.944256782531738","lon":"-70.326820","lat":"43.631836","theaterChainName":"Zyacorp Entertainment","ticketType":"STANDARD"},{"id":"2675","name":"Patriot\/Nickelodeon Cinema 1-6","address":"1 Temple Street","city":"Portland","state":"ME","zip":"04101","distance":"15.303560256958008","lon":"-70.255806","lat":"43.657413","theaterChainName":"Patriot Cinemas","ticketType":"STANDARD"},{"id":"6061","name":"Flagship Cinemas Falmouth","address":"206 US Route 1","city":"Falmouth","state":"ME","zip":"04105","distance":"19.80615234375","lon":"-70.235062","lat":"43.720898","theaterChainName":"Flagship Cinemas","ticketType":"STANDARD"}]