[{"id":"5339","tribuneTheaterId":"5411","providerTheaterId":"","name":"Smitty's Cinema Pub","address":"765 Roosevelt Trail","city":"Windham","state":"ME","zip":"04062","distance":8.4903609567417,"lon":"-70.4497","lat":"43.8497","theaterChainName":"Independent Chains","ticketType":"STANDARD"},{"id":"4654","tribuneTheaterId":"9853","providerTheaterId":"","name":"The Magic Lantern","address":"9 Depot Street","city":"Bridgton","state":"ME","zip":"04009","distance":11.126928629058,"lon":"-70.7075","lat":"44.0539","theaterChainName":"Independent Chains","ticketType":"STANDARD"},{"id":"3132","tribuneTheaterId":"4152","providerTheaterId":"","name":"Flagship Cinemas Lewiston","address":"855 Lisbon St","city":"Lewiston","state":"ME","zip":"04240","distance":18.096577776948,"lon":"-70.204139","lat":"44.082207","theaterChainName":"Flagship Cinemas","ticketType":"STANDARD"},{"id":"829","tribuneTheaterId":"6142","providerTheaterId":"","name":"Auburn 10","address":"730 Centre Street","city":"Auburn","state":"ME","zip":"04210","distance":18.871192243487,"lon":"-70.226229","lat":"44.12743","theaterChainName":"Flagship Cinemas","ticketType":"STANDARD"},{"id":"5117","tribuneTheaterId":"10520","providerTheaterId":"","name":"Nordica Theatre","address":"1 Freeport Village Station Suite 130 S","city":"Freeport","state":"ME","zip":"04032","distance":22.256074563353,"lon":"-70.102639","lat":"43.856033","theaterChainName":"Your Neighborhood Theatre","ticketType":"STANDARD"},{"id":"6061","tribuneTheaterId":"11468","providerTheaterId":"","name":"Flagship Cinemas Falmouth","address":"206 US Route 1","city":"Falmouth","state":"ME","zip":"04105","distance":21.959664095516,"lon":"-70.235061","lat":"43.720899","theaterChainName":"Flagship Cinemas","ticketType":"STANDARD"},{"id":"4224","tribuneTheaterId":"2392","providerTheaterId":"","name":"Cinemagic in Westbrook","address":"183 County Road","city":"Westbrook","state":"ME","zip":"04092","distance":23.028657325866,"lon":"-70.350346","lat":"43.651351","theaterChainName":"Zyacorp Entertainment","ticketType":"STANDARD"},{"id":"2675","tribuneTheaterId":"9256","providerTheaterId":"","name":"Patriot\/Nickelodeon Cinema 1-6","address":"1 Temple Street","city":"Portland","state":"ME","zip":"04101","distance":24.848232725999,"lon":"-70.255809","lat":"43.657413","theaterChainName":"Patriot Cinemas","ticketType":"STANDARD"},{"id":"4572","tribuneTheaterId":"9716","providerTheaterId":"","name":"Cinemagic Grand Stadium at Clarks Pond","address":"333 Clarks Pond Parkway","city":"South Portland","state":"ME","zip":"04106","distance":24.729066737866,"lon":"-70.326823","lat":"43.631836","theaterChainName":"Zyacorp Entertainment","ticketType":"STANDARD"}]