[{"id":"4654","name":"The Magic Lantern","address":"9 Depot Street","city":"Bridgton","state":"ME","zip":"04009","distance":"19.279436111450195","lon":"-70.707497","lat":"44.053902","theaterChainName":"Independent Chains","ticketType":"STANDARD"},{"id":"5339","name":"Smitty's Cinema Pub","address":"765 Roosevelt Trail","city":"Windham","state":"ME","zip":"04062","distance":"17.089576721191406","lon":"-70.449699","lat":"43.849701","theaterChainName":"Independent Chains","ticketType":"STANDARD"},{"id":"3128","name":"Cinemagic & IMAX in Saco","address":"779 Portland Rd.","city":"Saco","state":"ME","zip":"04072","distance":"24.781009674072266","lon":"-70.424332","lat":"43.528606","theaterChainName":"Zyacorp Entertainment","ticketType":"STANDARD"},{"id":"4224","name":"Cinemagic in Westbrook","address":"183 County Road","city":"Westbrook","state":"ME","zip":"04092","distance":"23.14153480529785","lon":"-70.350349","lat":"43.651352","theaterChainName":"Zyacorp Entertainment","ticketType":"STANDARD"},{"id":"4572","name":"Cinemagic Grand Stadium at Clarks Pond","address":"333 Clarks Pond Parkway","city":"South Portland","state":"ME","zip":"04106","distance":"24.759571075439453","lon":"-70.326820","lat":"43.631836","theaterChainName":"Zyacorp Entertainment","ticketType":"STANDARD"}]