[{"id":"5935","name":"The Gem","address":"23 Cross Street","city":"Bethel","state":"ME","zip":"04217","distance":"22.099836349487305","lon":"-70.791397","lat":"44.411400","theaterChainName":"Independent Chains","ticketType":"STANDARD"},{"id":"4654","name":"The Magic Lantern","address":"9 Depot Street","city":"Bridgton","state":"ME","zip":"04009","distance":"4.537664890289307","lon":"-70.707497","lat":"44.053902","theaterChainName":"Independent Chains","ticketType":"STANDARD"},{"id":"5339","name":"Smitty's Cinema Pub","address":"765 Roosevelt Trail","city":"Windham","state":"ME","zip":"04062","distance":"20.47985076904297","lon":"-70.449699","lat":"43.849701","theaterChainName":"Independent Chains","ticketType":"STANDARD"},{"id":"829","name":"Auburn 10","address":"730 Centre Street","city":"Auburn","state":"ME","zip":"04210","distance":"21.261716842651367","lon":"-70.226227","lat":"44.127430","theaterChainName":"Flagship Cinemas","ticketType":"STANDARD"},{"id":"3132","name":"Flagship Cinemas Lewiston","address":"855 Lisbon St","city":"Lewiston","state":"ME","zip":"04240","distance":"22.38564682006836","lon":"-70.204140","lat":"44.082207","theaterChainName":"Flagship Cinemas","ticketType":"STANDARD"}]