[{"id":"3208","name":"Smitty's Sanford Cinema & Pub","address":"1364 Main Street","city":"Sanford","state":"ME","zip":"04073","distance":"24.25227928161621","lon":"-70.745148","lat":"43.414745","theaterChainName":"Independent Chains","ticketType":"STANDARD"},{"id":"1801","name":"Mt. Valley Mall Theatre","address":"32 Mt. Valley Blvd.","city":"North Conway","state":"NH","zip":"03860","distance":"24.7535457611084","lon":"-71.154053","lat":"44.056786","theaterChainName":"Boston Culinary Group","ticketType":"STANDARD"},{"id":"4654","name":"The Magic Lantern","address":"9 Depot Street","city":"Bridgton","state":"ME","zip":"04009","distance":"23.588972091674805","lon":"-70.707497","lat":"44.053902","theaterChainName":"Independent Chains","ticketType":"STANDARD"},{"id":"5339","name":"Smitty's Cinema Pub","address":"765 Roosevelt Trail","city":"Windham","state":"ME","zip":"04062","distance":"24.032089233398438","lon":"-70.449699","lat":"43.849701","theaterChainName":"Independent Chains","ticketType":"STANDARD"}]