[{"id":"4654","tribuneTheaterId":"9853","providerTheaterId":"","name":"The Magic Lantern","address":"9 Depot Street","city":"Bridgton","state":"ME","zip":"04009","distance":3.1260487597523,"lon":"-70.7075","lat":"44.0539","theaterChainName":"Independent Chains","ticketType":"STANDARD"},{"id":"5935","tribuneTheaterId":"11366","providerTheaterId":"","name":"The Gem","address":"23 Cross Street","city":"Bethel","state":"ME","zip":"04217","distance":22.087131682013,"lon":"-70.7914","lat":"44.4114","theaterChainName":"Independent Chains","ticketType":"STANDARD"},{"id":"5339","tribuneTheaterId":"5411","providerTheaterId":"","name":"Smitty's Cinema Pub","address":"765 Roosevelt Trail","city":"Windham","state":"ME","zip":"04062","distance":21.19611895471,"lon":"-70.4497","lat":"43.8497","theaterChainName":"Independent Chains","ticketType":"STANDARD"},{"id":"1801","tribuneTheaterId":"6938","providerTheaterId":"","name":"Mt. Valley Mall Theatre","address":"32 Mt. Valley Blvd.","city":"North Conway","state":"NH","zip":"03860","distance":22.78663535262,"lon":"-71.154049","lat":"44.056785","theaterChainName":"Boston Culinary Group","ticketType":"STANDARD"},{"id":"829","tribuneTheaterId":"6142","providerTheaterId":"","name":"Auburn 10","address":"730 Centre Street","city":"Auburn","state":"ME","zip":"04210","distance":23.521630133636,"lon":"-70.226229","lat":"44.12743","theaterChainName":"Flagship Cinemas","ticketType":"STANDARD"},{"id":"3132","tribuneTheaterId":"4152","providerTheaterId":"","name":"Flagship Cinemas Lewiston","address":"855 Lisbon St","city":"Lewiston","state":"ME","zip":"04240","distance":24.569353906429,"lon":"-70.204139","lat":"44.082207","theaterChainName":"Flagship Cinemas","ticketType":"STANDARD"}]