[{"id":"834","name":"Fox Run Stadium 15 & RPX","address":"45 Gosling Road","city":"Newington","state":"NH","zip":"03801","distance":"23.169034957885742","lon":"-70.800941","lat":"43.094620","theaterChainName":"Regal Cinemas","ticketType":"STANDARD"},{"id":"4856","name":"BarnZ's Barrington Cinema","address":"586 Calef Highway, Suite One","city":"Barrington","state":"NH","zip":"03825","distance":"19.489999771118164","lon":"-70.998398","lat":"43.206924","theaterChainName":"Independent Chains","ticketType":"STANDARD"},{"id":"3208","name":"Smitty's Sanford Cinema & Pub","address":"1364 Main Street","city":"Sanford","state":"ME","zip":"04073","distance":"1.1629365682601929","lon":"-70.745148","lat":"43.414745","theaterChainName":"Independent Chains","ticketType":"STANDARD"},{"id":"827","name":"Smitty's Cinema - Biddeford","address":"420 Alfred Street","city":"Biddeford","state":"ME","zip":"04005","distance":"14.471092224121094","lon":"-70.479691","lat":"43.482346","theaterChainName":"Independent Chains","ticketType":"STANDARD"},{"id":"3128","name":"Cinemagic & IMAX in Saco","address":"779 Portland Rd.","city":"Saco","state":"ME","zip":"04072","distance":"18.126596450805664","lon":"-70.424332","lat":"43.528606","theaterChainName":"Zyacorp Entertainment","ticketType":"STANDARD"}]