[{"id":"5117","tribuneTheaterId":"10520","providerTheaterId":"","name":"Nordica Theatre","address":"1 Freeport Village Station Suite 130 S","city":"Freeport","state":"ME","zip":"04032","distance":2.5971730694167,"lon":"-70.102639","lat":"43.856033","theaterChainName":"Your Neighborhood Theatre","ticketType":"STANDARD"},{"id":"6061","tribuneTheaterId":"11468","providerTheaterId":"","name":"Flagship Cinemas Falmouth","address":"206 US Route 1","city":"Falmouth","state":"ME","zip":"04105","distance":8.9523118274153,"lon":"-70.235061","lat":"43.720899","theaterChainName":"Flagship Cinemas","ticketType":"STANDARD"},{"id":"6072","tribuneTheaterId":"11479","providerTheaterId":"","name":"Smitty's Cinema Topsham","address":"65 Topsham Fair Mall Road","city":"Topsham","state":"ME","zip":"04086","distance":10.625690987611,"lon":"-69.981972","lat":"43.937578","theaterChainName":"Independent Chains","ticketType":"STANDARD"},{"id":"2719","tribuneTheaterId":"2565","providerTheaterId":"","name":"Evening Star","address":"149 Maine St.","city":"Brunswick","state":"ME","zip":"04011","distance":10.17073876437,"lon":"-69.963695","lat":"43.914822","theaterChainName":"Independent Chains","ticketType":"STANDARD"},{"id":"828","tribuneTheaterId":"7018","providerTheaterId":"","name":"Regal Brunswick 10","address":"19 Gurnet St.","city":"Brunswick","state":"ME","zip":"04011","distance":11.939340752957,"lon":"-69.912175","lat":"43.905856","theaterChainName":"Regal Cinemas","ticketType":"STANDARD"},{"id":"2675","tribuneTheaterId":"9256","providerTheaterId":"","name":"Patriot\/Nickelodeon Cinema 1-6","address":"1 Temple Street","city":"Portland","state":"ME","zip":"04101","distance":13.147712536662,"lon":"-70.255809","lat":"43.657413","theaterChainName":"Patriot Cinemas","ticketType":"STANDARD"},{"id":"5339","tribuneTheaterId":"5411","providerTheaterId":"","name":"Smitty's Cinema Pub","address":"765 Roosevelt Trail","city":"Windham","state":"ME","zip":"04062","distance":16.513327458383,"lon":"-70.4497","lat":"43.8497","theaterChainName":"Independent Chains","ticketType":"STANDARD"},{"id":"4572","tribuneTheaterId":"9716","providerTheaterId":"","name":"Cinemagic Grand Stadium at Clarks Pond","address":"333 Clarks Pond Parkway","city":"South Portland","state":"ME","zip":"04106","distance":16.621685343788,"lon":"-70.326823","lat":"43.631836","theaterChainName":"Zyacorp Entertainment","ticketType":"STANDARD"},{"id":"4224","tribuneTheaterId":"2392","providerTheaterId":"","name":"Cinemagic in Westbrook","address":"183 County Road","city":"Westbrook","state":"ME","zip":"04092","distance":16.382622332911,"lon":"-70.350346","lat":"43.651351","theaterChainName":"Zyacorp Entertainment","ticketType":"STANDARD"},{"id":"3132","tribuneTheaterId":"4152","providerTheaterId":"","name":"Flagship Cinemas Lewiston","address":"855 Lisbon St","city":"Lewiston","state":"ME","zip":"04240","distance":18.531096929295,"lon":"-70.204139","lat":"44.082207","theaterChainName":"Flagship Cinemas","ticketType":"STANDARD"},{"id":"829","tribuneTheaterId":"6142","providerTheaterId":"","name":"Auburn 10","address":"730 Centre Street","city":"Auburn","state":"ME","zip":"04210","distance":21.82501135103,"lon":"-70.226229","lat":"44.12743","theaterChainName":"Flagship Cinemas","ticketType":"STANDARD"},{"id":"4991","tribuneTheaterId":"10359","providerTheaterId":"","name":"The Harbor Theatre","address":"185 Townsend Avenue","city":"Boothbay Harbor","state":"ME","zip":"04538","distance":24.782786439859,"lon":"-69.626602","lat":"43.860802","theaterChainName":"Independent Chains","ticketType":"STANDARD"}]