[{"id":"4654","tribuneTheaterId":"9853","providerTheaterId":"","name":"The Magic Lantern","address":"9 Depot Street","city":"Bridgton","state":"ME","zip":"04009","distance":9.6276861244921,"lon":"-70.7075","lat":"44.0539","theaterChainName":"Independent Chains","ticketType":"STANDARD"},{"id":"5935","tribuneTheaterId":"11366","providerTheaterId":"","name":"The Gem","address":"23 Cross Street","city":"Bethel","state":"ME","zip":"04217","distance":15.533483547035,"lon":"-70.7914","lat":"44.4114","theaterChainName":"Independent Chains","ticketType":"STANDARD"},{"id":"1801","tribuneTheaterId":"6938","providerTheaterId":"","name":"Mt. Valley Mall Theatre","address":"32 Mt. Valley Blvd.","city":"North Conway","state":"NH","zip":"03860","distance":23.665804032071,"lon":"-71.154049","lat":"44.056785","theaterChainName":"Boston Culinary Group","ticketType":"STANDARD"},{"id":"829","tribuneTheaterId":"6142","providerTheaterId":"","name":"Auburn 10","address":"730 Centre Street","city":"Auburn","state":"ME","zip":"04210","distance":24.711495653682,"lon":"-70.226229","lat":"44.12743","theaterChainName":"Flagship Cinemas","ticketType":"STANDARD"}]