[{"id":"4654","name":"The Magic Lantern","address":"9 Depot Street","city":"Bridgton","state":"ME","zip":"04009","distance":"19.776527404785156","lon":"-70.707497","lat":"44.053902","theaterChainName":"Independent Chains","ticketType":"STANDARD"},{"id":"827","name":"Smitty's Cinema - Biddeford","address":"420 Alfred Street","city":"Biddeford","state":"ME","zip":"04005","distance":"21.54694938659668","lon":"-70.479691","lat":"43.482346","theaterChainName":"Independent Chains","ticketType":"STANDARD"},{"id":"5339","name":"Smitty's Cinema Pub","address":"765 Roosevelt Trail","city":"Windham","state":"ME","zip":"04062","distance":"10.888704299926758","lon":"-70.449699","lat":"43.849701","theaterChainName":"Independent Chains","ticketType":"STANDARD"},{"id":"3128","name":"Cinemagic & IMAX in Saco","address":"779 Portland Rd.","city":"Saco","state":"ME","zip":"04072","distance":"19.961166381835938","lon":"-70.424332","lat":"43.528606","theaterChainName":"Zyacorp Entertainment","ticketType":"STANDARD"},{"id":"4224","name":"Cinemagic in Westbrook","address":"183 County Road","city":"Westbrook","state":"ME","zip":"04092","distance":"16.676189422607422","lon":"-70.350349","lat":"43.651352","theaterChainName":"Zyacorp Entertainment","ticketType":"STANDARD"},{"id":"4572","name":"Cinemagic Grand Stadium at Clarks Pond","address":"333 Clarks Pond Parkway","city":"South Portland","state":"ME","zip":"04106","distance":"18.379180908203125","lon":"-70.326820","lat":"43.631836","theaterChainName":"Zyacorp Entertainment","ticketType":"STANDARD"},{"id":"2675","name":"Patriot\/Nickelodeon Cinema 1-6","address":"1 Temple Street","city":"Portland","state":"ME","zip":"04101","distance":"20.73621368408203","lon":"-70.255806","lat":"43.657413","theaterChainName":"Patriot Cinemas","ticketType":"STANDARD"},{"id":"6061","name":"Flagship Cinemas Falmouth","address":"206 US Route 1","city":"Falmouth","state":"ME","zip":"04105","distance":"20.498504638671875","lon":"-70.235062","lat":"43.720898","theaterChainName":"Flagship Cinemas","ticketType":"STANDARD"}]