[{"id":"3208","tribuneTheaterId":"3017","providerTheaterId":"","name":"Smitty's Sanford Cinema & Pub","address":"1364 Main Street","city":"Sanford","state":"ME","zip":"04073","distance":10.458122188668,"lon":"-70.745151","lat":"43.414745","theaterChainName":"Independent Chains","ticketType":"STANDARD"},{"id":"827","tribuneTheaterId":"6062","providerTheaterId":"","name":"Smitty's Cinema - Biddeford","address":"420 Alfred Street","city":"Biddeford","state":"ME","zip":"04005","distance":14.409393508031,"lon":"-70.479691","lat":"43.482347","theaterChainName":"Independent Chains","ticketType":"STANDARD"},{"id":"3128","tribuneTheaterId":"4039","providerTheaterId":"","name":"Cinemagic & IMAX in Saco","address":"779 Portland Rd.","city":"Saco","state":"ME","zip":"04072","distance":16.172591775438,"lon":"-70.424329","lat":"43.528608","theaterChainName":"Zyacorp Entertainment","ticketType":"STANDARD"},{"id":"4224","tribuneTheaterId":"2392","providerTheaterId":"","name":"Cinemagic in Westbrook","address":"183 County Road","city":"Westbrook","state":"ME","zip":"04092","distance":20.512636043786,"lon":"-70.350346","lat":"43.651351","theaterChainName":"Zyacorp Entertainment","ticketType":"STANDARD"},{"id":"4572","tribuneTheaterId":"9716","providerTheaterId":"","name":"Cinemagic Grand Stadium at Clarks Pond","address":"333 Clarks Pond Parkway","city":"South Portland","state":"ME","zip":"04106","distance":21.318378447491,"lon":"-70.326823","lat":"43.631836","theaterChainName":"Zyacorp Entertainment","ticketType":"STANDARD"},{"id":"5339","tribuneTheaterId":"5411","providerTheaterId":"","name":"Smitty's Cinema Pub","address":"765 Roosevelt Trail","city":"Windham","state":"ME","zip":"04062","distance":24.468298035103,"lon":"-70.4497","lat":"43.8497","theaterChainName":"Independent Chains","ticketType":"STANDARD"}]