[{"id":"834","name":"Fox Run Stadium 15 & RPX","address":"45 Gosling Road","city":"Newington","state":"NH","zip":"03801","distance":"24.381898880004883","lon":"-70.800941","lat":"43.094620","theaterChainName":"Regal Cinemas","ticketType":"STANDARD"},{"id":"3208","name":"Smitty's Sanford Cinema & Pub","address":"1364 Main Street","city":"Sanford","state":"ME","zip":"04073","distance":"8.646544456481934","lon":"-70.745148","lat":"43.414745","theaterChainName":"Independent Chains","ticketType":"STANDARD"},{"id":"827","name":"Smitty's Cinema - Biddeford","address":"420 Alfred Street","city":"Biddeford","state":"ME","zip":"04005","distance":"7.057668685913086","lon":"-70.479691","lat":"43.482346","theaterChainName":"Independent Chains","ticketType":"STANDARD"},{"id":"3128","name":"Cinemagic & IMAX in Saco","address":"779 Portland Rd.","city":"Saco","state":"ME","zip":"04072","distance":"11.290030479431152","lon":"-70.424332","lat":"43.528606","theaterChainName":"Zyacorp Entertainment","ticketType":"STANDARD"},{"id":"4224","name":"Cinemagic in Westbrook","address":"183 County Road","city":"Westbrook","state":"ME","zip":"04092","distance":"20.296092987060547","lon":"-70.350349","lat":"43.651352","theaterChainName":"Zyacorp Entertainment","ticketType":"STANDARD"},{"id":"4572","name":"Cinemagic Grand Stadium at Clarks Pond","address":"333 Clarks Pond Parkway","city":"South Portland","state":"ME","zip":"04106","distance":"19.895137786865234","lon":"-70.326820","lat":"43.631836","theaterChainName":"Zyacorp Entertainment","ticketType":"STANDARD"},{"id":"2675","name":"Patriot\/Nickelodeon Cinema 1-6","address":"1 Temple Street","city":"Portland","state":"ME","zip":"04101","distance":"23.548166275024414","lon":"-70.255806","lat":"43.657413","theaterChainName":"Patriot Cinemas","ticketType":"STANDARD"}]