[{"id":"827","tribuneTheaterId":"6062","providerTheaterId":"","name":"Smitty's Cinema - Biddeford","address":"420 Alfred Street","city":"Biddeford","state":"ME","zip":"04005","distance":7.057245314604,"lon":"-70.479691","lat":"43.482347","theaterChainName":"Independent Chains","ticketType":"STANDARD"},{"id":"3208","tribuneTheaterId":"3017","providerTheaterId":"","name":"Smitty's Sanford Cinema & Pub","address":"1364 Main Street","city":"Sanford","state":"ME","zip":"04073","distance":8.6463391470764,"lon":"-70.745151","lat":"43.414745","theaterChainName":"Independent Chains","ticketType":"STANDARD"},{"id":"3128","tribuneTheaterId":"4039","providerTheaterId":"","name":"Cinemagic & IMAX in Saco","address":"779 Portland Rd.","city":"Saco","state":"ME","zip":"04072","distance":11.289457940843,"lon":"-70.424329","lat":"43.528608","theaterChainName":"Zyacorp Entertainment","ticketType":"STANDARD"},{"id":"4572","tribuneTheaterId":"9716","providerTheaterId":"","name":"Cinemagic Grand Stadium at Clarks Pond","address":"333 Clarks Pond Parkway","city":"South Portland","state":"ME","zip":"04106","distance":19.893792298097,"lon":"-70.326823","lat":"43.631836","theaterChainName":"Zyacorp Entertainment","ticketType":"STANDARD"},{"id":"4224","tribuneTheaterId":"2392","providerTheaterId":"","name":"Cinemagic in Westbrook","address":"183 County Road","city":"Westbrook","state":"ME","zip":"04092","distance":20.294858400372,"lon":"-70.350346","lat":"43.651351","theaterChainName":"Zyacorp Entertainment","ticketType":"STANDARD"},{"id":"2675","tribuneTheaterId":"9256","providerTheaterId":"","name":"Patriot\/Nickelodeon Cinema 1-6","address":"1 Temple Street","city":"Portland","state":"ME","zip":"04101","distance":23.546533727978,"lon":"-70.255809","lat":"43.657413","theaterChainName":"Patriot Cinemas","ticketType":"STANDARD"},{"id":"834","tribuneTheaterId":"8417","providerTheaterId":"","name":"Fox Run Stadium 15 & RPX","address":"45 Gosling Road","city":"Newington","state":"NH","zip":"03801","distance":24.380413260094,"lon":"-70.800938","lat":"43.094618","theaterChainName":"Regal Cinemas","ticketType":"STANDARD"}]