[{"id":"829","name":"Auburn 10","address":"730 Centre Street","city":"Auburn","state":"ME","zip":"04210","distance":"11.823442459106445","lon":"-70.226227","lat":"44.127430","theaterChainName":"Flagship Cinemas","ticketType":"STANDARD"},{"id":"3132","name":"Flagship Cinemas Lewiston","address":"855 Lisbon St","city":"Lewiston","state":"ME","zip":"04240","distance":"13.017091751098633","lon":"-70.204140","lat":"44.082207","theaterChainName":"Flagship Cinemas","ticketType":"STANDARD"},{"id":"2719","name":"Evening Star","address":"149 Maine St.","city":"Brunswick","state":"ME","zip":"04011","distance":"21.369525909423828","lon":"-69.963692","lat":"43.914822","theaterChainName":"Independent Chains","ticketType":"STANDARD"},{"id":"6072","name":"Smitty's Cinema Topsham","address":"65 Topsham Fair Mall Road","city":"Topsham","state":"ME","zip":"04086","distance":"19.693273544311523","lon":"-69.981972","lat":"43.937576","theaterChainName":"Independent Chains","ticketType":"STANDARD"},{"id":"828","name":"Regal Brunswick 10","address":"19 Gurnet St.","city":"Brunswick","state":"ME","zip":"04011","distance":"22.48727035522461","lon":"-69.912178","lat":"43.905857","theaterChainName":"Regal Cinemas","ticketType":"STANDARD"},{"id":"825","name":"Regal Augusta 10","address":"23 Market Place Drive","city":"Augusta","state":"ME","zip":"04330","distance":"14.824858665466309","lon":"-69.772697","lat":"44.335098","theaterChainName":"Regal Cinemas","ticketType":"STANDARD"}]