[{"id":"4654","name":"The Magic Lantern","address":"9 Depot Street","city":"Bridgton","state":"ME","zip":"04009","distance":"16.175336837768555","lon":"-70.707497","lat":"44.053902","theaterChainName":"Independent Chains","ticketType":"STANDARD"},{"id":"5339","name":"Smitty's Cinema Pub","address":"765 Roosevelt Trail","city":"Windham","state":"ME","zip":"04062","distance":"18.331615447998047","lon":"-70.449699","lat":"43.849701","theaterChainName":"Independent Chains","ticketType":"STANDARD"},{"id":"829","name":"Auburn 10","address":"730 Centre Street","city":"Auburn","state":"ME","zip":"04210","distance":"8.279894828796387","lon":"-70.226227","lat":"44.127430","theaterChainName":"Flagship Cinemas","ticketType":"STANDARD"},{"id":"3132","name":"Flagship Cinemas Lewiston","address":"855 Lisbon St","city":"Lewiston","state":"ME","zip":"04240","distance":"9.527872085571289","lon":"-70.204140","lat":"44.082207","theaterChainName":"Flagship Cinemas","ticketType":"STANDARD"},{"id":"5117","name":"Nordica Theatre","address":"1 Freeport Village Station Suite 130 S","city":"Freeport","state":"ME","zip":"04032","distance":"22.77332305908203","lon":"-70.102638","lat":"43.856033","theaterChainName":"Your Neighborhood Theatre","ticketType":"STANDARD"},{"id":"6072","name":"Smitty's Cinema Topsham","address":"65 Topsham Fair Mall Road","city":"Topsham","state":"ME","zip":"04086","distance":"23.646541595458984","lon":"-69.981972","lat":"43.937576","theaterChainName":"Independent Chains","ticketType":"STANDARD"}]