[{"id":"825","name":"Regal Augusta 10","address":"23 Market Place Drive","city":"Augusta","state":"ME","zip":"04330","distance":"15.08281135559082","lon":"-69.772697","lat":"44.335098","theaterChainName":"Regal Cinemas","ticketType":"STANDARD"},{"id":"830","name":"Flagship Cinemas Waterville","address":"247 Kenedy Memorial Drive","city":"Waterville","state":"ME","zip":"04901","distance":"23.64251708984375","lon":"-69.667007","lat":"44.544449","theaterChainName":"Flagship Cinemas","ticketType":"STANDARD"},{"id":"2721","name":"Railroad Square Cinema","address":"17 Railroad Square","city":"Waterville","state":"ME","zip":"04901","distance":"23.931188583374023","lon":"-69.629662","lat":"44.556610","theaterChainName":"Independent Chains","ticketType":"STANDARD"},{"id":"1829","name":"Flagship Cinemas 10","address":"9 Moody Dr","city":"Thomaston","state":"ME","zip":"04861","distance":"19.639265060424805","lon":"-69.158600","lat":"44.093800","theaterChainName":"Flagship Cinemas","ticketType":"STANDARD"},{"id":"4636","name":"Strand Theatre - Rockland","address":"345 Main St.","city":"Rockland","state":"ME","zip":"04841","distance":"21.614856719970703","lon":"-69.109032","lat":"44.103149","theaterChainName":"Independent Chains","ticketType":"STANDARD"}]