[{"id":"829","name":"Auburn 10","address":"730 Centre Street","city":"Auburn","state":"ME","zip":"04210","distance":"24.08156394958496","lon":"-70.226227","lat":"44.127430","theaterChainName":"Flagship Cinemas","ticketType":"STANDARD"},{"id":"3132","name":"Flagship Cinemas Lewiston","address":"855 Lisbon St","city":"Lewiston","state":"ME","zip":"04240","distance":"22.757261276245117","lon":"-70.204140","lat":"44.082207","theaterChainName":"Flagship Cinemas","ticketType":"STANDARD"},{"id":"5117","name":"Nordica Theatre","address":"1 Freeport Village Station Suite 130 S","city":"Freeport","state":"ME","zip":"04032","distance":"23.481996536254883","lon":"-70.102638","lat":"43.856033","theaterChainName":"Your Neighborhood Theatre","ticketType":"STANDARD"},{"id":"2719","name":"Evening Star","address":"149 Maine St.","city":"Brunswick","state":"ME","zip":"04011","distance":"15.66291618347168","lon":"-69.963692","lat":"43.914822","theaterChainName":"Independent Chains","ticketType":"STANDARD"},{"id":"6072","name":"Smitty's Cinema Topsham","address":"65 Topsham Fair Mall Road","city":"Topsham","state":"ME","zip":"04086","distance":"15.254499435424805","lon":"-69.981972","lat":"43.937576","theaterChainName":"Independent Chains","ticketType":"STANDARD"},{"id":"828","name":"Regal Brunswick 10","address":"19 Gurnet St.","city":"Brunswick","state":"ME","zip":"04011","distance":"14.518800735473633","lon":"-69.912178","lat":"43.905857","theaterChainName":"Regal Cinemas","ticketType":"STANDARD"},{"id":"4991","name":"The Harbor Theatre","address":"185 Townsend Avenue","city":"Boothbay Harbor","state":"ME","zip":"04538","distance":"16.166296005249023","lon":"-69.626602","lat":"43.860802","theaterChainName":"Independent Chains","ticketType":"STANDARD"},{"id":"825","name":"Regal Augusta 10","address":"23 Market Place Drive","city":"Augusta","state":"ME","zip":"04330","distance":"17.780765533447266","lon":"-69.772697","lat":"44.335098","theaterChainName":"Regal Cinemas","ticketType":"STANDARD"}]