[{"id":"829","name":"Auburn 10","address":"730 Centre Street","city":"Auburn","state":"ME","zip":"04210","distance":"24.706451416015625","lon":"-70.226227","lat":"44.127430","theaterChainName":"Flagship Cinemas","ticketType":"STANDARD"},{"id":"3132","name":"Flagship Cinemas Lewiston","address":"855 Lisbon St","city":"Lewiston","state":"ME","zip":"04240","distance":"24.8292293548584","lon":"-70.204140","lat":"44.082207","theaterChainName":"Flagship Cinemas","ticketType":"STANDARD"},{"id":"2719","name":"Evening Star","address":"149 Maine St.","city":"Brunswick","state":"ME","zip":"04011","distance":"24.503646850585938","lon":"-69.963692","lat":"43.914822","theaterChainName":"Independent Chains","ticketType":"STANDARD"},{"id":"6072","name":"Smitty's Cinema Topsham","address":"65 Topsham Fair Mall Road","city":"Topsham","state":"ME","zip":"04086","distance":"23.523773193359375","lon":"-69.981972","lat":"43.937576","theaterChainName":"Independent Chains","ticketType":"STANDARD"},{"id":"828","name":"Regal Brunswick 10","address":"19 Gurnet St.","city":"Brunswick","state":"ME","zip":"04011","distance":"24.096525192260742","lon":"-69.912178","lat":"43.905857","theaterChainName":"Regal Cinemas","ticketType":"STANDARD"},{"id":"825","name":"Regal Augusta 10","address":"23 Market Place Drive","city":"Augusta","state":"ME","zip":"04330","distance":"7.022892951965332","lon":"-69.772697","lat":"44.335098","theaterChainName":"Regal Cinemas","ticketType":"STANDARD"},{"id":"830","name":"Flagship Cinemas Waterville","address":"247 Kenedy Memorial Drive","city":"Waterville","state":"ME","zip":"04901","distance":"21.797338485717773","lon":"-69.667007","lat":"44.544449","theaterChainName":"Flagship Cinemas","ticketType":"STANDARD"},{"id":"2721","name":"Railroad Square Cinema","address":"17 Railroad Square","city":"Waterville","state":"ME","zip":"04901","distance":"23.030773162841797","lon":"-69.629662","lat":"44.556610","theaterChainName":"Independent Chains","ticketType":"STANDARD"}]