[{"id":"830","tribuneTheaterId":"2024","providerTheaterId":"","name":"Flagship Cinemas Waterville","address":"247 Kenedy Memorial Drive","city":"Waterville","state":"ME","zip":"04901","distance":15.973023865117,"lon":"-69.667008","lat":"44.54445","theaterChainName":"Flagship Cinemas","ticketType":"STANDARD"},{"id":"2721","tribuneTheaterId":"2847","providerTheaterId":"","name":"Railroad Square Cinema","address":"17 Railroad Square","city":"Waterville","state":"ME","zip":"04901","distance":15.3422804204,"lon":"-69.629663","lat":"44.556612","theaterChainName":"Independent Chains","ticketType":"STANDARD"},{"id":"825","tribuneTheaterId":"8200","providerTheaterId":"","name":"Regal Augusta 10","address":"23 Market Place Drive","city":"Augusta","state":"ME","zip":"04330","distance":17.102287395047,"lon":"-69.772697","lat":"44.335098","theaterChainName":"Regal Cinemas","ticketType":"STANDARD"},{"id":"2602","tribuneTheaterId":"1522","providerTheaterId":"","name":"Colonial Theatre - Belfast","address":"163 High Street","city":"Belfast","state":"ME","zip":"04915","distance":21.22314530151,"lon":"-69.007556","lat":"44.426708","theaterChainName":"Independent Chains","ticketType":"STANDARD"},{"id":"1829","tribuneTheaterId":"3149","providerTheaterId":"","name":"Flagship Cinemas 10","address":"9 Moody Dr","city":"Thomaston","state":"ME","zip":"04861","distance":24.246750629185,"lon":"-69.1586","lat":"44.0938","theaterChainName":"Flagship Cinemas","ticketType":"STANDARD"}]