[{"id":"829","name":"Auburn 10","address":"730 Centre Street","city":"Auburn","state":"ME","zip":"04210","distance":"23.432846069335938","lon":"-70.226227","lat":"44.127430","theaterChainName":"Flagship Cinemas","ticketType":"STANDARD"},{"id":"825","name":"Regal Augusta 10","address":"23 Market Place Drive","city":"Augusta","state":"ME","zip":"04330","distance":"9.96794319152832","lon":"-69.772697","lat":"44.335098","theaterChainName":"Regal Cinemas","ticketType":"STANDARD"},{"id":"830","name":"Flagship Cinemas Waterville","address":"247 Kenedy Memorial Drive","city":"Waterville","state":"ME","zip":"04901","distance":"17.05219078063965","lon":"-69.667007","lat":"44.544449","theaterChainName":"Flagship Cinemas","ticketType":"STANDARD"},{"id":"2721","name":"Railroad Square Cinema","address":"17 Railroad Square","city":"Waterville","state":"ME","zip":"04901","distance":"19.045202255249023","lon":"-69.629662","lat":"44.556610","theaterChainName":"Independent Chains","ticketType":"STANDARD"}]