[{"id":"826","tribuneTheaterId":"7777","providerTheaterId":"","name":"Bangor Mall Cinemas 10","address":"557 Stillwater Ave.","city":"Bangor","state":"ME","zip":"04401","distance":8.9299509734011,"lon":"-68.752588","lat":"44.827891","theaterChainName":"Boston Culinary Group","ticketType":"STANDARD"},{"id":"3286","tribuneTheaterId":"1956","providerTheaterId":"","name":"Spotlight Cinemas","address":"6 Stillwater Ave.","city":"Orono","state":"ME","zip":"04473","distance":9.6398041589564,"lon":"-68.69127","lat":"44.90564","theaterChainName":"Independent Chains","ticketType":"STANDARD"},{"id":"4653","tribuneTheaterId":"9852","providerTheaterId":"","name":"Hollywood Cinemas 7 ","address":"268 Odlin Road","city":"Bangor","state":"ME","zip":"04401","distance":11.374726390256,"lon":"-68.809673","lat":"44.790818","theaterChainName":"Independent Chains","ticketType":"STANDARD"},{"id":"2935","tribuneTheaterId":"493","providerTheaterId":"","name":"Alamo Theatre","address":"85 Main St.","city":"Bucksport","state":"ME","zip":"04416","distance":18.535674270271,"lon":"-68.793522","lat":"44.571653","theaterChainName":"Independent Chains","ticketType":"STANDARD"}]