[{"id":"4653","tribuneTheaterId":"9852","providerTheaterId":"","name":"Hollywood Cinemas 7 ","address":"268 Odlin Road","city":"Bangor","state":"ME","zip":"04401","distance":4.6348186779187,"lon":"-68.809673","lat":"44.790818","theaterChainName":"Independent Chains","ticketType":"STANDARD"},{"id":"826","tribuneTheaterId":"7777","providerTheaterId":"","name":"Bangor Mall Cinemas 10","address":"557 Stillwater Ave.","city":"Bangor","state":"ME","zip":"04401","distance":8.4194283952693,"lon":"-68.752588","lat":"44.827891","theaterChainName":"Boston Culinary Group","ticketType":"STANDARD"},{"id":"2935","tribuneTheaterId":"493","providerTheaterId":"","name":"Alamo Theatre","address":"85 Main St.","city":"Bucksport","state":"ME","zip":"04416","distance":12.343665745441,"lon":"-68.793522","lat":"44.571653","theaterChainName":"Independent Chains","ticketType":"STANDARD"},{"id":"3286","tribuneTheaterId":"1956","providerTheaterId":"","name":"Spotlight Cinemas","address":"6 Stillwater Ave.","city":"Orono","state":"ME","zip":"04473","distance":14.444690943977,"lon":"-68.69127","lat":"44.90564","theaterChainName":"Independent Chains","ticketType":"STANDARD"},{"id":"2602","tribuneTheaterId":"1522","providerTheaterId":"","name":"Colonial Theatre - Belfast","address":"163 High Street","city":"Belfast","state":"ME","zip":"04915","distance":22.707714543789,"lon":"-69.007556","lat":"44.426708","theaterChainName":"Independent Chains","ticketType":"STANDARD"}]