[{"id":"2719","name":"Evening Star","address":"149 Maine St.","city":"Brunswick","state":"ME","zip":"04011","distance":"24.21408462524414","lon":"-69.963692","lat":"43.914822","theaterChainName":"Independent Chains","ticketType":"STANDARD"},{"id":"828","name":"Regal Brunswick 10","address":"19 Gurnet St.","city":"Brunswick","state":"ME","zip":"04011","distance":"21.61029815673828","lon":"-69.912178","lat":"43.905857","theaterChainName":"Regal Cinemas","ticketType":"STANDARD"},{"id":"4991","name":"The Harbor Theatre","address":"185 Townsend Avenue","city":"Boothbay Harbor","state":"ME","zip":"04538","distance":"7.519571304321289","lon":"-69.626602","lat":"43.860802","theaterChainName":"Independent Chains","ticketType":"STANDARD"},{"id":"1829","name":"Flagship Cinemas 10","address":"9 Moody Dr","city":"Thomaston","state":"ME","zip":"04861","distance":"21.53095245361328","lon":"-69.158600","lat":"44.093800","theaterChainName":"Flagship Cinemas","ticketType":"STANDARD"},{"id":"4636","name":"Strand Theatre - Rockland","address":"345 Main St.","city":"Rockland","state":"ME","zip":"04841","distance":"23.8174991607666","lon":"-69.109032","lat":"44.103149","theaterChainName":"Independent Chains","ticketType":"STANDARD"}]