[{"id":"4991","tribuneTheaterId":"10359","providerTheaterId":"","name":"The Harbor Theatre","address":"185 Townsend Avenue","city":"Boothbay Harbor","state":"ME","zip":"04538","distance":2.8933424438566,"lon":"-69.626602","lat":"43.860802","theaterChainName":"Independent Chains","ticketType":"STANDARD"},{"id":"828","tribuneTheaterId":"7018","providerTheaterId":"","name":"Regal Brunswick 10","address":"19 Gurnet St.","city":"Brunswick","state":"ME","zip":"04011","distance":16.782535518821,"lon":"-69.912175","lat":"43.905856","theaterChainName":"Regal Cinemas","ticketType":"STANDARD"},{"id":"2719","tribuneTheaterId":"2565","providerTheaterId":"","name":"Evening Star","address":"149 Maine St.","city":"Brunswick","state":"ME","zip":"04011","distance":19.410536004882,"lon":"-69.963695","lat":"43.914822","theaterChainName":"Independent Chains","ticketType":"STANDARD"},{"id":"6072","tribuneTheaterId":"11479","providerTheaterId":"","name":"Smitty's Cinema Topsham","address":"65 Topsham Fair Mall Road","city":"Topsham","state":"ME","zip":"04086","distance":20.801895874306,"lon":"-69.981972","lat":"43.937578","theaterChainName":"Independent Chains","ticketType":"STANDARD"}]