[{"id":"4991","tribuneTheaterId":"10359","providerTheaterId":"","name":"The Harbor Theatre","address":"185 Townsend Avenue","city":"Boothbay Harbor","state":"ME","zip":"04538","distance":5.9135500039175,"lon":"-69.626602","lat":"43.860802","theaterChainName":"Independent Chains","ticketType":"STANDARD"},{"id":"828","tribuneTheaterId":"7018","providerTheaterId":"","name":"Regal Brunswick 10","address":"19 Gurnet St.","city":"Brunswick","state":"ME","zip":"04011","distance":20.375038222202,"lon":"-69.912175","lat":"43.905856","theaterChainName":"Regal Cinemas","ticketType":"STANDARD"},{"id":"1829","tribuneTheaterId":"3149","providerTheaterId":"","name":"Flagship Cinemas 10","address":"9 Moody Dr","city":"Thomaston","state":"ME","zip":"04861","distance":23.69521452601,"lon":"-69.1586","lat":"44.0938","theaterChainName":"Flagship Cinemas","ticketType":"STANDARD"},{"id":"2719","tribuneTheaterId":"2565","providerTheaterId":"","name":"Evening Star","address":"149 Maine St.","city":"Brunswick","state":"ME","zip":"04011","distance":23.004785002167,"lon":"-69.963695","lat":"43.914822","theaterChainName":"Independent Chains","ticketType":"STANDARD"},{"id":"6072","tribuneTheaterId":"11479","providerTheaterId":"","name":"Smitty's Cinema Topsham","address":"65 Topsham Fair Mall Road","city":"Topsham","state":"ME","zip":"04086","distance":24.195508721035,"lon":"-69.981972","lat":"43.937578","theaterChainName":"Independent Chains","ticketType":"STANDARD"}]