[{"id":"2719","name":"Evening Star","address":"149 Maine St.","city":"Brunswick","state":"ME","zip":"04011","distance":"21.70159149169922","lon":"-69.963692","lat":"43.914822","theaterChainName":"Independent Chains","ticketType":"STANDARD"},{"id":"6072","name":"Smitty's Cinema Topsham","address":"65 Topsham Fair Mall Road","city":"Topsham","state":"ME","zip":"04086","distance":"22.766998291015625","lon":"-69.981972","lat":"43.937576","theaterChainName":"Independent Chains","ticketType":"STANDARD"},{"id":"828","name":"Regal Brunswick 10","address":"19 Gurnet St.","city":"Brunswick","state":"ME","zip":"04011","distance":"19.10567855834961","lon":"-69.912178","lat":"43.905857","theaterChainName":"Regal Cinemas","ticketType":"STANDARD"},{"id":"4991","name":"The Harbor Theatre","address":"185 Townsend Avenue","city":"Boothbay Harbor","state":"ME","zip":"04538","distance":"5.333660125732422","lon":"-69.626602","lat":"43.860802","theaterChainName":"Independent Chains","ticketType":"STANDARD"},{"id":"1829","name":"Flagship Cinemas 10","address":"9 Moody Dr","city":"Thomaston","state":"ME","zip":"04861","distance":"23.076139450073242","lon":"-69.158600","lat":"44.093800","theaterChainName":"Flagship Cinemas","ticketType":"STANDARD"}]