[{"id":"4991","tribuneTheaterId":"10359","providerTheaterId":"","name":"The Harbor Theatre","address":"185 Townsend Avenue","city":"Boothbay Harbor","state":"ME","zip":"04538","distance":13.887186619647,"lon":"-69.626602","lat":"43.860802","theaterChainName":"Independent Chains","ticketType":"STANDARD"},{"id":"1829","tribuneTheaterId":"3149","providerTheaterId":"","name":"Flagship Cinemas 10","address":"9 Moody Dr","city":"Thomaston","state":"ME","zip":"04861","distance":15.124403510961,"lon":"-69.1586","lat":"44.0938","theaterChainName":"Flagship Cinemas","ticketType":"STANDARD"},{"id":"4636","tribuneTheaterId":"9821","providerTheaterId":"","name":"Strand Theatre - Rockland","address":"345 Main St.","city":"Rockland","state":"ME","zip":"04841","distance":17.648257567335,"lon":"-69.109035","lat":"44.10315","theaterChainName":"Independent Chains","ticketType":"STANDARD"},{"id":"828","tribuneTheaterId":"7018","providerTheaterId":"","name":"Regal Brunswick 10","address":"19 Gurnet St.","city":"Brunswick","state":"ME","zip":"04011","distance":24.560605595102,"lon":"-69.912175","lat":"43.905856","theaterChainName":"Regal Cinemas","ticketType":"STANDARD"}]