[{"id":"4991","tribuneTheaterId":"10359","providerTheaterId":"","name":"The Harbor Theatre","address":"185 Townsend Avenue","city":"Boothbay Harbor","state":"ME","zip":"04538","distance":11.341671525746,"lon":"-69.626602","lat":"43.860802","theaterChainName":"Independent Chains","ticketType":"STANDARD"},{"id":"828","tribuneTheaterId":"7018","providerTheaterId":"","name":"Regal Brunswick 10","address":"19 Gurnet St.","city":"Brunswick","state":"ME","zip":"04011","distance":10.636194552523,"lon":"-69.912175","lat":"43.905856","theaterChainName":"Regal Cinemas","ticketType":"STANDARD"},{"id":"2719","tribuneTheaterId":"2565","providerTheaterId":"","name":"Evening Star","address":"149 Maine St.","city":"Brunswick","state":"ME","zip":"04011","distance":12.517967191689,"lon":"-69.963695","lat":"43.914822","theaterChainName":"Independent Chains","ticketType":"STANDARD"},{"id":"6072","tribuneTheaterId":"11479","providerTheaterId":"","name":"Smitty's Cinema Topsham","address":"65 Topsham Fair Mall Road","city":"Topsham","state":"ME","zip":"04086","distance":14.324771871436,"lon":"-69.981972","lat":"43.937578","theaterChainName":"Independent Chains","ticketType":"STANDARD"},{"id":"5117","tribuneTheaterId":"10520","providerTheaterId":"","name":"Nordica Theatre","address":"1 Freeport Village Station Suite 130 S","city":"Freeport","state":"ME","zip":"04032","distance":15.556280136545,"lon":"-70.102639","lat":"43.856033","theaterChainName":"Your Neighborhood Theatre","ticketType":"STANDARD"},{"id":"6061","tribuneTheaterId":"11468","providerTheaterId":"","name":"Flagship Cinemas Falmouth","address":"206 US Route 1","city":"Falmouth","state":"ME","zip":"04105","distance":21.226841790619,"lon":"-70.235061","lat":"43.720899","theaterChainName":"Flagship Cinemas","ticketType":"STANDARD"},{"id":"2675","tribuneTheaterId":"9256","providerTheaterId":"","name":"Patriot\/Nickelodeon Cinema 1-6","address":"1 Temple Street","city":"Portland","state":"ME","zip":"04101","distance":23.320999722204,"lon":"-70.255809","lat":"43.657413","theaterChainName":"Patriot Cinemas","ticketType":"STANDARD"}]