[{"id":"4991","tribuneTheaterId":"10359","providerTheaterId":"","name":"The Harbor Theatre","address":"185 Townsend Avenue","city":"Boothbay Harbor","state":"ME","zip":"04538","distance":10.50517737177,"lon":"-69.626602","lat":"43.860802","theaterChainName":"Independent Chains","ticketType":"STANDARD"},{"id":"828","tribuneTheaterId":"7018","providerTheaterId":"","name":"Regal Brunswick 10","address":"19 Gurnet St.","city":"Brunswick","state":"ME","zip":"04011","distance":13.401791646893,"lon":"-69.912175","lat":"43.905856","theaterChainName":"Regal Cinemas","ticketType":"STANDARD"},{"id":"6072","tribuneTheaterId":"11479","providerTheaterId":"","name":"Smitty's Cinema Topsham","address":"65 Topsham Fair Mall Road","city":"Topsham","state":"ME","zip":"04086","distance":15.648336852022,"lon":"-69.981972","lat":"43.937578","theaterChainName":"Independent Chains","ticketType":"STANDARD"},{"id":"2719","tribuneTheaterId":"2565","providerTheaterId":"","name":"Evening Star","address":"149 Maine St.","city":"Brunswick","state":"ME","zip":"04011","distance":15.373871601969,"lon":"-69.963695","lat":"43.914822","theaterChainName":"Independent Chains","ticketType":"STANDARD"},{"id":"825","tribuneTheaterId":"8200","providerTheaterId":"","name":"Regal Augusta 10","address":"23 Market Place Drive","city":"Augusta","state":"ME","zip":"04330","distance":23.077790756556,"lon":"-69.772697","lat":"44.335098","theaterChainName":"Regal Cinemas","ticketType":"STANDARD"},{"id":"5117","tribuneTheaterId":"10520","providerTheaterId":"","name":"Nordica Theatre","address":"1 Freeport Village Station Suite 130 S","city":"Freeport","state":"ME","zip":"04032","distance":23.371190219758,"lon":"-70.102639","lat":"43.856033","theaterChainName":"Your Neighborhood Theatre","ticketType":"STANDARD"}]