[{"id":"4656","tribuneTheaterId":"9855","providerTheaterId":"","name":"Reel Pizza Cinerama","address":"33 Kennebec Place","city":"Bar Harbor","state":"ME","zip":"04609","distance":15.379021089177,"lon":"-68.206028","lat":"44.387711","theaterChainName":"Independent Chains","ticketType":"STANDARD"},{"id":"3874","tribuneTheaterId":"5042","providerTheaterId":"","name":"Crockett Cinemas","address":"2128 N. Locust Ave.","city":"Lawrenceburg","state":"TN","zip":"38464","distance":15.378782011573,"lon":"-68.20597","lat":"44.387752","theaterChainName":"Independent Chains","ticketType":"STANDARD"},{"id":"5713","tribuneTheaterId":"9539","providerTheaterId":"","name":"Criterion Theatre","address":"35 Cottage Street","city":"Bar Harbor","state":"ME","zip":"04609","distance":15.275171729491,"lon":"-68.206082","lat":"44.389682","theaterChainName":"Independent Chains","ticketType":"STANDARD"},{"id":"2935","tribuneTheaterId":"493","providerTheaterId":"","name":"Alamo Theatre","address":"85 Main St.","city":"Bucksport","state":"ME","zip":"04416","distance":18.812451886916,"lon":"-68.793522","lat":"44.571653","theaterChainName":"Independent Chains","ticketType":"STANDARD"}]