[{"id":"826","name":"Bangor Mall Cinemas 10","address":"557 Stillwater Ave.","city":"Bangor","state":"ME","zip":"04401","distance":"21.892837524414062","lon":"-68.752586","lat":"44.827892","theaterChainName":"Boston Culinary Group","ticketType":"STANDARD"},{"id":"4653","name":"Hollywood Cinemas 7 ","address":"268 Odlin Road","city":"Bangor","state":"ME","zip":"04401","distance":"22.966371536254883","lon":"-68.809669","lat":"44.790817","theaterChainName":"Independent Chains","ticketType":"STANDARD"},{"id":"3286","name":"Spotlight Cinemas","address":"6 Stillwater Ave.","city":"Orono","state":"ME","zip":"04473","distance":"23.416181564331055","lon":"-68.691269","lat":"44.905640","theaterChainName":"Independent Chains","ticketType":"STANDARD"},{"id":"2935","name":"Alamo Theatre","address":"85 Main St.","city":"Bucksport","state":"ME","zip":"04416","distance":"20.363880157470703","lon":"-68.793526","lat":"44.571651","theaterChainName":"Independent Chains","ticketType":"STANDARD"},{"id":"5713","name":"Criterion Theatre","address":"35 Cottage Street","city":"Bar Harbor","state":"ME","zip":"04609","distance":"19.676834106445312","lon":"-68.206085","lat":"44.389683","theaterChainName":"Independent Chains","ticketType":"STANDARD"},{"id":"3874","name":"Crockett Cinemas","address":"2128 N. Locust Ave.","city":"Lawrenceburg","state":"TN","zip":"38464","distance":"19.797733306884766","lon":"-68.205971","lat":"44.387753","theaterChainName":"Independent Chains","ticketType":"STANDARD"},{"id":"4656","name":"Reel Pizza Cinerama","address":"33 Kennebec Place","city":"Bar Harbor","state":"ME","zip":"04609","distance":"19.798917770385742","lon":"-68.206032","lat":"44.387711","theaterChainName":"Independent Chains","ticketType":"STANDARD"}]