[{"id":"3874","tribuneTheaterId":"5042","providerTheaterId":"","name":"Crockett Cinemas","address":"2128 N. Locust Ave.","city":"Lawrenceburg","state":"TN","zip":"38464","distance":19.796556297873,"lon":"-68.20597","lat":"44.387752","theaterChainName":"Independent Chains","ticketType":"STANDARD"},{"id":"4656","tribuneTheaterId":"9855","providerTheaterId":"","name":"Reel Pizza Cinerama","address":"33 Kennebec Place","city":"Bar Harbor","state":"ME","zip":"04609","distance":19.797751496451,"lon":"-68.206028","lat":"44.387711","theaterChainName":"Independent Chains","ticketType":"STANDARD"},{"id":"5713","tribuneTheaterId":"9539","providerTheaterId":"","name":"Criterion Theatre","address":"35 Cottage Street","city":"Bar Harbor","state":"ME","zip":"04609","distance":19.675735974935,"lon":"-68.206082","lat":"44.389682","theaterChainName":"Independent Chains","ticketType":"STANDARD"},{"id":"2935","tribuneTheaterId":"493","providerTheaterId":"","name":"Alamo Theatre","address":"85 Main St.","city":"Bucksport","state":"ME","zip":"04416","distance":20.36254320199,"lon":"-68.793522","lat":"44.571653","theaterChainName":"Independent Chains","ticketType":"STANDARD"},{"id":"826","tribuneTheaterId":"7777","providerTheaterId":"","name":"Bangor Mall Cinemas 10","address":"557 Stillwater Ave.","city":"Bangor","state":"ME","zip":"04401","distance":21.891552166513,"lon":"-68.752588","lat":"44.827891","theaterChainName":"Boston Culinary Group","ticketType":"STANDARD"},{"id":"4653","tribuneTheaterId":"9852","providerTheaterId":"","name":"Hollywood Cinemas 7 ","address":"268 Odlin Road","city":"Bangor","state":"ME","zip":"04401","distance":22.965202155621,"lon":"-68.809673","lat":"44.790818","theaterChainName":"Independent Chains","ticketType":"STANDARD"},{"id":"3286","tribuneTheaterId":"1956","providerTheaterId":"","name":"Spotlight Cinemas","address":"6 Stillwater Ave.","city":"Orono","state":"ME","zip":"04473","distance":23.414807906779,"lon":"-68.69127","lat":"44.90564","theaterChainName":"Independent Chains","ticketType":"STANDARD"}]