[{"id":"2602","name":"Colonial Theatre - Belfast","address":"163 High Street","city":"Belfast","state":"ME","zip":"04915","distance":"17.688053131103516","lon":"-69.007553","lat":"44.426708","theaterChainName":"Independent Chains","ticketType":"STANDARD"},{"id":"2935","name":"Alamo Theatre","address":"85 Main St.","city":"Bucksport","state":"ME","zip":"04416","distance":"18.59886932373047","lon":"-68.793526","lat":"44.571651","theaterChainName":"Independent Chains","ticketType":"STANDARD"},{"id":"5713","name":"Criterion Theatre","address":"35 Cottage Street","city":"Bar Harbor","state":"ME","zip":"04609","distance":"24.302507400512695","lon":"-68.206085","lat":"44.389683","theaterChainName":"Independent Chains","ticketType":"STANDARD"},{"id":"3874","name":"Crockett Cinemas","address":"2128 N. Locust Ave.","city":"Lawrenceburg","state":"TN","zip":"38464","distance":"24.2799129486084","lon":"-68.205971","lat":"44.387753","theaterChainName":"Independent Chains","ticketType":"STANDARD"},{"id":"4656","name":"Reel Pizza Cinerama","address":"33 Kennebec Place","city":"Bar Harbor","state":"ME","zip":"04609","distance":"24.2763614654541","lon":"-68.206032","lat":"44.387711","theaterChainName":"Independent Chains","ticketType":"STANDARD"}]