[{"id":"3924","name":"Strand Cinema","address":"Court Street","city":"Skowhegan","state":"ME","zip":"04976","distance":"24.08769989013672","lon":"-69.717598","lat":"44.766602","theaterChainName":"Independent Chains","ticketType":"STANDARD"},{"id":"2721","name":"Railroad Square Cinema","address":"17 Railroad Square","city":"Waterville","state":"ME","zip":"04901","distance":"24.689836502075195","lon":"-69.629662","lat":"44.556610","theaterChainName":"Independent Chains","ticketType":"STANDARD"},{"id":"826","name":"Bangor Mall Cinemas 10","address":"557 Stillwater Ave.","city":"Bangor","state":"ME","zip":"04401","distance":"23.584049224853516","lon":"-68.752586","lat":"44.827892","theaterChainName":"Boston Culinary Group","ticketType":"STANDARD"},{"id":"4653","name":"Hollywood Cinemas 7 ","address":"268 Odlin Road","city":"Bangor","state":"ME","zip":"04401","distance":"20.499919891357422","lon":"-68.809669","lat":"44.790817","theaterChainName":"Independent Chains","ticketType":"STANDARD"}]