[{"id":"2602","tribuneTheaterId":"1522","providerTheaterId":"","name":"Colonial Theatre - Belfast","address":"163 High Street","city":"Belfast","state":"ME","zip":"04915","distance":11.016331757933,"lon":"-69.007556","lat":"44.426708","theaterChainName":"Independent Chains","ticketType":"STANDARD"},{"id":"4636","tribuneTheaterId":"9821","providerTheaterId":"","name":"Strand Theatre - Rockland","address":"345 Main St.","city":"Rockland","state":"ME","zip":"04841","distance":19.696827586549,"lon":"-69.109035","lat":"44.10315","theaterChainName":"Independent Chains","ticketType":"STANDARD"},{"id":"1829","tribuneTheaterId":"3149","providerTheaterId":"","name":"Flagship Cinemas 10","address":"9 Moody Dr","city":"Thomaston","state":"ME","zip":"04861","distance":19.798863434455,"lon":"-69.1586","lat":"44.0938","theaterChainName":"Flagship Cinemas","ticketType":"STANDARD"},{"id":"2721","tribuneTheaterId":"2847","providerTheaterId":"","name":"Railroad Square Cinema","address":"17 Railroad Square","city":"Waterville","state":"ME","zip":"04901","distance":23.724328007459,"lon":"-69.629663","lat":"44.556612","theaterChainName":"Independent Chains","ticketType":"STANDARD"},{"id":"2935","tribuneTheaterId":"493","providerTheaterId":"","name":"Alamo Theatre","address":"85 Main St.","city":"Bucksport","state":"ME","zip":"04416","distance":24.943158535791,"lon":"-68.793522","lat":"44.571653","theaterChainName":"Independent Chains","ticketType":"STANDARD"},{"id":"830","tribuneTheaterId":"2024","providerTheaterId":"","name":"Flagship Cinemas Waterville","address":"247 Kenedy Memorial Drive","city":"Waterville","state":"ME","zip":"04901","distance":24.912890823646,"lon":"-69.667008","lat":"44.54445","theaterChainName":"Flagship Cinemas","ticketType":"STANDARD"}]