[{"id":"830","name":"Flagship Cinemas Waterville","address":"247 Kenedy Memorial Drive","city":"Waterville","state":"ME","zip":"04901","distance":"24.914546966552734","lon":"-69.667007","lat":"44.544449","theaterChainName":"Flagship Cinemas","ticketType":"STANDARD"},{"id":"2721","name":"Railroad Square Cinema","address":"17 Railroad Square","city":"Waterville","state":"ME","zip":"04901","distance":"23.725841522216797","lon":"-69.629662","lat":"44.556610","theaterChainName":"Independent Chains","ticketType":"STANDARD"},{"id":"1829","name":"Flagship Cinemas 10","address":"9 Moody Dr","city":"Thomaston","state":"ME","zip":"04861","distance":"19.800020217895508","lon":"-69.158600","lat":"44.093800","theaterChainName":"Flagship Cinemas","ticketType":"STANDARD"},{"id":"4636","name":"Strand Theatre - Rockland","address":"345 Main St.","city":"Rockland","state":"ME","zip":"04841","distance":"19.698017120361328","lon":"-69.109032","lat":"44.103149","theaterChainName":"Independent Chains","ticketType":"STANDARD"},{"id":"2602","name":"Colonial Theatre - Belfast","address":"163 High Street","city":"Belfast","state":"ME","zip":"04915","distance":"11.0170316696167","lon":"-69.007553","lat":"44.426708","theaterChainName":"Independent Chains","ticketType":"STANDARD"},{"id":"2935","name":"Alamo Theatre","address":"85 Main St.","city":"Bucksport","state":"ME","zip":"04416","distance":"24.94440460205078","lon":"-68.793526","lat":"44.571651","theaterChainName":"Independent Chains","ticketType":"STANDARD"}]