[{"id":"2602","tribuneTheaterId":"1522","providerTheaterId":"","name":"Colonial Theatre - Belfast","address":"163 High Street","city":"Belfast","state":"ME","zip":"04915","distance":21.078046722005,"lon":"-69.007556","lat":"44.426708","theaterChainName":"Independent Chains","ticketType":"STANDARD"},{"id":"2721","tribuneTheaterId":"2847","providerTheaterId":"","name":"Railroad Square Cinema","address":"17 Railroad Square","city":"Waterville","state":"ME","zip":"04901","distance":20.184973752693,"lon":"-69.629663","lat":"44.556612","theaterChainName":"Independent Chains","ticketType":"STANDARD"},{"id":"830","tribuneTheaterId":"2024","providerTheaterId":"","name":"Flagship Cinemas Waterville","address":"247 Kenedy Memorial Drive","city":"Waterville","state":"ME","zip":"04901","distance":22.20664473351,"lon":"-69.667008","lat":"44.54445","theaterChainName":"Flagship Cinemas","ticketType":"STANDARD"},{"id":"2935","tribuneTheaterId":"493","providerTheaterId":"","name":"Alamo Theatre","address":"85 Main St.","city":"Bucksport","state":"ME","zip":"04416","distance":23.800442497036,"lon":"-68.793522","lat":"44.571653","theaterChainName":"Independent Chains","ticketType":"STANDARD"},{"id":"3924","tribuneTheaterId":"1416","providerTheaterId":"","name":"Strand Cinema","address":"Court Street","city":"Skowhegan","state":"ME","zip":"04976","distance":23.567806459912,"lon":"-69.7176","lat":"44.7666","theaterChainName":"Independent Chains","ticketType":"STANDARD"},{"id":"4653","tribuneTheaterId":"9852","providerTheaterId":"","name":"Hollywood Cinemas 7 ","address":"268 Odlin Road","city":"Bangor","state":"ME","zip":"04401","distance":23.255634334192,"lon":"-68.809673","lat":"44.790818","theaterChainName":"Independent Chains","ticketType":"STANDARD"}]