[{"id":"3924","name":"Strand Cinema","address":"Court Street","city":"Skowhegan","state":"ME","zip":"04976","distance":"22.108463287353516","lon":"-69.717598","lat":"44.766602","theaterChainName":"Independent Chains","ticketType":"STANDARD"},{"id":"830","name":"Flagship Cinemas Waterville","address":"247 Kenedy Memorial Drive","city":"Waterville","state":"ME","zip":"04901","distance":"16.903369903564453","lon":"-69.667007","lat":"44.544449","theaterChainName":"Flagship Cinemas","ticketType":"STANDARD"},{"id":"2721","name":"Railroad Square Cinema","address":"17 Railroad Square","city":"Waterville","state":"ME","zip":"04901","distance":"14.924884796142578","lon":"-69.629662","lat":"44.556610","theaterChainName":"Independent Chains","ticketType":"STANDARD"},{"id":"2602","name":"Colonial Theatre - Belfast","address":"163 High Street","city":"Belfast","state":"ME","zip":"04915","distance":"20.03403663635254","lon":"-69.007553","lat":"44.426708","theaterChainName":"Independent Chains","ticketType":"STANDARD"}]