[{"id":"2792","name":"The Nugget Theatre","address":"57 S. Main Street","city":"Hanover","state":"NH","zip":"03755","distance":"21.82929229736328","lon":"-72.289490","lat":"43.700668","theaterChainName":"Independent Chains","ticketType":"STANDARD"},{"id":"3062","name":"Paramount Twin Cinema","address":"241 N. Main St.","city":"Barre","state":"VT","zip":"05641","distance":"17.015625","lon":"-72.503876","lat":"44.199440","theaterChainName":"Independent Chains","ticketType":"STANDARD"},{"id":"4665","name":"Savoy Theater","address":"26 Main St","city":"Montpelier","state":"VT","zip":"05602","distance":"21.034345626831055","lon":"-72.576485","lat":"44.259060","theaterChainName":"Independent Chains","ticketType":"STANDARD"},{"id":"1941","name":"Capitol Theatre - Montpelier","address":"93 State St","city":"Montpelier","state":"VT","zip":"05602","distance":"21.17464828491211","lon":"-72.578331","lat":"44.261005","theaterChainName":"Independent Chains","ticketType":"STANDARD"},{"id":"5045","name":"Playhouse Movie Theatre","address":"11 South Main St.","city":"Randolph","state":"VT","zip":"05060","distance":"6.2448296546936035","lon":"-72.665245","lat":"43.921761","theaterChainName":"Independent Chains","ticketType":"STANDARD"}]