[{"id":"4068","name":"Lincoln Cinema IV","address":"Main Street Route 112","city":"Lincoln","state":"NH","zip":"03251","distance":"22.368820190429688","lon":"-71.669815","lat":"44.041306","theaterChainName":"Independent Chains","ticketType":"STANDARD"},{"id":"5307","name":"BarnZ's Lincoln Cinema","address":"24 Lumber Yard Road","city":"Lincoln","state":"NH","zip":"03251","distance":"22.348461151123047","lon":"-71.670097","lat":"44.042400","theaterChainName":"Independent Chains","ticketType":"STANDARD"},{"id":"4664","name":"Star 3 Cinemas","address":"23 Hastings St","city":"Saint Johnsbury","state":"VT","zip":"05819","distance":"24.659303665161133","lon":"-72.016342","lat":"44.417561","theaterChainName":"Independent Chains","ticketType":"STANDARD"},{"id":"4671","name":"Catamount Arts","address":"115 Eastern Avenue","city":"Saint Johnsbury","state":"VT","zip":"05819","distance":"24.685405731201172","lon":"-72.018234","lat":"44.418228","theaterChainName":"Independent Chains","ticketType":"STANDARD"},{"id":"3062","name":"Paramount Twin Cinema","address":"241 N. Main St.","city":"Barre","state":"VT","zip":"05641","distance":"21.142189025878906","lon":"-72.503876","lat":"44.199440","theaterChainName":"Independent Chains","ticketType":"STANDARD"}]