[{"id":"4671","tribuneTheaterId":"9873","providerTheaterId":"","name":"Catamount Arts","address":"115 Eastern Avenue","city":"Saint Johnsbury","state":"VT","zip":"05819","distance":15.897218939009,"lon":"-72.018234","lat":"44.418228","theaterChainName":"Independent Chains","ticketType":"STANDARD"},{"id":"4664","tribuneTheaterId":"9863","providerTheaterId":"","name":"Star 3 Cinemas","address":"23 Hastings St","city":"Saint Johnsbury","state":"VT","zip":"05819","distance":15.880237660514,"lon":"-72.016341","lat":"44.417561","theaterChainName":"Independent Chains","ticketType":"STANDARD"},{"id":"3062","tribuneTheaterId":"1243","providerTheaterId":"","name":"Paramount Twin Cinema","address":"241 N. Main St.","city":"Barre","state":"VT","zip":"05641","distance":19.491197234226,"lon":"-72.503878","lat":"44.199441","theaterChainName":"Independent Chains","ticketType":"STANDARD"},{"id":"5400","tribuneTheaterId":"10838","providerTheaterId":"","name":"The Colonial","address":"2050","city":"Bethlehem","state":"NH","zip":"03574","distance":21.557695586046,"lon":"-71.690296","lat":"44.28003","theaterChainName":"Independent Chains","ticketType":"STANDARD"},{"id":"1941","tribuneTheaterId":"1834","providerTheaterId":"","name":"Capitol Theatre - Montpelier","address":"93 State St","city":"Montpelier","state":"VT","zip":"05602","distance":23.574659271234,"lon":"-72.578329","lat":"44.261004","theaterChainName":"Independent Chains","ticketType":"STANDARD"},{"id":"4665","tribuneTheaterId":"9864","providerTheaterId":"","name":"Savoy Theater","address":"26 Main St","city":"Montpelier","state":"VT","zip":"05602","distance":23.460672749834,"lon":"-72.576484","lat":"44.25906","theaterChainName":"Independent Chains","ticketType":"STANDARD"},{"id":"5307","tribuneTheaterId":"10744","providerTheaterId":"","name":"BarnZ's Lincoln Cinema","address":"24 Lumber Yard Road","city":"Lincoln","state":"NH","zip":"03251","distance":24.335899556696,"lon":"-71.6701","lat":"44.0424","theaterChainName":"Independent Chains","ticketType":"STANDARD"},{"id":"4068","tribuneTheaterId":"1799","providerTheaterId":"","name":"Lincoln Cinema IV","address":"Main Street Route 112","city":"Lincoln","state":"NH","zip":"03251","distance":24.382118781876,"lon":"-71.669816","lat":"44.041307","theaterChainName":"Independent Chains","ticketType":"STANDARD"}]