[{"id":"4068","name":"Lincoln Cinema IV","address":"Main Street Route 112","city":"Lincoln","state":"NH","zip":"03251","distance":"24.383588790893555","lon":"-71.669815","lat":"44.041306","theaterChainName":"Independent Chains","ticketType":"STANDARD"},{"id":"5307","name":"BarnZ's Lincoln Cinema","address":"24 Lumber Yard Road","city":"Lincoln","state":"NH","zip":"03251","distance":"24.337387084960938","lon":"-71.670097","lat":"44.042400","theaterChainName":"Independent Chains","ticketType":"STANDARD"},{"id":"5400","name":"The Colonial","address":"2050","city":"Bethlehem","state":"NH","zip":"03574","distance":"21.559072494506836","lon":"-71.690292","lat":"44.280029","theaterChainName":"Independent Chains","ticketType":"STANDARD"},{"id":"4664","name":"Star 3 Cinemas","address":"23 Hastings St","city":"Saint Johnsbury","state":"VT","zip":"05819","distance":"15.881159782409668","lon":"-72.016342","lat":"44.417561","theaterChainName":"Independent Chains","ticketType":"STANDARD"},{"id":"4671","name":"Catamount Arts","address":"115 Eastern Avenue","city":"Saint Johnsbury","state":"VT","zip":"05819","distance":"15.898193359375","lon":"-72.018234","lat":"44.418228","theaterChainName":"Independent Chains","ticketType":"STANDARD"},{"id":"3062","name":"Paramount Twin Cinema","address":"241 N. Main St.","city":"Barre","state":"VT","zip":"05641","distance":"19.49242401123047","lon":"-72.503876","lat":"44.199440","theaterChainName":"Independent Chains","ticketType":"STANDARD"},{"id":"4665","name":"Savoy Theater","address":"26 Main St","city":"Montpelier","state":"VT","zip":"05602","distance":"23.462291717529297","lon":"-72.576485","lat":"44.259060","theaterChainName":"Independent Chains","ticketType":"STANDARD"},{"id":"1941","name":"Capitol Theatre - Montpelier","address":"93 State St","city":"Montpelier","state":"VT","zip":"05602","distance":"23.57636833190918","lon":"-72.578331","lat":"44.261005","theaterChainName":"Independent Chains","ticketType":"STANDARD"}]