[{"id":"832","name":"Gilford Cinema 8","address":"9 Old Lake Shore Road","city":"Gilford","state":"NH","zip":"03249","distance":"14.85648250579834","lon":"-72.320198","lat":"43.364388","theaterChainName":"Boston Culinary Group","ticketType":"STANDARD"},{"id":"1795","name":"Claremont Cinema 6","address":"345 Washington Street","city":"Claremont","state":"NH","zip":"03743","distance":"14.85648250579834","lon":"-72.320198","lat":"43.364388","theaterChainName":"Boston Culinary Group","ticketType":"STANDARD"},{"id":"158","name":"EMC Lebanon 6","address":"36 U.S. Highway","city":"Lebanon","state":"NH","zip":"03766","distance":"17.772655487060547","lon":"-72.289757","lat":"43.636772","theaterChainName":"Entertainment Cinemas","ticketType":"STANDARD"},{"id":"2792","name":"The Nugget Theatre","address":"57 S. Main Street","city":"Hanover","state":"NH","zip":"03755","distance":"20.77511215209961","lon":"-72.289490","lat":"43.700668","theaterChainName":"Independent Chains","ticketType":"STANDARD"},{"id":"4099","name":"Springfield Cinemas 3","address":"26 Main St.","city":"Springfield","state":"VT","zip":"05156","distance":"13.212318420410156","lon":"-72.481415","lat":"43.299355","theaterChainName":"Independent Chains","ticketType":"STANDARD"},{"id":"4874","name":"Flagship Cinemas Rutland","address":"101 Merchants Row","city":"Rutland","state":"VT","zip":"05701","distance":"22.224458694458008","lon":"-72.979301","lat":"43.604187","theaterChainName":"Flagship Cinemas","ticketType":"STANDARD"}]