[{"id":"158","tribuneTheaterId":"6263","providerTheaterId":"","name":"EMC Lebanon 6","address":"36 U.S. Highway","city":"Lebanon","state":"NH","zip":"03766","distance":12.466909294123,"lon":"-72.28976","lat":"43.636772","theaterChainName":"Entertainment Cinemas","ticketType":"STANDARD"},{"id":"2792","tribuneTheaterId":"1713","providerTheaterId":"","name":"The Nugget Theatre","address":"57 S. Main Street","city":"Hanover","state":"NH","zip":"03755","distance":13.505074723252,"lon":"-72.289491","lat":"43.700667","theaterChainName":"Independent Chains","ticketType":"STANDARD"},{"id":"1795","tribuneTheaterId":"5980","providerTheaterId":"","name":"Claremont Cinema 6","address":"345 Washington Street","city":"Claremont","state":"NH","zip":"03743","distance":21.058641858965,"lon":"-72.3202","lat":"43.364386","theaterChainName":"Boston Culinary Group","ticketType":"STANDARD"},{"id":"832","tribuneTheaterId":"8090","providerTheaterId":"","name":"Gilford Cinema 8","address":"9 Old Lake Shore Road","city":"Gilford","state":"NH","zip":"03249","distance":21.058641858965,"lon":"-72.3202","lat":"43.364386","theaterChainName":"Boston Culinary Group","ticketType":"STANDARD"},{"id":"5045","tribuneTheaterId":"10422","providerTheaterId":"","name":"Playhouse Movie Theatre","address":"11 South Main St.","city":"Randolph","state":"VT","zip":"05060","distance":21.470363757772,"lon":"-72.665248","lat":"43.921761","theaterChainName":"Independent Chains","ticketType":"STANDARD"},{"id":"4099","tribuneTheaterId":"1645","providerTheaterId":"","name":"Springfield Cinemas 3","address":"26 Main St.","city":"Springfield","state":"VT","zip":"05156","distance":22.667574829768,"lon":"-72.481415","lat":"43.299355","theaterChainName":"Independent Chains","ticketType":"STANDARD"},{"id":"4874","tribuneTheaterId":"10180","providerTheaterId":"","name":"Flagship Cinemas Rutland","address":"101 Merchants Row","city":"Rutland","state":"VT","zip":"05701","distance":22.096327208078,"lon":"-72.979302","lat":"43.604186","theaterChainName":"Flagship Cinemas","ticketType":"STANDARD"}]