[{"id":"832","name":"Gilford Cinema 8","address":"9 Old Lake Shore Road","city":"Gilford","state":"NH","zip":"03249","distance":"21.05994987487793","lon":"-72.320198","lat":"43.364388","theaterChainName":"Boston Culinary Group","ticketType":"STANDARD"},{"id":"1795","name":"Claremont Cinema 6","address":"345 Washington Street","city":"Claremont","state":"NH","zip":"03743","distance":"21.05994987487793","lon":"-72.320198","lat":"43.364388","theaterChainName":"Boston Culinary Group","ticketType":"STANDARD"},{"id":"158","name":"EMC Lebanon 6","address":"36 U.S. Highway","city":"Lebanon","state":"NH","zip":"03766","distance":"12.467732429504395","lon":"-72.289757","lat":"43.636772","theaterChainName":"Entertainment Cinemas","ticketType":"STANDARD"},{"id":"2792","name":"The Nugget Theatre","address":"57 S. Main Street","city":"Hanover","state":"NH","zip":"03755","distance":"13.505865097045898","lon":"-72.289490","lat":"43.700668","theaterChainName":"Independent Chains","ticketType":"STANDARD"},{"id":"4099","name":"Springfield Cinemas 3","address":"26 Main St.","city":"Springfield","state":"VT","zip":"05156","distance":"22.669111251831055","lon":"-72.481415","lat":"43.299355","theaterChainName":"Independent Chains","ticketType":"STANDARD"},{"id":"4874","name":"Flagship Cinemas Rutland","address":"101 Merchants Row","city":"Rutland","state":"VT","zip":"05701","distance":"22.097774505615234","lon":"-72.979301","lat":"43.604187","theaterChainName":"Flagship Cinemas","ticketType":"STANDARD"},{"id":"5045","name":"Playhouse Movie Theatre","address":"11 South Main St.","city":"Randolph","state":"VT","zip":"05060","distance":"21.47154426574707","lon":"-72.665245","lat":"43.921761","theaterChainName":"Independent Chains","ticketType":"STANDARD"}]