[{"id":"3876","name":"Village Picture Shows","address":"263 Depot Street","city":"Manchester Center","state":"VT","zip":"05255","distance":"23.839269638061523","lon":"-73.053032","lat":"43.175575","theaterChainName":"Independent Chains","ticketType":"STANDARD"},{"id":"832","name":"Gilford Cinema 8","address":"9 Old Lake Shore Road","city":"Gilford","state":"NH","zip":"03249","distance":"15.29002571105957","lon":"-72.320198","lat":"43.364388","theaterChainName":"Boston Culinary Group","ticketType":"STANDARD"},{"id":"1795","name":"Claremont Cinema 6","address":"345 Washington Street","city":"Claremont","state":"NH","zip":"03743","distance":"15.29002571105957","lon":"-72.320198","lat":"43.364388","theaterChainName":"Boston Culinary Group","ticketType":"STANDARD"},{"id":"4099","name":"Springfield Cinemas 3","address":"26 Main St.","city":"Springfield","state":"VT","zip":"05156","distance":"6.22249174118042","lon":"-72.481415","lat":"43.299355","theaterChainName":"Independent Chains","ticketType":"STANDARD"}]