[{"id":"2803","name":"Colonial Theatre NH","address":"95 Main Street","city":"Keene","state":"NH","zip":"03431","distance":"20.827028274536133","lon":"-72.278198","lat":"42.931702","theaterChainName":"Independent Chains","ticketType":"STANDARD"},{"id":"3876","name":"Village Picture Shows","address":"263 Depot Street","city":"Manchester Center","state":"VT","zip":"05255","distance":"24.88421058654785","lon":"-73.053032","lat":"43.175575","theaterChainName":"Independent Chains","ticketType":"STANDARD"},{"id":"832","name":"Gilford Cinema 8","address":"9 Old Lake Shore Road","city":"Gilford","state":"NH","zip":"03249","distance":"19.03921127319336","lon":"-72.320198","lat":"43.364388","theaterChainName":"Boston Culinary Group","ticketType":"STANDARD"},{"id":"1795","name":"Claremont Cinema 6","address":"345 Washington Street","city":"Claremont","state":"NH","zip":"03743","distance":"19.03921127319336","lon":"-72.320198","lat":"43.364388","theaterChainName":"Boston Culinary Group","ticketType":"STANDARD"},{"id":"4099","name":"Springfield Cinemas 3","address":"26 Main St.","city":"Springfield","state":"VT","zip":"05156","distance":"10.963099479675293","lon":"-72.481415","lat":"43.299355","theaterChainName":"Independent Chains","ticketType":"STANDARD"}]