[{"id":"3343","tribuneTheaterId":"1557","providerTheaterId":"","name":"Welden Theatre","address":"104 N Main","city":"Saint Albans","state":"VT","zip":"05478","distance":3.6174879795077,"lon":"-73.083241","lat":"44.813513","theaterChainName":"Independent Chains","ticketType":"STANDARD"},{"id":"3553","tribuneTheaterId":"2128","providerTheaterId":"","name":"Essex Outlets Cinema","address":"21 Essex Way, Bldg. 300","city":"Essex Junction","state":"VT","zip":"05452","distance":19.391488877828,"lon":"-73.079681","lat":"44.506439","theaterChainName":"Independent Chains","ticketType":"STANDARD"},{"id":"4642","tribuneTheaterId":"9834","providerTheaterId":"","name":"Cumberland 12 Cinemas","address":"18 North Bowl Lane","city":"Plattsburgh","state":"NY","zip":"12901","distance":20.420541120771,"lon":"-73.432187","lat":"44.733136","theaterChainName":"Independent Chains","ticketType":"STANDARD"},{"id":"3900","tribuneTheaterId":"2261","providerTheaterId":"","name":"Majestic 10","address":"190 Boxwood Street","city":"Williston","state":"VT","zip":"05495","distance":23.762548840832,"lon":"-73.109963","lat":"44.445902","theaterChainName":"Independent Chains","ticketType":"STANDARD"},{"id":"1841","tribuneTheaterId":"4657","providerTheaterId":"","name":"Regal Champlain Centre 8","address":"60 Smithfield Boulevard","city":"Plattsburgh","state":"NY","zip":"12901","distance":23.681859597441,"lon":"-73.491197","lat":"44.703376","theaterChainName":"Regal Cinemas","ticketType":"STANDARD"},{"id":"4458","tribuneTheaterId":"9547","providerTheaterId":"","name":"Merrill's Roxy Cinemas","address":"222 College Street","city":"Burlington","state":"VT","zip":"05401","distance":23.139718819048,"lon":"-73.210783","lat":"44.47726","theaterChainName":"Independent Chains","ticketType":"STANDARD"}]