[{"id":"4458","name":"Merrill's Roxy Cinemas","address":"222 College Street","city":"Burlington","state":"VT","zip":"05401","distance":"23.141096115112305","lon":"-73.210785","lat":"44.477261","theaterChainName":"Independent Chains","ticketType":"STANDARD"},{"id":"3900","name":"Majestic 10","address":"190 Boxwood Street","city":"Williston","state":"VT","zip":"05495","distance":"23.763853073120117","lon":"-73.109962","lat":"44.445904","theaterChainName":"Independent Chains","ticketType":"STANDARD"},{"id":"3553","name":"Essex Outlets Cinema","address":"21 Essex Way, Bldg. 300","city":"Essex Junction","state":"VT","zip":"05452","distance":"19.39263916015625","lon":"-73.079681","lat":"44.506439","theaterChainName":"Independent Chains","ticketType":"STANDARD"},{"id":"4642","name":"Cumberland 12 Cinemas","address":"18 North Bowl Lane","city":"Plattsburgh","state":"NY","zip":"12901","distance":"20.421878814697266","lon":"-73.432190","lat":"44.733135","theaterChainName":"Independent Chains","ticketType":"STANDARD"},{"id":"1841","name":"Regal Champlain Centre 8","address":"60 Smithfield Boulevard","city":"Plattsburgh","state":"NY","zip":"12901","distance":"23.68317222595215","lon":"-73.491196","lat":"44.703377","theaterChainName":"Regal Cinemas","ticketType":"STANDARD"},{"id":"3343","name":"Welden Theatre","address":"104 N Main","city":"Saint Albans","state":"VT","zip":"05478","distance":"3.6178672313690186","lon":"-73.083244","lat":"44.813515","theaterChainName":"Independent Chains","ticketType":"STANDARD"}]