[{"id":"2133","name":"Bijou Cineplex 4","address":"4 Portland St.","city":"Morrisville","state":"VT","zip":"05661","distance":"24.586671829223633","lon":"-72.598541","lat":"44.563335","theaterChainName":"Independent Chains","ticketType":"STANDARD"},{"id":"4458","name":"Merrill's Roxy Cinemas","address":"222 College Street","city":"Burlington","state":"VT","zip":"05401","distance":"6.195474147796631","lon":"-73.210785","lat":"44.477261","theaterChainName":"Independent Chains","ticketType":"STANDARD"},{"id":"1695","name":"Palace 9","address":"10 Fayette Road","city":"South Burlington","state":"VT","zip":"05403","distance":"7.502832412719727","lon":"-73.211098","lat":"44.437199","theaterChainName":"Independent Chains","ticketType":"STANDARD"},{"id":"3900","name":"Majestic 10","address":"190 Boxwood Street","city":"Williston","state":"VT","zip":"05495","distance":"4.092800140380859","lon":"-73.109962","lat":"44.445904","theaterChainName":"Independent Chains","ticketType":"STANDARD"},{"id":"3553","name":"Essex Outlets Cinema","address":"21 Essex Way, Bldg. 300","city":"Essex Junction","state":"VT","zip":"05452","distance":"0.5750285387039185","lon":"-73.079681","lat":"44.506439","theaterChainName":"Independent Chains","ticketType":"STANDARD"},{"id":"4642","name":"Cumberland 12 Cinemas","address":"18 North Bowl Lane","city":"Plattsburgh","state":"NY","zip":"12901","distance":"23.109037399291992","lon":"-73.432190","lat":"44.733135","theaterChainName":"Independent Chains","ticketType":"STANDARD"},{"id":"1841","name":"Regal Champlain Centre 8","address":"60 Smithfield Boulevard","city":"Plattsburgh","state":"NY","zip":"12901","distance":"24.065309524536133","lon":"-73.491196","lat":"44.703377","theaterChainName":"Regal Cinemas","ticketType":"STANDARD"},{"id":"3343","name":"Welden Theatre","address":"104 N Main","city":"Saint Albans","state":"VT","zip":"05478","distance":"21.42418670654297","lon":"-73.083244","lat":"44.813515","theaterChainName":"Independent Chains","ticketType":"STANDARD"}]