[{"id":"3343","tribuneTheaterId":"1557","providerTheaterId":"","name":"Welden Theatre","address":"104 N Main","city":"Saint Albans","state":"VT","zip":"05478","distance":9.6526269422849,"lon":"-73.083241","lat":"44.813513","theaterChainName":"Independent Chains","ticketType":"STANDARD"},{"id":"4642","tribuneTheaterId":"9834","providerTheaterId":"","name":"Cumberland 12 Cinemas","address":"18 North Bowl Lane","city":"Plattsburgh","state":"NY","zip":"12901","distance":10.351298696297,"lon":"-73.432187","lat":"44.733136","theaterChainName":"Independent Chains","ticketType":"STANDARD"},{"id":"1841","tribuneTheaterId":"4657","providerTheaterId":"","name":"Regal Champlain Centre 8","address":"60 Smithfield Boulevard","city":"Plattsburgh","state":"NY","zip":"12901","distance":13.880078405648,"lon":"-73.491197","lat":"44.703376","theaterChainName":"Regal Cinemas","ticketType":"STANDARD"},{"id":"3553","tribuneTheaterId":"2128","providerTheaterId":"","name":"Essex Outlets Cinema","address":"21 Essex Way, Bldg. 300","city":"Essex Junction","state":"VT","zip":"05452","distance":24.719607408893,"lon":"-73.079681","lat":"44.506439","theaterChainName":"Independent Chains","ticketType":"STANDARD"},{"id":"4458","tribuneTheaterId":"9547","providerTheaterId":"","name":"Merrill's Roxy Cinemas","address":"222 College Street","city":"Burlington","state":"VT","zip":"05401","distance":24.956477458471,"lon":"-73.210783","lat":"44.47726","theaterChainName":"Independent Chains","ticketType":"STANDARD"}]