[{"id":"1695","tribuneTheaterId":"3122","providerTheaterId":"","name":"Palace 9","address":"10 Fayette Road","city":"South Burlington","state":"VT","zip":"05403","distance":12.277880895328,"lon":"-73.2111","lat":"44.4372","theaterChainName":"Independent Chains","ticketType":"STANDARD"},{"id":"3900","tribuneTheaterId":"2261","providerTheaterId":"","name":"Majestic 10","address":"190 Boxwood Street","city":"Williston","state":"VT","zip":"05495","distance":13.816229908075,"lon":"-73.109963","lat":"44.445902","theaterChainName":"Independent Chains","ticketType":"STANDARD"},{"id":"4458","tribuneTheaterId":"9547","providerTheaterId":"","name":"Merrill's Roxy Cinemas","address":"222 College Street","city":"Burlington","state":"VT","zip":"05401","distance":15.045771707272,"lon":"-73.210783","lat":"44.47726","theaterChainName":"Independent Chains","ticketType":"STANDARD"},{"id":"3553","tribuneTheaterId":"2128","providerTheaterId":"","name":"Essex Outlets Cinema","address":"21 Essex Way, Bldg. 300","city":"Essex Junction","state":"VT","zip":"05452","distance":18.256027727556,"lon":"-73.079681","lat":"44.506439","theaterChainName":"Independent Chains","ticketType":"STANDARD"}]