[{"id":"4458","name":"Merrill's Roxy Cinemas","address":"222 College Street","city":"Burlington","state":"VT","zip":"05401","distance":"23.108320236206055","lon":"-73.210785","lat":"44.477261","theaterChainName":"Independent Chains","ticketType":"STANDARD"},{"id":"3553","name":"Essex Outlets Cinema","address":"21 Essex Way, Bldg. 300","city":"Essex Junction","state":"VT","zip":"05452","distance":"21.028472900390625","lon":"-73.079681","lat":"44.506439","theaterChainName":"Independent Chains","ticketType":"STANDARD"},{"id":"4642","name":"Cumberland 12 Cinemas","address":"18 North Bowl Lane","city":"Plattsburgh","state":"NY","zip":"12901","distance":"15.265947341918945","lon":"-73.432190","lat":"44.733135","theaterChainName":"Independent Chains","ticketType":"STANDARD"},{"id":"1841","name":"Regal Champlain Centre 8","address":"60 Smithfield Boulevard","city":"Plattsburgh","state":"NY","zip":"12901","distance":"18.713651657104492","lon":"-73.491196","lat":"44.703377","theaterChainName":"Regal Cinemas","ticketType":"STANDARD"},{"id":"3343","name":"Welden Theatre","address":"104 N Main","city":"Saint Albans","state":"VT","zip":"05478","distance":"2.7759828567504883","lon":"-73.083244","lat":"44.813515","theaterChainName":"Independent Chains","ticketType":"STANDARD"}]