[{"id":"4665","tribuneTheaterId":"9864","providerTheaterId":"","name":"Savoy Theater","address":"26 Main St","city":"Montpelier","state":"VT","zip":"05602","distance":0.34916503476362,"lon":"-72.576484","lat":"44.25906","theaterChainName":"Independent Chains","ticketType":"STANDARD"},{"id":"1941","tribuneTheaterId":"1834","providerTheaterId":"","name":"Capitol Theatre - Montpelier","address":"93 State St","city":"Montpelier","state":"VT","zip":"05602","distance":0.22379263267982,"lon":"-72.578329","lat":"44.261004","theaterChainName":"Independent Chains","ticketType":"STANDARD"},{"id":"3062","tribuneTheaterId":"1243","providerTheaterId":"","name":"Paramount Twin Cinema","address":"241 N. Main St.","city":"Barre","state":"VT","zip":"05641","distance":5.7500743403941,"lon":"-72.503878","lat":"44.199441","theaterChainName":"Independent Chains","ticketType":"STANDARD"},{"id":"2133","tribuneTheaterId":"1688","providerTheaterId":"","name":"Bijou Cineplex 4","address":"4 Portland St.","city":"Morrisville","state":"VT","zip":"05661","distance":20.70238811911,"lon":"-72.598544","lat":"44.563334","theaterChainName":"Independent Chains","ticketType":"STANDARD"},{"id":"5045","tribuneTheaterId":"10422","providerTheaterId":"","name":"Playhouse Movie Theatre","address":"11 South Main St.","city":"Randolph","state":"VT","zip":"05060","distance":24.05529442495,"lon":"-72.665248","lat":"43.921761","theaterChainName":"Independent Chains","ticketType":"STANDARD"}]