[{"id":"4665","tribuneTheaterId":"9864","providerTheaterId":"","name":"Savoy Theater","address":"26 Main St","city":"Montpelier","state":"VT","zip":"05602","distance":10.571890504331,"lon":"-72.576484","lat":"44.25906","theaterChainName":"Independent Chains","ticketType":"STANDARD"},{"id":"1941","tribuneTheaterId":"1834","providerTheaterId":"","name":"Capitol Theatre - Montpelier","address":"93 State St","city":"Montpelier","state":"VT","zip":"05602","distance":10.498564967356,"lon":"-72.578329","lat":"44.261004","theaterChainName":"Independent Chains","ticketType":"STANDARD"},{"id":"2133","tribuneTheaterId":"1688","providerTheaterId":"","name":"Bijou Cineplex 4","address":"4 Portland St.","city":"Morrisville","state":"VT","zip":"05661","distance":13.247490450878,"lon":"-72.598544","lat":"44.563334","theaterChainName":"Independent Chains","ticketType":"STANDARD"},{"id":"3062","tribuneTheaterId":"1243","providerTheaterId":"","name":"Paramount Twin Cinema","address":"241 N. Main St.","city":"Barre","state":"VT","zip":"05641","distance":13.48193317112,"lon":"-72.503878","lat":"44.199441","theaterChainName":"Independent Chains","ticketType":"STANDARD"},{"id":"4671","tribuneTheaterId":"9873","providerTheaterId":"","name":"Catamount Arts","address":"115 Eastern Avenue","city":"Saint Johnsbury","state":"VT","zip":"05819","distance":22.566980475773,"lon":"-72.018234","lat":"44.418228","theaterChainName":"Independent Chains","ticketType":"STANDARD"},{"id":"4664","tribuneTheaterId":"9863","providerTheaterId":"","name":"Star 3 Cinemas","address":"23 Hastings St","city":"Saint Johnsbury","state":"VT","zip":"05819","distance":22.656836352338,"lon":"-72.016341","lat":"44.417561","theaterChainName":"Independent Chains","ticketType":"STANDARD"}]