[{"id":"2133","tribuneTheaterId":"1688","providerTheaterId":"","name":"Bijou Cineplex 4","address":"4 Portland St.","city":"Morrisville","state":"VT","zip":"05661","distance":3.4910361416398,"lon":"-72.598544","lat":"44.563334","theaterChainName":"Independent Chains","ticketType":"STANDARD"},{"id":"3553","tribuneTheaterId":"2128","providerTheaterId":"","name":"Essex Outlets Cinema","address":"21 Essex Way, Bldg. 300","city":"Essex Junction","state":"VT","zip":"05452","distance":22.23703754279,"lon":"-73.079681","lat":"44.506439","theaterChainName":"Independent Chains","ticketType":"STANDARD"},{"id":"1941","tribuneTheaterId":"1834","providerTheaterId":"","name":"Capitol Theatre - Montpelier","address":"93 State St","city":"Montpelier","state":"VT","zip":"05602","distance":23.662851671299,"lon":"-72.578329","lat":"44.261004","theaterChainName":"Independent Chains","ticketType":"STANDARD"},{"id":"4665","tribuneTheaterId":"9864","providerTheaterId":"","name":"Savoy Theater","address":"26 Main St","city":"Montpelier","state":"VT","zip":"05602","distance":23.809007454277,"lon":"-72.576484","lat":"44.25906","theaterChainName":"Independent Chains","ticketType":"STANDARD"}]