[{"id":"3062","name":"Paramount Twin Cinema","address":"241 N. Main St.","city":"Barre","state":"VT","zip":"05641","distance":"16.96074104309082","lon":"-72.503876","lat":"44.199440","theaterChainName":"Independent Chains","ticketType":"STANDARD"},{"id":"4665","name":"Savoy Theater","address":"26 Main St","city":"Montpelier","state":"VT","zip":"05602","distance":"11.680366516113281","lon":"-72.576485","lat":"44.259060","theaterChainName":"Independent Chains","ticketType":"STANDARD"},{"id":"1941","name":"Capitol Theatre - Montpelier","address":"93 State St","city":"Montpelier","state":"VT","zip":"05602","distance":"11.533418655395508","lon":"-72.578331","lat":"44.261005","theaterChainName":"Independent Chains","ticketType":"STANDARD"},{"id":"2133","name":"Bijou Cineplex 4","address":"4 Portland St.","city":"Morrisville","state":"VT","zip":"05661","distance":"17.53048324584961","lon":"-72.598541","lat":"44.563335","theaterChainName":"Independent Chains","ticketType":"STANDARD"},{"id":"4458","name":"Merrill's Roxy Cinemas","address":"222 College Street","city":"Burlington","state":"VT","zip":"05401","distance":"23.150115966796875","lon":"-73.210785","lat":"44.477261","theaterChainName":"Independent Chains","ticketType":"STANDARD"},{"id":"1695","name":"Palace 9","address":"10 Fayette Road","city":"South Burlington","state":"VT","zip":"05403","distance":"22.22612953186035","lon":"-73.211098","lat":"44.437199","theaterChainName":"Independent Chains","ticketType":"STANDARD"},{"id":"3900","name":"Majestic 10","address":"190 Boxwood Street","city":"Williston","state":"VT","zip":"05495","distance":"17.72654914855957","lon":"-73.109962","lat":"44.445904","theaterChainName":"Independent Chains","ticketType":"STANDARD"},{"id":"3553","name":"Essex Outlets Cinema","address":"21 Essex Way, Bldg. 300","city":"Essex Junction","state":"VT","zip":"05452","distance":"18.527376174926758","lon":"-73.079681","lat":"44.506439","theaterChainName":"Independent Chains","ticketType":"STANDARD"}]