[{"id":"4665","tribuneTheaterId":"9864","providerTheaterId":"","name":"Savoy Theater","address":"26 Main St","city":"Montpelier","state":"VT","zip":"05602","distance":13.377501484548,"lon":"-72.576484","lat":"44.25906","theaterChainName":"Independent Chains","ticketType":"STANDARD"},{"id":"1941","tribuneTheaterId":"1834","providerTheaterId":"","name":"Capitol Theatre - Montpelier","address":"93 State St","city":"Montpelier","state":"VT","zip":"05602","distance":13.341779575262,"lon":"-72.578329","lat":"44.261004","theaterChainName":"Independent Chains","ticketType":"STANDARD"},{"id":"3062","tribuneTheaterId":"1243","providerTheaterId":"","name":"Paramount Twin Cinema","address":"241 N. Main St.","city":"Barre","state":"VT","zip":"05641","distance":16.087902531086,"lon":"-72.503878","lat":"44.199441","theaterChainName":"Independent Chains","ticketType":"STANDARD"},{"id":"5045","tribuneTheaterId":"10422","providerTheaterId":"","name":"Playhouse Movie Theatre","address":"11 South Main St.","city":"Randolph","state":"VT","zip":"05060","distance":20.155166885501,"lon":"-72.665248","lat":"43.921761","theaterChainName":"Independent Chains","ticketType":"STANDARD"},{"id":"3900","tribuneTheaterId":"2261","providerTheaterId":"","name":"Majestic 10","address":"190 Boxwood Street","city":"Williston","state":"VT","zip":"05495","distance":22.565264740319,"lon":"-73.109963","lat":"44.445902","theaterChainName":"Independent Chains","ticketType":"STANDARD"}]