[{"id":"3062","name":"Paramount Twin Cinema","address":"241 N. Main St.","city":"Barre","state":"VT","zip":"05641","distance":"16.200407028198242","lon":"-72.503876","lat":"44.199440","theaterChainName":"Independent Chains","ticketType":"STANDARD"},{"id":"4665","name":"Savoy Theater","address":"26 Main St","city":"Montpelier","state":"VT","zip":"05602","distance":"10.74128532409668","lon":"-72.576485","lat":"44.259060","theaterChainName":"Independent Chains","ticketType":"STANDARD"},{"id":"1941","name":"Capitol Theatre - Montpelier","address":"93 State St","city":"Montpelier","state":"VT","zip":"05602","distance":"10.578971862792969","lon":"-72.578331","lat":"44.261005","theaterChainName":"Independent Chains","ticketType":"STANDARD"},{"id":"2133","name":"Bijou Cineplex 4","address":"4 Portland St.","city":"Morrisville","state":"VT","zip":"05661","distance":"13.591943740844727","lon":"-72.598541","lat":"44.563335","theaterChainName":"Independent Chains","ticketType":"STANDARD"},{"id":"3900","name":"Majestic 10","address":"190 Boxwood Street","city":"Williston","state":"VT","zip":"05495","distance":"20.312808990478516","lon":"-73.109962","lat":"44.445904","theaterChainName":"Independent Chains","ticketType":"STANDARD"},{"id":"3553","name":"Essex Outlets Cinema","address":"21 Essex Way, Bldg. 300","city":"Essex Junction","state":"VT","zip":"05452","distance":"20.227853775024414","lon":"-73.079681","lat":"44.506439","theaterChainName":"Independent Chains","ticketType":"STANDARD"}]