[{"id":"5400","name":"The Colonial","address":"2050","city":"Bethlehem","state":"NH","zip":"03574","distance":"23.91109848022461","lon":"-71.690292","lat":"44.280029","theaterChainName":"Independent Chains","ticketType":"STANDARD"},{"id":"4664","name":"Star 3 Cinemas","address":"23 Hastings St","city":"Saint Johnsbury","state":"VT","zip":"05819","distance":"9.714962005615234","lon":"-72.016342","lat":"44.417561","theaterChainName":"Independent Chains","ticketType":"STANDARD"},{"id":"4671","name":"Catamount Arts","address":"115 Eastern Avenue","city":"Saint Johnsbury","state":"VT","zip":"05819","distance":"9.671952247619629","lon":"-72.018234","lat":"44.418228","theaterChainName":"Independent Chains","ticketType":"STANDARD"},{"id":"3062","name":"Paramount Twin Cinema","address":"241 N. Main St.","city":"Barre","state":"VT","zip":"05641","distance":"18.830951690673828","lon":"-72.503876","lat":"44.199440","theaterChainName":"Independent Chains","ticketType":"STANDARD"},{"id":"4665","name":"Savoy Theater","address":"26 Main St","city":"Montpelier","state":"VT","zip":"05602","distance":"20.72300910949707","lon":"-72.576485","lat":"44.259060","theaterChainName":"Independent Chains","ticketType":"STANDARD"},{"id":"1941","name":"Capitol Theatre - Montpelier","address":"93 State St","city":"Montpelier","state":"VT","zip":"05602","distance":"20.780738830566406","lon":"-72.578331","lat":"44.261005","theaterChainName":"Independent Chains","ticketType":"STANDARD"}]