[{"id":"5534","tribuneTheaterId":"10967","providerTheaterId":"","name":"Cinemagic in Sturbridge","address":"100 Charlton Road","city":"Sturbridge","state":"MA","zip":"01566","distance":13.706906316549,"lon":"-72.060624","lat":"42.125562","theaterChainName":"Independent Chains","ticketType":"STANDARD"},{"id":"2630","tribuneTheaterId":"9195","providerTheaterId":"","name":"Rave Motion Pictures Eastfield 16","address":"1655 Boston Rd","city":"Springfield","state":"MA","zip":"01129","distance":15.605284434653,"lon":"-72.486267","lat":"42.140664","theaterChainName":"Cinemark","ticketType":"STANDARD"},{"id":"885","tribuneTheaterId":"8345","providerTheaterId":"","name":"Cinemark Enfield 12","address":"90 Elm St.","city":"Enfield","state":"CT","zip":"06082","distance":16.600698319769,"lon":"-72.580946","lat":"41.994757","theaterChainName":"Cinemark","ticketType":"STANDARD"},{"id":"4036","tribuneTheaterId":"4085","providerTheaterId":"","name":"Mansfield Movieplex","address":"East Brook Mall","city":"Mansfield Center","state":"CT","zip":"06250","distance":17.993535299856,"lon":"-72.201398","lat":"41.734574","theaterChainName":"Zurich Cinemas","ticketType":"STANDARD"},{"id":"817","tribuneTheaterId":"7475","providerTheaterId":"","name":"Rave Buckland Hills 18","address":"99 Red Stone Rd.","city":"Manchester","state":"CT","zip":"06045","distance":19.899895033804,"lon":"-72.54785","lat":"41.801054","theaterChainName":"Cinemark","ticketType":"STANDARD"},{"id":"279","tribuneTheaterId":"7173","providerTheaterId":"","name":"Rave Motion Pictures West Springfield 15","address":"864 Riverdale Street","city":"West Springfield","state":"MA","zip":"01089","distance":21.191444437621,"lon":"-72.627826","lat":"42.127818","theaterChainName":"Cinemark","ticketType":"STANDARD"},{"id":"4302","tribuneTheaterId":"2022","providerTheaterId":"","name":"Parkade Cinemas","address":"308 Broad St","city":"Manchester","state":"CT","zip":"06040","distance":20.692525281296,"lon":"-72.539978","lat":"41.778226","theaterChainName":"Independent Chains","ticketType":"STANDARD"},{"id":"1819","tribuneTheaterId":"4121","providerTheaterId":"","name":"Tower Theatre - South Hadley","address":"19 College Street","city":"South Hadley","state":"MA","zip":"01075","distance":24.63221084236,"lon":"-72.576271","lat":"42.258564","theaterChainName":"Independent Chains","ticketType":"STANDARD"}]