[{"id":"885","tribuneTheaterId":"8345","providerTheaterId":"","name":"Cinemark Enfield 12","address":"90 Elm St.","city":"Enfield","state":"CT","zip":"06082","distance":0.90114321019782,"lon":"-72.580946","lat":"41.994757","theaterChainName":"Cinemark","ticketType":"STANDARD"},{"id":"279","tribuneTheaterId":"7173","providerTheaterId":"","name":"Rave Motion Pictures West Springfield 15","address":"864 Riverdale Street","city":"West Springfield","state":"MA","zip":"01089","distance":10.11513816994,"lon":"-72.627826","lat":"42.127818","theaterChainName":"Cinemark","ticketType":"STANDARD"},{"id":"2630","tribuneTheaterId":"9195","providerTheaterId":"","name":"Rave Motion Pictures Eastfield 16","address":"1655 Boston Rd","city":"Springfield","state":"MA","zip":"01129","distance":11.233939335569,"lon":"-72.486267","lat":"42.140664","theaterChainName":"Cinemark","ticketType":"STANDARD"},{"id":"817","tribuneTheaterId":"7475","providerTheaterId":"","name":"Rave Buckland Hills 18","address":"99 Red Stone Rd.","city":"Manchester","state":"CT","zip":"06045","distance":13.016432045992,"lon":"-72.54785","lat":"41.801054","theaterChainName":"Cinemark","ticketType":"STANDARD"},{"id":"4302","tribuneTheaterId":"2022","providerTheaterId":"","name":"Parkade Cinemas","address":"308 Broad St","city":"Manchester","state":"CT","zip":"06040","distance":14.620751024853,"lon":"-72.539978","lat":"41.778226","theaterChainName":"Independent Chains","ticketType":"STANDARD"},{"id":"877","tribuneTheaterId":"6886","providerTheaterId":"","name":"Digiplex Bloomfield","address":"863 Park Ave","city":"Bloomfield","state":"CT","zip":"06002","distance":13.983441306771,"lon":"-72.735672","lat":"41.831313","theaterChainName":"Carmike Cinemas","ticketType":"STANDARD"},{"id":"5253","tribuneTheaterId":"10682","providerTheaterId":"","name":"Spotlight Theatres Front Street","address":"39 Front St.","city":"Hartford","state":"CT","zip":"06103","distance":16.542634805332,"lon":"-72.6702","lat":"41.7627","theaterChainName":"Spotlight Theatres","ticketType":"STANDARD"},{"id":"3095","tribuneTheaterId":"5888","providerTheaterId":"","name":"Palace 17 and Odyssey Theater","address":"330 New Park Ave","city":"Hartford","state":"CT","zip":"06106","distance":18.325623734844,"lon":"-72.712348","lat":"41.747464","theaterChainName":"Bow-Tie Cinemas","ticketType":"STANDARD"},{"id":"4947","tribuneTheaterId":"10302","providerTheaterId":"","name":"Cinema City at the Palace","address":"330 New Park Ave.","city":"Hartford","state":"CT","zip":"06106","distance":18.375094112881,"lon":"-72.7133","lat":"41.747","theaterChainName":"Bow-Tie Cinemas","ticketType":"STANDARD"},{"id":"4426","tribuneTheaterId":"9497","providerTheaterId":"","name":"Cin\u00e9polis Blue Back Square","address":"42 South Main St.","city":"West Hartford","state":"CT","zip":"06107","distance":18.230232012062,"lon":"-72.74164","lat":"41.760185","theaterChainName":"Cinepolis Luxury Cinemas","ticketType":"STANDARD"},{"id":"882","tribuneTheaterId":"6098","providerTheaterId":"","name":"CineStudio Theatre","address":"300 Summit Street","city":"Hartford","state":"CT","zip":"06106","distance":17.918220855132,"lon":"-72.691629","lat":"41.74736","theaterChainName":"Independent Chains","ticketType":"STANDARD"},{"id":"876","tribuneTheaterId":"5157","providerTheaterId":"","name":"Real Art Ways Theatre","address":"56 Arbor St.","city":"Hartford","state":"CT","zip":"06106","distance":17.384591020641,"lon":"-72.703396","lat":"41.759394","theaterChainName":"Independent Chains","ticketType":"STANDARD"},{"id":"2907","tribuneTheaterId":"5984","providerTheaterId":"","name":"Simsbury","address":"530 Bushy Hill Road","city":"Simsbury","state":"CT","zip":"06070","distance":19.298251056755,"lon":"-72.863399","lat":"41.819424","theaterChainName":"Hoyts","ticketType":"STANDARD"},{"id":"1819","tribuneTheaterId":"4121","providerTheaterId":"","name":"Tower Theatre - South Hadley","address":"19 College Street","city":"South Hadley","state":"MA","zip":"01075","distance":18.633706154731,"lon":"-72.576271","lat":"42.258564","theaterChainName":"Independent Chains","ticketType":"STANDARD"}]