[{"id":"877","tribuneTheaterId":"6886","providerTheaterId":"","name":"Digiplex Bloomfield","address":"863 Park Ave","city":"Bloomfield","state":"CT","zip":"06002","distance":7.2222400372535,"lon":"-72.735672","lat":"41.831313","theaterChainName":"Carmike Cinemas","ticketType":"STANDARD"},{"id":"885","tribuneTheaterId":"8345","providerTheaterId":"","name":"Cinemark Enfield 12","address":"90 Elm St.","city":"Enfield","state":"CT","zip":"06082","distance":6.9114525646432,"lon":"-72.580946","lat":"41.994757","theaterChainName":"Cinemark","ticketType":"STANDARD"},{"id":"4947","tribuneTheaterId":"10302","providerTheaterId":"","name":"Cinema City at the Palace","address":"330 New Park Ave.","city":"Hartford","state":"CT","zip":"06106","distance":12.578965182743,"lon":"-72.7133","lat":"41.747","theaterChainName":"Bow-Tie Cinemas","ticketType":"STANDARD"},{"id":"882","tribuneTheaterId":"6098","providerTheaterId":"","name":"CineStudio Theatre","address":"300 Summit Street","city":"Hartford","state":"CT","zip":"06106","distance":12.452981056506,"lon":"-72.691629","lat":"41.74736","theaterChainName":"Independent Chains","ticketType":"STANDARD"},{"id":"3095","tribuneTheaterId":"5888","providerTheaterId":"","name":"Palace 17 and Odyssey Theater","address":"330 New Park Ave","city":"Hartford","state":"CT","zip":"06106","distance":12.540676923895,"lon":"-72.712348","lat":"41.747464","theaterChainName":"Bow-Tie Cinemas","ticketType":"STANDARD"},{"id":"2907","tribuneTheaterId":"5984","providerTheaterId":"","name":"Simsbury","address":"530 Bushy Hill Road","city":"Simsbury","state":"CT","zip":"06070","distance":12.012488556926,"lon":"-72.863399","lat":"41.819424","theaterChainName":"Hoyts","ticketType":"STANDARD"},{"id":"876","tribuneTheaterId":"5157","providerTheaterId":"","name":"Real Art Ways Theatre","address":"56 Arbor St.","city":"Hartford","state":"CT","zip":"06106","distance":11.668281433395,"lon":"-72.703396","lat":"41.759394","theaterChainName":"Independent Chains","ticketType":"STANDARD"},{"id":"4426","tribuneTheaterId":"9497","providerTheaterId":"","name":"Cin\u00e9polis Blue Back Square","address":"42 South Main St.","city":"West Hartford","state":"CT","zip":"06107","distance":11.975723963933,"lon":"-72.74164","lat":"41.760185","theaterChainName":"Cinepolis Luxury Cinemas","ticketType":"STANDARD"},{"id":"5253","tribuneTheaterId":"10682","providerTheaterId":"","name":"Spotlight Theatres Front Street","address":"39 Front St.","city":"Hartford","state":"CT","zip":"06103","distance":11.391771190443,"lon":"-72.6702","lat":"41.7627","theaterChainName":"Spotlight Theatres","ticketType":"STANDARD"},{"id":"817","tribuneTheaterId":"7475","providerTheaterId":"","name":"Rave Buckland Hills 18","address":"99 Red Stone Rd.","city":"Manchester","state":"CT","zip":"06045","distance":11.078158202008,"lon":"-72.54785","lat":"41.801054","theaterChainName":"Cinemark","ticketType":"STANDARD"},{"id":"4302","tribuneTheaterId":"2022","providerTheaterId":"","name":"Parkade Cinemas","address":"308 Broad St","city":"Manchester","state":"CT","zip":"06040","distance":12.58806305545,"lon":"-72.539978","lat":"41.778226","theaterChainName":"Independent Chains","ticketType":"STANDARD"},{"id":"279","tribuneTheaterId":"7173","providerTheaterId":"","name":"Rave Motion Pictures West Springfield 15","address":"864 Riverdale Street","city":"West Springfield","state":"MA","zip":"01089","distance":14.107985698294,"lon":"-72.627826","lat":"42.127818","theaterChainName":"Cinemark","ticketType":"STANDARD"},{"id":"5631","tribuneTheaterId":"11094","providerTheaterId":"","name":"Apple Cinemas Barkhamsted","address":"380 New Hartford Road","city":"Barkhamsted","state":"CT","zip":"06063","distance":18.665526911204,"lon":"-73.042795","lat":"41.911034","theaterChainName":"Independent Chains","ticketType":"STANDARD"},{"id":"5969","tribuneTheaterId":"11405","providerTheaterId":"","name":"AMC Dine-in Holly Spring 9","address":"320 Grand Hill Place","city":"Holly Springs","state":"NC","zip":"27540","distance":18.665526911204,"lon":"-73.042795","lat":"41.911034","theaterChainName":"AMC Theatres","ticketType":"STANDARD"},{"id":"2630","tribuneTheaterId":"9195","providerTheaterId":"","name":"Rave Motion Pictures Eastfield 16","address":"1655 Boston Rd","city":"Springfield","state":"MA","zip":"01129","distance":17.787024248065,"lon":"-72.486267","lat":"42.140664","theaterChainName":"Cinemark","ticketType":"STANDARD"},{"id":"2900","tribuneTheaterId":"7319","providerTheaterId":"2628","name":"AMC Loews Plainville 20","address":"220 New Britain Avenue","city":"Plainville","state":"CT","zip":"06062","distance":19.426941153456,"lon":"-72.845052","lat":"41.674436","theaterChainName":"AMC Theatres","ticketType":"STANDARD"},{"id":"874","tribuneTheaterId":"5168","providerTheaterId":"","name":"Gilson Theatre","address":"354 Main Street","city":"Winsted","state":"CT","zip":"06098","distance":20.010548243564,"lon":"-73.069567","lat":"41.921244","theaterChainName":"Independent Chains","ticketType":"STANDARD"},{"id":"287","tribuneTheaterId":"7309","providerTheaterId":"","name":"Starplex Berlin 12","address":"19 Frontage Rd","city":"Berlin","state":"CT","zip":"06037","distance":20.85485927749,"lon":"-72.742883","lat":"41.629182","theaterChainName":"Starplex Cinemas","ticketType":"STANDARD"},{"id":"6057","tribuneTheaterId":"11464","providerTheaterId":"","name":"Picture Show at Berlin","address":"19 Frontage Road","city":"Kensington","state":"CT","zip":"06037","distance":20.85485927749,"lon":"-72.742883","lat":"41.629182","theaterChainName":"Picture Show Entertainment","ticketType":"STANDARD"},{"id":"2365","tribuneTheaterId":"4027","providerTheaterId":"","name":"Cinerom Digital Movieplex Torrington","address":"89 Farley Place","city":"Torrington","state":"CT","zip":"06790","distance":24.141573823536,"lon":"-73.123873","lat":"41.813255","theaterChainName":"Carmike Cinemas","ticketType":"STANDARD"},{"id":"1819","tribuneTheaterId":"4121","providerTheaterId":"","name":"Tower Theatre - South Hadley","address":"19 College Street","city":"South Hadley","state":"MA","zip":"01075","distance":23.495802293758,"lon":"-72.576271","lat":"42.258564","theaterChainName":"Independent Chains","ticketType":"STANDARD"}]