[{"id":"817","name":"Rave Buckland Hills 18","address":"99 Red Stone Rd.","city":"Manchester","state":"CT","zip":"06045","distance":"19.504850387573242","lon":"-72.547852","lat":"41.801052","theaterChainName":"Cinemark","ticketType":"STANDARD"},{"id":"4302","name":"Parkade Cinemas","address":"308 Broad St","city":"Manchester","state":"CT","zip":"06040","distance":"18.270610809326172","lon":"-72.539978","lat":"41.778225","theaterChainName":"Independent Chains","ticketType":"STANDARD"},{"id":"5253","name":"Spotlight Theatres Front Street","address":"39 Front St.","city":"Hartford","state":"CT","zip":"06103","distance":"23.74458885192871","lon":"-72.670197","lat":"41.762699","theaterChainName":"Spotlight Theatres","ticketType":"STANDARD"},{"id":"882","name":"CineStudio Theatre","address":"300 Summit Street","city":"Hartford","state":"CT","zip":"06106","distance":"24.411178588867188","lon":"-72.691628","lat":"41.747360","theaterChainName":"Independent Chains","ticketType":"STANDARD"},{"id":"5315","name":"Metro Movies 12","address":"140 Main St.","city":"Middletown","state":"CT","zip":"06457","distance":"21.417057037353516","lon":"-72.646667","lat":"41.559563","theaterChainName":"Independent Chains","ticketType":"STANDARD"},{"id":"4036","name":"Mansfield Movieplex","address":"East Brook Mall","city":"Mansfield Center","state":"CT","zip":"06250","distance":"7.3547773361206055","lon":"-72.201401","lat":"41.734573","theaterChainName":"Zurich Cinemas","ticketType":"STANDARD"},{"id":"2777","name":"Gallery Cinemas","address":"396 Old Hartford Road","city":"Colchester","state":"CT","zip":"06415","distance":"6.611659526824951","lon":"-72.351601","lat":"41.581200","theaterChainName":"Independent Chains","ticketType":"STANDARD"},{"id":"4008","name":"Digiplex Lisbon 12","address":"162 River Road","city":"Lisbon","state":"CT","zip":"06351","distance":"13.58266830444336","lon":"-71.990273","lat":"41.581543","theaterChainName":"Carmike Cinemas","ticketType":"STANDARD"},{"id":"2179","name":"Mystic Luxury Cinema","address":"27 Coogan Blvd","city":"Mystic","state":"CT","zip":"06355","distance":"23.249052047729492","lon":"-71.958260","lat":"41.373356","theaterChainName":"Independent Chains","ticketType":"STANDARD"},{"id":"884","name":"Regal Waterford 9","address":"123 Cross Rd.","city":"Waterford","state":"CT","zip":"06385","distance":"18.474206924438477","lon":"-72.161552","lat":"41.372864","theaterChainName":"Regal Cinemas","ticketType":"STANDARD"},{"id":"2776","name":"Niantic Cinema","address":"279 Main Street","city":"Niantic","state":"CT","zip":"06357","distance":"21.552642822265625","lon":"-72.194168","lat":"41.323326","theaterChainName":"Independent Chains","ticketType":"STANDARD"}]