[{"id":"4036","tribuneTheaterId":"4085","providerTheaterId":"","name":"Mansfield Movieplex","address":"East Brook Mall","city":"Mansfield Center","state":"CT","zip":"06250","distance":7.3224280309669,"lon":"-72.201398","lat":"41.734574","theaterChainName":"Zurich Cinemas","ticketType":"STANDARD"},{"id":"4008","tribuneTheaterId":"2319","providerTheaterId":"","name":"Digiplex Lisbon 12","address":"162 River Road","city":"Lisbon","state":"CT","zip":"06351","distance":13.40609007731,"lon":"-71.990275","lat":"41.581544","theaterChainName":"Carmike Cinemas","ticketType":"STANDARD"},{"id":"2777","tribuneTheaterId":"3009","providerTheaterId":"","name":"Gallery Cinemas","address":"396 Old Hartford Road","city":"Colchester","state":"CT","zip":"06415","distance":19.542868710286,"lon":"-72.3516","lat":"41.5812","theaterChainName":"Independent Chains","ticketType":"STANDARD"},{"id":"5534","tribuneTheaterId":"10967","providerTheaterId":"","name":"Cinemagic in Sturbridge","address":"100 Charlton Road","city":"Sturbridge","state":"MA","zip":"01566","distance":24.768981049788,"lon":"-72.060624","lat":"42.125562","theaterChainName":"Independent Chains","ticketType":"STANDARD"},{"id":"817","tribuneTheaterId":"7475","providerTheaterId":"","name":"Rave Buckland Hills 18","address":"99 Red Stone Rd.","city":"Manchester","state":"CT","zip":"06045","distance":24.925317639759,"lon":"-72.54785","lat":"41.801054","theaterChainName":"Cinemark","ticketType":"STANDARD"},{"id":"4302","tribuneTheaterId":"2022","providerTheaterId":"","name":"Parkade Cinemas","address":"308 Broad St","city":"Manchester","state":"CT","zip":"06040","distance":24.425548856451,"lon":"-72.539978","lat":"41.778226","theaterChainName":"Independent Chains","ticketType":"STANDARD"}]