[{"id":"885","name":"Cinemark Enfield 12","address":"90 Elm St.","city":"Enfield","state":"CT","zip":"06082","distance":"24.969308853149414","lon":"-72.580948","lat":"41.994759","theaterChainName":"Cinemark","ticketType":"STANDARD"},{"id":"817","name":"Rave Buckland Hills 18","address":"99 Red Stone Rd.","city":"Manchester","state":"CT","zip":"06045","distance":"17.99531364440918","lon":"-72.547852","lat":"41.801052","theaterChainName":"Cinemark","ticketType":"STANDARD"},{"id":"4302","name":"Parkade Cinemas","address":"308 Broad St","city":"Manchester","state":"CT","zip":"06040","distance":"17.472412109375","lon":"-72.539978","lat":"41.778225","theaterChainName":"Independent Chains","ticketType":"STANDARD"},{"id":"5253","name":"Spotlight Theatres Front Street","address":"39 Front St.","city":"Hartford","state":"CT","zip":"06103","distance":"24.18094253540039","lon":"-72.670197","lat":"41.762699","theaterChainName":"Spotlight Theatres","ticketType":"STANDARD"},{"id":"4036","name":"Mansfield Movieplex","address":"East Brook Mall","city":"Mansfield Center","state":"CT","zip":"06250","distance":"2.434004783630371","lon":"-72.201401","lat":"41.734573","theaterChainName":"Zurich Cinemas","ticketType":"STANDARD"},{"id":"2777","name":"Gallery Cinemas","address":"396 Old Hartford Road","city":"Colchester","state":"CT","zip":"06415","distance":"15.170877456665039","lon":"-72.351601","lat":"41.581200","theaterChainName":"Independent Chains","ticketType":"STANDARD"},{"id":"4008","name":"Digiplex Lisbon 12","address":"162 River Road","city":"Lisbon","state":"CT","zip":"06351","distance":"16.958913803100586","lon":"-71.990273","lat":"41.581543","theaterChainName":"Carmike Cinemas","ticketType":"STANDARD"}]