[{"id":"4036","tribuneTheaterId":"4085","providerTheaterId":"","name":"Mansfield Movieplex","address":"East Brook Mall","city":"Mansfield Center","state":"CT","zip":"06250","distance":2.2499341232616,"lon":"-72.201398","lat":"41.734574","theaterChainName":"Zurich Cinemas","ticketType":"STANDARD"},{"id":"4008","tribuneTheaterId":"2319","providerTheaterId":"","name":"Digiplex Lisbon 12","address":"162 River Road","city":"Lisbon","state":"CT","zip":"06351","distance":14.301904973514,"lon":"-71.990275","lat":"41.581544","theaterChainName":"Carmike Cinemas","ticketType":"STANDARD"},{"id":"2777","tribuneTheaterId":"3009","providerTheaterId":"","name":"Gallery Cinemas","address":"396 Old Hartford Road","city":"Colchester","state":"CT","zip":"06415","distance":15.031598444267,"lon":"-72.3516","lat":"41.5812","theaterChainName":"Independent Chains","ticketType":"STANDARD"},{"id":"817","tribuneTheaterId":"7475","providerTheaterId":"","name":"Rave Buckland Hills 18","address":"99 Red Stone Rd.","city":"Manchester","state":"CT","zip":"06045","distance":20.350951434854,"lon":"-72.54785","lat":"41.801054","theaterChainName":"Cinemark","ticketType":"STANDARD"},{"id":"4302","tribuneTheaterId":"2022","providerTheaterId":"","name":"Parkade Cinemas","address":"308 Broad St","city":"Manchester","state":"CT","zip":"06040","distance":19.711543000549,"lon":"-72.539978","lat":"41.778226","theaterChainName":"Independent Chains","ticketType":"STANDARD"}]