[{"id":"4036","name":"Mansfield Movieplex","address":"East Brook Mall","city":"Mansfield Center","state":"CT","zip":"06250","distance":"22.911714553833008","lon":"-72.201401","lat":"41.734573","theaterChainName":"Zurich Cinemas","ticketType":"STANDARD"},{"id":"5534","name":"Cinemagic in Sturbridge","address":"100 Charlton Road","city":"Sturbridge","state":"MA","zip":"01566","distance":"13.098462104797363","lon":"-72.060623","lat":"42.125561","theaterChainName":"Independent Chains","ticketType":"STANDARD"},{"id":"310","name":"Showcase Cinemas Worcester North","address":"135 Brooks St.","city":"Worcester","state":"MA","zip":"01606","distance":"23.720670700073242","lon":"-71.801598","lat":"42.313900","theaterChainName":"National Amusements","ticketType":"STANDARD"},{"id":"1094","name":"Elm DraughtHouse Theatre","address":"35 Elm St.","city":"Millbury","state":"MA","zip":"01527","distance":"16.44164276123047","lon":"-71.758339","lat":"42.191975","theaterChainName":"Independent Chains","ticketType":"STANDARD"},{"id":"724","name":"Regal Bellingham Stadium 14","address":"259 Hartford Ave.","city":"Bellingham","state":"MA","zip":"02019","distance":"24.324920654296875","lon":"-71.460236","lat":"42.110397","theaterChainName":"Regal Cinemas","ticketType":"STANDARD"},{"id":"4155","name":"Cinemaworld Lincoln","address":"622 George Washington Hwy. Lincoln Mall","city":"Lincoln","state":"RI","zip":"02865","distance":"21.855567932128906","lon":"-71.477608","lat":"41.939312","theaterChainName":"Cinemaworld","ticketType":"STANDARD"}]