[{"id":"885","name":"Cinemark Enfield 12","address":"90 Elm St.","city":"Enfield","state":"CT","zip":"06082","distance":"21.800073623657227","lon":"-72.580948","lat":"41.994759","theaterChainName":"Cinemark","ticketType":"STANDARD"},{"id":"817","name":"Rave Buckland Hills 18","address":"99 Red Stone Rd.","city":"Manchester","state":"CT","zip":"06045","distance":"15.455875396728516","lon":"-72.547852","lat":"41.801052","theaterChainName":"Cinemark","ticketType":"STANDARD"},{"id":"4302","name":"Parkade Cinemas","address":"308 Broad St","city":"Manchester","state":"CT","zip":"06040","distance":"15.125679969787598","lon":"-72.539978","lat":"41.778225","theaterChainName":"Independent Chains","ticketType":"STANDARD"},{"id":"5253","name":"Spotlight Theatres Front Street","address":"39 Front St.","city":"Hartford","state":"CT","zip":"06103","distance":"21.913780212402344","lon":"-72.670197","lat":"41.762699","theaterChainName":"Spotlight Theatres","ticketType":"STANDARD"},{"id":"876","name":"Real Art Ways Theatre","address":"56 Arbor St.","city":"Hartford","state":"CT","zip":"06106","distance":"23.640153884887695","lon":"-72.703400","lat":"41.759396","theaterChainName":"Independent Chains","ticketType":"STANDARD"},{"id":"882","name":"CineStudio Theatre","address":"300 Summit Street","city":"Hartford","state":"CT","zip":"06106","distance":"23.1552791595459","lon":"-72.691628","lat":"41.747360","theaterChainName":"Independent Chains","ticketType":"STANDARD"},{"id":"4947","name":"Cinema City at the Palace","address":"330 New Park Ave.","city":"Hartford","state":"CT","zip":"06106","distance":"24.26292610168457","lon":"-72.713303","lat":"41.747002","theaterChainName":"Bow-Tie Cinemas","ticketType":"STANDARD"},{"id":"3095","name":"Palace 17 and Odyssey Theater","address":"330 New Park Ave","city":"Hartford","state":"CT","zip":"06106","distance":"24.2094783782959","lon":"-72.712349","lat":"41.747463","theaterChainName":"Bow-Tie Cinemas","ticketType":"STANDARD"},{"id":"4036","name":"Mansfield Movieplex","address":"East Brook Mall","city":"Mansfield Center","state":"CT","zip":"06250","distance":"5.0961527824401855","lon":"-72.201401","lat":"41.734573","theaterChainName":"Zurich Cinemas","ticketType":"STANDARD"},{"id":"5534","name":"Cinemagic in Sturbridge","address":"100 Charlton Road","city":"Sturbridge","state":"MA","zip":"01566","distance":"24.48394775390625","lon":"-72.060623","lat":"42.125561","theaterChainName":"Independent Chains","ticketType":"STANDARD"},{"id":"2777","name":"Gallery Cinemas","address":"396 Old Hartford Road","city":"Colchester","state":"CT","zip":"06415","distance":"16.019775390625","lon":"-72.351601","lat":"41.581200","theaterChainName":"Independent Chains","ticketType":"STANDARD"},{"id":"4008","name":"Digiplex Lisbon 12","address":"162 River Road","city":"Lisbon","state":"CT","zip":"06351","distance":"20.094945907592773","lon":"-71.990273","lat":"41.581543","theaterChainName":"Carmike Cinemas","ticketType":"STANDARD"}]