[{"id":"4008","tribuneTheaterId":"2319","providerTheaterId":"","name":"Digiplex Lisbon 12","address":"162 River Road","city":"Lisbon","state":"CT","zip":"06351","distance":10.677339481945,"lon":"-71.990275","lat":"41.581544","theaterChainName":"Carmike Cinemas","ticketType":"STANDARD"},{"id":"4036","tribuneTheaterId":"4085","providerTheaterId":"","name":"Mansfield Movieplex","address":"East Brook Mall","city":"Mansfield Center","state":"CT","zip":"06250","distance":15.21738010763,"lon":"-72.201398","lat":"41.734574","theaterChainName":"Zurich Cinemas","ticketType":"STANDARD"},{"id":"2306","tribuneTheaterId":"4661","providerTheaterId":"","name":"Regal Stonington 10","address":"85 Voluntown Road","city":"Pawcatuck","state":"CT","zip":"06379","distance":22.187780751901,"lon":"-71.846","lat":"41.405","theaterChainName":"Regal Cinemas","ticketType":"STANDARD"},{"id":"98","tribuneTheaterId":"8347","providerTheaterId":"","name":"Showcase Warwick","address":"1200 Quaker Lane","city":"East Greenwich","state":"RI","zip":"02818","distance":21.583904793649,"lon":"-71.495861","lat":"41.66397","theaterChainName":"National Amusements","ticketType":"STANDARD"},{"id":"3214","tribuneTheaterId":"5148","providerTheaterId":"","name":"Showcase Cinemas Warwick Mall","address":"400 Bald Hill Road","city":"Warwick","state":"RI","zip":"02886","distance":22.344781645395,"lon":"-71.473408","lat":"41.722036","theaterChainName":"National Amusements","ticketType":"STANDARD"},{"id":"2179","tribuneTheaterId":"3896","providerTheaterId":"","name":"Mystic Luxury Cinema","address":"27 Coogan Blvd","city":"Mystic","state":"CT","zip":"06355","distance":24.297807079572,"lon":"-71.958262","lat":"41.373357","theaterChainName":"Independent Chains","ticketType":"STANDARD"},{"id":"2777","tribuneTheaterId":"3009","providerTheaterId":"","name":"Gallery Cinemas","address":"396 Old Hartford Road","city":"Colchester","state":"CT","zip":"06415","distance":24.968038342066,"lon":"-72.3516","lat":"41.5812","theaterChainName":"Independent Chains","ticketType":"STANDARD"}]