[{"id":"4036","name":"Mansfield Movieplex","address":"East Brook Mall","city":"Mansfield Center","state":"CT","zip":"06250","distance":"19.733190536499023","lon":"-72.201401","lat":"41.734573","theaterChainName":"Zurich Cinemas","ticketType":"STANDARD"},{"id":"4155","name":"Cinemaworld Lincoln","address":"622 George Washington Hwy. Lincoln Mall","city":"Lincoln","state":"RI","zip":"02865","distance":"23.43116569519043","lon":"-71.477608","lat":"41.939312","theaterChainName":"Cinemaworld","ticketType":"STANDARD"},{"id":"2764","name":"Providence Place Cinemas 16","address":"10 Providence Place","city":"Providence","state":"RI","zip":"02903","distance":"22.145122528076172","lon":"-71.416718","lat":"41.827084","theaterChainName":"National Amusements","ticketType":"STANDARD"},{"id":"1024","name":"Avon Cinema","address":"260 Thayer Street","city":"Providence","state":"RI","zip":"02906","distance":"22.953624725341797","lon":"-71.400871","lat":"41.828854","theaterChainName":"Independent Chains","ticketType":"STANDARD"},{"id":"1025","name":"Cable Car","address":"204 S Main","city":"Providence","state":"RI","zip":"02903","distance":"22.59746551513672","lon":"-71.405487","lat":"41.823109","theaterChainName":"Independent Chains","ticketType":"STANDARD"},{"id":"3214","name":"Showcase Cinemas Warwick Mall","address":"400 Bald Hill Road","city":"Warwick","state":"RI","zip":"02886","distance":"17.86062240600586","lon":"-71.473412","lat":"41.722034","theaterChainName":"National Amusements","ticketType":"STANDARD"},{"id":"98","name":"Showcase Warwick","address":"1200 Quaker Lane","city":"East Greenwich","state":"RI","zip":"02818","distance":"17.081636428833008","lon":"-71.495857","lat":"41.663971","theaterChainName":"National Amusements","ticketType":"STANDARD"},{"id":"4008","name":"Digiplex Lisbon 12","address":"162 River Road","city":"Lisbon","state":"CT","zip":"06351","distance":"12.784915924072266","lon":"-71.990273","lat":"41.581543","theaterChainName":"Carmike Cinemas","ticketType":"STANDARD"},{"id":"2306","name":"Regal Stonington 10","address":"85 Voluntown Road","city":"Pawcatuck","state":"CT","zip":"06379","distance":"21.505083084106445","lon":"-71.846001","lat":"41.404999","theaterChainName":"Regal Cinemas","ticketType":"STANDARD"},{"id":"2179","name":"Mystic Luxury Cinema","address":"27 Coogan Blvd","city":"Mystic","state":"CT","zip":"06355","distance":"24.711427688598633","lon":"-71.958260","lat":"41.373356","theaterChainName":"Independent Chains","ticketType":"STANDARD"}]