[{"id":"5315","name":"Metro Movies 12","address":"140 Main St.","city":"Middletown","state":"CT","zip":"06457","distance":"23.409231185913086","lon":"-72.646667","lat":"41.559563","theaterChainName":"Independent Chains","ticketType":"STANDARD"},{"id":"2777","name":"Gallery Cinemas","address":"396 Old Hartford Road","city":"Colchester","state":"CT","zip":"06415","distance":"17.177358627319336","lon":"-72.351601","lat":"41.581200","theaterChainName":"Independent Chains","ticketType":"STANDARD"},{"id":"4008","name":"Digiplex Lisbon 12","address":"162 River Road","city":"Lisbon","state":"CT","zip":"06351","distance":"23.720224380493164","lon":"-71.990273","lat":"41.581543","theaterChainName":"Carmike Cinemas","ticketType":"STANDARD"},{"id":"2306","name":"Regal Stonington 10","address":"85 Voluntown Road","city":"Pawcatuck","state":"CT","zip":"06379","distance":"24.47492790222168","lon":"-71.846001","lat":"41.404999","theaterChainName":"Regal Cinemas","ticketType":"STANDARD"},{"id":"2179","name":"Mystic Luxury Cinema","address":"27 Coogan Blvd","city":"Mystic","state":"CT","zip":"06355","distance":"18.366586685180664","lon":"-71.958260","lat":"41.373356","theaterChainName":"Independent Chains","ticketType":"STANDARD"},{"id":"884","name":"Regal Waterford 9","address":"123 Cross Rd.","city":"Waterford","state":"CT","zip":"06385","distance":"8.070058822631836","lon":"-72.161552","lat":"41.372864","theaterChainName":"Regal Cinemas","ticketType":"STANDARD"},{"id":"2776","name":"Niantic Cinema","address":"279 Main Street","city":"Niantic","state":"CT","zip":"06357","distance":"5.9894490242004395","lon":"-72.194168","lat":"41.323326","theaterChainName":"Independent Chains","ticketType":"STANDARD"},{"id":"2478","name":"Marquee Westbrook Cinemas","address":"314 Flatrock Place","city":"Westbrook","state":"CT","zip":"06498","distance":"6.885352611541748","lon":"-72.426712","lat":"41.289326","theaterChainName":"Marquee Cinemas","ticketType":"STANDARD"},{"id":"2551","name":"Madison Art Cinemas","address":"761 Boston Post Road","city":"Madison","state":"CT","zip":"06443","distance":"15.355997085571289","lon":"-72.595268","lat":"41.279762","theaterChainName":"Independent Chains","ticketType":"STANDARD"},{"id":"875","name":"Regal Branford Stadium 12","address":"325 E Main Street","city":"Branford","state":"CT","zip":"06405","distance":"24.856481552124023","lon":"-72.784157","lat":"41.292061","theaterChainName":"Regal Cinemas","ticketType":"STANDARD"}]