[{"id":"4008","name":"Digiplex Lisbon 12","address":"162 River Road","city":"Lisbon","state":"CT","zip":"06351","distance":"16.42215919494629","lon":"-71.990273","lat":"41.581543","theaterChainName":"Carmike Cinemas","ticketType":"STANDARD"},{"id":"2306","name":"Regal Stonington 10","address":"85 Voluntown Road","city":"Pawcatuck","state":"CT","zip":"06379","distance":"7.968277454376221","lon":"-71.846001","lat":"41.404999","theaterChainName":"Regal Cinemas","ticketType":"STANDARD"},{"id":"2179","name":"Mystic Luxury Cinema","address":"27 Coogan Blvd","city":"Mystic","state":"CT","zip":"06355","distance":"2.23188853263855","lon":"-71.958260","lat":"41.373356","theaterChainName":"Independent Chains","ticketType":"STANDARD"},{"id":"884","name":"Regal Waterford 9","address":"123 Cross Rd.","city":"Waterford","state":"CT","zip":"06385","distance":"9.801093101501465","lon":"-72.161552","lat":"41.372864","theaterChainName":"Regal Cinemas","ticketType":"STANDARD"},{"id":"2776","name":"Niantic Cinema","address":"279 Main Street","city":"Niantic","state":"CT","zip":"06357","distance":"11.384212493896484","lon":"-72.194168","lat":"41.323326","theaterChainName":"Independent Chains","ticketType":"STANDARD"},{"id":"2478","name":"Marquee Westbrook Cinemas","address":"314 Flatrock Place","city":"Westbrook","state":"CT","zip":"06498","distance":"23.669219970703125","lon":"-72.426712","lat":"41.289326","theaterChainName":"Marquee Cinemas","ticketType":"STANDARD"}]