[{"id":"2478","tribuneTheaterId":"3191","providerTheaterId":"","name":"Marquee Westbrook Cinemas","address":"314 Flatrock Place","city":"Westbrook","state":"CT","zip":"06498","distance":3.7148555990929,"lon":"-72.426714","lat":"41.289326","theaterChainName":"Marquee Cinemas","ticketType":"STANDARD"},{"id":"2551","tribuneTheaterId":"2743","providerTheaterId":"","name":"Madison Art Cinemas","address":"761 Boston Post Road","city":"Madison","state":"CT","zip":"06443","distance":9.1187265204238,"lon":"-72.595268","lat":"41.279763","theaterChainName":"Independent Chains","ticketType":"STANDARD"},{"id":"2776","tribuneTheaterId":"2956","providerTheaterId":"","name":"Niantic Cinema","address":"279 Main Street","city":"Niantic","state":"CT","zip":"06357","distance":12.840668506134,"lon":"-72.194165","lat":"41.323326","theaterChainName":"Independent Chains","ticketType":"STANDARD"},{"id":"884","tribuneTheaterId":"6913","providerTheaterId":"","name":"Regal Waterford 9","address":"123 Cross Rd.","city":"Waterford","state":"CT","zip":"06385","distance":14.616919739472,"lon":"-72.161551","lat":"41.372865","theaterChainName":"Regal Cinemas","ticketType":"STANDARD"},{"id":"2777","tribuneTheaterId":"3009","providerTheaterId":"","name":"Gallery Cinemas","address":"396 Old Hartford Road","city":"Colchester","state":"CT","zip":"06415","distance":17.148123017612,"lon":"-72.3516","lat":"41.5812","theaterChainName":"Independent Chains","ticketType":"STANDARD"},{"id":"875","tribuneTheaterId":"7581","providerTheaterId":"","name":"Regal Branford Stadium 12","address":"325 E Main Street","city":"Branford","state":"CT","zip":"06405","distance":18.17070172427,"lon":"-72.784156","lat":"41.292062","theaterChainName":"Regal Cinemas","ticketType":"STANDARD"},{"id":"5315","tribuneTheaterId":"10752","providerTheaterId":"","name":"Metro Movies 12","address":"140 Main St.","city":"Middletown","state":"CT","zip":"06457","distance":18.435337879059,"lon":"-72.646667","lat":"41.559563","theaterChainName":"Independent Chains","ticketType":"STANDARD"},{"id":"4093","tribuneTheaterId":"2273","providerTheaterId":"","name":"Holiday Stadium 14 Cinemas","address":"970 North Colony Road","city":"Wallingford","state":"CT","zip":"06492","distance":21.494936587476,"lon":"-72.807244","lat":"41.487349","theaterChainName":"Independent Chains","ticketType":"STANDARD"},{"id":"5733","tribuneTheaterId":"11175","providerTheaterId":"","name":"Cinemark North Haven","address":"550 Universal Drive","city":"North Haven","state":"CT","zip":"06473","distance":22.409037718012,"lon":"-72.8719","lat":"41.3584","theaterChainName":"Cinemark","ticketType":"STANDARD"}]