[{"id":"4172","name":"Connecticut Post 14 + Imax","address":"1201 Boston Post Road","city":"Milford","state":"CT","zip":"06460","distance":"22.55423927307129","lon":"-73.038696","lat":"41.236301","theaterChainName":"Cinemark","ticketType":"STANDARD"},{"id":"3915","name":"Criterion Cinemas","address":"86 Temple Street","city":"New Haven","state":"CT","zip":"06510","distance":"16.25910758972168","lon":"-72.928497","lat":"41.304680","theaterChainName":"Bow-Tie Cinemas","ticketType":"STANDARD"},{"id":"287","name":"Starplex Berlin 12","address":"19 Frontage Rd","city":"Berlin","state":"CT","zip":"06037","distance":"23.088895797729492","lon":"-72.742882","lat":"41.629181","theaterChainName":"Starplex Cinemas","ticketType":"STANDARD"},{"id":"6057","name":"Picture Show at Berlin","address":"19 Frontage Road","city":"Kensington","state":"CT","zip":"06037","distance":"23.088895797729492","lon":"-72.742882","lat":"41.629181","theaterChainName":"Picture Show Entertainment","ticketType":"STANDARD"},{"id":"5315","name":"Metro Movies 12","address":"140 Main St.","city":"Middletown","state":"CT","zip":"06457","distance":"17.38947868347168","lon":"-72.646667","lat":"41.559563","theaterChainName":"Independent Chains","ticketType":"STANDARD"},{"id":"2777","name":"Gallery Cinemas","address":"396 Old Hartford Road","city":"Colchester","state":"CT","zip":"06415","distance":"23.244569778442383","lon":"-72.351601","lat":"41.581200","theaterChainName":"Independent Chains","ticketType":"STANDARD"},{"id":"286","name":"Southington 12","address":"1821 Meriden-Waterbury Rd","city":"Southington","state":"CT","zip":"06489","distance":"23.289819717407227","lon":"-72.907204","lat":"41.565357","theaterChainName":"Starplex Cinemas","ticketType":"STANDARD"},{"id":"884","name":"Regal Waterford 9","address":"123 Cross Rd.","city":"Waterford","state":"CT","zip":"06385","distance":"23.949695587158203","lon":"-72.161552","lat":"41.372864","theaterChainName":"Regal Cinemas","ticketType":"STANDARD"},{"id":"2776","name":"Niantic Cinema","address":"279 Main Street","city":"Niantic","state":"CT","zip":"06357","distance":"21.878313064575195","lon":"-72.194168","lat":"41.323326","theaterChainName":"Independent Chains","ticketType":"STANDARD"},{"id":"2478","name":"Marquee Westbrook Cinemas","address":"314 Flatrock Place","city":"Westbrook","state":"CT","zip":"06498","distance":"9.883902549743652","lon":"-72.426712","lat":"41.289326","theaterChainName":"Marquee Cinemas","ticketType":"STANDARD"},{"id":"4093","name":"Holiday Stadium 14 Cinemas","address":"970 North Colony Road","city":"Wallingford","state":"CT","zip":"06492","distance":"15.838262557983398","lon":"-72.807243","lat":"41.487350","theaterChainName":"Independent Chains","ticketType":"STANDARD"},{"id":"5733","name":"Cinemark North Haven","address":"550 Universal Drive","city":"North Haven","state":"CT","zip":"06473","distance":"13.743949890136719","lon":"-72.871902","lat":"41.358398","theaterChainName":"Cinemark","ticketType":"STANDARD"},{"id":"2551","name":"Madison Art Cinemas","address":"761 Boston Post Road","city":"Madison","state":"CT","zip":"06443","distance":"2.2721641063690186","lon":"-72.595268","lat":"41.279762","theaterChainName":"Independent Chains","ticketType":"STANDARD"},{"id":"875","name":"Regal Branford Stadium 12","address":"325 E Main Street","city":"Branford","state":"CT","zip":"06405","distance":"8.843002319335938","lon":"-72.784157","lat":"41.292061","theaterChainName":"Regal Cinemas","ticketType":"STANDARD"}]