[{"id":"5315","tribuneTheaterId":"10752","providerTheaterId":"","name":"Metro Movies 12","address":"140 Main St.","city":"Middletown","state":"CT","zip":"06457","distance":5.0075213580391,"lon":"-72.646667","lat":"41.559563","theaterChainName":"Independent Chains","ticketType":"STANDARD"},{"id":"2777","tribuneTheaterId":"3009","providerTheaterId":"","name":"Gallery Cinemas","address":"396 Old Hartford Road","city":"Colchester","state":"CT","zip":"06415","distance":10.431891753387,"lon":"-72.3516","lat":"41.5812","theaterChainName":"Independent Chains","ticketType":"STANDARD"},{"id":"287","tribuneTheaterId":"7309","providerTheaterId":"","name":"Starplex Berlin 12","address":"19 Frontage Rd","city":"Berlin","state":"CT","zip":"06037","distance":11.234968691603,"lon":"-72.742883","lat":"41.629182","theaterChainName":"Starplex Cinemas","ticketType":"STANDARD"},{"id":"6057","tribuneTheaterId":"11464","providerTheaterId":"","name":"Picture Show at Berlin","address":"19 Frontage Road","city":"Kensington","state":"CT","zip":"06037","distance":11.234968691603,"lon":"-72.742883","lat":"41.629182","theaterChainName":"Picture Show Entertainment","ticketType":"STANDARD"},{"id":"4093","tribuneTheaterId":"2273","providerTheaterId":"","name":"Holiday Stadium 14 Cinemas","address":"970 North Colony Road","city":"Wallingford","state":"CT","zip":"06492","distance":14.076958923478,"lon":"-72.807244","lat":"41.487349","theaterChainName":"Independent Chains","ticketType":"STANDARD"},{"id":"4947","tribuneTheaterId":"10302","providerTheaterId":"","name":"Cinema City at the Palace","address":"330 New Park Ave.","city":"Hartford","state":"CT","zip":"06106","distance":15.77379908067,"lon":"-72.7133","lat":"41.747","theaterChainName":"Bow-Tie Cinemas","ticketType":"STANDARD"},{"id":"3095","tribuneTheaterId":"5888","providerTheaterId":"","name":"Palace 17 and Odyssey Theater","address":"330 New Park Ave","city":"Hartford","state":"CT","zip":"06106","distance":15.774741713739,"lon":"-72.712348","lat":"41.747464","theaterChainName":"Bow-Tie Cinemas","ticketType":"STANDARD"},{"id":"882","tribuneTheaterId":"6098","providerTheaterId":"","name":"CineStudio Theatre","address":"300 Summit Street","city":"Hartford","state":"CT","zip":"06106","distance":15.227437905922,"lon":"-72.691629","lat":"41.74736","theaterChainName":"Independent Chains","ticketType":"STANDARD"},{"id":"4302","tribuneTheaterId":"2022","providerTheaterId":"","name":"Parkade Cinemas","address":"308 Broad St","city":"Manchester","state":"CT","zip":"06040","distance":15.50132144309,"lon":"-72.539978","lat":"41.778226","theaterChainName":"Independent Chains","ticketType":"STANDARD"},{"id":"5253","tribuneTheaterId":"10682","providerTheaterId":"","name":"Spotlight Theatres Front Street","address":"39 Front St.","city":"Hartford","state":"CT","zip":"06103","distance":15.696046781412,"lon":"-72.6702","lat":"41.7627","theaterChainName":"Spotlight Theatres","ticketType":"STANDARD"},{"id":"876","tribuneTheaterId":"5157","providerTheaterId":"","name":"Real Art Ways Theatre","address":"56 Arbor St.","city":"Hartford","state":"CT","zip":"06106","distance":16.248625119258,"lon":"-72.703396","lat":"41.759394","theaterChainName":"Independent Chains","ticketType":"STANDARD"},{"id":"2900","tribuneTheaterId":"7319","providerTheaterId":"2628","name":"AMC Loews Plainville 20","address":"220 New Britain Avenue","city":"Plainville","state":"CT","zip":"06062","distance":17.360440329808,"lon":"-72.845052","lat":"41.674436","theaterChainName":"AMC Theatres","ticketType":"STANDARD"},{"id":"4426","tribuneTheaterId":"9497","providerTheaterId":"","name":"Cin\u00e9polis Blue Back Square","address":"42 South Main St.","city":"West Hartford","state":"CT","zip":"06107","distance":17.341129230238,"lon":"-72.74164","lat":"41.760185","theaterChainName":"Cinepolis Luxury Cinemas","ticketType":"STANDARD"},{"id":"817","tribuneTheaterId":"7475","providerTheaterId":"","name":"Rave Buckland Hills 18","address":"99 Red Stone Rd.","city":"Manchester","state":"CT","zip":"06045","distance":17.070171728785,"lon":"-72.54785","lat":"41.801054","theaterChainName":"Cinemark","ticketType":"STANDARD"},{"id":"2551","tribuneTheaterId":"2743","providerTheaterId":"","name":"Madison Art Cinemas","address":"761 Boston Post Road","city":"Madison","state":"CT","zip":"06443","distance":19.091925100816,"lon":"-72.595268","lat":"41.279763","theaterChainName":"Independent Chains","ticketType":"STANDARD"},{"id":"2478","tribuneTheaterId":"3191","providerTheaterId":"","name":"Marquee Westbrook Cinemas","address":"314 Flatrock Place","city":"Westbrook","state":"CT","zip":"06498","distance":19.372345030686,"lon":"-72.426714","lat":"41.289326","theaterChainName":"Marquee Cinemas","ticketType":"STANDARD"},{"id":"286","tribuneTheaterId":"9189","providerTheaterId":"","name":"Southington 12","address":"1821 Meriden-Waterbury Rd","city":"Southington","state":"CT","zip":"06489","distance":18.479019755892,"lon":"-72.907205","lat":"41.565356","theaterChainName":"Starplex Cinemas","ticketType":"STANDARD"},{"id":"875","tribuneTheaterId":"7581","providerTheaterId":"","name":"Regal Branford Stadium 12","address":"325 E Main Street","city":"Branford","state":"CT","zip":"06405","distance":21.785063736732,"lon":"-72.784156","lat":"41.292062","theaterChainName":"Regal Cinemas","ticketType":"STANDARD"},{"id":"4036","tribuneTheaterId":"4085","providerTheaterId":"","name":"Mansfield Movieplex","address":"East Brook Mall","city":"Mansfield Center","state":"CT","zip":"06250","distance":21.904696360248,"lon":"-72.201398","lat":"41.734574","theaterChainName":"Zurich Cinemas","ticketType":"STANDARD"},{"id":"877","tribuneTheaterId":"6886","providerTheaterId":"","name":"Digiplex Bloomfield","address":"863 Park Ave","city":"Bloomfield","state":"CT","zip":"06002","distance":21.419400514667,"lon":"-72.735672","lat":"41.831313","theaterChainName":"Carmike Cinemas","ticketType":"STANDARD"},{"id":"5733","tribuneTheaterId":"11175","providerTheaterId":"","name":"Cinemark North Haven","address":"550 Universal Drive","city":"North Haven","state":"CT","zip":"06473","distance":21.45515544628,"lon":"-72.8719","lat":"41.3584","theaterChainName":"Cinemark","ticketType":"STANDARD"},{"id":"2776","tribuneTheaterId":"2956","providerTheaterId":"","name":"Niantic Cinema","address":"279 Main Street","city":"Niantic","state":"CT","zip":"06357","distance":24.370387023608,"lon":"-72.194165","lat":"41.323326","theaterChainName":"Independent Chains","ticketType":"STANDARD"},{"id":"2907","tribuneTheaterId":"5984","providerTheaterId":"","name":"Simsbury","address":"530 Bushy Hill Road","city":"Simsbury","state":"CT","zip":"06070","distance":24.446842475462,"lon":"-72.863399","lat":"41.819424","theaterChainName":"Hoyts","ticketType":"STANDARD"},{"id":"884","tribuneTheaterId":"6913","providerTheaterId":"","name":"Regal Waterford 9","address":"123 Cross Rd.","city":"Waterford","state":"CT","zip":"06385","distance":23.693022073276,"lon":"-72.161551","lat":"41.372865","theaterChainName":"Regal Cinemas","ticketType":"STANDARD"},{"id":"883","tribuneTheaterId":"7423","providerTheaterId":"","name":"Regal Brass Mill Stadium 12","address":"495 Union Street","city":"Waterbury","state":"CT","zip":"06705","distance":24.597064949388,"lon":"-73.025769","lat":"41.549524","theaterChainName":"Regal Cinemas","ticketType":"STANDARD"}]