[{"id":"2777","tribuneTheaterId":"3009","providerTheaterId":"","name":"Gallery Cinemas","address":"396 Old Hartford Road","city":"Colchester","state":"CT","zip":"06415","distance":2.5635610133657,"lon":"-72.3516","lat":"41.5812","theaterChainName":"Independent Chains","ticketType":"STANDARD"},{"id":"5315","tribuneTheaterId":"10752","providerTheaterId":"","name":"Metro Movies 12","address":"140 Main St.","city":"Middletown","state":"CT","zip":"06457","distance":12.773950332247,"lon":"-72.646667","lat":"41.559563","theaterChainName":"Independent Chains","ticketType":"STANDARD"},{"id":"4036","tribuneTheaterId":"4085","providerTheaterId":"","name":"Mansfield Movieplex","address":"East Brook Mall","city":"Mansfield Center","state":"CT","zip":"06250","distance":14.802666585945,"lon":"-72.201398","lat":"41.734574","theaterChainName":"Zurich Cinemas","ticketType":"STANDARD"},{"id":"4302","tribuneTheaterId":"2022","providerTheaterId":"","name":"Parkade Cinemas","address":"308 Broad St","city":"Manchester","state":"CT","zip":"06040","distance":15.400339071264,"lon":"-72.539978","lat":"41.778226","theaterChainName":"Independent Chains","ticketType":"STANDARD"},{"id":"287","tribuneTheaterId":"7309","providerTheaterId":"","name":"Starplex Berlin 12","address":"19 Frontage Rd","city":"Berlin","state":"CT","zip":"06037","distance":17.96507720845,"lon":"-72.742883","lat":"41.629182","theaterChainName":"Starplex Cinemas","ticketType":"STANDARD"},{"id":"6057","tribuneTheaterId":"11464","providerTheaterId":"","name":"Picture Show at Berlin","address":"19 Frontage Road","city":"Kensington","state":"CT","zip":"06037","distance":17.96507720845,"lon":"-72.742883","lat":"41.629182","theaterChainName":"Picture Show Entertainment","ticketType":"STANDARD"},{"id":"817","tribuneTheaterId":"7475","providerTheaterId":"","name":"Rave Buckland Hills 18","address":"99 Red Stone Rd.","city":"Manchester","state":"CT","zip":"06045","distance":16.989105837797,"lon":"-72.54785","lat":"41.801054","theaterChainName":"Cinemark","ticketType":"STANDARD"},{"id":"884","tribuneTheaterId":"6913","providerTheaterId":"","name":"Regal Waterford 9","address":"123 Cross Rd.","city":"Waterford","state":"CT","zip":"06385","distance":18.987063439177,"lon":"-72.161551","lat":"41.372865","theaterChainName":"Regal Cinemas","ticketType":"STANDARD"},{"id":"882","tribuneTheaterId":"6098","providerTheaterId":"","name":"CineStudio Theatre","address":"300 Summit Street","city":"Hartford","state":"CT","zip":"06106","distance":18.894605227087,"lon":"-72.691629","lat":"41.74736","theaterChainName":"Independent Chains","ticketType":"STANDARD"},{"id":"5253","tribuneTheaterId":"10682","providerTheaterId":"","name":"Spotlight Theatres Front Street","address":"39 Front St.","city":"Hartford","state":"CT","zip":"06103","distance":18.7223030628,"lon":"-72.6702","lat":"41.7627","theaterChainName":"Spotlight Theatres","ticketType":"STANDARD"},{"id":"3095","tribuneTheaterId":"5888","providerTheaterId":"","name":"Palace 17 and Odyssey Theater","address":"330 New Park Ave","city":"Hartford","state":"CT","zip":"06106","distance":19.757996055568,"lon":"-72.712348","lat":"41.747464","theaterChainName":"Bow-Tie Cinemas","ticketType":"STANDARD"},{"id":"2776","tribuneTheaterId":"2956","providerTheaterId":"","name":"Niantic Cinema","address":"279 Main Street","city":"Niantic","state":"CT","zip":"06357","distance":20.776689417075,"lon":"-72.194165","lat":"41.323326","theaterChainName":"Independent Chains","ticketType":"STANDARD"},{"id":"2478","tribuneTheaterId":"3191","providerTheaterId":"","name":"Marquee Westbrook Cinemas","address":"314 Flatrock Place","city":"Westbrook","state":"CT","zip":"06498","distance":20.189114478467,"lon":"-72.426714","lat":"41.289326","theaterChainName":"Marquee Cinemas","ticketType":"STANDARD"},{"id":"876","tribuneTheaterId":"5157","providerTheaterId":"","name":"Real Art Ways Theatre","address":"56 Arbor St.","city":"Hartford","state":"CT","zip":"06106","distance":19.883578570053,"lon":"-72.703396","lat":"41.759394","theaterChainName":"Independent Chains","ticketType":"STANDARD"},{"id":"4947","tribuneTheaterId":"10302","providerTheaterId":"","name":"Cinema City at the Palace","address":"330 New Park Ave.","city":"Hartford","state":"CT","zip":"06106","distance":19.77938786471,"lon":"-72.7133","lat":"41.747","theaterChainName":"Bow-Tie Cinemas","ticketType":"STANDARD"},{"id":"4093","tribuneTheaterId":"2273","providerTheaterId":"","name":"Holiday Stadium 14 Cinemas","address":"970 North Colony Road","city":"Wallingford","state":"CT","zip":"06492","distance":21.973011929222,"lon":"-72.807244","lat":"41.487349","theaterChainName":"Independent Chains","ticketType":"STANDARD"},{"id":"4008","tribuneTheaterId":"2319","providerTheaterId":"","name":"Digiplex Lisbon 12","address":"162 River Road","city":"Lisbon","state":"CT","zip":"06351","distance":21.237810481802,"lon":"-71.990275","lat":"41.581544","theaterChainName":"Carmike Cinemas","ticketType":"STANDARD"},{"id":"4426","tribuneTheaterId":"9497","providerTheaterId":"","name":"Cin\u00e9polis Blue Back Square","address":"42 South Main St.","city":"West Hartford","state":"CT","zip":"06107","distance":21.498157457631,"lon":"-72.74164","lat":"41.760185","theaterChainName":"Cinepolis Luxury Cinemas","ticketType":"STANDARD"},{"id":"2551","tribuneTheaterId":"2743","providerTheaterId":"","name":"Madison Art Cinemas","address":"761 Boston Post Road","city":"Madison","state":"CT","zip":"06443","distance":23.1080594268,"lon":"-72.595268","lat":"41.279763","theaterChainName":"Independent Chains","ticketType":"STANDARD"},{"id":"2900","tribuneTheaterId":"7319","providerTheaterId":"2628","name":"AMC Loews Plainville 20","address":"220 New Britain Avenue","city":"Plainville","state":"CT","zip":"06062","distance":23.816607865244,"lon":"-72.845052","lat":"41.674436","theaterChainName":"AMC Theatres","ticketType":"STANDARD"},{"id":"877","tribuneTheaterId":"6886","providerTheaterId":"","name":"Digiplex Bloomfield","address":"863 Park Ave","city":"Bloomfield","state":"CT","zip":"06002","distance":24.433962049979,"lon":"-72.735672","lat":"41.831313","theaterChainName":"Carmike Cinemas","ticketType":"STANDARD"}]