[{"id":"4172","name":"Connecticut Post 14 + Imax","address":"1201 Boston Post Road","city":"Milford","state":"CT","zip":"06460","distance":"17.351303100585938","lon":"-73.038696","lat":"41.236301","theaterChainName":"Cinemark","ticketType":"STANDARD"},{"id":"1863","name":"Bow Tie Cinemas Marquis 16 & BTX","address":"100 Quarry Road","city":"Trumbull","state":"CT","zip":"06611","distance":"23.92221450805664","lon":"-73.184189","lat":"41.228565","theaterChainName":"Bow-Tie Cinemas","ticketType":"STANDARD"},{"id":"3915","name":"Criterion Cinemas","address":"86 Temple Street","city":"New Haven","state":"CT","zip":"06510","distance":"9.929909706115723","lon":"-72.928497","lat":"41.304680","theaterChainName":"Bow-Tie Cinemas","ticketType":"STANDARD"},{"id":"882","name":"CineStudio Theatre","address":"300 Summit Street","city":"Hartford","state":"CT","zip":"06106","distance":"24.699373245239258","lon":"-72.691628","lat":"41.747360","theaterChainName":"Independent Chains","ticketType":"STANDARD"},{"id":"4947","name":"Cinema City at the Palace","address":"330 New Park Ave.","city":"Hartford","state":"CT","zip":"06106","distance":"24.490232467651367","lon":"-72.713303","lat":"41.747002","theaterChainName":"Bow-Tie Cinemas","ticketType":"STANDARD"},{"id":"3095","name":"Palace 17 and Odyssey Theater","address":"330 New Park Ave","city":"Hartford","state":"CT","zip":"06106","distance":"24.528873443603516","lon":"-72.712349","lat":"41.747463","theaterChainName":"Bow-Tie Cinemas","ticketType":"STANDARD"},{"id":"287","name":"Starplex Berlin 12","address":"19 Frontage Rd","city":"Berlin","state":"CT","zip":"06037","distance":"16.218265533447266","lon":"-72.742882","lat":"41.629181","theaterChainName":"Starplex Cinemas","ticketType":"STANDARD"},{"id":"6057","name":"Picture Show at Berlin","address":"19 Frontage Road","city":"Kensington","state":"CT","zip":"06037","distance":"16.218265533447266","lon":"-72.742882","lat":"41.629181","theaterChainName":"Picture Show Entertainment","ticketType":"STANDARD"},{"id":"2900","name":"AMC Loews Plainville 20","address":"220 New Britain Avenue","city":"Plainville","state":"CT","zip":"06062","distance":"19.509727478027344","lon":"-72.845055","lat":"41.674435","theaterChainName":"AMC Theatres","ticketType":"STANDARD"},{"id":"5315","name":"Metro Movies 12","address":"140 Main St.","city":"Middletown","state":"CT","zip":"06457","distance":"13.255537986755371","lon":"-72.646667","lat":"41.559563","theaterChainName":"Independent Chains","ticketType":"STANDARD"},{"id":"286","name":"Southington 12","address":"1821 Meriden-Waterbury Rd","city":"Southington","state":"CT","zip":"06489","distance":"13.392913818359375","lon":"-72.907204","lat":"41.565357","theaterChainName":"Starplex Cinemas","ticketType":"STANDARD"},{"id":"2478","name":"Marquee Westbrook Cinemas","address":"314 Flatrock Place","city":"Westbrook","state":"CT","zip":"06498","distance":"19.80240249633789","lon":"-72.426712","lat":"41.289326","theaterChainName":"Marquee Cinemas","ticketType":"STANDARD"},{"id":"4093","name":"Holiday Stadium 14 Cinemas","address":"970 North Colony Road","city":"Wallingford","state":"CT","zip":"06492","distance":"6.444520473480225","lon":"-72.807243","lat":"41.487350","theaterChainName":"Independent Chains","ticketType":"STANDARD"},{"id":"883","name":"Regal Brass Mill Stadium 12","address":"495 Union Street","city":"Waterbury","state":"CT","zip":"06705","distance":"16.521636962890625","lon":"-73.025772","lat":"41.549522","theaterChainName":"Regal Cinemas","ticketType":"STANDARD"},{"id":"5733","name":"Cinemark North Haven","address":"550 Universal Drive","city":"North Haven","state":"CT","zip":"06473","distance":"5.3930983543396","lon":"-72.871902","lat":"41.358398","theaterChainName":"Cinemark","ticketType":"STANDARD"},{"id":"2360","name":"Seymour Cinemas 12","address":"814 Derby Avenue","city":"Seymour","state":"CT","zip":"06483","distance":"16.485816955566406","lon":"-73.095322","lat":"41.360687","theaterChainName":"Boston Culinary Group","ticketType":"STANDARD"},{"id":"2551","name":"Madison Art Cinemas","address":"761 Boston Post Road","city":"Madison","state":"CT","zip":"06443","distance":"12.548990249633789","lon":"-72.595268","lat":"41.279762","theaterChainName":"Independent Chains","ticketType":"STANDARD"},{"id":"875","name":"Regal Branford Stadium 12","address":"325 E Main Street","city":"Branford","state":"CT","zip":"06405","distance":"7.197628498077393","lon":"-72.784157","lat":"41.292061","theaterChainName":"Regal Cinemas","ticketType":"STANDARD"}]