[{"id":"284","name":"Showcase Cinemas Bridgeport","address":"286 Canfield Ave.","city":"Bridgeport","state":"CT","zip":"06605","distance":"11.174293518066406","lon":"-73.228004","lat":"41.160984","theaterChainName":"National Amusements","ticketType":"STANDARD"},{"id":"283","name":"Fairfield Cinemas  Bullard Square","address":"40 Blackrock Turnpike","city":"Fairfield","state":"CT","zip":"06824","distance":"11.128425598144531","lon":"-73.229248","lat":"41.162220","theaterChainName":"National Amusements","ticketType":"STANDARD"},{"id":"4172","name":"Connecticut Post 14 + Imax","address":"1201 Boston Post Road","city":"Milford","state":"CT","zip":"06460","distance":"6.672849655151367","lon":"-73.038696","lat":"41.236301","theaterChainName":"Cinemark","ticketType":"STANDARD"},{"id":"1863","name":"Bow Tie Cinemas Marquis 16 & BTX","address":"100 Quarry Road","city":"Trumbull","state":"CT","zip":"06611","distance":"5.980898857116699","lon":"-73.184189","lat":"41.228565","theaterChainName":"Bow-Tie Cinemas","ticketType":"STANDARD"},{"id":"1866","name":"Bow Tie Cinemas Royale 6","address":"542 Westport Ave.","city":"Norwalk","state":"CT","zip":"06851","distance":"18.07149314880371","lon":"-73.384338","lat":"41.126865","theaterChainName":"Bow-Tie Cinemas","ticketType":"STANDARD"},{"id":"2399","name":"Bow Tie Cinemas SONO Regent 8","address":"64 North Main St.","city":"Norwalk","state":"CT","zip":"06854","distance":"20.642898559570312","lon":"-73.419533","lat":"41.100735","theaterChainName":"Bow-Tie Cinemas","ticketType":"STANDARD"},{"id":"3915","name":"Criterion Cinemas","address":"86 Temple Street","city":"New Haven","state":"CT","zip":"06510","distance":"10.428326606750488","lon":"-72.928497","lat":"41.304680","theaterChainName":"Bow-Tie Cinemas","ticketType":"STANDARD"},{"id":"216","name":"Darien Playhouse","address":"1077 Boston Post Road","city":"Darien","state":"CT","zip":"06820","distance":"23.93071746826172","lon":"-73.473579","lat":"41.074780","theaterChainName":"Independent Chains","ticketType":"STANDARD"},{"id":"3070","name":"Bow Tie Cinemas Wilton 4","address":"21 River Road","city":"Wilton","state":"CT","zip":"06897","distance":"17.562414169311523","lon":"-73.431305","lat":"41.190346","theaterChainName":"Bow-Tie Cinemas","ticketType":"STANDARD"},{"id":"2178","name":"Bow Tie Cinemas New Canaan Playhouse","address":"89 Elm St.","city":"New Canaan","state":"CT","zip":"06840","distance":"21.87266731262207","lon":"-73.494102","lat":"41.146702","theaterChainName":"Bow-Tie Cinemas","ticketType":"STANDARD"},{"id":"286","name":"Southington 12","address":"1821 Meriden-Waterbury Rd","city":"Southington","state":"CT","zip":"06489","distance":"21.374807357788086","lon":"-72.907204","lat":"41.565357","theaterChainName":"Starplex Cinemas","ticketType":"STANDARD"},{"id":"1246","name":"Bank Street Theatre","address":"46 Bank Street","city":"New Milford","state":"CT","zip":"06776","distance":"23.871612548828125","lon":"-73.412254","lat":"41.577454","theaterChainName":"Independent Chains","ticketType":"STANDARD"},{"id":"4093","name":"Holiday Stadium 14 Cinemas","address":"970 North Colony Road","city":"Wallingford","state":"CT","zip":"06492","distance":"20.931615829467773","lon":"-72.807243","lat":"41.487350","theaterChainName":"Independent Chains","ticketType":"STANDARD"},{"id":"883","name":"Regal Brass Mill Stadium 12","address":"495 Union Street","city":"Waterbury","state":"CT","zip":"06705","distance":"17.748268127441406","lon":"-73.025772","lat":"41.549522","theaterChainName":"Regal Cinemas","ticketType":"STANDARD"},{"id":"5733","name":"Cinemark North Haven","address":"550 Universal Drive","city":"North Haven","state":"CT","zip":"06473","distance":"13.866148948669434","lon":"-72.871902","lat":"41.358398","theaterChainName":"Cinemark","ticketType":"STANDARD"},{"id":"2360","name":"Seymour Cinemas 12","address":"814 Derby Avenue","city":"Seymour","state":"CT","zip":"06483","distance":"4.253612041473389","lon":"-73.095322","lat":"41.360687","theaterChainName":"Boston Culinary Group","ticketType":"STANDARD"},{"id":"1242","name":"Edmond Town Hall Theatre","address":"45 Main St.","city":"Newtown","state":"CT","zip":"06470","distance":"12.101602554321289","lon":"-73.310814","lat":"41.414848","theaterChainName":"Independent Chains","ticketType":"STANDARD"},{"id":"875","name":"Regal Branford Stadium 12","address":"325 E Main Street","city":"Branford","state":"CT","zip":"06405","distance":"17.943567276000977","lon":"-72.784157","lat":"41.292061","theaterChainName":"Regal Cinemas","ticketType":"STANDARD"},{"id":"155","name":"AMC Loews Danbury 16","address":"61 Eagle Road","city":"Danbury","state":"CT","zip":"06810","distance":"16.723451614379883","lon":"-73.415611","lat":"41.416187","theaterChainName":"AMC Theatres","ticketType":"STANDARD"},{"id":"5604","name":"Prospector Theater","address":"25 Prospect St","city":"Ridgefield","state":"CT","zip":"06877","distance":"19.14287567138672","lon":"-73.497070","lat":"41.283649","theaterChainName":"Independent Chains","ticketType":"STANDARD"},{"id":"3549","name":"Empire Southeast Towne Center","address":"Route 22 ","city":"Brewster","state":"NY","zip":"10509","distance":"24.742435455322266","lon":"-73.577103","lat":"41.428501","theaterChainName":"Garden Homes Cinemas","ticketType":"STANDARD"}]