[{"id":"3915","tribuneTheaterId":"1890","providerTheaterId":"","name":"Criterion Cinemas","address":"86 Temple Street","city":"New Haven","state":"CT","zip":"06510","distance":3.011277900959,"lon":"-72.928497","lat":"41.30468","theaterChainName":"Bow-Tie Cinemas","ticketType":"STANDARD"},{"id":"4172","tribuneTheaterId":"6012","providerTheaterId":"","name":"Connecticut Post 14 + Imax","address":"1201 Boston Post Road","city":"Milford","state":"CT","zip":"06460","distance":4.5377315126747,"lon":"-73.0387","lat":"41.2363","theaterChainName":"Cinemark","ticketType":"STANDARD"},{"id":"5733","tribuneTheaterId":"11175","providerTheaterId":"","name":"Cinemark North Haven","address":"550 Universal Drive","city":"North Haven","state":"CT","zip":"06473","distance":7.7438419477988,"lon":"-72.8719","lat":"41.3584","theaterChainName":"Cinemark","ticketType":"STANDARD"},{"id":"2360","tribuneTheaterId":"5082","providerTheaterId":"","name":"Seymour Cinemas 12","address":"814 Derby Avenue","city":"Seymour","state":"CT","zip":"06483","distance":9.2606578228007,"lon":"-73.095322","lat":"41.360687","theaterChainName":"Boston Culinary Group","ticketType":"STANDARD"},{"id":"875","tribuneTheaterId":"7581","providerTheaterId":"","name":"Regal Branford Stadium 12","address":"325 E Main Street","city":"Branford","state":"CT","zip":"06405","distance":9.4501646292662,"lon":"-72.784156","lat":"41.292062","theaterChainName":"Regal Cinemas","ticketType":"STANDARD"},{"id":"1863","tribuneTheaterId":"5887","providerTheaterId":"","name":"Bow Tie Cinemas Marquis 16 & BTX","address":"100 Quarry Road","city":"Trumbull","state":"CT","zip":"06611","distance":11.802998851351,"lon":"-73.184191","lat":"41.228564","theaterChainName":"Bow-Tie Cinemas","ticketType":"STANDARD"},{"id":"283","tribuneTheaterId":"7621","providerTheaterId":"","name":"Fairfield Cinemas  Bullard Square","address":"40 Blackrock Turnpike","city":"Fairfield","state":"CT","zip":"06824","distance":15.68118078819,"lon":"-73.229249","lat":"41.162221","theaterChainName":"National Amusements","ticketType":"STANDARD"},{"id":"284","tribuneTheaterId":"7478","providerTheaterId":"","name":"Showcase Cinemas Bridgeport","address":"286 Canfield Ave.","city":"Bridgeport","state":"CT","zip":"06605","distance":15.665223712834,"lon":"-73.228002","lat":"41.160985","theaterChainName":"National Amusements","ticketType":"STANDARD"},{"id":"4093","tribuneTheaterId":"2273","providerTheaterId":"","name":"Holiday Stadium 14 Cinemas","address":"970 North Colony Road","city":"Wallingford","state":"CT","zip":"06492","distance":17.064358062892,"lon":"-72.807244","lat":"41.487349","theaterChainName":"Independent Chains","ticketType":"STANDARD"},{"id":"883","tribuneTheaterId":"7423","providerTheaterId":"","name":"Regal Brass Mill Stadium 12","address":"495 Union Street","city":"Waterbury","state":"CT","zip":"06705","distance":19.571564745325,"lon":"-73.025769","lat":"41.549524","theaterChainName":"Regal Cinemas","ticketType":"STANDARD"},{"id":"2551","tribuneTheaterId":"2743","providerTheaterId":"","name":"Madison Art Cinemas","address":"761 Boston Post Road","city":"Madison","state":"CT","zip":"06443","distance":19.148488193414,"lon":"-72.595268","lat":"41.279763","theaterChainName":"Independent Chains","ticketType":"STANDARD"},{"id":"286","tribuneTheaterId":"9189","providerTheaterId":"","name":"Southington 12","address":"1821 Meriden-Waterbury Rd","city":"Southington","state":"CT","zip":"06489","distance":20.609887911488,"lon":"-72.907205","lat":"41.565356","theaterChainName":"Starplex Cinemas","ticketType":"STANDARD"},{"id":"1242","tribuneTheaterId":"2477","providerTheaterId":"","name":"Edmond Town Hall Theatre","address":"45 Main St.","city":"Newtown","state":"CT","zip":"06470","distance":20.592583794889,"lon":"-73.310815","lat":"41.414849","theaterChainName":"Independent Chains","ticketType":"STANDARD"},{"id":"3070","tribuneTheaterId":"6933","providerTheaterId":"","name":"Bow Tie Cinemas Wilton 4","address":"21 River Road","city":"Wilton","state":"CT","zip":"06897","distance":24.91012208334,"lon":"-73.431308","lat":"41.190347","theaterChainName":"Bow-Tie Cinemas","ticketType":"STANDARD"},{"id":"1866","tribuneTheaterId":"5883","providerTheaterId":"","name":"Bow Tie Cinemas Royale 6","address":"542 Westport Ave.","city":"Norwalk","state":"CT","zip":"06851","distance":23.998499713398,"lon":"-73.384337","lat":"41.126864","theaterChainName":"Bow-Tie Cinemas","ticketType":"STANDARD"},{"id":"1175","tribuneTheaterId":"6590","providerTheaterId":"","name":"P.J. Cinemas","address":"1068 Route 112","city":"Port Jefferson Station","state":"NY","zip":"11776","distance":24.434009371923,"lon":"-73.0435","lat":"40.9216","theaterChainName":"Independent Chains","ticketType":"STANDARD"}]