[{"id":"2907","name":"Simsbury","address":"530 Bushy Hill Road","city":"Simsbury","state":"CT","zip":"06070","distance":"24.151901245117188","lon":"-72.863396","lat":"41.819424","theaterChainName":"Hoyts","ticketType":"STANDARD"},{"id":"5969","name":"AMC Dine-in Holly Spring 9","address":"320 Grand Hill Place","city":"Holly Springs","state":"NC","zip":"27540","distance":"15.960631370544434","lon":"-73.042793","lat":"41.911034","theaterChainName":"AMC Theatres","ticketType":"STANDARD"},{"id":"5631","name":"Apple Cinemas Barkhamsted","address":"380 New Hartford Road","city":"Barkhamsted","state":"CT","zip":"06063","distance":"15.960631370544434","lon":"-73.042793","lat":"41.911034","theaterChainName":"Independent Chains","ticketType":"STANDARD"},{"id":"874","name":"Gilson Theatre","address":"354 Main Street","city":"Winsted","state":"CT","zip":"06098","distance":"14.971816062927246","lon":"-73.069565","lat":"41.921246","theaterChainName":"Independent Chains","ticketType":"STANDARD"},{"id":"2365","name":"Cinerom Digital Movieplex Torrington","address":"89 Farley Place","city":"Torrington","state":"CT","zip":"06790","distance":"10.781644821166992","lon":"-73.123871","lat":"41.813255","theaterChainName":"Carmike Cinemas","ticketType":"STANDARD"},{"id":"2751","name":"Moviehouse","address":"48 Main St.","city":"Millerton","state":"NY","zip":"12546","distance":"12.59150505065918","lon":"-73.509979","lat":"41.953445","theaterChainName":"Independent Chains","ticketType":"STANDARD"},{"id":"878","name":"Bantam Cinema","address":"115 Bantam Lake Road","city":"Bantam","state":"CT","zip":"06750","distance":"8.939101219177246","lon":"-73.235733","lat":"41.720627","theaterChainName":"Independent Chains","ticketType":"STANDARD"},{"id":"1246","name":"Bank Street Theatre","address":"46 Bank Street","city":"New Milford","state":"CT","zip":"06776","distance":"17.80336570739746","lon":"-73.412254","lat":"41.577454","theaterChainName":"Independent Chains","ticketType":"STANDARD"},{"id":"883","name":"Regal Brass Mill Stadium 12","address":"495 Union Street","city":"Waterbury","state":"CT","zip":"06705","distance":"24.913599014282227","lon":"-73.025772","lat":"41.549522","theaterChainName":"Regal Cinemas","ticketType":"STANDARD"}]