[{"id":"883","tribuneTheaterId":"7423","providerTheaterId":"","name":"Regal Brass Mill Stadium 12","address":"495 Union Street","city":"Waterbury","state":"CT","zip":"06705","distance":4.2765918353169,"lon":"-73.025769","lat":"41.549524","theaterChainName":"Regal Cinemas","ticketType":"STANDARD"},{"id":"286","tribuneTheaterId":"9189","providerTheaterId":"","name":"Southington 12","address":"1821 Meriden-Waterbury Rd","city":"Southington","state":"CT","zip":"06489","distance":9.4741144172613,"lon":"-72.907205","lat":"41.565356","theaterChainName":"Starplex Cinemas","ticketType":"STANDARD"},{"id":"878","tribuneTheaterId":"6322","providerTheaterId":"","name":"Bantam Cinema","address":"115 Bantam Lake Road","city":"Bantam","state":"CT","zip":"06750","distance":11.792320661507,"lon":"-73.235736","lat":"41.720628","theaterChainName":"Independent Chains","ticketType":"STANDARD"},{"id":"2900","tribuneTheaterId":"7319","providerTheaterId":"2628","name":"AMC Loews Plainville 20","address":"220 New Britain Avenue","city":"Plainville","state":"CT","zip":"06062","distance":13.777360021173,"lon":"-72.845052","lat":"41.674436","theaterChainName":"AMC Theatres","ticketType":"STANDARD"},{"id":"2365","tribuneTheaterId":"4027","providerTheaterId":"","name":"Cinerom Digital Movieplex Torrington","address":"89 Farley Place","city":"Torrington","state":"CT","zip":"06790","distance":15.4786510966,"lon":"-73.123873","lat":"41.813255","theaterChainName":"Carmike Cinemas","ticketType":"STANDARD"},{"id":"4093","tribuneTheaterId":"2273","providerTheaterId":"","name":"Holiday Stadium 14 Cinemas","address":"970 North Colony Road","city":"Wallingford","state":"CT","zip":"06492","distance":16.154309668237,"lon":"-72.807244","lat":"41.487349","theaterChainName":"Independent Chains","ticketType":"STANDARD"},{"id":"1246","tribuneTheaterId":"1096","providerTheaterId":"","name":"Bank Street Theatre","address":"46 Bank Street","city":"New Milford","state":"CT","zip":"06776","distance":16.819660819304,"lon":"-73.412258","lat":"41.577454","theaterChainName":"Independent Chains","ticketType":"STANDARD"},{"id":"2360","tribuneTheaterId":"5082","providerTheaterId":"","name":"Seymour Cinemas 12","address":"814 Derby Avenue","city":"Seymour","state":"CT","zip":"06483","distance":15.911596546787,"lon":"-73.095322","lat":"41.360687","theaterChainName":"Boston Culinary Group","ticketType":"STANDARD"},{"id":"1242","tribuneTheaterId":"2477","providerTheaterId":"","name":"Edmond Town Hall Theatre","address":"45 Main St.","city":"Newtown","state":"CT","zip":"06470","distance":16.784850640899,"lon":"-73.310815","lat":"41.414849","theaterChainName":"Independent Chains","ticketType":"STANDARD"},{"id":"6057","tribuneTheaterId":"11464","providerTheaterId":"","name":"Picture Show at Berlin","address":"19 Frontage Road","city":"Kensington","state":"CT","zip":"06037","distance":17.988030817601,"lon":"-72.742883","lat":"41.629182","theaterChainName":"Picture Show Entertainment","ticketType":"STANDARD"},{"id":"287","tribuneTheaterId":"7309","providerTheaterId":"","name":"Starplex Berlin 12","address":"19 Frontage Rd","city":"Berlin","state":"CT","zip":"06037","distance":17.988030817601,"lon":"-72.742883","lat":"41.629182","theaterChainName":"Starplex Cinemas","ticketType":"STANDARD"},{"id":"5733","tribuneTheaterId":"11175","providerTheaterId":"","name":"Cinemark North Haven","address":"550 Universal Drive","city":"North Haven","state":"CT","zip":"06473","distance":19.555024111017,"lon":"-72.8719","lat":"41.3584","theaterChainName":"Cinemark","ticketType":"STANDARD"},{"id":"2907","tribuneTheaterId":"5984","providerTheaterId":"","name":"Simsbury","address":"530 Bushy Hill Road","city":"Simsbury","state":"CT","zip":"06070","distance":19.562730630905,"lon":"-72.863399","lat":"41.819424","theaterChainName":"Hoyts","ticketType":"STANDARD"},{"id":"155","tribuneTheaterId":"8351","providerTheaterId":"2620","name":"AMC Loews Danbury 16","address":"61 Eagle Road","city":"Danbury","state":"CT","zip":"06810","distance":20.840358843647,"lon":"-73.415609","lat":"41.416189","theaterChainName":"AMC Theatres","ticketType":"STANDARD"},{"id":"5315","tribuneTheaterId":"10752","providerTheaterId":"","name":"Metro Movies 12","address":"140 Main St.","city":"Middletown","state":"CT","zip":"06457","distance":22.877952417307,"lon":"-72.646667","lat":"41.559563","theaterChainName":"Independent Chains","ticketType":"STANDARD"},{"id":"5969","tribuneTheaterId":"11405","providerTheaterId":"","name":"AMC Dine-in Holly Spring 9","address":"320 Grand Hill Place","city":"Holly Springs","state":"NC","zip":"27540","distance":22.237762201226,"lon":"-73.042795","lat":"41.911034","theaterChainName":"AMC Theatres","ticketType":"STANDARD"},{"id":"4947","tribuneTheaterId":"10302","providerTheaterId":"","name":"Cinema City at the Palace","address":"330 New Park Ave.","city":"Hartford","state":"CT","zip":"06106","distance":22.111874975426,"lon":"-72.7133","lat":"41.747","theaterChainName":"Bow-Tie Cinemas","ticketType":"STANDARD"},{"id":"3915","tribuneTheaterId":"1890","providerTheaterId":"","name":"Criterion Cinemas","address":"86 Temple Street","city":"New Haven","state":"CT","zip":"06510","distance":21.41786101727,"lon":"-72.928497","lat":"41.30468","theaterChainName":"Bow-Tie Cinemas","ticketType":"STANDARD"},{"id":"3095","tribuneTheaterId":"5888","providerTheaterId":"","name":"Palace 17 and Odyssey Theater","address":"330 New Park Ave","city":"Hartford","state":"CT","zip":"06106","distance":22.170345422531,"lon":"-72.712348","lat":"41.747464","theaterChainName":"Bow-Tie Cinemas","ticketType":"STANDARD"},{"id":"4426","tribuneTheaterId":"9497","providerTheaterId":"","name":"Cin\u00e9polis Blue Back Square","address":"42 South Main St.","city":"West Hartford","state":"CT","zip":"06107","distance":21.33122212579,"lon":"-72.74164","lat":"41.760185","theaterChainName":"Cinepolis Luxury Cinemas","ticketType":"STANDARD"},{"id":"5631","tribuneTheaterId":"11094","providerTheaterId":"","name":"Apple Cinemas Barkhamsted","address":"380 New Hartford Road","city":"Barkhamsted","state":"CT","zip":"06063","distance":22.237762201226,"lon":"-73.042795","lat":"41.911034","theaterChainName":"Independent Chains","ticketType":"STANDARD"},{"id":"882","tribuneTheaterId":"6098","providerTheaterId":"","name":"CineStudio Theatre","address":"300 Summit Street","city":"Hartford","state":"CT","zip":"06106","distance":23.106310165436,"lon":"-72.691629","lat":"41.74736","theaterChainName":"Independent Chains","ticketType":"STANDARD"},{"id":"876","tribuneTheaterId":"5157","providerTheaterId":"","name":"Real Art Ways Theatre","address":"56 Arbor St.","city":"Hartford","state":"CT","zip":"06106","distance":22.979562572138,"lon":"-72.703396","lat":"41.759394","theaterChainName":"Independent Chains","ticketType":"STANDARD"},{"id":"874","tribuneTheaterId":"5168","providerTheaterId":"","name":"Gilson Theatre","address":"354 Main Street","city":"Winsted","state":"CT","zip":"06098","distance":22.842851144543,"lon":"-73.069567","lat":"41.921244","theaterChainName":"Independent Chains","ticketType":"STANDARD"},{"id":"877","tribuneTheaterId":"6886","providerTheaterId":"","name":"Digiplex Bloomfield","address":"863 Park Ave","city":"Bloomfield","state":"CT","zip":"06002","distance":24.59380288388,"lon":"-72.735672","lat":"41.831313","theaterChainName":"Carmike Cinemas","ticketType":"STANDARD"},{"id":"5253","tribuneTheaterId":"10682","providerTheaterId":"","name":"Spotlight Theatres Front Street","address":"39 Front St.","city":"Hartford","state":"CT","zip":"06103","distance":24.580997826553,"lon":"-72.6702","lat":"41.7627","theaterChainName":"Spotlight Theatres","ticketType":"STANDARD"},{"id":"4172","tribuneTheaterId":"6012","providerTheaterId":"","name":"Connecticut Post 14 + Imax","address":"1201 Boston Post Road","city":"Milford","state":"CT","zip":"06460","distance":24.629566045331,"lon":"-73.0387","lat":"41.2363","theaterChainName":"Cinemark","ticketType":"STANDARD"}]