[{"id":"284","name":"Showcase Cinemas Bridgeport","address":"286 Canfield Ave.","city":"Bridgeport","state":"CT","zip":"06605","distance":"22.141048431396484","lon":"-73.228004","lat":"41.160984","theaterChainName":"National Amusements","ticketType":"STANDARD"},{"id":"283","name":"Fairfield Cinemas  Bullard Square","address":"40 Blackrock Turnpike","city":"Fairfield","state":"CT","zip":"06824","distance":"22.03400421142578","lon":"-73.229248","lat":"41.162220","theaterChainName":"National Amusements","ticketType":"STANDARD"},{"id":"1863","name":"Bow Tie Cinemas Marquis 16 & BTX","address":"100 Quarry Road","city":"Trumbull","state":"CT","zip":"06611","distance":"20.119169235229492","lon":"-73.184189","lat":"41.228565","theaterChainName":"Bow-Tie Cinemas","ticketType":"STANDARD"},{"id":"1866","name":"Bow Tie Cinemas Royale 6","address":"542 Westport Ave.","city":"Norwalk","state":"CT","zip":"06851","distance":"21.025436401367188","lon":"-73.384338","lat":"41.126865","theaterChainName":"Bow-Tie Cinemas","ticketType":"STANDARD"},{"id":"2399","name":"Bow Tie Cinemas SONO Regent 8","address":"64 North Main St.","city":"Norwalk","state":"CT","zip":"06854","distance":"22.499975204467773","lon":"-73.419533","lat":"41.100735","theaterChainName":"Bow-Tie Cinemas","ticketType":"STANDARD"},{"id":"216","name":"Darien Playhouse","address":"1077 Boston Post Road","city":"Darien","state":"CT","zip":"06820","distance":"24.130496978759766","lon":"-73.473579","lat":"41.074780","theaterChainName":"Independent Chains","ticketType":"STANDARD"},{"id":"3070","name":"Bow Tie Cinemas Wilton 4","address":"21 River Road","city":"Wilton","state":"CT","zip":"06897","distance":"16.27985954284668","lon":"-73.431305","lat":"41.190346","theaterChainName":"Bow-Tie Cinemas","ticketType":"STANDARD"},{"id":"2178","name":"Bow Tie Cinemas New Canaan Playhouse","address":"89 Elm St.","city":"New Canaan","state":"CT","zip":"06840","distance":"19.196199417114258","lon":"-73.494102","lat":"41.146702","theaterChainName":"Bow-Tie Cinemas","ticketType":"STANDARD"},{"id":"878","name":"Bantam Cinema","address":"115 Bantam Lake Road","city":"Bantam","state":"CT","zip":"06750","distance":"23.84869384765625","lon":"-73.235733","lat":"41.720627","theaterChainName":"Independent Chains","ticketType":"STANDARD"},{"id":"1246","name":"Bank Street Theatre","address":"46 Bank Street","city":"New Milford","state":"CT","zip":"06776","distance":"11.039151191711426","lon":"-73.412254","lat":"41.577454","theaterChainName":"Independent Chains","ticketType":"STANDARD"},{"id":"883","name":"Regal Brass Mill Stadium 12","address":"495 Union Street","city":"Waterbury","state":"CT","zip":"06705","distance":"24.65298843383789","lon":"-73.025772","lat":"41.549522","theaterChainName":"Regal Cinemas","ticketType":"STANDARD"},{"id":"2360","name":"Seymour Cinemas 12","address":"814 Derby Avenue","city":"Seymour","state":"CT","zip":"06483","distance":"19.9898624420166","lon":"-73.095322","lat":"41.360687","theaterChainName":"Boston Culinary Group","ticketType":"STANDARD"},{"id":"1242","name":"Edmond Town Hall Theatre","address":"45 Main St.","city":"Newtown","state":"CT","zip":"06470","distance":"8.355328559875488","lon":"-73.310814","lat":"41.414848","theaterChainName":"Independent Chains","ticketType":"STANDARD"},{"id":"155","name":"AMC Loews Danbury 16","address":"61 Eagle Road","city":"Danbury","state":"CT","zip":"06810","distance":"2.9510176181793213","lon":"-73.415611","lat":"41.416187","theaterChainName":"AMC Theatres","ticketType":"STANDARD"},{"id":"5604","name":"Prospector Theater","address":"25 Prospect St","city":"Ridgefield","state":"CT","zip":"06877","distance":"9.78741455078125","lon":"-73.497070","lat":"41.283649","theaterChainName":"Independent Chains","ticketType":"STANDARD"},{"id":"3549","name":"Empire Southeast Towne Center","address":"Route 22 ","city":"Brewster","state":"NY","zip":"10509","distance":"5.474750995635986","lon":"-73.577103","lat":"41.428501","theaterChainName":"Garden Homes Cinemas","ticketType":"STANDARD"},{"id":"3067","name":"Carmel Movieplex 8","address":"150 Route 52","city":"Carmel","state":"NY","zip":"10512","distance":"10.798985481262207","lon":"-73.679596","lat":"41.434280","theaterChainName":"Independent Chains","ticketType":"STANDARD"},{"id":"1530","name":"Bow Tie Cinemas Mt Kisco Cinemas ","address":"144 Main St.","city":"Mount Kisco","state":"NY","zip":"10549","distance":"20.132091522216797","lon":"-73.727432","lat":"41.204987","theaterChainName":"Bow-Tie Cinemas","ticketType":"STANDARD"},{"id":"873","name":"UA Cortlandt Town Center Stadium 11","address":"3131 E. Main St.","city":"Mohegan Lake","state":"NY","zip":"10547","distance":"22.027605056762695","lon":"-73.868340","lat":"41.310097","theaterChainName":"United Artists","ticketType":"STANDARD"},{"id":"1523","name":"Regal Fishkill 10","address":"2400 Rt. 9","city":"Fishkill","state":"NY","zip":"12524","distance":"23.04470443725586","lon":"-73.896057","lat":"41.524448","theaterChainName":"Regal Cinemas","ticketType":"STANDARD"}]