[{"id":"1542","tribuneTheaterId":"5885","providerTheaterId":"","name":"Bow Tie Cinemas Landmark 9 Stamford","address":"5 Landmark Square","city":"Stamford","state":"CT","zip":"06905","distance":0.11071370803155,"lon":"-73.537545","lat":"41.054745","theaterChainName":"Bow-Tie Cinemas","ticketType":"STANDARD"},{"id":"1541","tribuneTheaterId":"5882","providerTheaterId":"","name":"Bow Tie Cinemas Majestic 6","address":"118 Summer St.","city":"Stamford","state":"CT","zip":"06901","distance":0.12913356899472,"lon":"-73.540846","lat":"41.054335","theaterChainName":"Bow-Tie Cinemas","ticketType":"STANDARD"},{"id":"2141","tribuneTheaterId":"5004","providerTheaterId":"","name":"Avon Theatre Film Center, Inc.","address":"272 Bedford Street","city":"Stamford","state":"CT","zip":"06901","distance":0.25883668340268,"lon":"-73.538268","lat":"41.057132","theaterChainName":"Independent Chains","ticketType":"STANDARD"},{"id":"216","tribuneTheaterId":"2664","providerTheaterId":"","name":"Darien Playhouse","address":"1077 Boston Post Road","city":"Darien","state":"CT","zip":"06820","distance":3.7000555600076,"lon":"-73.473581","lat":"41.074781","theaterChainName":"Independent Chains","ticketType":"STANDARD"},{"id":"1346","tribuneTheaterId":"5881","providerTheaterId":"","name":"Bow Tie Cinemas Plaza 3","address":"2 Railroad Ave.","city":"Greenwich","state":"CT","zip":"06830","distance":5.008250371194,"lon":"-73.624985","lat":"41.021489","theaterChainName":"Bow-Tie Cinemas","ticketType":"STANDARD"},{"id":"2399","tribuneTheaterId":"5884","providerTheaterId":"","name":"Bow Tie Cinemas SONO Regent 8","address":"64 North Main St.","city":"Norwalk","state":"CT","zip":"06854","distance":7.0154901613337,"lon":"-73.419536","lat":"41.100733","theaterChainName":"Bow-Tie Cinemas","ticketType":"STANDARD"},{"id":"3888","tribuneTheaterId":"9150","providerTheaterId":"2680","name":"AMC Loews Port Chester 14","address":"40 Westchester Ave.","city":"Port Chester","state":"NY","zip":"10573","distance":7.4367661397702,"lon":"-73.662394","lat":"40.99976","theaterChainName":"AMC Theatres","ticketType":"STANDARD"},{"id":"2178","tribuneTheaterId":"5880","providerTheaterId":"","name":"Bow Tie Cinemas New Canaan Playhouse","address":"89 Elm St.","city":"New Canaan","state":"CT","zip":"06840","distance":6.8518987166621,"lon":"-73.4941","lat":"41.1467","theaterChainName":"Bow-Tie Cinemas","ticketType":"STANDARD"},{"id":"1866","tribuneTheaterId":"5883","providerTheaterId":"","name":"Bow Tie Cinemas Royale 6","address":"542 Westport Ave.","city":"Norwalk","state":"CT","zip":"06851","distance":9.5067700425963,"lon":"-73.384337","lat":"41.126864","theaterChainName":"Bow-Tie Cinemas","ticketType":"STANDARD"},{"id":"3070","tribuneTheaterId":"6933","providerTheaterId":"","name":"Bow Tie Cinemas Wilton 4","address":"21 River Road","city":"Wilton","state":"CT","zip":"06897","distance":10.989796393775,"lon":"-73.431308","lat":"41.190347","theaterChainName":"Bow-Tie Cinemas","ticketType":"STANDARD"},{"id":"3658","tribuneTheaterId":"8684","providerTheaterId":"","name":"City Center 15: Cinema de Lux","address":"19 Mamaroneck Ave.","city":"White Plains","state":"NY","zip":"10601","distance":11.919797060703,"lon":"-73.765699","lat":"41.032177","theaterChainName":"National Amusements","ticketType":"STANDARD"},{"id":"119","tribuneTheaterId":"7932","providerTheaterId":"","name":"Bow Tie Cinemas Mamaroneck 4","address":"243 Mamaroneck Ave.","city":"Mamaroneck","state":"NY","zip":"10543","distance":12.411778731917,"lon":"-73.733869","lat":"40.950565","theaterChainName":"Bow-Tie Cinemas","ticketType":"STANDARD"},{"id":"175","tribuneTheaterId":"7055","providerTheaterId":"2162","name":"AMC Loews Shore 8","address":"37 Wall St.","city":"Huntington","state":"NY","zip":"11743","distance":13.760654565276,"lon":"-73.427811","lat":"40.872698","theaterChainName":"AMC Theatres","ticketType":"STANDARD"},{"id":"1530","tribuneTheaterId":"5911","providerTheaterId":"","name":"Bow Tie Cinemas Mt Kisco Cinemas ","address":"144 Main St.","city":"Mount Kisco","state":"NY","zip":"10549","distance":14.358745846011,"lon":"-73.727436","lat":"41.204985","theaterChainName":"Bow-Tie Cinemas","ticketType":"STANDARD"},{"id":"172","tribuneTheaterId":"6737","providerTheaterId":"","name":"Glen Cove 6","address":"5 School St.","city":"Glen Cove","state":"NY","zip":"11542","distance":13.826132593332,"lon":"-73.631541","lat":"40.865976","theaterChainName":"Independent Chains","ticketType":"STANDARD"},{"id":"118","tribuneTheaterId":"7464","providerTheaterId":"","name":"Bow Tie Cinemas Larchmont Playhouse","address":"1975 Palmer Ave.","city":"Larchmont","state":"NY","zip":"10538","distance":14.345733049557,"lon":"-73.760999","lat":"40.931106","theaterChainName":"Bow-Tie Cinemas","ticketType":"STANDARD"},{"id":"2858","tribuneTheaterId":"9162","providerTheaterId":"","name":"Greenburgh Multiplex Cinemas","address":"320 Saw Mill River Road","city":"Elmsford","state":"NY","zip":"10523","distance":14.302185025629,"lon":"-73.812702","lat":"41.066165","theaterChainName":"National Amusements","ticketType":"STANDARD"},{"id":"1529","tribuneTheaterId":"8677","providerTheaterId":"","name":"Bow Tie Cinemas Cinema 100","address":"93 Knollwood Road","city":"White Plains","state":"NY","zip":"10607","distance":14.082094499664,"lon":"-73.8082","lat":"41.0383","theaterChainName":"Bow-Tie Cinemas","ticketType":"STANDARD"},{"id":"3369","tribuneTheaterId":"2853","providerTheaterId":"","name":"Jacob Burns Film Center","address":"364 Manville Road","city":"Pleasantville","state":"NY","zip":"10570","distance":14.326476864174,"lon":"-73.791606","lat":"41.135049","theaterChainName":"Independent Chains","ticketType":"STANDARD"},{"id":"2584","tribuneTheaterId":"7575","providerTheaterId":"","name":"Regal New Roc Stadium 18 + IMAX","address":"33 Le Count Place","city":"New Rochelle","state":"NY","zip":"10801","distance":15.916495096991,"lon":"-73.779566","lat":"40.911964","theaterChainName":"Regal Cinemas","ticketType":"STANDARD"},{"id":"5208","tribuneTheaterId":"10632","providerTheaterId":"","name":"Alamo Drafthouse Yonkers","address":"2548 Central Park Ave","city":"Yonkers","state":"NY","zip":"10710","distance":15.684903093077,"lon":"-73.824543","lat":"40.982545","theaterChainName":"Alamo Drafthouse","ticketType":"STANDARD"},{"id":"5319","tribuneTheaterId":"10756","providerTheaterId":"","name":"Soundview Cinemas","address":"7 Soundview Marketplace","city":"Port Washington","state":"NY","zip":"11050","distance":16.985534120601,"lon":"-73.705902","lat":"40.842483","theaterChainName":"Independent Chains","ticketType":"STANDARD"},{"id":"5604","tribuneTheaterId":"11060","providerTheaterId":"","name":"Prospector Theater","address":"25 Prospect St","city":"Ridgefield","state":"CT","zip":"06877","distance":16.055255644876,"lon":"-73.497072","lat":"41.283648","theaterChainName":"Independent Chains","ticketType":"STANDARD"},{"id":"5044","tribuneTheaterId":"10421","providerTheaterId":"","name":"Showcase Cinema de Lux Ridge Hill","address":"29 Fitzgerald St.","city":"Yonkers","state":"NY","zip":"10710","distance":17.108730328593,"lon":"-73.844398","lat":"40.963402","theaterChainName":"National Amusements","ticketType":"STANDARD"},{"id":"1139","tribuneTheaterId":"5912","providerTheaterId":"","name":"Bow Tie Cinemas Port Washington","address":"116 Main St.","city":"Port Washington","state":"NY","zip":"11050","distance":17.337177459999,"lon":"-73.690683","lat":"40.830279","theaterChainName":"Bow-Tie Cinemas","ticketType":"STANDARD"},{"id":"283","tribuneTheaterId":"7621","providerTheaterId":"","name":"Fairfield Cinemas  Bullard Square","address":"40 Blackrock Turnpike","city":"Fairfield","state":"CT","zip":"06824","distance":17.778202619989,"lon":"-73.229249","lat":"41.162221","theaterChainName":"National Amusements","ticketType":"STANDARD"},{"id":"117","tribuneTheaterId":"7034","providerTheaterId":"","name":"Bow Tie Cinemas Bronxville 3","address":"84 Kraft Ave.","city":"Bronxville","state":"NY","zip":"10708","distance":17.290013255584,"lon":"-73.834434","lat":"40.940259","theaterChainName":"Bow-Tie Cinemas","ticketType":"STANDARD"},{"id":"1144","tribuneTheaterId":"5910","providerTheaterId":"","name":"Bow Tie Roslyn Cinemas","address":"20 Tower Place","city":"Roslyn","state":"NY","zip":"11576","distance":18.461173984974,"lon":"-73.650183","lat":"40.799832","theaterChainName":"Bow-Tie Cinemas","ticketType":"STANDARD"},{"id":"282","tribuneTheaterId":"9218","providerTheaterId":"","name":"Cross County Multiplex Cinemas","address":"2 South Drive","city":"Yonkers","state":"NY","zip":"10704","distance":18.710580412035,"lon":"-73.854443","lat":"40.924828","theaterChainName":"National Amusements","ticketType":"STANDARD"},{"id":"1174","tribuneTheaterId":"6463","providerTheaterId":"","name":"Elwood Cinema","address":"1950 East Jericho Turnpike","city":"East Northport","state":"NY","zip":"11731","distance":18.432689884187,"lon":"-73.330967","lat":"40.837642","theaterChainName":"Independent Chains","ticketType":"STANDARD"},{"id":"1178","tribuneTheaterId":"2465","providerTheaterId":"","name":"Pelham Picture House","address":"175 Wolfs Lane","city":"Pelham","state":"NY","zip":"10803","distance":17.440384568697,"lon":"-73.811375","lat":"40.907318","theaterChainName":"Independent Chains","ticketType":"STANDARD"},{"id":"284","tribuneTheaterId":"7478","providerTheaterId":"","name":"Showcase Cinemas Bridgeport","address":"286 Canfield Ave.","city":"Bridgeport","state":"CT","zip":"06605","distance":17.801359639801,"lon":"-73.228002","lat":"41.160985","theaterChainName":"National Amusements","ticketType":"STANDARD"},{"id":"319","tribuneTheaterId":"6014","providerTheaterId":"","name":"Broadway Multiplex Cinemas","address":"955 Broadway Mall","city":"Hicksville","state":"NY","zip":"11801","distance":19.288296676844,"lon":"-73.533103","lat":"40.774269","theaterChainName":"National Amusements","ticketType":"STANDARD"},{"id":"562","tribuneTheaterId":"7336","providerTheaterId":"866","name":"AMC Bay Plaza Cinema 13","address":"2210 Bartow Ave.","city":"Bronx","state":"NY","zip":"10475","distance":19.729567807268,"lon":"-73.825142","lat":"40.866991","theaterChainName":"AMC Theatres","ticketType":"STANDARD"},{"id":"2819","tribuneTheaterId":"8058","providerTheaterId":"","name":"UA Westbury Stadium 12 & IMAX","address":"7000 Brush Hollow Road","city":"Westbury","state":"NY","zip":"11590","distance":19.036263930953,"lon":"-73.555972","lat":"40.778194","theaterChainName":"United Artists","ticketType":"STANDARD"},{"id":"107","tribuneTheaterId":"7463","providerTheaterId":"","name":"Bow Tie Cinemas Manhasset 3","address":"430 Plandome Road","city":"Manhasset","state":"NY","zip":"11030","distance":19.521842494257,"lon":"-73.699942","lat":"40.798471","theaterChainName":"Bow-Tie Cinemas","ticketType":"STANDARD"},{"id":"1145","tribuneTheaterId":"5913","providerTheaterId":"","name":"Bow Tie Squire Cinemas","address":"115 Middle Neck Rd.","city":"Great Neck","state":"NY","zip":"11021","distance":20.774297561746,"lon":"-73.730058","lat":"40.789779","theaterChainName":"Bow-Tie Cinemas","ticketType":"STANDARD"},{"id":"1131","tribuneTheaterId":"5892","providerTheaterId":"","name":"Bow Tie Cinemas Closter Cinema 4","address":"130 Closter Plaza","city":"Closter","state":"NJ","zip":"07624","distance":22.479318515727,"lon":"-73.954967","lat":"40.968623","theaterChainName":"Bow-Tie Cinemas","ticketType":"STANDARD"},{"id":"154","tribuneTheaterId":"7952","providerTheaterId":"2144","name":"AMC Loews Roosevelt Field 8","address":"630 Old Country Road","city":"Garden City","state":"NY","zip":"11530","distance":22.03858311864,"lon":"-73.615179","lat":"40.739714","theaterChainName":"AMC Theatres","ticketType":"STANDARD"},{"id":"1134","tribuneTheaterId":"6934","providerTheaterId":"","name":"Bow Tie Cinemas Herricks Cinema","address":"3324 Hillside Ave.","city":"New Hyde Park","state":"NY","zip":"11040","distance":21.734579867605,"lon":"-73.660334","lat":"40.752565","theaterChainName":"Bow-Tie Cinemas","ticketType":"STANDARD"},{"id":"152","tribuneTheaterId":"8451","providerTheaterId":"2130","name":"AMC Loews Bay Terrace 6","address":"211-01  26th Ave.","city":"Bayside","state":"NY","zip":"11360","distance":22.734724821243,"lon":"-73.778963","lat":"40.77898","theaterChainName":"AMC Theatres","ticketType":"STANDARD"},{"id":"321","tribuneTheaterId":"6016","providerTheaterId":"","name":"Farmingdale Multiplex Cinemas","address":"1001 Broad Hollow Road","city":"Farmingdale","state":"NY","zip":"11735","distance":22.62562452306,"lon":"-73.42154","lat":"40.738138","theaterChainName":"National Amusements","ticketType":"STANDARD"},{"id":"166","tribuneTheaterId":"8686","providerTheaterId":"2146","name":"AMC Loews Raceway 10","address":"1025 Corporate Drive","city":"Westbury","state":"NY","zip":"11590","distance":21.699943639962,"lon":"-73.596468","lat":"40.742383","theaterChainName":"AMC Theatres","ticketType":"STANDARD"},{"id":"771","tribuneTheaterId":"8756","providerTheaterId":"2729","name":"AMC Loews Palisades Center 21","address":"4403 Palisades Center Drive","city":"West Nyack","state":"NY","zip":"10994","distance":21.975438955935,"lon":"-73.956485","lat":"41.097772","theaterChainName":"AMC Theatres","ticketType":"STANDARD"},{"id":"1863","tribuneTheaterId":"5887","providerTheaterId":"","name":"Bow Tie Cinemas Marquis 16 & BTX","address":"100 Quarry Road","city":"Trumbull","state":"CT","zip":"06611","distance":22.062253200674,"lon":"-73.184191","lat":"41.228564","theaterChainName":"Bow-Tie Cinemas","ticketType":"STANDARD"},{"id":"1147","tribuneTheaterId":"5894","providerTheaterId":"","name":"Bow Tie Cinemas Tenafly Cinema 4","address":"4 1\/2 W. Railroad Ave.","city":"Tenafly","state":"NJ","zip":"07670","distance":23.968474983622,"lon":"-73.965162","lat":"40.924117","theaterChainName":"Bow-Tie Cinemas","ticketType":"STANDARD"},{"id":"109","tribuneTheaterId":"8449","providerTheaterId":"","name":"Movieworld At Douglaston","address":"242-02 61st Ave.","city":"Douglaston","state":"NY","zip":"11362","distance":23.135488467633,"lon":"-73.738934","lat":"40.754707","theaterChainName":"Independent Chains","ticketType":"STANDARD"},{"id":"153","tribuneTheaterId":"8982","providerTheaterId":"2141","name":"AMC Loews Nassau Metroplex 10","address":"3585 Hempstead Tpke.","city":"Levittown","state":"NY","zip":"11756","distance":22.64389651878,"lon":"-73.506059","lat":"40.726601","theaterChainName":"AMC Theatres","ticketType":"STANDARD"},{"id":"2460","tribuneTheaterId":"9245","providerTheaterId":"","name":"College Point Multiplex Cinemas","address":"2855 Ulmer St.","city":"Whitestone","state":"NY","zip":"11357","distance":24.865221844172,"lon":"-73.835206","lat":"40.771789","theaterChainName":"National Amusements","ticketType":"STANDARD"},{"id":"1494","tribuneTheaterId":"5901","providerTheaterId":"","name":"Bow Tie Cinemas New City Cinema 6","address":"202 S. Main St.","city":"New City","state":"NY","zip":"10956","distance":24.192095319015,"lon":"-73.989025","lat":"41.139576","theaterChainName":"Bow-Tie Cinemas","ticketType":"STANDARD"},{"id":"4554","tribuneTheaterId":"9692","providerTheaterId":"","name":"Regal Deer Park Stadium 16 & IMAX","address":"1050 Commack Road","city":"Deer Park","state":"NY","zip":"11729","distance":23.333183521024,"lon":"-73.305787","lat":"40.765197","theaterChainName":"Regal Cinemas","ticketType":"STANDARD"},{"id":"1044","tribuneTheaterId":"7587","providerTheaterId":"","name":"UA Farmingdale Stadium 10","address":"20 Michael Avenue","city":"Farmingdale","state":"NY","zip":"11735","distance":23.276819912714,"lon":"-73.425788","lat":"40.727503","theaterChainName":"United Artists","ticketType":"STANDARD"},{"id":"1132","tribuneTheaterId":"5914","providerTheaterId":"","name":"Bow Tie Cinemas Franklin Square","address":"989 Hempstead Turnpike","city":"Franklin Square","state":"NY","zip":"11010","distance":24.97700140939,"lon":"-73.676787","lat":"40.707308","theaterChainName":"Bow-Tie Cinemas","ticketType":"STANDARD"},{"id":"873","tribuneTheaterId":"7904","providerTheaterId":"","name":"UA Cortlandt Town Center Stadium 11","address":"3131 E. Main St.","city":"Mohegan Lake","state":"NY","zip":"10547","distance":24.665706113689,"lon":"-73.868339","lat":"41.310095","theaterChainName":"United Artists","ticketType":"STANDARD"},{"id":"2076","tribuneTheaterId":"8239","providerTheaterId":"2140","name":"AMC Loews Stony Brook 17","address":"2196 Nesconset Highway","city":"Stony Brook","state":"NY","zip":"11790","distance":24.769061858711,"lon":"-73.126652","lat":"40.875348","theaterChainName":"AMC Theatres","ticketType":"STANDARD"}]