[{"id":"179","tribuneTheaterId":"8442","providerTheaterId":"","name":"Bow Tie Cinemas Warner Quad","address":"190 E. Ridgewood Ave.","city":"Ridgewood","state":"NJ","zip":"07450","distance":0.24975613990828,"lon":"-74.115486","lat":"40.978866","theaterChainName":"Bow-Tie Cinemas","ticketType":"STANDARD"},{"id":"1173","tribuneTheaterId":"2934","providerTheaterId":"","name":"Hawthorne 5","address":"300 Lafayette Ave.","city":"Hawthorne","state":"NJ","zip":"07506","distance":3.1977050533238,"lon":"-74.155383","lat":"40.948496","theaterChainName":"Independent Chains","ticketType":"STANDARD"},{"id":"6036","tribuneTheaterId":"11440","providerTheaterId":"","name":"Washington Township Cinemas","address":"249 Pascack Road","city":"Washington Township","state":"NJ","zip":"07676","distance":2.6098896822879,"lon":"-74.0632","lat":"40.9848","theaterChainName":"Independent Chains","ticketType":"STANDARD"},{"id":"4888","tribuneTheaterId":"10198","providerTheaterId":"","name":"Fabian 8 Cinema","address":"301 Main St.","city":"Paterson","state":"NJ","zip":"07505","distance":5.6064985579967,"lon":"-74.173374","lat":"40.91483","theaterChainName":"Independent Chains","ticketType":"STANDARD"},{"id":"4336","tribuneTheaterId":"9312","providerTheaterId":"2253","name":"AMC Garden State 16","address":"4000 Garden State Plaza","city":"Paramus","state":"NJ","zip":"07652","distance":4.7895771232759,"lon":"-74.075962","lat":"40.918608","theaterChainName":"AMC Theatres","ticketType":"STANDARD"},{"id":"160","tribuneTheaterId":"3900","providerTheaterId":"","name":"Westwood Theaters","address":"182 Center Ave.","city":"Westwood","state":"NJ","zip":"07675","distance":4.2977433445106,"lon":"-74.031568","lat":"40.991013","theaterChainName":"Independent Chains","ticketType":"STANDARD"},{"id":"1766","tribuneTheaterId":"5899","providerTheaterId":"","name":"Bow Tie Cinemas Bergenfield 5 ","address":"58 S Washington Ave.","city":"Bergenfield","state":"NJ","zip":"07621","distance":7.2022773422378,"lon":"-73.996778","lat":"40.925891","theaterChainName":"Bow-Tie Cinemas","ticketType":"STANDARD"},{"id":"407","tribuneTheaterId":"8608","providerTheaterId":"","name":"Bow Tie Cinemas Wayne Preakness","address":"1220 Hamburg Tpk.","city":"Wayne","state":"NJ","zip":"07470","distance":6.9876623169248,"lon":"-74.244297","lat":"40.961615","theaterChainName":"Bow-Tie Cinemas","ticketType":"STANDARD"},{"id":"1131","tribuneTheaterId":"5892","providerTheaterId":"","name":"Bow Tie Cinemas Closter Cinema 4","address":"130 Closter Plaza","city":"Closter","state":"NJ","zip":"07624","distance":8.3006097923038,"lon":"-73.954967","lat":"40.968623","theaterChainName":"Bow-Tie Cinemas","ticketType":"STANDARD"},{"id":"5393","tribuneTheaterId":"10830","providerTheaterId":"","name":"Regal Nanuet Mall Stadium 12 & RPX","address":"6201 Fashion Dr.","city":"Nanuet","state":"NY","zip":"10954","distance":9.4904213478236,"lon":"-74.015154","lat":"41.097798","theaterChainName":"Regal Cinemas","ticketType":"STANDARD"},{"id":"1495","tribuneTheaterId":"2498","providerTheaterId":"","name":"Lafayette Theatre","address":"97 Lafayette Ave.","city":"Suffern","state":"NY","zip":"10901","distance":9.3964183161572,"lon":"-74.15035","lat":"41.115063","theaterChainName":"Boston Culinary Group","ticketType":"STANDARD"},{"id":"138","tribuneTheaterId":"7954","providerTheaterId":"2176","name":"AMC Loews Wayne 14","address":"67 Willowbrook Blvd.","city":"Wayne","state":"NJ","zip":"07470","distance":9.6549548698486,"lon":"-74.250337","lat":"40.888309","theaterChainName":"AMC Theatres","ticketType":"STANDARD"},{"id":"1147","tribuneTheaterId":"5894","providerTheaterId":"","name":"Bow Tie Cinemas Tenafly Cinema 4","address":"4 1\/2 W. Railroad Ave.","city":"Tenafly","state":"NJ","zip":"07670","distance":8.6942225924473,"lon":"-73.965162","lat":"40.924117","theaterChainName":"Bow-Tie Cinemas","ticketType":"STANDARD"},{"id":"5401","tribuneTheaterId":"10839","providerTheaterId":"","name":"Starplex Cinemas Ridgefield Park","address":"75 Challenger Road","city":"Ridgefield Park","state":"NJ","zip":"07660","distance":10.506678925579,"lon":"-74.012552","lat":"40.850278","theaterChainName":"Starplex Cinemas","ticketType":"STANDARD"},{"id":"2573","tribuneTheaterId":"5324","providerTheaterId":"865","name":"AMC Clifton Commons 16","address":"405 Route 3 East","city":"Clifton","state":"NJ","zip":"07014","distance":10.679398450542,"lon":"-74.140356","lat":"40.828814","theaterChainName":"AMC Theatres","ticketType":"STANDARD"},{"id":"5357","tribuneTheaterId":"10795","providerTheaterId":"","name":"Allwood Cinemas 6","address":"96 Market St.","city":"Clifton","state":"NJ","zip":"07011","distance":9.7492872646629,"lon":"-74.16208","lat":"40.845838","theaterChainName":"Independent Chains","ticketType":"STANDARD"},{"id":"1184","tribuneTheaterId":"2813","providerTheaterId":"","name":"Williams Center Cinemas 3","address":"1 Williams Plaza","city":"Rutherford","state":"NJ","zip":"07070","distance":10.708682348037,"lon":"-74.103255","lat":"40.82719","theaterChainName":"Independent Chains","ticketType":"STANDARD"},{"id":"122","tribuneTheaterId":"7299","providerTheaterId":"","name":"Bow Tie Cinemas Bellevue 4","address":"260 Bellevue Ave.","city":"Upper Montclair","state":"NJ","zip":"07043","distance":10.939010632031,"lon":"-74.208932","lat":"40.841213","theaterChainName":"Bow-Tie Cinemas","ticketType":"STANDARD"},{"id":"771","tribuneTheaterId":"8756","providerTheaterId":"2729","name":"AMC Loews Palisades Center 21","address":"4403 Palisades Center Drive","city":"West Nyack","state":"NY","zip":"10994","distance":11.428038974124,"lon":"-73.956485","lat":"41.097772","theaterChainName":"AMC Theatres","ticketType":"STANDARD"},{"id":"1494","tribuneTheaterId":"5901","providerTheaterId":"","name":"Bow Tie Cinemas New City Cinema 6","address":"202 S. Main St.","city":"New City","state":"NY","zip":"10956","distance":12.661724330699,"lon":"-73.989025","lat":"41.139576","theaterChainName":"Bow-Tie Cinemas","ticketType":"STANDARD"},{"id":"3103","tribuneTheaterId":"7174","providerTheaterId":"","name":"Edgewater Multiplex Cinemas","address":"339 River Road","city":"Edgewater","state":"NJ","zip":"07020","distance":13.678325852402,"lon":"-73.988109","lat":"40.808032","theaterChainName":"National Amusements","ticketType":"STANDARD"},{"id":"1779","tribuneTheaterId":"5905","providerTheaterId":"","name":"Bow Tie Cinemas Kinnelon 11","address":"25 Kinnelon Road","city":"Kinnelon","state":"NJ","zip":"07405","distance":13.008339858291,"lon":"-74.360989","lat":"41.002926","theaterChainName":"Bow-Tie Cinemas","ticketType":"STANDARD"},{"id":"4804","tribuneTheaterId":"10061","providerTheaterId":"","name":"Secaucus ShowPlace 14","address":"650 Plaza Drive","city":"Secaucus","state":"NJ","zip":"07094","distance":13.96454890731,"lon":"-74.0463","lat":"40.7863","theaterChainName":"Kerasotes","ticketType":"STANDARD"},{"id":"6041","tribuneTheaterId":"11445","providerTheaterId":"","name":"Kinnelon Cinemas","address":"25 Kinnelon Rd","city":"Kinnelon","state":"NJ","zip":"07405","distance":13.007802978549,"lon":"-74.360996","lat":"41.002807","theaterChainName":"Independent Chains","ticketType":"STANDARD"},{"id":"2982","tribuneTheaterId":"5896","providerTheaterId":"","name":"Bow Tie Cinemas Caldwell Cinema 4","address":"315 Bloomfield Ave.","city":"Caldwell","state":"NJ","zip":"07006","distance":13.000792419662,"lon":"-74.275821","lat":"40.839582","theaterChainName":"Bow-Tie Cinemas","ticketType":"STANDARD"},{"id":"1130","tribuneTheaterId":"5898","providerTheaterId":"","name":"Bow Tie Cinemas Clairidge Cinemas","address":"486 Bloomfield Ave.","city":"Montclair","state":"NJ","zip":"07042","distance":12.823071693891,"lon":"-74.218349","lat":"40.814325","theaterChainName":"Bow-Tie Cinemas","ticketType":"STANDARD"},{"id":"3235","tribuneTheaterId":"5871","providerTheaterId":"","name":"Columbia Park Stadium 12","address":"3125 Kennedy Blvd.","city":"North Bergen","state":"NJ","zip":"07047","distance":14.827250003612,"lon":"-74.035916","lat":"40.77549","theaterChainName":"Independent Chains","ticketType":"STANDARD"},{"id":"3044","tribuneTheaterId":"9040","providerTheaterId":"2304","name":"AMC Magic Johnson Harlem 9","address":"2309 Frederick Douglass Blvd.","city":"New York","state":"NY","zip":"10027","distance":14.585503406331,"lon":"-73.951791","lat":"40.809678","theaterChainName":"AMC Theatres","ticketType":"STANDARD"},{"id":"1932","tribuneTheaterId":"2993","providerTheaterId":"","name":"Lincoln Cinemas","address":"838 Kearny Ave.","city":"North Arlington","state":"NJ","zip":"07031","distance":13.976276456751,"lon":"-74.139232","lat":"40.780686","theaterChainName":"Independent Chains","ticketType":"STANDARD"},{"id":"320","tribuneTheaterId":"6015","providerTheaterId":"","name":"Concourse Plaza Multiplex Cinemas","address":"214 E. 161st St.","city":"Bronx","state":"NY","zip":"10451","distance":14.718965840742,"lon":"-73.920736","lat":"40.826296","theaterChainName":"National Amusements","ticketType":"STANDARD"},{"id":"282","tribuneTheaterId":"9218","providerTheaterId":"","name":"Cross County Multiplex Cinemas","address":"2 South Drive","city":"Yonkers","state":"NY","zip":"10704","distance":14.063459901572,"lon":"-73.854443","lat":"40.924828","theaterChainName":"National Amusements","ticketType":"STANDARD"},{"id":"575","tribuneTheaterId":"8099","providerTheaterId":"","name":"Film Society of Lincoln Center's Walter Reade Theater","address":"165 W. 65th St.","city":"New York","state":"NY","zip":"10023","distance":15.915565014608,"lon":"-73.983597","lat":"40.773499","theaterChainName":"Independent Chains","ticketType":"STANDARD"},{"id":"5064","tribuneTheaterId":"10447","providerTheaterId":"","name":"Film Society of Lincoln Center","address":"144 W 65th St.","city":"New York","state":"NY","zip":"10023","distance":15.915565014608,"lon":"-73.983597","lat":"40.773499","theaterChainName":"Independent Chains","ticketType":"STANDARD"},{"id":"5208","tribuneTheaterId":"10632","providerTheaterId":"","name":"Alamo Drafthouse Yonkers","address":"2548 Central Park Ave","city":"Yonkers","state":"NY","zip":"10710","distance":15.05100026594,"lon":"-73.824543","lat":"40.982545","theaterChainName":"Alamo Drafthouse","ticketType":"STANDARD"},{"id":"117","tribuneTheaterId":"7034","providerTheaterId":"","name":"Bow Tie Cinemas Bronxville 3","address":"84 Kraft Ave.","city":"Bronxville","state":"NY","zip":"10708","distance":14.822973718947,"lon":"-73.834434","lat":"40.940259","theaterChainName":"Bow-Tie Cinemas","ticketType":"STANDARD"},{"id":"5044","tribuneTheaterId":"10421","providerTheaterId":"","name":"Showcase Cinema de Lux Ridge Hill","address":"29 Fitzgerald St.","city":"Yonkers","state":"NY","zip":"10710","distance":14.076138997002,"lon":"-73.844398","lat":"40.963402","theaterChainName":"National Amusements","ticketType":"STANDARD"},{"id":"151","tribuneTheaterId":"9062","providerTheaterId":"2116","name":"AMC Loews Lincoln Square 13","address":"1998 Broadway","city":"New York","state":"NY","zip":"10023","distance":15.867264436162,"lon":"-73.98164","lat":"40.774975","theaterChainName":"AMC Theatres","ticketType":"STANDARD"},{"id":"755","tribuneTheaterId":"7809","providerTheaterId":"","name":"AMC Essex Green Cinema 9","address":"495 Prospect Ave.","city":"West Orange","state":"NJ","zip":"07052","distance":15.038188329958,"lon":"-74.25671","lat":"40.793361","theaterChainName":"AMC Theatres","ticketType":"STANDARD"},{"id":"3442","tribuneTheaterId":"9013","providerTheaterId":"2120","name":"AMC Loews West 34th Street 14","address":"312 W. 34th St.","city":"New York","state":"NY","zip":"10001","distance":17.02610676935,"lon":"-73.994396","lat":"40.75251","theaterChainName":"AMC Theatres","ticketType":"STANDARD"},{"id":"2986","tribuneTheaterId":"7503","providerTheaterId":"552","name":"AMC Empire 25","address":"234 W. 42nd St.","city":"New York","state":"NY","zip":"10036","distance":16.877569866461,"lon":"-73.98866","lat":"40.756581","theaterChainName":"AMC Theatres","ticketType":"STANDARD"},{"id":"4601","tribuneTheaterId":"9770","providerTheaterId":"","name":"City Cinemas Beekman Theatre","address":"1271 Second Ave.","city":"New York","state":"NY","zip":"10021","distance":16.951809206374,"lon":"-73.961008","lat":"40.765277","theaterChainName":"Reading International, Inc","ticketType":"STANDARD"},{"id":"148","tribuneTheaterId":"9039","providerTheaterId":"2104","name":"AMC Loews Orpheum 7","address":"1538 Third Ave.","city":"New York","state":"NY","zip":"10028","distance":16.289328561156,"lon":"-73.953855","lat":"40.779304","theaterChainName":"AMC Theatres","ticketType":"STANDARD"},{"id":"574","tribuneTheaterId":"2976","providerTheaterId":"","name":"Lincoln Plaza Cinemas","address":"1886 Broadway","city":"New York","state":"NY","zip":"10023","distance":16.121123975849,"lon":"-73.98184","lat":"40.770837","theaterChainName":"Independent Chains","ticketType":"STANDARD"},{"id":"539","tribuneTheaterId":"2863","providerTheaterId":"","name":"City Cinemas 86th Street East","address":"210 E. 86th St.","city":"New York","state":"NY","zip":"10028","distance":16.358313410688,"lon":"-73.953339","lat":"40.778375","theaterChainName":"Reading International, Inc","ticketType":"STANDARD"},{"id":"570","tribuneTheaterId":"6648","providerTheaterId":"","name":"City Cinemas Paris Theatre","address":"4 W. 58th St.","city":"New York","state":"NY","zip":"10019","distance":16.698707103965,"lon":"-73.974713","lat":"40.764145","theaterChainName":"Reading International, Inc","ticketType":"STANDARD"},{"id":"2820","tribuneTheaterId":"9074","providerTheaterId":"","name":"Regal E-Walk Stadium 13","address":"247 W. 42nd St.","city":"New York","state":"NY","zip":"10036","distance":16.836500604554,"lon":"-73.989113","lat":"40.757082","theaterChainName":"Regal Cinemas","ticketType":"STANDARD"},{"id":"562","tribuneTheaterId":"7336","providerTheaterId":"866","name":"AMC Bay Plaza Cinema 13","address":"2210 Bartow Ave.","city":"Bronx","state":"NY","zip":"10475","distance":17.003856518952,"lon":"-73.825142","lat":"40.866991","theaterChainName":"AMC Theatres","ticketType":"STANDARD"},{"id":"1529","tribuneTheaterId":"8677","providerTheaterId":"","name":"Bow Tie Cinemas Cinema 100","address":"93 Knollwood Road","city":"White Plains","state":"NY","zip":"10607","distance":16.365688175607,"lon":"-73.8082","lat":"41.0383","theaterChainName":"Bow-Tie Cinemas","ticketType":"STANDARD"},{"id":"2858","tribuneTheaterId":"9162","providerTheaterId":"","name":"Greenburgh Multiplex Cinemas","address":"320 Saw Mill River Road","city":"Elmsford","state":"NY","zip":"10523","distance":16.703582976085,"lon":"-73.812702","lat":"41.066165","theaterChainName":"National Amusements","ticketType":"STANDARD"},{"id":"4832","tribuneTheaterId":"10108","providerTheaterId":"","name":"Bow Tie Hoboken Cinemas","address":"409-415 14th St.","city":"Hoboken","state":"NJ","zip":"07030","distance":16.301244348254,"lon":"-74.0319","lat":"40.7542","theaterChainName":"Bow-Tie Cinemas","ticketType":"STANDARD"},{"id":"1178","tribuneTheaterId":"2465","providerTheaterId":"","name":"Pelham Picture House","address":"175 Wolfs Lane","city":"Pelham","state":"NY","zip":"10803","distance":16.570642133739,"lon":"-73.811375","lat":"40.907318","theaterChainName":"Independent Chains","ticketType":"STANDARD"},{"id":"3233","tribuneTheaterId":"5712","providerTheaterId":"","name":"UA Kaufman Astoria Stadium 14","address":"35-30 38th St.","city":"Astoria","state":"NY","zip":"11101","distance":18.535323373204,"lon":"-73.923622","lat":"40.755206","theaterChainName":"United Artists","ticketType":"STANDARD"},{"id":"1609","tribuneTheaterId":"7572","providerTheaterId":"","name":"Regal Union Square Stadium 14","address":"850 Broadway","city":"New York","state":"NY","zip":"10003","distance":18.289176787123,"lon":"-73.990574","lat":"40.734049","theaterChainName":"Regal Cinemas","ticketType":"STANDARD"},{"id":"150","tribuneTheaterId":"9084","providerTheaterId":"2112","name":"AMC Loews 19th Street East 6","address":"890 Broadway","city":"New York","state":"NY","zip":"10003","distance":18.012657746618,"lon":"-73.98977","lat":"40.738557","theaterChainName":"AMC Theatres","ticketType":"STANDARD"},{"id":"2472","tribuneTheaterId":"9151","providerTheaterId":"2195","name":"AMC Loews Kips Bay 15","address":"570 Second Ave.","city":"New York","state":"NY","zip":"10016","distance":17.954084737263,"lon":"-73.9767","lat":"40.7435","theaterChainName":"AMC Theatres","ticketType":"STANDARD"},{"id":"2584","tribuneTheaterId":"7575","providerTheaterId":"","name":"Regal New Roc Stadium 18 + IMAX","address":"33 Le Count Place","city":"New Rochelle","state":"NY","zip":"10801","distance":18.066343431678,"lon":"-73.779566","lat":"40.911964","theaterChainName":"Regal Cinemas","ticketType":"STANDARD"},{"id":"4034","tribuneTheaterId":"1642","providerTheaterId":"","name":"IFC Center","address":"323 6th Ave. at W 3rd St.","city":"New York","state":"NY","zip":"10014","distance":18.287033803879,"lon":"-74.001535","lat":"40.73114","theaterChainName":"Independent Chains","ticketType":"STANDARD"},{"id":"571","tribuneTheaterId":"8448","providerTheaterId":"","name":"Cinema Village 12th Street","address":"22 E. 12th St.","city":"New York","state":"NY","zip":"10003","distance":18.235662600661,"lon":"-73.993429","lat":"40.734077","theaterChainName":"Independent Chains","ticketType":"STANDARD"},{"id":"149","tribuneTheaterId":"9112","providerTheaterId":"2110","name":"AMC Loews Village 7","address":"66 3rd Ave. (11th St.)","city":"New York","state":"NY","zip":"10003","distance":18.487502102671,"lon":"-73.988758","lat":"40.731499","theaterChainName":"AMC Theatres","ticketType":"STANDARD"},{"id":"141","tribuneTheaterId":"8531","providerTheaterId":"","name":"CityPlex 12 Newark","address":"360-394 Springfield Ave.","city":"Newark","state":"NJ","zip":"07103","distance":17.703156558411,"lon":"-74.196308","lat":"40.733628","theaterChainName":"Independent Chains","ticketType":"STANDARD"},{"id":"3232","tribuneTheaterId":"5635","providerTheaterId":"","name":"Regal Battery Park Stadium 11","address":"102 North End Ave.","city":"New York","state":"NY","zip":"10281","distance":19.156989340947,"lon":"-74.014968","lat":"40.714859","theaterChainName":"Regal Cinemas","ticketType":"STANDARD"},{"id":"3658","tribuneTheaterId":"8684","providerTheaterId":"","name":"City Center 15: Cinema de Lux","address":"19 Mamaroneck Ave.","city":"White Plains","state":"NY","zip":"10601","distance":18.442190862728,"lon":"-73.765699","lat":"41.032177","theaterChainName":"National Amusements","ticketType":"STANDARD"},{"id":"178","tribuneTheaterId":"7790","providerTheaterId":"2184","name":"AMC Loews Newport Centre 11","address":"30-300 Mall Drive W.","city":"Jersey City","state":"NJ","zip":"07303","distance":17.980290715009,"lon":"-74.038024","lat":"40.728039","theaterChainName":"AMC Theatres","ticketType":"STANDARD"},{"id":"5894","tribuneTheaterId":"11315","providerTheaterId":"","name":"Metrograph","address":"7 Ludlow St.","city":"New York","state":"NY","zip":"10002","distance":19.512304923691,"lon":"-73.991181","lat":"40.715078","theaterChainName":"Independent Chains","ticketType":"STANDARD"},{"id":"538","tribuneTheaterId":"3034","providerTheaterId":"","name":"City Cinemas Village East","address":"181-189 Second Ave.","city":"New York","state":"NY","zip":"10003","distance":18.572841348058,"lon":"-73.98617","lat":"40.73092","theaterChainName":"Reading International, Inc","ticketType":"STANDARD"},{"id":"540","tribuneTheaterId":"2975","providerTheaterId":"","name":"City Cinemas Angelika Film Center","address":"18 W. Houston St.","city":"New York","state":"NY","zip":"10012","distance":18.707171111354,"lon":"-73.997283","lat":"40.725811","theaterChainName":"Reading International, Inc","ticketType":"STANDARD"},{"id":"118","tribuneTheaterId":"7464","providerTheaterId":"","name":"Bow Tie Cinemas Larchmont Playhouse","address":"1975 Palmer Ave.","city":"Larchmont","state":"NY","zip":"10538","distance":18.706012395478,"lon":"-73.760999","lat":"40.931106","theaterChainName":"Bow-Tie Cinemas","ticketType":"STANDARD"},{"id":"140","tribuneTheaterId":"6849","providerTheaterId":"2181","name":"AMC Loews East Hanover 12","address":"145 Route 10 E.","city":"East Hanover","state":"NJ","zip":"07936","distance":18.453414963865,"lon":"-74.382162","lat":"40.808893","theaterChainName":"AMC Theatres","ticketType":"STANDARD"},{"id":"573","tribuneTheaterId":"7785","providerTheaterId":"","name":"Quad Cinema","address":"34 W. 13th St.","city":"New York","state":"NY","zip":"10011","distance":18.066323615738,"lon":"-73.996002","lat":"40.735978","theaterChainName":"Independent Chains","ticketType":"STANDARD"},{"id":"4232","tribuneTheaterId":"3065","providerTheaterId":"","name":"Hudson Cinemas","address":"701 Route 440","city":"Jersey City","state":"NJ","zip":"07304","distance":18.074547576414,"lon":"-74.096453","lat":"40.720707","theaterChainName":"Independent Chains","ticketType":"STANDARD"},{"id":"4274","tribuneTheaterId":"4919","providerTheaterId":"","name":"South Orange","address":"1 SOPAC Way","city":"South Orange","state":"NJ","zip":"07079","distance":18.048094803166,"lon":"-74.261138","lat":"40.745995","theaterChainName":"Bow-Tie Cinemas","ticketType":"STANDARD"},{"id":"1137","tribuneTheaterId":"5906","providerTheaterId":"","name":"Cin\u00e9polis Parsippany Cinema 12","address":"3165 US HWY 46","city":"Parsippany","state":"NJ","zip":"07054","distance":18.071883797026,"lon":"-74.426161","lat":"40.870358","theaterChainName":"Cinepolis Luxury Cinemas","ticketType":"STANDARD"},{"id":"1136","tribuneTheaterId":"5893","providerTheaterId":"","name":"Bow Tie Cinemas Millburn Cinemas","address":"350 Millburn Ave.","city":"Millburn","state":"NJ","zip":"07041","distance":20.546601291936,"lon":"-74.307783","lat":"40.723645","theaterChainName":"Bow-Tie Cinemas","ticketType":"STANDARD"},{"id":"2460","tribuneTheaterId":"9245","providerTheaterId":"","name":"College Point Multiplex Cinemas","address":"2855 Ulmer St.","city":"Whitestone","state":"NY","zip":"11357","distance":20.535837413625,"lon":"-73.835206","lat":"40.771789","theaterChainName":"National Amusements","ticketType":"STANDARD"},{"id":"3369","tribuneTheaterId":"2853","providerTheaterId":"","name":"Jacob Burns Film Center","address":"364 Manville Road","city":"Pleasantville","state":"NY","zip":"10570","distance":19.80831641449,"lon":"-73.791606","lat":"41.135049","theaterChainName":"Independent Chains","ticketType":"STANDARD"},{"id":"1123","tribuneTheaterId":"4076","providerTheaterId":"","name":"Maplewood Theater","address":"155 Maplewood Ave.","city":"Maplewood","state":"NJ","zip":"07040","distance":19.308529271555,"lon":"-74.276564","lat":"40.731381","theaterChainName":"Independent Chains","ticketType":"STANDARD"},{"id":"5060","tribuneTheaterId":"10443","providerTheaterId":"","name":"Nitehawk Cinema","address":"136 Metropolitan Ave.","city":"Brooklyn","state":"NY","zip":"11249","distance":19.985541269547,"lon":"-73.962506","lat":"40.716121","theaterChainName":"Independent Chains","ticketType":"STANDARD"},{"id":"5777","tribuneTheaterId":"11217","providerTheaterId":"","name":"Videology Cinema","address":"308 Bedford Ave.","city":"Brooklyn","state":"NY","zip":"11249","distance":20.143198351193,"lon":"-73.961814","lat":"40.713864","theaterChainName":"Independent Chains","ticketType":"STANDARD"},{"id":"119","tribuneTheaterId":"7932","providerTheaterId":"","name":"Bow Tie Cinemas Mamaroneck 4","address":"243 Mamaroneck Ave.","city":"Mamaroneck","state":"NY","zip":"10543","distance":19.904097122287,"lon":"-73.733869","lat":"40.950565","theaterChainName":"Bow-Tie Cinemas","ticketType":"STANDARD"},{"id":"5284","tribuneTheaterId":"10718","providerTheaterId":"","name":"Williamsburg Cinemas","address":"217 Grand St.","city":"Brooklyn","state":"NY","zip":"11211","distance":20.180392077357,"lon":"-73.9599","lat":"40.7139","theaterChainName":"Independent Chains","ticketType":"STANDARD"},{"id":"5965","tribuneTheaterId":"11401","providerTheaterId":"","name":"Syndicated","address":"40 Bogart Street","city":"Brooklyn","state":"NY","zip":"11206","distance":21.334242705162,"lon":"-73.93286","lat":"40.704962","theaterChainName":"Independent Chains","ticketType":"STANDARD"},{"id":"3234","tribuneTheaterId":"5711","providerTheaterId":"","name":"UA Court Street Stadium 12","address":"108 Court St.","city":"Brooklyn","state":"NY","zip":"11201","distance":21.10630953814,"lon":"-73.992153","lat":"40.690552","theaterChainName":"United Artists","ticketType":"STANDARD"},{"id":"4012","tribuneTheaterId":"2320","providerTheaterId":"","name":"Frank Theatres South Cove Cinema 12","address":"191 Lefante Way","city":"Bayonne","state":"NJ","zip":"07002","distance":21.690346342302,"lon":"-74.105895","lat":"40.668119","theaterChainName":"Frank Theatres","ticketType":"STANDARD"},{"id":"1126","tribuneTheaterId":"8895","providerTheaterId":"","name":"Bow Tie Cinemas Beacon Hill 5","address":"343 Springfield Ave.","city":"Summit","state":"NJ","zip":"07901","distance":22.225082712213,"lon":"-74.356468","lat":"40.718217","theaterChainName":"Bow-Tie Cinemas","ticketType":"STANDARD"},{"id":"3388","tribuneTheaterId":"9257","providerTheaterId":"2198","name":"AMC Loews Jersey Gardens 20","address":"651 Kapowski Road","city":"Elizabeth","state":"NJ","zip":"07201","distance":22.471710028046,"lon":"-74.168304","lat":"40.659457","theaterChainName":"AMC Theatres","ticketType":"STANDARD"},{"id":"1135","tribuneTheaterId":"8674","providerTheaterId":"","name":"Bow Tie Cinemas Madison Cinema 4","address":"14 Lincoln Place","city":"Madison","state":"NJ","zip":"07940","distance":22.117365318878,"lon":"-74.414723","lat":"40.757398","theaterChainName":"Bow-Tie Cinemas","ticketType":"STANDARD"},{"id":"152","tribuneTheaterId":"8451","providerTheaterId":"2130","name":"AMC Loews Bay Terrace 6","address":"211-01  26th Ave.","city":"Bayside","state":"NY","zip":"11360","distance":22.393085576962,"lon":"-73.778963","lat":"40.77898","theaterChainName":"AMC Theatres","ticketType":"STANDARD"},{"id":"2746","tribuneTheaterId":"2576","providerTheaterId":"","name":"Bam Rose Cinemas","address":"30 Lafayette Ave.","city":"Brooklyn","state":"NY","zip":"11217","distance":21.612412398881,"lon":"-73.977703","lat":"40.68645","theaterChainName":"Independent Chains","ticketType":"STANDARD"},{"id":"564","tribuneTheaterId":"6948","providerTheaterId":"","name":"Cobble Hill Cinema","address":"265 Court St.","city":"Brooklyn","state":"NY","zip":"11231","distance":21.442651213065,"lon":"-73.994512","lat":"40.68491","theaterChainName":"Cobble Hill Cinemas","ticketType":"STANDARD"},{"id":"3888","tribuneTheaterId":"9150","providerTheaterId":"2680","name":"AMC Loews Port Chester 14","address":"40 Westchester Ave.","city":"Port Chester","state":"NY","zip":"10573","distance":23.537468161382,"lon":"-73.662394","lat":"40.99976","theaterChainName":"AMC Theatres","ticketType":"STANDARD"},{"id":"110","tribuneTheaterId":"7903","providerTheaterId":"","name":"UA Midway Stadium 9","address":"108-22 Queens Blvd.","city":"Forest Hills","state":"NY","zip":"11375","distance":22.897385455871,"lon":"-73.843419","lat":"40.720823","theaterChainName":"United Artists","ticketType":"STANDARD"},{"id":"566","tribuneTheaterId":"7948","providerTheaterId":"","name":"Cinemart Cinemas","address":"106-03 Metropolitan Ave.","city":"Forest Hills","state":"NY","zip":"11375","distance":23.381910852938,"lon":"-73.846874","lat":"40.710038","theaterChainName":"Independent Chains","ticketType":"STANDARD"},{"id":"4206","tribuneTheaterId":"4646","providerTheaterId":"","name":"Regal Atlas Park Stadium 8","address":"Cooper Ave ","city":"Glendale","state":"NY","zip":"11385","distance":22.874673127088,"lon":"-73.867639","lat":"40.707906","theaterChainName":"Regal Cinemas","ticketType":"STANDARD"},{"id":"2680","tribuneTheaterId":"2955","providerTheaterId":"","name":"Kew Gardens Cinemas","address":"81-05 Lefferts Blvd.","city":"Kew Gardens","state":"NY","zip":"11415","distance":23.971157681491,"lon":"-73.829847","lat":"40.709138","theaterChainName":"Cobble Hill Cinemas","ticketType":"STANDARD"},{"id":"5730","tribuneTheaterId":"11172","providerTheaterId":"","name":"Monroe Theaters at TMACC","address":"34 Millpond Parkway","city":"Monroe","state":"NY","zip":"10950","distance":24.150105258894,"lon":"-74.1884","lat":"41.3269","theaterChainName":"Independent Chains","ticketType":"STANDARD"},{"id":"4681","tribuneTheaterId":"9885","providerTheaterId":"","name":"Phoenix Theatre Bombay","address":"6825 Fresh Meadow Lane","city":"Flushing","state":"NY","zip":"11365","distance":23.944088493342,"lon":"-73.794359","lat":"40.733047","theaterChainName":"Independent Chains","ticketType":"STANDARD"},{"id":"39","tribuneTheaterId":"6954","providerTheaterId":"2183","name":"AMC Loews Mountainside 10","address":"1021 Route 22","city":"Mountainside","state":"NJ","zip":"07092","distance":23.664646996009,"lon":"-74.335438","lat":"40.683657","theaterChainName":"AMC Theatres","ticketType":"STANDARD"},{"id":"4276","tribuneTheaterId":"4257","providerTheaterId":"2248","name":"AMC Rockaway 16","address":"363 Mount Hope Ave.","city":"Rockaway","state":"NJ","zip":"07866","distance":23.754993070534,"lon":"-74.558018","lat":"40.90941","theaterChainName":"AMC Theatres","ticketType":"STANDARD"},{"id":"1158","tribuneTheaterId":"6449","providerTheaterId":"","name":"Roberts Chatham Cinema","address":"641 Shunpike Rd.","city":"Chatham","state":"NJ","zip":"07928","distance":23.325111058844,"lon":"-74.431617","lat":"40.745481","theaterChainName":"Independent Chains","ticketType":"STANDARD"},{"id":"5419","tribuneTheaterId":"10855","providerTheaterId":"63","name":"AMC Headquarters 10","address":"72 Speedwell Ave.","city":"Morristown","state":"NJ","zip":"07960","distance":22.983050735005,"lon":"-74.481328","lat":"40.799897","theaterChainName":"AMC Theatres","ticketType":"STANDARD"},{"id":"176","tribuneTheaterId":"7947","providerTheaterId":"","name":"Digiplex Cranford","address":"25 North Ave.","city":"Cranford","state":"NJ","zip":"07016","distance":24.326221163098,"lon":"-74.299364","lat":"40.65937","theaterChainName":"Carmike Cinemas","ticketType":"STANDARD"},{"id":"169","tribuneTheaterId":"3033","providerTheaterId":"","name":"Bay Ridge Alpine Cinemas","address":"6817 Fifth Ave.","city":"Brooklyn","state":"NY","zip":"11220","distance":24.547422337081,"lon":"-74.020808","lat":"40.633656","theaterChainName":"Independent Chains","ticketType":"STANDARD"},{"id":"3445","tribuneTheaterId":"4673","providerTheaterId":"","name":"UA Staten Island Stadium 16 & RPX","address":"2474 Forest Ave.","city":"Staten Island","state":"NY","zip":"10303","distance":24.782264404513,"lon":"-74.172864","lat":"40.626186","theaterChainName":"United Artists","ticketType":"STANDARD"},{"id":"1145","tribuneTheaterId":"5913","providerTheaterId":"","name":"Bow Tie Squire Cinemas","address":"115 Middle Neck Rd.","city":"Great Neck","state":"NY","zip":"11021","distance":24.015088312733,"lon":"-73.730058","lat":"40.789779","theaterChainName":"Bow-Tie Cinemas","ticketType":"STANDARD"},{"id":"5319","tribuneTheaterId":"10756","providerTheaterId":"","name":"Soundview Cinemas","address":"7 Soundview Marketplace","city":"Port Washington","state":"NY","zip":"11050","distance":23.3448855548,"lon":"-73.705902","lat":"40.842483","theaterChainName":"Independent Chains","ticketType":"STANDARD"},{"id":"1139","tribuneTheaterId":"5912","providerTheaterId":"","name":"Bow Tie Cinemas Port Washington","address":"116 Main St.","city":"Port Washington","state":"NY","zip":"11050","distance":24.422609312942,"lon":"-73.690683","lat":"40.830279","theaterChainName":"Bow-Tie Cinemas","ticketType":"STANDARD"}]