[{"id":"569","name":"Atrium Stadium Cinemas","address":"680 Arthur Kill Road","city":"Staten Island","state":"NY","zip":"10308","distance":"23.799427032470703","lon":"-74.163849","lat":"40.559669","theaterChainName":"Independent Chains","ticketType":"STANDARD"},{"id":"121","name":"United Artists Hylan Plaza","address":"107 Mill Road","city":"Staten Island","state":"NY","zip":"10306","distance":"23.455162048339844","lon":"-74.109627","lat":"40.566975","theaterChainName":"United Artists","ticketType":"STANDARD"},{"id":"281","name":"Rave Cinemas Hazlet 12","address":"2821 Highway 35","city":"Hazlet","state":"NJ","zip":"07730","distance":"15.202744483947754","lon":"-74.169228","lat":"40.418510","theaterChainName":"Cinemark","ticketType":"STANDARD"},{"id":"2672","name":"Bow Tie Cinemas Strathmore Cinema 4","address":"1055 Route 34","city":"Aberdeen","state":"NJ","zip":"07747","distance":"16.32727813720703","lon":"-74.229301","lat":"40.401100","theaterChainName":"Bow-Tie Cinemas","ticketType":"STANDARD"},{"id":"1177","name":"Starplex East Brunswick","address":"755 State HWY 18","city":"East Brunswick","state":"NJ","zip":"08816","distance":"23.543596267700195","lon":"-74.381775","lat":"40.422005","theaterChainName":"Starplex Cinemas","ticketType":"STANDARD"},{"id":"1797","name":"Atlantic Highlands Cinema 5","address":"82 First Ave.","city":"Atlantic Highlands","state":"NJ","zip":"07716","distance":"12.326384544372559","lon":"-74.037582","lat":"40.413528","theaterChainName":"Independent Chains","ticketType":"STANDARD"},{"id":"145","name":"Bow Tie Cinemas Red Bank Cinemas","address":"36 White St.","city":"Red Bank","state":"NJ","zip":"07701","distance":"8.4849271774292","lon":"-74.067284","lat":"40.350468","theaterChainName":"Bow-Tie Cinemas","ticketType":"STANDARD"},{"id":"143","name":"AMC Loews Freehold Metroplex 14","address":"101 Trotters Way","city":"Freehold","state":"NJ","zip":"07728","distance":"15.209248542785645","lon":"-74.294563","lat":"40.249676","theaterChainName":"AMC Theatres","ticketType":"STANDARD"},{"id":"144","name":"AMC Loews Monmouth Mall 15","address":"180 State Rt. 35 S.","city":"Eatontown","state":"NJ","zip":"07724","distance":"4.267688274383545","lon":"-74.053192","lat":"40.287254","theaterChainName":"AMC Theatres","ticketType":"STANDARD"},{"id":"1772","name":"Cine Grand Middlebrook 10","address":"1502 Route 35 South","city":"Ocean","state":"NJ","zip":"07712","distance":"1.9360262155532837","lon":"-74.040825","lat":"40.247017","theaterChainName":"Independent Chains","ticketType":"STANDARD"},{"id":"4948","name":"The Showroom","address":"708 Cookman Ave.","city":"Asbury Park","state":"NJ","zip":"07712","distance":"1.4787683486938477","lon":"-74.012398","lat":"40.215744","theaterChainName":"Independent Chains","ticketType":"STANDARD"},{"id":"5918","name":"Xscape Theatres Howell 14","address":"5361 US Highway 9","city":"Howell","state":"NJ","zip":"07731","distance":"13.570418357849121","lon":"-74.219658","lat":"40.126701","theaterChainName":"Independent Chains","ticketType":"STANDARD"},{"id":"111","name":"UA Sheepshead Bay Stadium 14 + IMAX","address":"3907 Shore Pkwy.","city":"Brooklyn","state":"NY","zip":"11235","distance":"24.47789192199707","lon":"-73.930504","lat":"40.586166","theaterChainName":"United Artists","ticketType":"STANDARD"},{"id":"505","name":"AMC Loews Brick Plaza 10","address":"3 Brick Plaza","city":"Brick","state":"NJ","zip":"08723","distance":"14.238922119140625","lon":"-74.141861","lat":"40.058399","theaterChainName":"AMC Theatres","ticketType":"STANDARD"},{"id":"142","name":"AMC Loews Seacourt 10","address":"635 Bay Ave.","city":"Toms River","state":"NJ","zip":"08753","distance":"20.298099517822266","lon":"-74.180634","lat":"39.974789","theaterChainName":"AMC Theatres","ticketType":"STANDARD"},{"id":"4390","name":"Marquee Cinemas Orchard 10","address":"1311 Route 37W","city":"Toms River","state":"NJ","zip":"08755","distance":"21.931861877441406","lon":"-74.255455","lat":"39.982632","theaterChainName":"Marquee Cinemas","ticketType":"STANDARD"}]