[{"id":"141","name":"CityPlex 12 Newark","address":"360-394 Springfield Ave.","city":"Newark","state":"NJ","zip":"07103","distance":"22.572561264038086","lon":"-74.196304","lat":"40.733627","theaterChainName":"Independent Chains","ticketType":"STANDARD"},{"id":"4274","name":"South Orange","address":"1 SOPAC Way","city":"South Orange","state":"NJ","zip":"07079","distance":"24.444477081298828","lon":"-74.261139","lat":"40.745995","theaterChainName":"Bow-Tie Cinemas","ticketType":"STANDARD"},{"id":"4232","name":"Hudson Cinemas","address":"701 Route 440","city":"Jersey City","state":"NJ","zip":"07304","distance":"20.968353271484375","lon":"-74.096451","lat":"40.720707","theaterChainName":"Independent Chains","ticketType":"STANDARD"},{"id":"1123","name":"Maplewood Theater","address":"155 Maplewood Ave.","city":"Maplewood","state":"NJ","zip":"07040","distance":"23.8326416015625","lon":"-74.276566","lat":"40.731380","theaterChainName":"Independent Chains","ticketType":"STANDARD"},{"id":"3235","name":"Columbia Park Stadium 12","address":"3125 Kennedy Blvd.","city":"North Bergen","state":"NJ","zip":"07047","distance":"24.905563354492188","lon":"-74.035919","lat":"40.775490","theaterChainName":"Independent Chains","ticketType":"STANDARD"},{"id":"3388","name":"AMC Loews Jersey Gardens 20","address":"651 Kapowski Road","city":"Elizabeth","state":"NJ","zip":"07201","distance":"17.244205474853516","lon":"-74.168304","lat":"40.659458","theaterChainName":"AMC Theatres","ticketType":"STANDARD"},{"id":"1136","name":"Bow Tie Cinemas Millburn Cinemas","address":"350 Millburn Ave.","city":"Millburn","state":"NJ","zip":"07041","distance":"24.084348678588867","lon":"-74.307785","lat":"40.723644","theaterChainName":"Bow-Tie Cinemas","ticketType":"STANDARD"},{"id":"4832","name":"Bow Tie Hoboken Cinemas","address":"409-415 14th St.","city":"Hoboken","state":"NJ","zip":"07030","distance":"23.470260620117188","lon":"-74.031898","lat":"40.754200","theaterChainName":"Bow-Tie Cinemas","ticketType":"STANDARD"},{"id":"4012","name":"Frank Theatres South Cove Cinema 12","address":"191 Lefante Way","city":"Bayonne","state":"NJ","zip":"07002","distance":"17.35377311706543","lon":"-74.105896","lat":"40.668118","theaterChainName":"Frank Theatres","ticketType":"STANDARD"},{"id":"178","name":"AMC Loews Newport Centre 11","address":"30-300 Mall Drive W.","city":"Jersey City","state":"NJ","zip":"07303","distance":"21.636600494384766","lon":"-74.038025","lat":"40.728039","theaterChainName":"AMC Theatres","ticketType":"STANDARD"},{"id":"3445","name":"UA Staten Island Stadium 16 & RPX","address":"2474 Forest Ave.","city":"Staten Island","state":"NY","zip":"10303","distance":"15.092289924621582","lon":"-74.172867","lat":"40.626186","theaterChainName":"United Artists","ticketType":"STANDARD"},{"id":"3232","name":"Regal Battery Park Stadium 11","address":"102 North End Ave.","city":"New York","state":"NY","zip":"10281","distance":"20.923524856567383","lon":"-74.014969","lat":"40.714859","theaterChainName":"Regal Cinemas","ticketType":"STANDARD"},{"id":"176","name":"Digiplex Cranford","address":"25 North Ave.","city":"Cranford","state":"NJ","zip":"07016","distance":"20.04787826538086","lon":"-74.299362","lat":"40.659370","theaterChainName":"Carmike Cinemas","ticketType":"STANDARD"},{"id":"3442","name":"AMC Loews West 34th Street 14","address":"312 W. 34th St.","city":"New York","state":"NY","zip":"10001","distance":"23.68708038330078","lon":"-73.994392","lat":"40.752510","theaterChainName":"AMC Theatres","ticketType":"STANDARD"},{"id":"4034","name":"IFC Center","address":"323 6th Ave. at W 3rd St.","city":"New York","state":"NY","zip":"10014","distance":"22.16496467590332","lon":"-74.001534","lat":"40.731140","theaterChainName":"Independent Chains","ticketType":"STANDARD"},{"id":"2820","name":"Regal E-Walk Stadium 13","address":"247 W. 42nd St.","city":"New York","state":"NY","zip":"10036","distance":"24.054950714111328","lon":"-73.989113","lat":"40.757084","theaterChainName":"Regal Cinemas","ticketType":"STANDARD"},{"id":"573","name":"Quad Cinema","address":"34 W. 13th St.","city":"New York","state":"NY","zip":"10011","distance":"22.553001403808594","lon":"-73.996002","lat":"40.735977","theaterChainName":"Independent Chains","ticketType":"STANDARD"},{"id":"2986","name":"AMC Empire 25","address":"234 W. 42nd St.","city":"New York","state":"NY","zip":"10036","distance":"24.02615737915039","lon":"-73.988663","lat":"40.756580","theaterChainName":"AMC Theatres","ticketType":"STANDARD"},{"id":"39","name":"AMC Loews Mountainside 10","address":"1021 Route 22","city":"Mountainside","state":"NJ","zip":"07092","distance":"22.500728607177734","lon":"-74.335442","lat":"40.683659","theaterChainName":"AMC Theatres","ticketType":"STANDARD"},{"id":"4383","name":"AMC Aviation 12","address":"1200 South Stiles St.","city":"Linden","state":"NJ","zip":"07036","distance":"16.275890350341797","lon":"-74.245476","lat":"40.620564","theaterChainName":"AMC Theatres","ticketType":"STANDARD"},{"id":"123","name":"Digiplex Rialto","address":"250 E. Broad St.","city":"Westfield","state":"NJ","zip":"07090","distance":"21.177330017089844","lon":"-74.347298","lat":"40.652599","theaterChainName":"Carmike Cinemas","ticketType":"STANDARD"},{"id":"569","name":"Atrium Stadium Cinemas","address":"680 Arthur Kill Road","city":"Staten Island","state":"NY","zip":"10308","distance":"10.596534729003906","lon":"-74.163849","lat":"40.559669","theaterChainName":"Independent Chains","ticketType":"STANDARD"},{"id":"121","name":"United Artists Hylan Plaza","address":"107 Mill Road","city":"Staten Island","state":"NY","zip":"10306","distance":"10.399280548095703","lon":"-74.109627","lat":"40.566975","theaterChainName":"United Artists","ticketType":"STANDARD"},{"id":"4231","name":"Big Cinemas Movie City 8","address":"1655 Oak Tree Road","city":"Edison","state":"NJ","zip":"08820","distance":"16.961843490600586","lon":"-74.340622","lat":"40.570969","theaterChainName":"Independent Chains","ticketType":"STANDARD"},{"id":"281","name":"Rave Cinemas Hazlet 12","address":"2821 Highway 35","city":"Hazlet","state":"NJ","zip":"07730","distance":"4.2266974449157715","lon":"-74.169228","lat":"40.418510","theaterChainName":"Cinemark","ticketType":"STANDARD"},{"id":"2672","name":"Bow Tie Cinemas Strathmore Cinema 4","address":"1055 Route 34","city":"Aberdeen","state":"NJ","zip":"07747","distance":"7.471438884735107","lon":"-74.229301","lat":"40.401100","theaterChainName":"Bow-Tie Cinemas","ticketType":"STANDARD"},{"id":"169","name":"Bay Ridge Alpine Cinemas","address":"6817 Fifth Ave.","city":"Brooklyn","state":"NY","zip":"11220","distance":"15.3713960647583","lon":"-74.020805","lat":"40.633656","theaterChainName":"Independent Chains","ticketType":"STANDARD"},{"id":"635","name":"Regal Hadley Theatre Stadium 16","address":"1000 Corporate Court","city":"South Plainfield","state":"NJ","zip":"07080","distance":"19.834251403808594","lon":"-74.424278","lat":"40.548927","theaterChainName":"Regal Cinemas","ticketType":"STANDARD"},{"id":"300","name":"AMC Loews New Brunswick 18","address":"17 US Highway 1","city":"New Brunswick","state":"NJ","zip":"08901","distance":"17.877840042114258","lon":"-74.415619","lat":"40.488953","theaterChainName":"AMC Theatres","ticketType":"STANDARD"},{"id":"5960","name":"Rutgers Cinema","address":"105 Joyce Kilmer Ave","city":"Piscataway","state":"NJ","zip":"08854","distance":"19.777000427246094","lon":"-74.437309","lat":"40.525333","theaterChainName":"Independent Chains","ticketType":"STANDARD"},{"id":"1177","name":"Starplex East Brunswick","address":"755 State HWY 18","city":"East Brunswick","state":"NJ","zip":"08816","distance":"15.410252571105957","lon":"-74.381775","lat":"40.422005","theaterChainName":"Starplex Cinemas","ticketType":"STANDARD"},{"id":"1797","name":"Atlantic Highlands Cinema 5","address":"82 First Ave.","city":"Atlantic Highlands","state":"NJ","zip":"07716","distance":"2.7121739387512207","lon":"-74.037582","lat":"40.413528","theaterChainName":"Independent Chains","ticketType":"STANDARD"},{"id":"848","name":"Dunellen Cinema Cafe","address":"458 North Ave","city":"Dunellen","state":"NJ","zip":"08812","distance":"23.175905227661133","lon":"-74.467583","lat":"40.589317","theaterChainName":"Independent Chains","ticketType":"STANDARD"},{"id":"564","name":"Cobble Hill Cinema","address":"265 Court St.","city":"Brooklyn","state":"NY","zip":"11231","distance":"19.143569946289062","lon":"-73.994514","lat":"40.684910","theaterChainName":"Cobble Hill Cinemas","ticketType":"STANDARD"},{"id":"3234","name":"UA Court Street Stadium 12","address":"108 Court St.","city":"Brooklyn","state":"NY","zip":"11201","distance":"19.552223205566406","lon":"-73.992149","lat":"40.690552","theaterChainName":"United Artists","ticketType":"STANDARD"},{"id":"565","name":"Kent Theatre","address":"1170 Coney Island Ave.","city":"Brooklyn","state":"NY","zip":"11230","distance":"15.988863945007324","lon":"-73.966003","lat":"40.629002","theaterChainName":"Independent Chains","ticketType":"STANDARD"},{"id":"2746","name":"Bam Rose Cinemas","address":"30 Lafayette Ave.","city":"Brooklyn","state":"NY","zip":"11217","distance":"19.49240493774414","lon":"-73.977699","lat":"40.686451","theaterChainName":"Independent Chains","ticketType":"STANDARD"},{"id":"570","name":"City Cinemas Paris Theatre","address":"4 W. 58th St.","city":"New York","state":"NY","zip":"10019","distance":"24.703575134277344","lon":"-73.974716","lat":"40.764145","theaterChainName":"Reading International, Inc","ticketType":"STANDARD"},{"id":"4601","name":"City Cinemas Beekman Theatre","address":"1271 Second Ave.","city":"New York","state":"NY","zip":"10021","distance":"24.963207244873047","lon":"-73.961006","lat":"40.765278","theaterChainName":"Reading International, Inc","ticketType":"STANDARD"},{"id":"2472","name":"AMC Loews Kips Bay 15","address":"570 Second Ave.","city":"New York","state":"NY","zip":"10016","distance":"23.29591178894043","lon":"-73.976700","lat":"40.743500","theaterChainName":"AMC Theatres","ticketType":"STANDARD"},{"id":"150","name":"AMC Loews 19th Street East 6","address":"890 Broadway","city":"New York","state":"NY","zip":"10003","distance":"22.79939842224121","lon":"-73.989769","lat":"40.738556","theaterChainName":"AMC Theatres","ticketType":"STANDARD"},{"id":"3233","name":"UA Kaufman Astoria Stadium 14","address":"35-30 38th St.","city":"Astoria","state":"NY","zip":"11101","distance":"24.907182693481445","lon":"-73.923622","lat":"40.755207","theaterChainName":"United Artists","ticketType":"STANDARD"},{"id":"1609","name":"Regal Union Square Stadium 14","address":"850 Broadway","city":"New York","state":"NY","zip":"10003","distance":"22.4866886138916","lon":"-73.990578","lat":"40.734051","theaterChainName":"Regal Cinemas","ticketType":"STANDARD"},{"id":"571","name":"Cinema Village 12th Street","address":"22 E. 12th St.","city":"New York","state":"NY","zip":"10003","distance":"22.4545955657959","lon":"-73.993431","lat":"40.734077","theaterChainName":"Independent Chains","ticketType":"STANDARD"},{"id":"149","name":"AMC Loews Village 7","address":"66 3rd Ave. (11th St.)","city":"New York","state":"NY","zip":"10003","distance":"22.337438583374023","lon":"-73.988754","lat":"40.731499","theaterChainName":"AMC Theatres","ticketType":"STANDARD"},{"id":"538","name":"City Cinemas Village East","address":"181-189 Second Ave.","city":"New York","state":"NY","zip":"10003","distance":"22.330890655517578","lon":"-73.986168","lat":"40.730919","theaterChainName":"Reading International, Inc","ticketType":"STANDARD"},{"id":"540","name":"City Cinemas Angelika Film Center","address":"18 W. Houston St.","city":"New York","state":"NY","zip":"10012","distance":"21.852863311767578","lon":"-73.997284","lat":"40.725811","theaterChainName":"Reading International, Inc","ticketType":"STANDARD"},{"id":"5060","name":"Nitehawk Cinema","address":"136 Metropolitan Ave.","city":"Brooklyn","state":"NY","zip":"11249","distance":"21.687366485595703","lon":"-73.962509","lat":"40.716122","theaterChainName":"Independent Chains","ticketType":"STANDARD"},{"id":"5894","name":"Metrograph","address":"7 Ludlow St.","city":"New York","state":"NY","zip":"10002","distance":"21.20523452758789","lon":"-73.991180","lat":"40.715076","theaterChainName":"Independent Chains","ticketType":"STANDARD"},{"id":"5777","name":"Videology Cinema","address":"308 Bedford Ave.","city":"Brooklyn","state":"NY","zip":"11249","distance":"21.55014419555664","lon":"-73.961815","lat":"40.713863","theaterChainName":"Independent Chains","ticketType":"STANDARD"},{"id":"5284","name":"Williamsburg Cinemas","address":"217 Grand St.","city":"Brooklyn","state":"NY","zip":"11211","distance":"21.583972930908203","lon":"-73.959900","lat":"40.713902","theaterChainName":"Independent Chains","ticketType":"STANDARD"},{"id":"5965","name":"Syndicated","address":"40 Bogart Street","city":"Brooklyn","state":"NY","zip":"11206","distance":"21.49834632873535","lon":"-73.932861","lat":"40.704964","theaterChainName":"Independent Chains","ticketType":"STANDARD"},{"id":"2267","name":"Regal Commerce Center Stadium 18","address":"2399 Route 1 South","city":"North Brunswick","state":"NJ","zip":"08902","distance":"21.885356903076172","lon":"-74.503601","lat":"40.443203","theaterChainName":"Regal Cinemas","ticketType":"STANDARD"},{"id":"145","name":"Bow Tie Cinemas Red Bank Cinemas","address":"36 White St.","city":"Red Bank","state":"NJ","zip":"07701","distance":"4.7560906410217285","lon":"-74.067284","lat":"40.350468","theaterChainName":"Bow-Tie Cinemas","ticketType":"STANDARD"},{"id":"143","name":"AMC Loews Freehold Metroplex 14","address":"101 Trotters Way","city":"Freehold","state":"NJ","zip":"07728","distance":"15.858942031860352","lon":"-74.294563","lat":"40.249676","theaterChainName":"AMC Theatres","ticketType":"STANDARD"},{"id":"144","name":"AMC Loews Monmouth Mall 15","address":"180 State Rt. 35 S.","city":"Eatontown","state":"NJ","zip":"07724","distance":"9.18051528930664","lon":"-74.053192","lat":"40.287254","theaterChainName":"AMC Theatres","ticketType":"STANDARD"},{"id":"1772","name":"Cine Grand Middlebrook 10","address":"1502 Route 35 South","city":"Ocean","state":"NJ","zip":"07712","distance":"12.035614967346191","lon":"-74.040825","lat":"40.247017","theaterChainName":"Independent Chains","ticketType":"STANDARD"},{"id":"4948","name":"The Showroom","address":"708 Cookman Ave.","city":"Asbury Park","state":"NJ","zip":"07712","distance":"14.498583793640137","lon":"-74.012398","lat":"40.215744","theaterChainName":"Independent Chains","ticketType":"STANDARD"},{"id":"5918","name":"Xscape Theatres Howell 14","address":"5361 US Highway 9","city":"Howell","state":"NJ","zip":"07731","distance":"21.230152130126953","lon":"-74.219658","lat":"40.126701","theaterChainName":"Independent Chains","ticketType":"STANDARD"},{"id":"111","name":"UA Sheepshead Bay Stadium 14 + IMAX","address":"3907 Shore Pkwy.","city":"Brooklyn","state":"NY","zip":"11235","distance":"14.331934928894043","lon":"-73.930504","lat":"40.586166","theaterChainName":"United Artists","ticketType":"STANDARD"},{"id":"505","name":"AMC Loews Brick Plaza 10","address":"3 Brick Plaza","city":"Brick","state":"NJ","zip":"08723","distance":"24.95611572265625","lon":"-74.141861","lat":"40.058399","theaterChainName":"AMC Theatres","ticketType":"STANDARD"},{"id":"824","name":"Linden Blvd. Multiplex Cinemas","address":"2784 Linden Blvd.","city":"Brooklyn","state":"NY","zip":"11208","distance":"21.121854782104492","lon":"-73.861397","lat":"40.669399","theaterChainName":"National Amusements","ticketType":"STANDARD"},{"id":"4206","name":"Regal Atlas Park Stadium 8","address":"Cooper Ave ","city":"Glendale","state":"NY","zip":"11385","distance":"23.19710350036621","lon":"-73.867638","lat":"40.707905","theaterChainName":"Regal Cinemas","ticketType":"STANDARD"},{"id":"566","name":"Cinemart Cinemas","address":"106-03 Metropolitan Ave.","city":"Forest Hills","state":"NY","zip":"11375","distance":"23.886205673217773","lon":"-73.846870","lat":"40.710037","theaterChainName":"Independent Chains","ticketType":"STANDARD"},{"id":"110","name":"UA Midway Stadium 9","address":"108-22 Queens Blvd.","city":"Forest Hills","state":"NY","zip":"11375","distance":"24.61415672302246","lon":"-73.843422","lat":"40.720821","theaterChainName":"United Artists","ticketType":"STANDARD"},{"id":"2680","name":"Kew Gardens Cinemas","address":"81-05 Lefferts Blvd.","city":"Kew Gardens","state":"NY","zip":"11415","distance":"24.321622848510742","lon":"-73.829849","lat":"40.709137","theaterChainName":"Cobble Hill Cinemas","ticketType":"STANDARD"},{"id":"3512","name":"Jamaica Multiplex Cinemas","address":"159-02 Jamaica Ave.","city":"Jamaica","state":"NY","zip":"11432","distance":"24.91171646118164","lon":"-73.799828","lat":"40.703224","theaterChainName":"National Amusements","ticketType":"STANDARD"}]