[{"id":"4276","tribuneTheaterId":"4257","providerTheaterId":"2248","name":"AMC Rockaway 16","address":"363 Mount Hope Ave.","city":"Rockaway","state":"NJ","zip":"07866","distance":2.7041374898102,"lon":"-74.558018","lat":"40.90941","theaterChainName":"AMC Theatres","ticketType":"STANDARD"},{"id":"1137","tribuneTheaterId":"5906","providerTheaterId":"","name":"Cin\u00e9polis Parsippany Cinema 12","address":"3165 US HWY 46","city":"Parsippany","state":"NJ","zip":"07054","distance":5.6637750421205,"lon":"-74.426161","lat":"40.870358","theaterChainName":"Cinepolis Luxury Cinemas","ticketType":"STANDARD"},{"id":"5419","tribuneTheaterId":"10855","providerTheaterId":"63","name":"AMC Headquarters 10","address":"72 Speedwell Ave.","city":"Morristown","state":"NJ","zip":"07960","distance":8.6243499129154,"lon":"-74.481328","lat":"40.799897","theaterChainName":"AMC Theatres","ticketType":"STANDARD"},{"id":"1783","tribuneTheaterId":"5904","providerTheaterId":"","name":"Cin\u00e9polis Succasunna Cinema 10","address":"21 Sunset Strip","city":"Succasunna","state":"NJ","zip":"07876","distance":7.9529153823964,"lon":"-74.64442","lat":"40.869679","theaterChainName":"Cinepolis Luxury Cinemas","ticketType":"STANDARD"},{"id":"6041","tribuneTheaterId":"11445","providerTheaterId":"","name":"Kinnelon Cinemas","address":"25 Kinnelon Rd","city":"Kinnelon","state":"NJ","zip":"07405","distance":9.5097306083178,"lon":"-74.360996","lat":"41.002807","theaterChainName":"Independent Chains","ticketType":"STANDARD"},{"id":"1779","tribuneTheaterId":"5905","providerTheaterId":"","name":"Bow Tie Cinemas Kinnelon 11","address":"25 Kinnelon Road","city":"Kinnelon","state":"NJ","zip":"07405","distance":9.5147979835925,"lon":"-74.360989","lat":"41.002926","theaterChainName":"Bow-Tie Cinemas","ticketType":"STANDARD"},{"id":"140","tribuneTheaterId":"6849","providerTheaterId":"2181","name":"AMC Loews East Hanover 12","address":"145 Route 10 E.","city":"East Hanover","state":"NJ","zip":"07936","distance":10.307744055672,"lon":"-74.382162","lat":"40.808893","theaterChainName":"AMC Theatres","ticketType":"STANDARD"},{"id":"4396","tribuneTheaterId":"9444","providerTheaterId":"","name":"Sparta Theatre","address":"25 Centre St.","city":"Sparta","state":"NJ","zip":"07871","distance":9.9023312526433,"lon":"-74.634832","lat":"41.030475","theaterChainName":"Carmike Cinemas","ticketType":"STANDARD"},{"id":"138","tribuneTheaterId":"7954","providerTheaterId":"2176","name":"AMC Loews Wayne 14","address":"67 Willowbrook Blvd.","city":"Wayne","state":"NJ","zip":"07470","distance":13.737757284698,"lon":"-74.250337","lat":"40.888309","theaterChainName":"AMC Theatres","ticketType":"STANDARD"},{"id":"1158","tribuneTheaterId":"6449","providerTheaterId":"","name":"Roberts Chatham Cinema","address":"641 Shunpike Rd.","city":"Chatham","state":"NJ","zip":"07928","distance":12.915261504942,"lon":"-74.431617","lat":"40.745481","theaterChainName":"Independent Chains","ticketType":"STANDARD"},{"id":"1135","tribuneTheaterId":"8674","providerTheaterId":"","name":"Bow Tie Cinemas Madison Cinema 4","address":"14 Lincoln Place","city":"Madison","state":"NJ","zip":"07940","distance":12.460049023421,"lon":"-74.414723","lat":"40.757398","theaterChainName":"Bow-Tie Cinemas","ticketType":"STANDARD"},{"id":"2433","tribuneTheaterId":"5891","providerTheaterId":"","name":"Bow Tie Cinemas Bernardsville Cinema 3","address":"5 Mine Brook Road","city":"Bernardsville","state":"NJ","zip":"07924","distance":14.492478953192,"lon":"-74.569702","lat":"40.718172","theaterChainName":"Bow-Tie Cinemas","ticketType":"STANDARD"},{"id":"407","tribuneTheaterId":"8608","providerTheaterId":"","name":"Bow Tie Cinemas Wayne Preakness","address":"1220 Hamburg Tpk.","city":"Wayne","state":"NJ","zip":"07470","distance":14.092198468034,"lon":"-74.244297","lat":"40.961615","theaterChainName":"Bow-Tie Cinemas","ticketType":"STANDARD"},{"id":"2982","tribuneTheaterId":"5896","providerTheaterId":"","name":"Bow Tie Cinemas Caldwell Cinema 4","address":"315 Bloomfield Ave.","city":"Caldwell","state":"NJ","zip":"07006","distance":13.491776814331,"lon":"-74.275821","lat":"40.839582","theaterChainName":"Bow-Tie Cinemas","ticketType":"STANDARD"},{"id":"5952","tribuneTheaterId":"6009","providerTheaterId":"","name":"Newton Theatre","address":"234 Spring Street","city":"Newton","state":"NJ","zip":"07860","distance":15.564882448042,"lon":"-74.750079","lat":"41.056105","theaterChainName":"Independent Chains","ticketType":"STANDARD"},{"id":"1130","tribuneTheaterId":"5898","providerTheaterId":"","name":"Bow Tie Cinemas Clairidge Cinemas","address":"486 Bloomfield Ave.","city":"Montclair","state":"NJ","zip":"07042","distance":16.956854420726,"lon":"-74.218349","lat":"40.814325","theaterChainName":"Bow-Tie Cinemas","ticketType":"STANDARD"},{"id":"1126","tribuneTheaterId":"8895","providerTheaterId":"","name":"Bow Tie Cinemas Beacon Hill 5","address":"343 Springfield Ave.","city":"Summit","state":"NJ","zip":"07901","distance":16.246359225434,"lon":"-74.356468","lat":"40.718217","theaterChainName":"Bow-Tie Cinemas","ticketType":"STANDARD"},{"id":"122","tribuneTheaterId":"7299","providerTheaterId":"","name":"Bow Tie Cinemas Bellevue 4","address":"260 Bellevue Ave.","city":"Upper Montclair","state":"NJ","zip":"07043","distance":16.679919304549,"lon":"-74.208932","lat":"40.841213","theaterChainName":"Bow-Tie Cinemas","ticketType":"STANDARD"},{"id":"755","tribuneTheaterId":"7809","providerTheaterId":"","name":"AMC Essex Green Cinema 9","address":"495 Prospect Ave.","city":"West Orange","state":"NJ","zip":"07052","distance":15.952349620128,"lon":"-74.25671","lat":"40.793361","theaterChainName":"AMC Theatres","ticketType":"STANDARD"},{"id":"4274","tribuneTheaterId":"4919","providerTheaterId":"","name":"South Orange","address":"1 SOPAC Way","city":"South Orange","state":"NJ","zip":"07079","distance":17.827873755863,"lon":"-74.261138","lat":"40.745995","theaterChainName":"Bow-Tie Cinemas","ticketType":"STANDARD"},{"id":"1136","tribuneTheaterId":"5893","providerTheaterId":"","name":"Bow Tie Cinemas Millburn Cinemas","address":"350 Millburn Ave.","city":"Millburn","state":"NJ","zip":"07041","distance":17.339519588205,"lon":"-74.307783","lat":"40.723645","theaterChainName":"Bow-Tie Cinemas","ticketType":"STANDARD"},{"id":"1123","tribuneTheaterId":"4076","providerTheaterId":"","name":"Maplewood Theater","address":"155 Maplewood Ave.","city":"Maplewood","state":"NJ","zip":"07040","distance":17.980207039192,"lon":"-74.276564","lat":"40.731381","theaterChainName":"Independent Chains","ticketType":"STANDARD"},{"id":"4888","tribuneTheaterId":"10198","providerTheaterId":"","name":"Fabian 8 Cinema","address":"301 Main St.","city":"Paterson","state":"NJ","zip":"07505","distance":17.552602020634,"lon":"-74.173374","lat":"40.91483","theaterChainName":"Independent Chains","ticketType":"STANDARD"},{"id":"39","tribuneTheaterId":"6954","providerTheaterId":"2183","name":"AMC Loews Mountainside 10","address":"1021 Route 22","city":"Mountainside","state":"NJ","zip":"07092","distance":18.868575244915,"lon":"-74.335438","lat":"40.683657","theaterChainName":"AMC Theatres","ticketType":"STANDARD"},{"id":"1173","tribuneTheaterId":"2934","providerTheaterId":"","name":"Hawthorne 5","address":"300 Lafayette Ave.","city":"Hawthorne","state":"NJ","zip":"07506","distance":18.562771873982,"lon":"-74.155383","lat":"40.948496","theaterChainName":"Independent Chains","ticketType":"STANDARD"},{"id":"5357","tribuneTheaterId":"10795","providerTheaterId":"","name":"Allwood Cinemas 6","address":"96 Market St.","city":"Clifton","state":"NJ","zip":"07011","distance":18.908015621339,"lon":"-74.16208","lat":"40.845838","theaterChainName":"Independent Chains","ticketType":"STANDARD"},{"id":"2352","tribuneTheaterId":"5907","providerTheaterId":"","name":"Cin\u00e9polis Mansfield Cinema 14","address":"1965 State Route 57","city":"Hackettstown","state":"NJ","zip":"07840","distance":18.408085688037,"lon":"-74.836078","lat":"40.82309","theaterChainName":"Cinepolis Luxury Cinemas","ticketType":"STANDARD"},{"id":"2573","tribuneTheaterId":"5324","providerTheaterId":"865","name":"AMC Clifton Commons 16","address":"405 Route 3 East","city":"Clifton","state":"NJ","zip":"07014","distance":20.34655276228,"lon":"-74.140356","lat":"40.828814","theaterChainName":"AMC Theatres","ticketType":"STANDARD"},{"id":"176","tribuneTheaterId":"7947","providerTheaterId":"","name":"Digiplex Cranford","address":"25 North Ave.","city":"Cranford","state":"NJ","zip":"07016","distance":21.266201699913,"lon":"-74.299364","lat":"40.65937","theaterChainName":"Carmike Cinemas","ticketType":"STANDARD"},{"id":"141","tribuneTheaterId":"8531","providerTheaterId":"","name":"CityPlex 12 Newark","address":"360-394 Springfield Ave.","city":"Newark","state":"NJ","zip":"07103","distance":20.951242217335,"lon":"-74.196308","lat":"40.733628","theaterChainName":"Independent Chains","ticketType":"STANDARD"},{"id":"123","tribuneTheaterId":"3915","providerTheaterId":"","name":"Digiplex Rialto","address":"250 E. Broad St.","city":"Westfield","state":"NJ","zip":"07090","distance":20.510940929376,"lon":"-74.3473","lat":"40.6526","theaterChainName":"Carmike Cinemas","ticketType":"STANDARD"},{"id":"1932","tribuneTheaterId":"2993","providerTheaterId":"","name":"Lincoln Cinemas","address":"838 Kearny Ave.","city":"North Arlington","state":"NJ","zip":"07031","distance":21.698230337256,"lon":"-74.139232","lat":"40.780686","theaterChainName":"Independent Chains","ticketType":"STANDARD"},{"id":"179","tribuneTheaterId":"8442","providerTheaterId":"","name":"Bow Tie Cinemas Warner Quad","address":"190 E. Ridgewood Ave.","city":"Ridgewood","state":"NJ","zip":"07450","distance":20.916617578037,"lon":"-74.115486","lat":"40.978866","theaterChainName":"Bow-Tie Cinemas","ticketType":"STANDARD"},{"id":"1184","tribuneTheaterId":"2813","providerTheaterId":"","name":"Williams Center Cinemas 3","address":"1 Williams Plaza","city":"Rutherford","state":"NJ","zip":"07070","distance":22.225258917476,"lon":"-74.103255","lat":"40.82719","theaterChainName":"Independent Chains","ticketType":"STANDARD"},{"id":"4336","tribuneTheaterId":"9312","providerTheaterId":"2253","name":"AMC Garden State 16","address":"4000 Garden State Plaza","city":"Paramus","state":"NJ","zip":"07652","distance":22.63086081418,"lon":"-74.075962","lat":"40.918608","theaterChainName":"AMC Theatres","ticketType":"STANDARD"},{"id":"754","tribuneTheaterId":"7207","providerTheaterId":"","name":"AMC Bridgewater Commons 7","address":"400 Commons Way","city":"Bridgewater","state":"NJ","zip":"08807","distance":23.924779270038,"lon":"-74.619248","lat":"40.586779","theaterChainName":"AMC Theatres","ticketType":"STANDARD"},{"id":"848","tribuneTheaterId":"2421","providerTheaterId":"","name":"Dunellen Cinema Cafe","address":"458 North Ave","city":"Dunellen","state":"NJ","zip":"08812","distance":23.152103307615,"lon":"-74.467582","lat":"40.589316","theaterChainName":"Independent Chains","ticketType":"STANDARD"},{"id":"1495","tribuneTheaterId":"2498","providerTheaterId":"","name":"Lafayette Theatre","address":"97 Lafayette Ave.","city":"Suffern","state":"NY","zip":"10901","distance":22.948269848948,"lon":"-74.15035","lat":"41.115063","theaterChainName":"Boston Culinary Group","ticketType":"STANDARD"},{"id":"6036","tribuneTheaterId":"11440","providerTheaterId":"","name":"Washington Township Cinemas","address":"249 Pascack Road","city":"Washington Township","state":"NJ","zip":"07676","distance":23.673066430917,"lon":"-74.0632","lat":"40.9848","theaterChainName":"Independent Chains","ticketType":"STANDARD"}]