[{"id":"1783","tribuneTheaterId":"5904","providerTheaterId":"","name":"Cin\u00e9polis Succasunna Cinema 10","address":"21 Sunset Strip","city":"Succasunna","state":"NJ","zip":"07876","distance":1.1910901908725,"lon":"-74.64442","lat":"40.869679","theaterChainName":"Cinepolis Luxury Cinemas","ticketType":"STANDARD"},{"id":"4276","tribuneTheaterId":"4257","providerTheaterId":"2248","name":"AMC Rockaway 16","address":"363 Mount Hope Ave.","city":"Rockaway","state":"NJ","zip":"07866","distance":6.2961159429565,"lon":"-74.558018","lat":"40.90941","theaterChainName":"AMC Theatres","ticketType":"STANDARD"},{"id":"5419","tribuneTheaterId":"10855","providerTheaterId":"63","name":"AMC Headquarters 10","address":"72 Speedwell Ave.","city":"Morristown","state":"NJ","zip":"07960","distance":9.749026137571,"lon":"-74.481328","lat":"40.799897","theaterChainName":"AMC Theatres","ticketType":"STANDARD"},{"id":"2433","tribuneTheaterId":"5891","providerTheaterId":"","name":"Bow Tie Cinemas Bernardsville Cinema 3","address":"5 Mine Brook Road","city":"Bernardsville","state":"NJ","zip":"07924","distance":10.354167496751,"lon":"-74.569702","lat":"40.718172","theaterChainName":"Bow-Tie Cinemas","ticketType":"STANDARD"},{"id":"2352","tribuneTheaterId":"5907","providerTheaterId":"","name":"Cin\u00e9polis Mansfield Cinema 14","address":"1965 State Route 57","city":"Hackettstown","state":"NJ","zip":"07840","distance":9.7733145534666,"lon":"-74.836078","lat":"40.82309","theaterChainName":"Cinepolis Luxury Cinemas","ticketType":"STANDARD"},{"id":"1137","tribuneTheaterId":"5906","providerTheaterId":"","name":"Cin\u00e9polis Parsippany Cinema 12","address":"3165 US HWY 46","city":"Parsippany","state":"NJ","zip":"07054","distance":11.938940163399,"lon":"-74.426161","lat":"40.870358","theaterChainName":"Cinepolis Luxury Cinemas","ticketType":"STANDARD"},{"id":"4396","tribuneTheaterId":"9444","providerTheaterId":"","name":"Sparta Theatre","address":"25 Centre St.","city":"Sparta","state":"NJ","zip":"07871","distance":12.239408483474,"lon":"-74.634832","lat":"41.030475","theaterChainName":"Carmike Cinemas","ticketType":"STANDARD"},{"id":"140","tribuneTheaterId":"6849","providerTheaterId":"2181","name":"AMC Loews East Hanover 12","address":"145 Route 10 E.","city":"East Hanover","state":"NJ","zip":"07936","distance":14.52710883931,"lon":"-74.382162","lat":"40.808893","theaterChainName":"AMC Theatres","ticketType":"STANDARD"},{"id":"1135","tribuneTheaterId":"8674","providerTheaterId":"","name":"Bow Tie Cinemas Madison Cinema 4","address":"14 Lincoln Place","city":"Madison","state":"NJ","zip":"07940","distance":14.160932686992,"lon":"-74.414723","lat":"40.757398","theaterChainName":"Bow-Tie Cinemas","ticketType":"STANDARD"},{"id":"1158","tribuneTheaterId":"6449","providerTheaterId":"","name":"Roberts Chatham Cinema","address":"641 Shunpike Rd.","city":"Chatham","state":"NJ","zip":"07928","distance":13.817339664928,"lon":"-74.431617","lat":"40.745481","theaterChainName":"Independent Chains","ticketType":"STANDARD"},{"id":"5952","tribuneTheaterId":"6009","providerTheaterId":"","name":"Newton Theatre","address":"234 Spring Street","city":"Newton","state":"NJ","zip":"07860","distance":14.850384455045,"lon":"-74.750079","lat":"41.056105","theaterChainName":"Independent Chains","ticketType":"STANDARD"},{"id":"6041","tribuneTheaterId":"11445","providerTheaterId":"","name":"Kinnelon Cinemas","address":"25 Kinnelon Rd","city":"Kinnelon","state":"NJ","zip":"07405","distance":18.416380072175,"lon":"-74.360996","lat":"41.002807","theaterChainName":"Independent Chains","ticketType":"STANDARD"},{"id":"754","tribuneTheaterId":"7207","providerTheaterId":"","name":"AMC Bridgewater Commons 7","address":"400 Commons Way","city":"Bridgewater","state":"NJ","zip":"08807","distance":18.543729956821,"lon":"-74.619248","lat":"40.586779","theaterChainName":"AMC Theatres","ticketType":"STANDARD"},{"id":"1779","tribuneTheaterId":"5905","providerTheaterId":"","name":"Bow Tie Cinemas Kinnelon 11","address":"25 Kinnelon Road","city":"Kinnelon","state":"NJ","zip":"07405","distance":18.421266261052,"lon":"-74.360989","lat":"41.002926","theaterChainName":"Bow-Tie Cinemas","ticketType":"STANDARD"},{"id":"1126","tribuneTheaterId":"8895","providerTheaterId":"","name":"Bow Tie Cinemas Beacon Hill 5","address":"343 Springfield Ave.","city":"Summit","state":"NJ","zip":"07901","distance":18.152398225696,"lon":"-74.356468","lat":"40.718217","theaterChainName":"Bow-Tie Cinemas","ticketType":"STANDARD"},{"id":"39","tribuneTheaterId":"6954","providerTheaterId":"2183","name":"AMC Loews Mountainside 10","address":"1021 Route 22","city":"Mountainside","state":"NJ","zip":"07092","distance":20.384790037543,"lon":"-74.335438","lat":"40.683657","theaterChainName":"AMC Theatres","ticketType":"STANDARD"},{"id":"2982","tribuneTheaterId":"5896","providerTheaterId":"","name":"Bow Tie Cinemas Caldwell Cinema 4","address":"315 Bloomfield Ave.","city":"Caldwell","state":"NJ","zip":"07006","distance":19.769915365348,"lon":"-74.275821","lat":"40.839582","theaterChainName":"Bow-Tie Cinemas","ticketType":"STANDARD"},{"id":"1123","tribuneTheaterId":"4076","providerTheaterId":"","name":"Maplewood Theater","address":"155 Maplewood Ave.","city":"Maplewood","state":"NJ","zip":"07040","distance":21.462354622916,"lon":"-74.276564","lat":"40.731381","theaterChainName":"Independent Chains","ticketType":"STANDARD"},{"id":"2560","tribuneTheaterId":"3193","providerTheaterId":"","name":"Manville 12 Plex","address":"180 N Main Street","city":"Manville","state":"NJ","zip":"08835","distance":21.305742658783,"lon":"-74.584304","lat":"40.550046","theaterChainName":"Reading International, Inc","ticketType":"STANDARD"},{"id":"138","tribuneTheaterId":"7954","providerTheaterId":"2176","name":"AMC Loews Wayne 14","address":"67 Willowbrook Blvd.","city":"Wayne","state":"NJ","zip":"07470","distance":21.203059744641,"lon":"-74.250337","lat":"40.888309","theaterChainName":"AMC Theatres","ticketType":"STANDARD"},{"id":"755","tribuneTheaterId":"7809","providerTheaterId":"","name":"AMC Essex Green Cinema 9","address":"495 Prospect Ave.","city":"West Orange","state":"NJ","zip":"07052","distance":21.168610879731,"lon":"-74.25671","lat":"40.793361","theaterChainName":"AMC Theatres","ticketType":"STANDARD"},{"id":"848","tribuneTheaterId":"2421","providerTheaterId":"","name":"Dunellen Cinema Cafe","address":"458 North Ave","city":"Dunellen","state":"NJ","zip":"08812","distance":20.714188214224,"lon":"-74.467582","lat":"40.589316","theaterChainName":"Independent Chains","ticketType":"STANDARD"},{"id":"1136","tribuneTheaterId":"5893","providerTheaterId":"","name":"Bow Tie Cinemas Millburn Cinemas","address":"350 Millburn Ave.","city":"Millburn","state":"NJ","zip":"07041","distance":20.205397246716,"lon":"-74.307783","lat":"40.723645","theaterChainName":"Bow-Tie Cinemas","ticketType":"STANDARD"},{"id":"407","tribuneTheaterId":"8608","providerTheaterId":"","name":"Bow Tie Cinemas Wayne Preakness","address":"1220 Hamburg Tpk.","city":"Wayne","state":"NJ","zip":"07470","distance":22.631776257187,"lon":"-74.244297","lat":"40.961615","theaterChainName":"Bow-Tie Cinemas","ticketType":"STANDARD"},{"id":"4274","tribuneTheaterId":"4919","providerTheaterId":"","name":"South Orange","address":"1 SOPAC Way","city":"South Orange","state":"NJ","zip":"07079","distance":21.839050952775,"lon":"-74.261138","lat":"40.745995","theaterChainName":"Bow-Tie Cinemas","ticketType":"STANDARD"},{"id":"123","tribuneTheaterId":"3915","providerTheaterId":"","name":"Digiplex Rialto","address":"250 E. Broad St.","city":"Westfield","state":"NJ","zip":"07090","distance":21.22410350826,"lon":"-74.3473","lat":"40.6526","theaterChainName":"Carmike Cinemas","ticketType":"STANDARD"},{"id":"122","tribuneTheaterId":"7299","providerTheaterId":"","name":"Bow Tie Cinemas Bellevue 4","address":"260 Bellevue Ave.","city":"Upper Montclair","state":"NJ","zip":"07043","distance":23.257428073964,"lon":"-74.208932","lat":"40.841213","theaterChainName":"Bow-Tie Cinemas","ticketType":"STANDARD"},{"id":"1130","tribuneTheaterId":"5898","providerTheaterId":"","name":"Bow Tie Cinemas Clairidge Cinemas","address":"486 Bloomfield Ave.","city":"Montclair","state":"NJ","zip":"07042","distance":22.917041978226,"lon":"-74.218349","lat":"40.814325","theaterChainName":"Bow-Tie Cinemas","ticketType":"STANDARD"},{"id":"176","tribuneTheaterId":"7947","providerTheaterId":"","name":"Digiplex Cranford","address":"25 North Ave.","city":"Cranford","state":"NJ","zip":"07016","distance":22.899254535553,"lon":"-74.299364","lat":"40.65937","theaterChainName":"Carmike Cinemas","ticketType":"STANDARD"},{"id":"635","tribuneTheaterId":"8055","providerTheaterId":"","name":"Regal Hadley Theatre Stadium 16","address":"1000 Corporate Court","city":"South Plainfield","state":"NJ","zip":"07080","distance":24.254721963481,"lon":"-74.424281","lat":"40.548929","theaterChainName":"Regal Cinemas","ticketType":"STANDARD"},{"id":"3116","tribuneTheaterId":"3161","providerTheaterId":"","name":"Hillsborough Cinemas","address":"111 Raider Blvd.","city":"Hillsborough","state":"NJ","zip":"08844","distance":24.965400738741,"lon":"-74.644439","lat":"40.492638","theaterChainName":"Independent Chains","ticketType":"STANDARD"}]