[{"id":"2433","tribuneTheaterId":"5891","providerTheaterId":"","name":"Bow Tie Cinemas Bernardsville Cinema 3","address":"5 Mine Brook Road","city":"Bernardsville","state":"NJ","zip":"07924","distance":4.4856081140831,"lon":"-74.569702","lat":"40.718172","theaterChainName":"Bow-Tie Cinemas","ticketType":"STANDARD"},{"id":"1783","tribuneTheaterId":"5904","providerTheaterId":"","name":"Cin\u00e9polis Succasunna Cinema 10","address":"21 Sunset Strip","city":"Succasunna","state":"NJ","zip":"07876","distance":6.6883914369274,"lon":"-74.64442","lat":"40.869679","theaterChainName":"Cinepolis Luxury Cinemas","ticketType":"STANDARD"},{"id":"5419","tribuneTheaterId":"10855","providerTheaterId":"63","name":"AMC Headquarters 10","address":"72 Speedwell Ave.","city":"Morristown","state":"NJ","zip":"07960","distance":6.3751888685369,"lon":"-74.481328","lat":"40.799897","theaterChainName":"AMC Theatres","ticketType":"STANDARD"},{"id":"1158","tribuneTheaterId":"6449","providerTheaterId":"","name":"Roberts Chatham Cinema","address":"641 Shunpike Rd.","city":"Chatham","state":"NJ","zip":"07928","distance":9.1094959014447,"lon":"-74.431617","lat":"40.745481","theaterChainName":"Independent Chains","ticketType":"STANDARD"},{"id":"1135","tribuneTheaterId":"8674","providerTheaterId":"","name":"Bow Tie Cinemas Madison Cinema 4","address":"14 Lincoln Place","city":"Madison","state":"NJ","zip":"07940","distance":9.8084082998329,"lon":"-74.414723","lat":"40.757398","theaterChainName":"Bow-Tie Cinemas","ticketType":"STANDARD"},{"id":"4276","tribuneTheaterId":"4257","providerTheaterId":"2248","name":"AMC Rockaway 16","address":"363 Mount Hope Ave.","city":"Rockaway","state":"NJ","zip":"07866","distance":9.2805176245118,"lon":"-74.558018","lat":"40.90941","theaterChainName":"AMC Theatres","ticketType":"STANDARD"},{"id":"140","tribuneTheaterId":"6849","providerTheaterId":"2181","name":"AMC Loews East Hanover 12","address":"145 Route 10 E.","city":"East Hanover","state":"NJ","zip":"07936","distance":11.581597741366,"lon":"-74.382162","lat":"40.808893","theaterChainName":"AMC Theatres","ticketType":"STANDARD"},{"id":"1137","tribuneTheaterId":"5906","providerTheaterId":"","name":"Cin\u00e9polis Parsippany Cinema 12","address":"3165 US HWY 46","city":"Parsippany","state":"NJ","zip":"07054","distance":11.069818777476,"lon":"-74.426161","lat":"40.870358","theaterChainName":"Cinepolis Luxury Cinemas","ticketType":"STANDARD"},{"id":"1126","tribuneTheaterId":"8895","providerTheaterId":"","name":"Bow Tie Cinemas Beacon Hill 5","address":"343 Springfield Ave.","city":"Summit","state":"NJ","zip":"07901","distance":13.419213625838,"lon":"-74.356468","lat":"40.718217","theaterChainName":"Bow-Tie Cinemas","ticketType":"STANDARD"},{"id":"754","tribuneTheaterId":"7207","providerTheaterId":"","name":"AMC Bridgewater Commons 7","address":"400 Commons Way","city":"Bridgewater","state":"NJ","zip":"08807","distance":13.312529728732,"lon":"-74.619248","lat":"40.586779","theaterChainName":"AMC Theatres","ticketType":"STANDARD"},{"id":"2352","tribuneTheaterId":"5907","providerTheaterId":"","name":"Cin\u00e9polis Mansfield Cinema 14","address":"1965 State Route 57","city":"Hackettstown","state":"NJ","zip":"07840","distance":12.719361122641,"lon":"-74.836078","lat":"40.82309","theaterChainName":"Cinepolis Luxury Cinemas","ticketType":"STANDARD"},{"id":"2560","tribuneTheaterId":"3193","providerTheaterId":"","name":"Manville 12 Plex","address":"180 N Main Street","city":"Manville","state":"NJ","zip":"08835","distance":15.833662531569,"lon":"-74.584304","lat":"40.550046","theaterChainName":"Reading International, Inc","ticketType":"STANDARD"},{"id":"39","tribuneTheaterId":"6954","providerTheaterId":"2183","name":"AMC Loews Mountainside 10","address":"1021 Route 22","city":"Mountainside","state":"NJ","zip":"07092","distance":15.335464963378,"lon":"-74.335438","lat":"40.683657","theaterChainName":"AMC Theatres","ticketType":"STANDARD"},{"id":"1136","tribuneTheaterId":"5893","providerTheaterId":"","name":"Bow Tie Cinemas Millburn Cinemas","address":"350 Millburn Ave.","city":"Millburn","state":"NJ","zip":"07041","distance":15.764383057106,"lon":"-74.307783","lat":"40.723645","theaterChainName":"Bow-Tie Cinemas","ticketType":"STANDARD"},{"id":"848","tribuneTheaterId":"2421","providerTheaterId":"","name":"Dunellen Cinema Cafe","address":"458 North Ave","city":"Dunellen","state":"NJ","zip":"08812","distance":14.822912876723,"lon":"-74.467582","lat":"40.589316","theaterChainName":"Independent Chains","ticketType":"STANDARD"},{"id":"123","tribuneTheaterId":"3915","providerTheaterId":"","name":"Digiplex Rialto","address":"250 E. Broad St.","city":"Westfield","state":"NJ","zip":"07090","distance":15.851962133334,"lon":"-74.3473","lat":"40.6526","theaterChainName":"Carmike Cinemas","ticketType":"STANDARD"},{"id":"755","tribuneTheaterId":"7809","providerTheaterId":"","name":"AMC Essex Green Cinema 9","address":"495 Prospect Ave.","city":"West Orange","state":"NJ","zip":"07052","distance":17.98670845835,"lon":"-74.25671","lat":"40.793361","theaterChainName":"AMC Theatres","ticketType":"STANDARD"},{"id":"4274","tribuneTheaterId":"4919","providerTheaterId":"","name":"South Orange","address":"1 SOPAC Way","city":"South Orange","state":"NJ","zip":"07079","distance":17.878750904102,"lon":"-74.261138","lat":"40.745995","theaterChainName":"Bow-Tie Cinemas","ticketType":"STANDARD"},{"id":"2982","tribuneTheaterId":"5896","providerTheaterId":"","name":"Bow Tie Cinemas Caldwell Cinema 4","address":"315 Bloomfield Ave.","city":"Caldwell","state":"NJ","zip":"07006","distance":17.464012939163,"lon":"-74.275821","lat":"40.839582","theaterChainName":"Bow-Tie Cinemas","ticketType":"STANDARD"},{"id":"635","tribuneTheaterId":"8055","providerTheaterId":"","name":"Regal Hadley Theatre Stadium 16","address":"1000 Corporate Court","city":"South Plainfield","state":"NJ","zip":"07080","distance":18.365436826119,"lon":"-74.424281","lat":"40.548929","theaterChainName":"Regal Cinemas","ticketType":"STANDARD"},{"id":"4396","tribuneTheaterId":"9444","providerTheaterId":"","name":"Sparta Theatre","address":"25 Centre St.","city":"Sparta","state":"NJ","zip":"07871","distance":17.477059966363,"lon":"-74.634832","lat":"41.030475","theaterChainName":"Carmike Cinemas","ticketType":"STANDARD"},{"id":"176","tribuneTheaterId":"7947","providerTheaterId":"","name":"Digiplex Cranford","address":"25 North Ave.","city":"Cranford","state":"NJ","zip":"07016","distance":17.778086358195,"lon":"-74.299364","lat":"40.65937","theaterChainName":"Carmike Cinemas","ticketType":"STANDARD"},{"id":"1123","tribuneTheaterId":"4076","providerTheaterId":"","name":"Maplewood Theater","address":"155 Maplewood Ave.","city":"Maplewood","state":"NJ","zip":"07040","distance":17.243638503548,"lon":"-74.276564","lat":"40.731381","theaterChainName":"Independent Chains","ticketType":"STANDARD"},{"id":"4231","tribuneTheaterId":"3117","providerTheaterId":"","name":"Big Cinemas Movie City 8","address":"1655 Oak Tree Road","city":"Edison","state":"NJ","zip":"08820","distance":19.777229826967,"lon":"-74.34062","lat":"40.57097","theaterChainName":"Independent Chains","ticketType":"STANDARD"},{"id":"138","tribuneTheaterId":"7954","providerTheaterId":"2176","name":"AMC Loews Wayne 14","address":"67 Willowbrook Blvd.","city":"Wayne","state":"NJ","zip":"07470","distance":19.780688769883,"lon":"-74.250337","lat":"40.888309","theaterChainName":"AMC Theatres","ticketType":"STANDARD"},{"id":"5960","tribuneTheaterId":"11391","providerTheaterId":"","name":"Rutgers Cinema","address":"105 Joyce Kilmer Ave","city":"Piscataway","state":"NJ","zip":"08854","distance":19.485081267508,"lon":"-74.437311","lat":"40.525334","theaterChainName":"Independent Chains","ticketType":"STANDARD"},{"id":"122","tribuneTheaterId":"7299","providerTheaterId":"","name":"Bow Tie Cinemas Bellevue 4","address":"260 Bellevue Ave.","city":"Upper Montclair","state":"NJ","zip":"07043","distance":20.899303982412,"lon":"-74.208932","lat":"40.841213","theaterChainName":"Bow-Tie Cinemas","ticketType":"STANDARD"},{"id":"5952","tribuneTheaterId":"6009","providerTheaterId":"","name":"Newton Theatre","address":"234 Spring Street","city":"Newton","state":"NJ","zip":"07860","distance":20.693857816424,"lon":"-74.750079","lat":"41.056105","theaterChainName":"Independent Chains","ticketType":"STANDARD"},{"id":"6041","tribuneTheaterId":"11445","providerTheaterId":"","name":"Kinnelon Cinemas","address":"25 Kinnelon Rd","city":"Kinnelon","state":"NJ","zip":"07405","distance":19.878992245936,"lon":"-74.360996","lat":"41.002807","theaterChainName":"Independent Chains","ticketType":"STANDARD"},{"id":"1779","tribuneTheaterId":"5905","providerTheaterId":"","name":"Bow Tie Cinemas Kinnelon 11","address":"25 Kinnelon Road","city":"Kinnelon","state":"NJ","zip":"07405","distance":19.885614086665,"lon":"-74.360989","lat":"41.002926","theaterChainName":"Bow-Tie Cinemas","ticketType":"STANDARD"},{"id":"1130","tribuneTheaterId":"5898","providerTheaterId":"","name":"Bow Tie Cinemas Clairidge Cinemas","address":"486 Bloomfield Ave.","city":"Montclair","state":"NJ","zip":"07042","distance":20.112097442084,"lon":"-74.218349","lat":"40.814325","theaterChainName":"Bow-Tie Cinemas","ticketType":"STANDARD"},{"id":"3116","tribuneTheaterId":"3161","providerTheaterId":"","name":"Hillsborough Cinemas","address":"111 Raider Blvd.","city":"Hillsborough","state":"NJ","zip":"08844","distance":19.915559231345,"lon":"-74.644439","lat":"40.492638","theaterChainName":"Independent Chains","ticketType":"STANDARD"},{"id":"141","tribuneTheaterId":"8531","providerTheaterId":"","name":"CityPlex 12 Newark","address":"360-394 Springfield Ave.","city":"Newark","state":"NJ","zip":"07103","distance":21.358595406796,"lon":"-74.196308","lat":"40.733628","theaterChainName":"Independent Chains","ticketType":"STANDARD"},{"id":"4383","tribuneTheaterId":"9427","providerTheaterId":"2249","name":"AMC Aviation 12","address":"1200 South Stiles St.","city":"Linden","state":"NJ","zip":"07036","distance":21.55344249659,"lon":"-74.245477","lat":"40.620565","theaterChainName":"AMC Theatres","ticketType":"STANDARD"},{"id":"300","tribuneTheaterId":"7190","providerTheaterId":"2220","name":"AMC Loews New Brunswick 18","address":"17 US Highway 1","city":"New Brunswick","state":"NJ","zip":"08901","distance":22.244253321238,"lon":"-74.415618","lat":"40.488952","theaterChainName":"AMC Theatres","ticketType":"STANDARD"},{"id":"407","tribuneTheaterId":"8608","providerTheaterId":"","name":"Bow Tie Cinemas Wayne Preakness","address":"1220 Hamburg Tpk.","city":"Wayne","state":"NJ","zip":"07470","distance":22.4669943748,"lon":"-74.244297","lat":"40.961615","theaterChainName":"Bow-Tie Cinemas","ticketType":"STANDARD"},{"id":"3388","tribuneTheaterId":"9257","providerTheaterId":"2198","name":"AMC Loews Jersey Gardens 20","address":"651 Kapowski Road","city":"Elizabeth","state":"NJ","zip":"07201","distance":24.065816920647,"lon":"-74.168304","lat":"40.659457","theaterChainName":"AMC Theatres","ticketType":"STANDARD"},{"id":"4888","tribuneTheaterId":"10198","providerTheaterId":"","name":"Fabian 8 Cinema","address":"301 Main St.","city":"Paterson","state":"NJ","zip":"07505","distance":24.195330737865,"lon":"-74.173374","lat":"40.91483","theaterChainName":"Independent Chains","ticketType":"STANDARD"},{"id":"5357","tribuneTheaterId":"10795","providerTheaterId":"","name":"Allwood Cinemas 6","address":"96 Market St.","city":"Clifton","state":"NJ","zip":"07011","distance":23.362722183587,"lon":"-74.16208","lat":"40.845838","theaterChainName":"Independent Chains","ticketType":"STANDARD"},{"id":"2573","tribuneTheaterId":"5324","providerTheaterId":"865","name":"AMC Clifton Commons 16","address":"405 Route 3 East","city":"Clifton","state":"NJ","zip":"07014","distance":24.285584338298,"lon":"-74.140356","lat":"40.828814","theaterChainName":"AMC Theatres","ticketType":"STANDARD"},{"id":"2267","tribuneTheaterId":"7742","providerTheaterId":"","name":"Regal Commerce Center Stadium 18","address":"2399 Route 1 South","city":"North Brunswick","state":"NJ","zip":"08902","distance":23.739109092513,"lon":"-74.503604","lat":"40.443203","theaterChainName":"Regal Cinemas","ticketType":"STANDARD"},{"id":"1932","tribuneTheaterId":"2993","providerTheaterId":"","name":"Lincoln Cinemas","address":"838 Kearny Ave.","city":"North Arlington","state":"NJ","zip":"07031","distance":24.107304810518,"lon":"-74.139232","lat":"40.780686","theaterChainName":"Independent Chains","ticketType":"STANDARD"},{"id":"3445","tribuneTheaterId":"4673","providerTheaterId":"","name":"UA Staten Island Stadium 16 & RPX","address":"2474 Forest Ave.","city":"Staten Island","state":"NY","zip":"10303","distance":24.73663118303,"lon":"-74.172864","lat":"40.626186","theaterChainName":"United Artists","ticketType":"STANDARD"}]