[{"id":"1613","tribuneTheaterId":"5636","providerTheaterId":"","name":"Regal Manahawkin 10","address":"733 State HWY 72 E","city":"Manahawkin","state":"NJ","zip":"08050","distance":9.2854973386678,"lon":"-74.279204","lat":"39.70609","theaterChainName":"Regal Cinemas","ticketType":"STANDARD"},{"id":"142","tribuneTheaterId":"9239","providerTheaterId":"2232","name":"AMC Loews Seacourt 10","address":"635 Bay Ave.","city":"Toms River","state":"NJ","zip":"08753","distance":15.840321146064,"lon":"-74.180632","lat":"39.974787","theaterChainName":"AMC Theatres","ticketType":"STANDARD"},{"id":"4390","tribuneTheaterId":"9438","providerTheaterId":"","name":"Marquee Cinemas Orchard 10","address":"1311 Route 37W","city":"Toms River","state":"NJ","zip":"08755","distance":17.648954114194,"lon":"-74.255455","lat":"39.98263","theaterChainName":"Marquee Cinemas","ticketType":"STANDARD"},{"id":"505","tribuneTheaterId":"8754","providerTheaterId":"2219","name":"AMC Loews Brick Plaza 10","address":"3 Brick Plaza","city":"Brick","state":"NJ","zip":"08723","distance":21.274574226155,"lon":"-74.141858","lat":"40.0584","theaterChainName":"AMC Theatres","ticketType":"STANDARD"}]