[{"id":"438","name":"Newtown","address":"120 N. State St.","city":"Newtown","state":"PA","zip":"18940","distance":"24.265756607055664","lon":"-74.936539","lat":"40.230713","theaterChainName":"Independent Chains","ticketType":"STANDARD"},{"id":"420","name":"United Artists Oxford Valley Stadium 14","address":"403 Middletown Rd.","city":"Langhorne","state":"PA","zip":"19047","distance":"21.56288719177246","lon":"-74.883408","lat":"40.185341","theaterChainName":"United Artists","ticketType":"STANDARD"},{"id":"5413","name":"Moorestown Mall Stadium 12 + RPX","address":"400 Route 38","city":"Moorestown","state":"NJ","zip":"08057","distance":"4.31927490234375","lon":"-74.963203","lat":"39.942753","theaterChainName":"Regal Cinemas","ticketType":"STANDARD"},{"id":"2003","name":"AMC Loews Cherry Hill 24","address":"2121 Route 38","city":"Cherry Hill","state":"NJ","zip":"08002","distance":"4.9278059005737305","lon":"-75.028229","lat":"39.936462","theaterChainName":"AMC Theatres","ticketType":"STANDARD"},{"id":"5389","name":"Carmike Ritz Center 16","address":"900 Haddonfield-Berlin Road","city":"Voorhees","state":"NJ","zip":"08043","distance":"2.2708580493927","lon":"-74.977173","lat":"39.848026","theaterChainName":"Carmike Cinemas","ticketType":"STANDARD"},{"id":"434","name":"Cinemark 16 Somerdale","address":"711 Evesham Road","city":"Somerdale","state":"NJ","zip":"08083","distance":"3.151090621948242","lon":"-75.020203","lat":"39.855400","theaterChainName":"Cinemark","ticketType":"STANDARD"},{"id":"360","name":"AMC Marlton 8","address":"800 N. Rte. 73","city":"Marlton","state":"NJ","zip":"08053","distance":"2.5121328830718994","lon":"-74.935493","lat":"39.904922","theaterChainName":"AMC Theatres","ticketType":"STANDARD"},{"id":"359","name":"AMC Deptford 8","address":"1740 Clements Bridge Rd.","city":"Deptford","state":"NJ","zip":"08096","distance":"7.579677104949951","lon":"-75.100479","lat":"39.834759","theaterChainName":"AMC Theatres","ticketType":"STANDARD"},{"id":"421","name":"United Artists Riverview Stadium 17","address":"1400 S. Columbus Blvd.","city":"Philadelphia","state":"PA","zip":"19147","distance":"9.824728012084961","lon":"-75.144501","lat":"39.929699","theaterChainName":"United Artists","ticketType":"STANDARD"},{"id":"363","name":"AMC Woodhaven 10","address":"1336 Bristol Pike","city":"Bensalem","state":"PA","zip":"19020","distance":"13.238814353942871","lon":"-74.965431","lat":"40.072056","theaterChainName":"AMC Theatres","ticketType":"STANDARD"},{"id":"439","name":"Regal Cross Keys Stadium 12","address":"151 American Blvd.","city":"Turnersville","state":"NJ","zip":"08012","distance":"11.11818790435791","lon":"-75.039665","lat":"39.728596","theaterChainName":"Regal Cinemas","ticketType":"STANDARD"},{"id":"5717","name":"Prince Theater","address":"1412 Chestnut Street","city":"Philadelphia","state":"PA","zip":"19102","distance":"11.371116638183594","lon":"-75.164742","lat":"39.950562","theaterChainName":"Independent Chains","ticketType":"STANDARD"},{"id":"5964","name":"AMC N Broadstreet 7","address":"1600 North Broad Street","city":"Philadelphia","state":"PA","zip":"19121","distance":"12.018348693847656","lon":"-75.158455","lat":"39.977970","theaterChainName":"AMC Theatres","ticketType":"STANDARD"},{"id":"416","name":"AMC Franklin Mills 14","address":"903 Franklin Mills Cir.","city":"Philadelphia","state":"PA","zip":"19154","distance":"14.056950569152832","lon":"-74.960899","lat":"40.083801","theaterChainName":"AMC Theatres","ticketType":"STANDARD"},{"id":"120","name":"United Artists Washington Township 14","address":"121 Tuckahoe Rd.","city":"Sewell","state":"NJ","zip":"08080","distance":"11.765424728393555","lon":"-75.028564","lat":"39.716156","theaterChainName":"United Artists","ticketType":"STANDARD"},{"id":"5462","name":"The PFS Theater at the Roxy","address":"2023 Sansom St.","city":"Philadelphia","state":"PA","zip":"19103","distance":"11.869407653808594","lon":"-75.174515","lat":"39.951534","theaterChainName":"Independent Chains","ticketType":"STANDARD"},{"id":"214","name":"United Artists Grant Plaza 9","address":"1619 Grant Ave.","city":"Philadelphia","state":"PA","zip":"19115","distance":"14.750953674316406","lon":"-75.038162","lat":"40.087608","theaterChainName":"United Artists","ticketType":"STANDARD"},{"id":"417","name":"Regal Burlington Stadium 20","address":"250 Bromley Blvd.","city":"Burlington","state":"NJ","zip":"08016","distance":"13.425243377685547","lon":"-74.821510","lat":"40.037636","theaterChainName":"Regal Cinemas","ticketType":"STANDARD"},{"id":"3560","name":"University City Penn 6","address":"4012 Walnut St.","city":"Philadelphia","state":"PA","zip":"19104","distance":"13.317429542541504","lon":"-75.203003","lat":"39.953804","theaterChainName":"Cinemark","ticketType":"STANDARD"},{"id":"436","name":"Hiway Theatre, Inc.","address":"212 Old York Rd.","city":"Jenkintown","state":"PA","zip":"19046","distance":"16.917707443237305","lon":"-75.125435","lat":"40.094677","theaterChainName":"Independent Chains","ticketType":"STANDARD"},{"id":"1441","name":"AMC Neshaminy 24","address":"660 Neshaminy Mall","city":"Bensalem","state":"PA","zip":"19020","distance":"17.902660369873047","lon":"-74.955185","lat":"40.139324","theaterChainName":"AMC Theatres","ticketType":"STANDARD"},{"id":"419","name":"United Artists Main Street Theatre 6","address":"3720 Main St.","city":"Manayunk","state":"PA","zip":"19127","distance":"15.765822410583496","lon":"-75.210464","lat":"40.015575","theaterChainName":"United Artists","ticketType":"STANDARD"},{"id":"415","name":"Bow Tie Bala Theater","address":"157 Bala Ave.","city":"Bala Cynwyd","state":"PA","zip":"19004","distance":"16.291675567626953","lon":"-75.232033","lat":"40.004658","theaterChainName":"Independent Chains","ticketType":"STANDARD"},{"id":"5738","name":"Studio Movie Grill Upper Darby","address":"53 S. 69th St.","city":"Upper Darby","state":"PA","zip":"19082","distance":"16.21607780456543","lon":"-75.258598","lat":"39.959801","theaterChainName":"Studio Movie Grill","ticketType":"SELECT_SEATING"},{"id":"437","name":"Narberth Stadium 2","address":"129 N. Narberth Ave.","city":"Narberth","state":"PA","zip":"19072","distance":"17.643230438232422","lon":"-75.260307","lat":"40.006447","theaterChainName":"Independent Chains","ticketType":"STANDARD"},{"id":"5747","name":"Movie Tavern Flourtown","address":"1842 Bethlehem Pike","city":"Flourtown","state":"PA","zip":"19031","distance":"20.459680557250977","lon":"-75.214043","lat":"40.110481","theaterChainName":"Movie Tavern","ticketType":"STANDARD"},{"id":"3608","name":"Ambler Theater","address":"108 E. Butler Ave.","city":"Ambler","state":"PA","zip":"19002","distance":"23.133865356445312","lon":"-75.221184","lat":"40.154839","theaterChainName":"Independent Chains","ticketType":"STANDARD"},{"id":"428","name":"Bryn Mawr Film Institute","address":"824 Lancaster Ave.","city":"Bryn Mawr","state":"PA","zip":"19010","distance":"20.8710994720459","lon":"-75.318932","lat":"40.021675","theaterChainName":"Independent Chains","ticketType":"STANDARD"},{"id":"2557","name":"Regal Cinemas Warrington Crossing Stadium 22 & IMAX","address":"140 Easton Rd. Building. F","city":"Warrington","state":"PA","zip":"18976","distance":"24.916603088378906","lon":"-75.142731","lat":"40.216164","theaterChainName":"Regal Cinemas","ticketType":"STANDARD"},{"id":"2083","name":"AMC Plymouth Meeting Mall 12","address":"494 W. Germantown Pike","city":"Plymouth Meeting","state":"PA","zip":"19462","distance":"23.002511978149414","lon":"-75.279396","lat":"40.114723","theaterChainName":"AMC Theatres","ticketType":"STANDARD"},{"id":"365","name":"AMC Marple 10","address":"400 S. State Road","city":"Springfield","state":"PA","zip":"19064","distance":"20.91948699951172","lon":"-75.358032","lat":"39.938290","theaterChainName":"AMC Theatres","ticketType":"STANDARD"},{"id":"418","name":"Regal Plymouth Meeting 10","address":"1011 W. Ridge Pike","city":"Conshohocken","state":"PA","zip":"19428","distance":"23.330463409423828","lon":"-75.306114","lat":"40.099419","theaterChainName":"Regal Cinemas","ticketType":"STANDARD"},{"id":"367","name":"Bow Tie Cinemas Anthony Wayne 5","address":"109 W. Lancaster Ave.","city":"Wayne","state":"PA","zip":"19087","distance":"24.850881576538086","lon":"-75.388443","lat":"40.044140","theaterChainName":"Independent Chains","ticketType":"STANDARD"},{"id":"364","name":"AMC Granite Run 8","address":"1067 W. Baltimore Pike","city":"Media","state":"PA","zip":"19063","distance":"24.59544563293457","lon":"-75.432213","lat":"39.916336","theaterChainName":"AMC Theatres","ticketType":"STANDARD"}]