[{"id":"360","tribuneTheaterId":"4256","providerTheaterId":"73","name":"AMC Marlton 8","address":"800 N. Rte. 73","city":"Marlton","state":"NJ","zip":"08053","distance":6.6427777053422,"lon":"-74.935491","lat":"39.904923","theaterChainName":"AMC Theatres","ticketType":"STANDARD"},{"id":"5389","tribuneTheaterId":"10826","providerTheaterId":"","name":"Carmike Ritz Center 16","address":"900 Haddonfield-Berlin Road","city":"Voorhees","state":"NJ","zip":"08043","distance":8.2855581146301,"lon":"-74.977173","lat":"39.848026","theaterChainName":"Carmike Cinemas","ticketType":"STANDARD"},{"id":"5413","tribuneTheaterId":"10850","providerTheaterId":"","name":"Moorestown Mall Stadium 12 + RPX","address":"400 Route 38","city":"Moorestown","state":"NJ","zip":"08057","distance":9.2526936390744,"lon":"-74.963205","lat":"39.942754","theaterChainName":"Regal Cinemas","ticketType":"STANDARD"},{"id":"434","tribuneTheaterId":"9250","providerTheaterId":"","name":"Cinemark 16 Somerdale","address":"711 Evesham Road","city":"Somerdale","state":"NJ","zip":"08083","distance":10.512038329132,"lon":"-75.020206","lat":"39.855401","theaterChainName":"Cinemark","ticketType":"STANDARD"},{"id":"417","tribuneTheaterId":"9129","providerTheaterId":"","name":"Regal Burlington Stadium 20","address":"250 Bromley Blvd.","city":"Burlington","state":"NJ","zip":"08016","distance":12.017955017337,"lon":"-74.821508","lat":"40.037637","theaterChainName":"Regal Cinemas","ticketType":"STANDARD"},{"id":"2003","tribuneTheaterId":"8453","providerTheaterId":"2194","name":"AMC Loews Cherry Hill 24","address":"2121 Route 38","city":"Cherry Hill","state":"NJ","zip":"08002","distance":12.017721225555,"lon":"-75.028232","lat":"39.936463","theaterChainName":"AMC Theatres","ticketType":"STANDARD"},{"id":"120","tribuneTheaterId":"6569","providerTheaterId":"","name":"United Artists Washington Township 14","address":"121 Tuckahoe Rd.","city":"Sewell","state":"NJ","zip":"08080","distance":14.961291634077,"lon":"-75.028563","lat":"39.716157","theaterChainName":"United Artists","ticketType":"STANDARD"},{"id":"359","tribuneTheaterId":"4255","providerTheaterId":"72","name":"AMC Deptford 8","address":"1740 Clements Bridge Rd.","city":"Deptford","state":"NJ","zip":"08096","distance":14.890941700734,"lon":"-75.100479","lat":"39.834758","theaterChainName":"AMC Theatres","ticketType":"STANDARD"},{"id":"439","tribuneTheaterId":"8965","providerTheaterId":"","name":"Regal Cross Keys Stadium 12","address":"151 American Blvd.","city":"Turnersville","state":"NJ","zip":"08012","distance":14.842239535755,"lon":"-75.039668","lat":"39.728596","theaterChainName":"Regal Cinemas","ticketType":"STANDARD"},{"id":"416","tribuneTheaterId":"5286","providerTheaterId":"870","name":"AMC Franklin Mills 14","address":"903 Franklin Mills Cir.","city":"Philadelphia","state":"PA","zip":"19154","distance":16.885574634238,"lon":"-74.9609","lat":"40.0838","theaterChainName":"AMC Theatres","ticketType":"STANDARD"},{"id":"363","tribuneTheaterId":"5284","providerTheaterId":"564","name":"AMC Woodhaven 10","address":"1336 Bristol Pike","city":"Bensalem","state":"PA","zip":"19020","distance":16.26933922262,"lon":"-74.965435","lat":"40.072055","theaterChainName":"AMC Theatres","ticketType":"STANDARD"},{"id":"421","tribuneTheaterId":"8592","providerTheaterId":"","name":"United Artists Riverview Stadium 17","address":"1400 S. Columbus Blvd.","city":"Philadelphia","state":"PA","zip":"19147","distance":17.677633566384,"lon":"-75.1445","lat":"39.9297","theaterChainName":"United Artists","ticketType":"STANDARD"},{"id":"214","tribuneTheaterId":"7276","providerTheaterId":"","name":"United Artists Grant Plaza 9","address":"1619 Grant Ave.","city":"Philadelphia","state":"PA","zip":"19115","distance":19.234757586586,"lon":"-75.038166","lat":"40.08761","theaterChainName":"United Artists","ticketType":"STANDARD"},{"id":"1441","tribuneTheaterId":"7804","providerTheaterId":"357","name":"AMC Neshaminy 24","address":"660 Neshaminy Mall","city":"Bensalem","state":"PA","zip":"19020","distance":20.300941898013,"lon":"-74.955184","lat":"40.139323","theaterChainName":"AMC Theatres","ticketType":"STANDARD"},{"id":"5462","tribuneTheaterId":"10904","providerTheaterId":"","name":"The PFS Theater at the Roxy","address":"2023 Sansom St.","city":"Philadelphia","state":"PA","zip":"19103","distance":19.629102531436,"lon":"-75.174515","lat":"39.951534","theaterChainName":"Independent Chains","ticketType":"STANDARD"},{"id":"5964","tribuneTheaterId":"11395","providerTheaterId":"","name":"AMC N Broadstreet 7","address":"1600 North Broad Street","city":"Philadelphia","state":"PA","zip":"19121","distance":19.484168429774,"lon":"-75.158456","lat":"39.97797","theaterChainName":"AMC Theatres","ticketType":"STANDARD"},{"id":"5717","tribuneTheaterId":"11159","providerTheaterId":"","name":"Prince Theater","address":"1412 Chestnut Street","city":"Philadelphia","state":"PA","zip":"19102","distance":19.116184098622,"lon":"-75.164743","lat":"39.950563","theaterChainName":"Independent Chains","ticketType":"STANDARD"},{"id":"3560","tribuneTheaterId":"5153","providerTheaterId":"","name":"University City Penn 6","address":"4012 Walnut St.","city":"Philadelphia","state":"PA","zip":"19104","distance":21.115623242356,"lon":"-75.203004","lat":"39.953805","theaterChainName":"Cinemark","ticketType":"STANDARD"},{"id":"419","tribuneTheaterId":"8423","providerTheaterId":"","name":"United Artists Main Street Theatre 6","address":"3720 Main St.","city":"Manayunk","state":"PA","zip":"19127","distance":23.086023690159,"lon":"-75.210468","lat":"40.015576","theaterChainName":"United Artists","ticketType":"STANDARD"},{"id":"5755","tribuneTheaterId":"11197","providerTheaterId":"","name":"Regal Independence Plaza 12","address":"2465 South Broad Street","city":"Hamilton","state":"NJ","zip":"08610","distance":23.289365598646,"lon":"-74.721756","lat":"40.191861","theaterChainName":"Regal Cinemas","ticketType":"STANDARD"},{"id":"436","tribuneTheaterId":"206","providerTheaterId":"","name":"Hiway Theatre, Inc.","address":"212 Old York Rd.","city":"Jenkintown","state":"PA","zip":"19046","distance":22.633540659442,"lon":"-75.125438","lat":"40.094678","theaterChainName":"Independent Chains","ticketType":"STANDARD"},{"id":"420","tribuneTheaterId":"5709","providerTheaterId":"","name":"United Artists Oxford Valley Stadium 14","address":"403 Middletown Rd.","city":"Langhorne","state":"PA","zip":"19047","distance":22.457275691735,"lon":"-74.883409","lat":"40.185342","theaterChainName":"United Artists","ticketType":"STANDARD"},{"id":"5738","tribuneTheaterId":"11180","providerTheaterId":"","name":"Studio Movie Grill Upper Darby","address":"53 S. 69th St.","city":"Upper Darby","state":"PA","zip":"19082","distance":24.056979304026,"lon":"-75.2586","lat":"39.9598","theaterChainName":"Studio Movie Grill","ticketType":"SELECT_SEATING"},{"id":"415","tribuneTheaterId":"7298","providerTheaterId":"","name":"Bow Tie Bala Theater","address":"157 Bala Ave.","city":"Bala Cynwyd","state":"PA","zip":"19004","distance":23.792175799622,"lon":"-75.232034","lat":"40.004658","theaterChainName":"Independent Chains","ticketType":"STANDARD"}]