[{"id":"5755","name":"Regal Independence Plaza 12","address":"2465 South Broad Street","city":"Hamilton","state":"NJ","zip":"08610","distance":"23.290742874145508","lon":"-74.721756","lat":"40.191860","theaterChainName":"Regal Cinemas","ticketType":"STANDARD"},{"id":"420","name":"United Artists Oxford Valley Stadium 14","address":"403 Middletown Rd.","city":"Langhorne","state":"PA","zip":"19047","distance":"22.458492279052734","lon":"-74.883408","lat":"40.185341","theaterChainName":"United Artists","ticketType":"STANDARD"},{"id":"5413","name":"Moorestown Mall Stadium 12 + RPX","address":"400 Route 38","city":"Moorestown","state":"NJ","zip":"08057","distance":"9.252955436706543","lon":"-74.963203","lat":"39.942753","theaterChainName":"Regal Cinemas","ticketType":"STANDARD"},{"id":"2003","name":"AMC Loews Cherry Hill 24","address":"2121 Route 38","city":"Cherry Hill","state":"NJ","zip":"08002","distance":"12.018086433410645","lon":"-75.028229","lat":"39.936462","theaterChainName":"AMC Theatres","ticketType":"STANDARD"},{"id":"5389","name":"Carmike Ritz Center 16","address":"900 Haddonfield-Berlin Road","city":"Voorhees","state":"NJ","zip":"08043","distance":"8.285870552062988","lon":"-74.977173","lat":"39.848026","theaterChainName":"Carmike Cinemas","ticketType":"STANDARD"},{"id":"434","name":"Cinemark 16 Somerdale","address":"711 Evesham Road","city":"Somerdale","state":"NJ","zip":"08083","distance":"10.51231861114502","lon":"-75.020203","lat":"39.855400","theaterChainName":"Cinemark","ticketType":"STANDARD"},{"id":"360","name":"AMC Marlton 8","address":"800 N. Rte. 73","city":"Marlton","state":"NJ","zip":"08053","distance":"6.643085956573486","lon":"-74.935493","lat":"39.904922","theaterChainName":"AMC Theatres","ticketType":"STANDARD"},{"id":"359","name":"AMC Deptford 8","address":"1740 Clements Bridge Rd.","city":"Deptford","state":"NJ","zip":"08096","distance":"14.891674041748047","lon":"-75.100479","lat":"39.834759","theaterChainName":"AMC Theatres","ticketType":"STANDARD"},{"id":"421","name":"United Artists Riverview Stadium 17","address":"1400 S. Columbus Blvd.","city":"Philadelphia","state":"PA","zip":"19147","distance":"17.678539276123047","lon":"-75.144501","lat":"39.929699","theaterChainName":"United Artists","ticketType":"STANDARD"},{"id":"363","name":"AMC Woodhaven 10","address":"1336 Bristol Pike","city":"Bensalem","state":"PA","zip":"19020","distance":"16.270158767700195","lon":"-74.965431","lat":"40.072056","theaterChainName":"AMC Theatres","ticketType":"STANDARD"},{"id":"439","name":"Regal Cross Keys Stadium 12","address":"151 American Blvd.","city":"Turnersville","state":"NJ","zip":"08012","distance":"14.842938423156738","lon":"-75.039665","lat":"39.728596","theaterChainName":"Regal Cinemas","ticketType":"STANDARD"},{"id":"5717","name":"Prince Theater","address":"1412 Chestnut Street","city":"Philadelphia","state":"PA","zip":"19102","distance":"19.117053985595703","lon":"-75.164742","lat":"39.950562","theaterChainName":"Independent Chains","ticketType":"STANDARD"},{"id":"5964","name":"AMC N Broadstreet 7","address":"1600 North Broad Street","city":"Philadelphia","state":"PA","zip":"19121","distance":"19.485118865966797","lon":"-75.158455","lat":"39.977970","theaterChainName":"AMC Theatres","ticketType":"STANDARD"},{"id":"416","name":"AMC Franklin Mills 14","address":"903 Franklin Mills Cir.","city":"Philadelphia","state":"PA","zip":"19154","distance":"16.886545181274414","lon":"-74.960899","lat":"40.083801","theaterChainName":"AMC Theatres","ticketType":"STANDARD"},{"id":"120","name":"United Artists Washington Township 14","address":"121 Tuckahoe Rd.","city":"Sewell","state":"NJ","zip":"08080","distance":"14.9622163772583","lon":"-75.028564","lat":"39.716156","theaterChainName":"United Artists","ticketType":"STANDARD"},{"id":"5462","name":"The PFS Theater at the Roxy","address":"2023 Sansom St.","city":"Philadelphia","state":"PA","zip":"19103","distance":"19.630104064941406","lon":"-75.174515","lat":"39.951534","theaterChainName":"Independent Chains","ticketType":"STANDARD"},{"id":"214","name":"United Artists Grant Plaza 9","address":"1619 Grant Ave.","city":"Philadelphia","state":"PA","zip":"19115","distance":"19.235572814941406","lon":"-75.038162","lat":"40.087608","theaterChainName":"United Artists","ticketType":"STANDARD"},{"id":"417","name":"Regal Burlington Stadium 20","address":"250 Bromley Blvd.","city":"Burlington","state":"NJ","zip":"08016","distance":"12.01855754852295","lon":"-74.821510","lat":"40.037636","theaterChainName":"Regal Cinemas","ticketType":"STANDARD"},{"id":"3560","name":"University City Penn 6","address":"4012 Walnut St.","city":"Philadelphia","state":"PA","zip":"19104","distance":"21.116649627685547","lon":"-75.203003","lat":"39.953804","theaterChainName":"Cinemark","ticketType":"STANDARD"},{"id":"436","name":"Hiway Theatre, Inc.","address":"212 Old York Rd.","city":"Jenkintown","state":"PA","zip":"19046","distance":"22.634592056274414","lon":"-75.125435","lat":"40.094677","theaterChainName":"Independent Chains","ticketType":"STANDARD"},{"id":"1441","name":"AMC Neshaminy 24","address":"660 Neshaminy Mall","city":"Bensalem","state":"PA","zip":"19020","distance":"20.302169799804688","lon":"-74.955185","lat":"40.139324","theaterChainName":"AMC Theatres","ticketType":"STANDARD"},{"id":"419","name":"United Artists Main Street Theatre 6","address":"3720 Main St.","city":"Manayunk","state":"PA","zip":"19127","distance":"23.087064743041992","lon":"-75.210464","lat":"40.015575","theaterChainName":"United Artists","ticketType":"STANDARD"},{"id":"415","name":"Bow Tie Bala Theater","address":"157 Bala Ave.","city":"Bala Cynwyd","state":"PA","zip":"19004","distance":"23.793376922607422","lon":"-75.232033","lat":"40.004658","theaterChainName":"Independent Chains","ticketType":"STANDARD"},{"id":"5738","name":"Studio Movie Grill Upper Darby","address":"53 S. 69th St.","city":"Upper Darby","state":"PA","zip":"19082","distance":"24.058189392089844","lon":"-75.258598","lat":"39.959801","theaterChainName":"Studio Movie Grill","ticketType":"SELECT_SEATING"}]