[{"id":"1613","tribuneTheaterId":"5636","providerTheaterId":"","name":"Regal Manahawkin 10","address":"733 State HWY 72 E","city":"Manahawkin","state":"NJ","zip":"08050","distance":9.3327691584872,"lon":"-74.279204","lat":"39.70609","theaterChainName":"Regal Cinemas","ticketType":"STANDARD"},{"id":"5005","tribuneTheaterId":"10376","providerTheaterId":"","name":"Frank Theatres Tilton 9","address":"331 Tilton Road","city":"Northfield","state":"NJ","zip":"08225","distance":17.233238700801,"lon":"-74.554789","lat":"39.386443","theaterChainName":"Frank Theatres","ticketType":"STANDARD"},{"id":"1566","tribuneTheaterId":"3225","providerTheaterId":"","name":"Frank Theatres Towne Stadium 16","address":"6733 Black Horse Pike","city":"Egg Harbor Township","state":"NJ","zip":"08234","distance":16.857632327987,"lon":"-74.564053","lat":"39.398792","theaterChainName":"Frank Theatres","ticketType":"STANDARD"},{"id":"3403","tribuneTheaterId":"8056","providerTheaterId":"","name":"Regal Hamilton Commons Stadium 14","address":"4215 Black Horse Pike","city":"Mays Landing","state":"NJ","zip":"08330","distance":17.052852449676,"lon":"-74.626919","lat":"39.446803","theaterChainName":"Regal Cinemas","ticketType":"STANDARD"},{"id":"5362","tribuneTheaterId":"10801","providerTheaterId":"","name":"Strand Theatre","address":"900 Boardwalk","city":"Ocean City","state":"NJ","zip":"08226","distance":24.291718222393,"lon":"-74.5714","lat":"39.2749","theaterChainName":"Independent Chains","ticketType":"STANDARD"},{"id":"5361","tribuneTheaterId":"10800","providerTheaterId":"","name":"Moorlyn Family Theatre","address":"837 Moorlyn Terrace","city":"Ocean City","state":"NJ","zip":"08226","distance":24.1969502041,"lon":"-74.5713","lat":"39.2764","theaterChainName":"Independent Chains","ticketType":"STANDARD"}]