[{"id":"1613","tribuneTheaterId":"5636","providerTheaterId":"","name":"Regal Manahawkin 10","address":"733 State HWY 72 E","city":"Manahawkin","state":"NJ","zip":"08050","distance":3.0384334072013,"lon":"-74.279204","lat":"39.70609","theaterChainName":"Regal Cinemas","ticketType":"STANDARD"},{"id":"4390","tribuneTheaterId":"9438","providerTheaterId":"","name":"Marquee Cinemas Orchard 10","address":"1311 Route 37W","city":"Toms River","state":"NJ","zip":"08755","distance":22.17446424089,"lon":"-74.255455","lat":"39.98263","theaterChainName":"Marquee Cinemas","ticketType":"STANDARD"},{"id":"142","tribuneTheaterId":"9239","providerTheaterId":"2232","name":"AMC Loews Seacourt 10","address":"635 Bay Ave.","city":"Toms River","state":"NJ","zip":"08753","distance":22.31001955614,"lon":"-74.180632","lat":"39.974787","theaterChainName":"AMC Theatres","ticketType":"STANDARD"},{"id":"5005","tribuneTheaterId":"10376","providerTheaterId":"","name":"Frank Theatres Tilton 9","address":"331 Tilton Road","city":"Northfield","state":"NJ","zip":"08225","distance":23.785346099394,"lon":"-74.554789","lat":"39.386443","theaterChainName":"Frank Theatres","ticketType":"STANDARD"},{"id":"3403","tribuneTheaterId":"8056","providerTheaterId":"","name":"Regal Hamilton Commons Stadium 14","address":"4215 Black Horse Pike","city":"Mays Landing","state":"NJ","zip":"08330","distance":23.399472829212,"lon":"-74.626919","lat":"39.446803","theaterChainName":"Regal Cinemas","ticketType":"STANDARD"},{"id":"1566","tribuneTheaterId":"3225","providerTheaterId":"","name":"Frank Theatres Towne Stadium 16","address":"6733 Black Horse Pike","city":"Egg Harbor Township","state":"NJ","zip":"08234","distance":23.411915985692,"lon":"-74.564053","lat":"39.398792","theaterChainName":"Frank Theatres","ticketType":"STANDARD"}]