[{"id":"1493","name":"Regal Cumberland Mall Stadium 14","address":"3849 S. Delsea","city":"Vineland","state":"NJ","zip":"08360","distance":"16.22397232055664","lon":"-75.031876","lat":"39.432247","theaterChainName":"Regal Cinemas","ticketType":"STANDARD"},{"id":"3403","name":"Regal Hamilton Commons Stadium 14","address":"4215 Black Horse Pike","city":"Mays Landing","state":"NJ","zip":"08330","distance":"24.953657150268555","lon":"-74.626923","lat":"39.446804","theaterChainName":"Regal Cinemas","ticketType":"STANDARD"},{"id":"5361","name":"Moorlyn Family Theatre","address":"837 Moorlyn Terrace","city":"Ocean City","state":"NJ","zip":"08226","distance":"21.968896865844727","lon":"-74.571297","lat":"39.276402","theaterChainName":"Independent Chains","ticketType":"STANDARD"},{"id":"5362","name":"Strand Theatre","address":"900 Boardwalk","city":"Ocean City","state":"NJ","zip":"08226","distance":"21.93958282470703","lon":"-74.571404","lat":"39.274899","theaterChainName":"Independent Chains","ticketType":"STANDARD"},{"id":"4201","name":"Rio Stadium 12","address":"3801 Route 9 South Suite 1","city":"Rio Grande","state":"NJ","zip":"08242","distance":"13.886738777160645","lon":"-74.879433","lat":"39.014160","theaterChainName":"Frank Theatres","ticketType":"STANDARD"}]