[{"id":"359","name":"AMC Deptford 8","address":"1740 Clements Bridge Rd.","city":"Deptford","state":"NJ","zip":"08096","distance":"22.119144439697266","lon":"-75.100479","lat":"39.834759","theaterChainName":"AMC Theatres","ticketType":"STANDARD"},{"id":"439","name":"Regal Cross Keys Stadium 12","address":"151 American Blvd.","city":"Turnersville","state":"NJ","zip":"08012","distance":"16.935523986816406","lon":"-75.039665","lat":"39.728596","theaterChainName":"Regal Cinemas","ticketType":"STANDARD"},{"id":"120","name":"United Artists Washington Township 14","address":"121 Tuckahoe Rd.","city":"Sewell","state":"NJ","zip":"08080","distance":"16.610034942626953","lon":"-75.028564","lat":"39.716156","theaterChainName":"United Artists","ticketType":"STANDARD"},{"id":"1493","name":"Regal Cumberland Mall Stadium 14","address":"3849 S. Delsea","city":"Vineland","state":"NJ","zip":"08360","distance":"12.286028861999512","lon":"-75.031876","lat":"39.432247","theaterChainName":"Regal Cinemas","ticketType":"STANDARD"},{"id":"3591","name":"Theatre N at Nemours","address":"11th ","city":"Wilmington","state":"DE","zip":"19801","distance":"22.88863754272461","lon":"-75.549385","lat":"39.746754","theaterChainName":"Independent Chains","ticketType":"STANDARD"},{"id":"5255","name":"Penn Cinema Riverfront IMAX","address":"401 S. Madison St.","city":"Wilmington","state":"DE","zip":"19801","distance":"22.964473724365234","lon":"-75.561996","lat":"39.736801","theaterChainName":"Independent Chains","ticketType":"STANDARD"},{"id":"5574","name":"Cinemark Christiana and XD","address":"1200 Christiana Mall","city":"Christiana","state":"DE","zip":"19702","distance":"24.99175262451172","lon":"-75.651299","lat":"39.680599","theaterChainName":"Cinemark","ticketType":"STANDARD"}]