[{"id":"1493","name":"Regal Cumberland Mall Stadium 14","address":"3849 S. Delsea","city":"Vineland","state":"NJ","zip":"08360","distance":"14.52965259552002","lon":"-75.031876","lat":"39.432247","theaterChainName":"Regal Cinemas","ticketType":"STANDARD"},{"id":"3403","name":"Regal Hamilton Commons Stadium 14","address":"4215 Black Horse Pike","city":"Mays Landing","state":"NJ","zip":"08330","distance":"24.94588279724121","lon":"-74.626923","lat":"39.446804","theaterChainName":"Regal Cinemas","ticketType":"STANDARD"},{"id":"5361","name":"Moorlyn Family Theatre","address":"837 Moorlyn Terrace","city":"Ocean City","state":"NJ","zip":"08226","distance":"22.916851043701172","lon":"-74.571297","lat":"39.276402","theaterChainName":"Independent Chains","ticketType":"STANDARD"},{"id":"5362","name":"Strand Theatre","address":"900 Boardwalk","city":"Ocean City","state":"NJ","zip":"08226","distance":"22.895263671875","lon":"-74.571404","lat":"39.274899","theaterChainName":"Independent Chains","ticketType":"STANDARD"},{"id":"4201","name":"Rio Stadium 12","address":"3801 Route 9 South Suite 1","city":"Rio Grande","state":"NJ","zip":"08242","distance":"15.750732421875","lon":"-74.879433","lat":"39.014160","theaterChainName":"Frank Theatres","ticketType":"STANDARD"}]