[{"id":"1493","tribuneTheaterId":"7420","providerTheaterId":"","name":"Regal Cumberland Mall Stadium 14","address":"3849 S. Delsea","city":"Vineland","state":"NJ","zip":"08360","distance":14.528848170806,"lon":"-75.031879","lat":"39.432249","theaterChainName":"Regal Cinemas","ticketType":"STANDARD"},{"id":"4201","tribuneTheaterId":"2325","providerTheaterId":"","name":"Rio Stadium 12","address":"3801 Route 9 South Suite 1","city":"Rio Grande","state":"NJ","zip":"08242","distance":15.749764818115,"lon":"-74.879431","lat":"39.014161","theaterChainName":"Frank Theatres","ticketType":"STANDARD"},{"id":"5362","tribuneTheaterId":"10801","providerTheaterId":"","name":"Strand Theatre","address":"900 Boardwalk","city":"Ocean City","state":"NJ","zip":"08226","distance":22.893947341981,"lon":"-74.5714","lat":"39.2749","theaterChainName":"Independent Chains","ticketType":"STANDARD"},{"id":"5361","tribuneTheaterId":"10800","providerTheaterId":"","name":"Moorlyn Family Theatre","address":"837 Moorlyn Terrace","city":"Ocean City","state":"NJ","zip":"08226","distance":22.915141115718,"lon":"-74.5713","lat":"39.2764","theaterChainName":"Independent Chains","ticketType":"STANDARD"},{"id":"3403","tribuneTheaterId":"8056","providerTheaterId":"","name":"Regal Hamilton Commons Stadium 14","address":"4215 Black Horse Pike","city":"Mays Landing","state":"NJ","zip":"08330","distance":24.94433188058,"lon":"-74.626919","lat":"39.446803","theaterChainName":"Regal Cinemas","ticketType":"STANDARD"}]