[{"id":"439","tribuneTheaterId":"8965","providerTheaterId":"","name":"Regal Cross Keys Stadium 12","address":"151 American Blvd.","city":"Turnersville","state":"NJ","zip":"08012","distance":7.807541762133,"lon":"-75.039668","lat":"39.728596","theaterChainName":"Regal Cinemas","ticketType":"STANDARD"},{"id":"120","tribuneTheaterId":"6569","providerTheaterId":"","name":"United Artists Washington Township 14","address":"121 Tuckahoe Rd.","city":"Sewell","state":"NJ","zip":"08080","distance":6.9787310337702,"lon":"-75.028563","lat":"39.716157","theaterChainName":"United Artists","ticketType":"STANDARD"},{"id":"1493","tribuneTheaterId":"7420","providerTheaterId":"","name":"Regal Cumberland Mall Stadium 14","address":"3849 S. Delsea","city":"Vineland","state":"NJ","zip":"08360","distance":12.677446003585,"lon":"-75.031879","lat":"39.432249","theaterChainName":"Regal Cinemas","ticketType":"STANDARD"},{"id":"359","tribuneTheaterId":"4255","providerTheaterId":"72","name":"AMC Deptford 8","address":"1740 Clements Bridge Rd.","city":"Deptford","state":"NJ","zip":"08096","distance":15.46980353458,"lon":"-75.100479","lat":"39.834758","theaterChainName":"AMC Theatres","ticketType":"STANDARD"},{"id":"434","tribuneTheaterId":"9250","providerTheaterId":"","name":"Cinemark 16 Somerdale","address":"711 Evesham Road","city":"Somerdale","state":"NJ","zip":"08083","distance":16.605086700079,"lon":"-75.020206","lat":"39.855401","theaterChainName":"Cinemark","ticketType":"STANDARD"},{"id":"5389","tribuneTheaterId":"10826","providerTheaterId":"","name":"Carmike Ritz Center 16","address":"900 Haddonfield-Berlin Road","city":"Voorhees","state":"NJ","zip":"08043","distance":16.412198800951,"lon":"-74.977173","lat":"39.848026","theaterChainName":"Carmike Cinemas","ticketType":"STANDARD"},{"id":"360","tribuneTheaterId":"4256","providerTheaterId":"73","name":"AMC Marlton 8","address":"800 N. Rte. 73","city":"Marlton","state":"NJ","zip":"08053","distance":20.759489709735,"lon":"-74.935491","lat":"39.904923","theaterChainName":"AMC Theatres","ticketType":"STANDARD"},{"id":"421","tribuneTheaterId":"8592","providerTheaterId":"","name":"United Artists Riverview Stadium 17","address":"1400 S. Columbus Blvd.","city":"Philadelphia","state":"PA","zip":"19147","distance":22.388685708939,"lon":"-75.1445","lat":"39.9297","theaterChainName":"United Artists","ticketType":"STANDARD"},{"id":"2003","tribuneTheaterId":"8453","providerTheaterId":"2194","name":"AMC Loews Cherry Hill 24","address":"2121 Route 38","city":"Cherry Hill","state":"NJ","zip":"08002","distance":22.179687798606,"lon":"-75.028232","lat":"39.936463","theaterChainName":"AMC Theatres","ticketType":"STANDARD"},{"id":"5413","tribuneTheaterId":"10850","providerTheaterId":"","name":"Moorestown Mall Stadium 12 + RPX","address":"400 Route 38","city":"Moorestown","state":"NJ","zip":"08057","distance":22.977546532758,"lon":"-74.963205","lat":"39.942754","theaterChainName":"Regal Cinemas","ticketType":"STANDARD"},{"id":"3403","tribuneTheaterId":"8056","providerTheaterId":"","name":"Regal Hamilton Commons Stadium 14","address":"4215 Black Horse Pike","city":"Mays Landing","state":"NJ","zip":"08330","distance":24.95416162248,"lon":"-74.626919","lat":"39.446803","theaterChainName":"Regal Cinemas","ticketType":"STANDARD"},{"id":"5462","tribuneTheaterId":"10904","providerTheaterId":"","name":"The PFS Theater at the Roxy","address":"2023 Sansom St.","city":"Philadelphia","state":"PA","zip":"19103","distance":24.270784661023,"lon":"-75.174515","lat":"39.951534","theaterChainName":"Independent Chains","ticketType":"STANDARD"},{"id":"5717","tribuneTheaterId":"11159","providerTheaterId":"","name":"Prince Theater","address":"1412 Chestnut Street","city":"Philadelphia","state":"PA","zip":"19102","distance":24.059697628223,"lon":"-75.164743","lat":"39.950563","theaterChainName":"Independent Chains","ticketType":"STANDARD"},{"id":"3560","tribuneTheaterId":"5153","providerTheaterId":"","name":"University City Penn 6","address":"4012 Walnut St.","city":"Philadelphia","state":"PA","zip":"19104","distance":24.902365766588,"lon":"-75.203004","lat":"39.953805","theaterChainName":"Cinemark","ticketType":"STANDARD"}]