[{"id":"1493","name":"Regal Cumberland Mall Stadium 14","address":"3849 S. Delsea","city":"Vineland","state":"NJ","zip":"08360","distance":"17.914945602416992","lon":"-75.031876","lat":"39.432247","theaterChainName":"Regal Cinemas","ticketType":"STANDARD"},{"id":"3403","name":"Regal Hamilton Commons Stadium 14","address":"4215 Black Horse Pike","city":"Mays Landing","state":"NJ","zip":"08330","distance":"3.835705041885376","lon":"-74.626923","lat":"39.446804","theaterChainName":"Regal Cinemas","ticketType":"STANDARD"},{"id":"1566","name":"Frank Theatres Towne Stadium 16","address":"6733 Black Horse Pike","city":"Egg Harbor Township","state":"NJ","zip":"08234","distance":"7.417786598205566","lon":"-74.564056","lat":"39.398792","theaterChainName":"Frank Theatres","ticketType":"STANDARD"},{"id":"5005","name":"Frank Theatres Tilton 9","address":"331 Tilton Road","city":"Northfield","state":"NJ","zip":"08225","distance":"8.179435729980469","lon":"-74.554787","lat":"39.386444","theaterChainName":"Frank Theatres","ticketType":"STANDARD"},{"id":"5361","name":"Moorlyn Family Theatre","address":"837 Moorlyn Terrace","city":"Ocean City","state":"NJ","zip":"08226","distance":"12.654107093811035","lon":"-74.571297","lat":"39.276402","theaterChainName":"Independent Chains","ticketType":"STANDARD"},{"id":"5362","name":"Strand Theatre","address":"900 Boardwalk","city":"Ocean City","state":"NJ","zip":"08226","distance":"12.739511489868164","lon":"-74.571404","lat":"39.274899","theaterChainName":"Independent Chains","ticketType":"STANDARD"}]