[{"id":"439","name":"Regal Cross Keys Stadium 12","address":"151 American Blvd.","city":"Turnersville","state":"NJ","zip":"08012","distance":"19.114137649536133","lon":"-75.039665","lat":"39.728596","theaterChainName":"Regal Cinemas","ticketType":"STANDARD"},{"id":"120","name":"United Artists Washington Township 14","address":"121 Tuckahoe Rd.","city":"Sewell","state":"NJ","zip":"08080","distance":"18.07166290283203","lon":"-75.028564","lat":"39.716156","theaterChainName":"United Artists","ticketType":"STANDARD"},{"id":"1493","name":"Regal Cumberland Mall Stadium 14","address":"3849 S. Delsea","city":"Vineland","state":"NJ","zip":"08360","distance":"11.630541801452637","lon":"-75.031876","lat":"39.432247","theaterChainName":"Regal Cinemas","ticketType":"STANDARD"},{"id":"3403","name":"Regal Hamilton Commons Stadium 14","address":"4215 Black Horse Pike","city":"Mays Landing","state":"NJ","zip":"08330","distance":"11.662118911743164","lon":"-74.626923","lat":"39.446804","theaterChainName":"Regal Cinemas","ticketType":"STANDARD"},{"id":"1566","name":"Frank Theatres Towne Stadium 16","address":"6733 Black Horse Pike","city":"Egg Harbor Township","state":"NJ","zip":"08234","distance":"16.051164627075195","lon":"-74.564056","lat":"39.398792","theaterChainName":"Frank Theatres","ticketType":"STANDARD"},{"id":"5005","name":"Frank Theatres Tilton 9","address":"331 Tilton Road","city":"Northfield","state":"NJ","zip":"08225","distance":"16.883541107177734","lon":"-74.554787","lat":"39.386444","theaterChainName":"Frank Theatres","ticketType":"STANDARD"},{"id":"5361","name":"Moorlyn Family Theatre","address":"837 Moorlyn Terrace","city":"Ocean City","state":"NJ","zip":"08226","distance":"20.959068298339844","lon":"-74.571297","lat":"39.276402","theaterChainName":"Independent Chains","ticketType":"STANDARD"},{"id":"5362","name":"Strand Theatre","address":"900 Boardwalk","city":"Ocean City","state":"NJ","zip":"08226","distance":"21.03276252746582","lon":"-74.571404","lat":"39.274899","theaterChainName":"Independent Chains","ticketType":"STANDARD"}]