[{"id":"1493","tribuneTheaterId":"7420","providerTheaterId":"","name":"Regal Cumberland Mall Stadium 14","address":"3849 S. Delsea","city":"Vineland","state":"NJ","zip":"08360","distance":11.630058821102,"lon":"-75.031879","lat":"39.432249","theaterChainName":"Regal Cinemas","ticketType":"STANDARD"},{"id":"3403","tribuneTheaterId":"8056","providerTheaterId":"","name":"Regal Hamilton Commons Stadium 14","address":"4215 Black Horse Pike","city":"Mays Landing","state":"NJ","zip":"08330","distance":11.661371180157,"lon":"-74.626919","lat":"39.446803","theaterChainName":"Regal Cinemas","ticketType":"STANDARD"},{"id":"5005","tribuneTheaterId":"10376","providerTheaterId":"","name":"Frank Theatres Tilton 9","address":"331 Tilton Road","city":"Northfield","state":"NJ","zip":"08225","distance":16.882185397148,"lon":"-74.554789","lat":"39.386443","theaterChainName":"Frank Theatres","ticketType":"STANDARD"},{"id":"1566","tribuneTheaterId":"3225","providerTheaterId":"","name":"Frank Theatres Towne Stadium 16","address":"6733 Black Horse Pike","city":"Egg Harbor Township","state":"NJ","zip":"08234","distance":16.050104027632,"lon":"-74.564053","lat":"39.398792","theaterChainName":"Frank Theatres","ticketType":"STANDARD"},{"id":"120","tribuneTheaterId":"6569","providerTheaterId":"","name":"United Artists Washington Township 14","address":"121 Tuckahoe Rd.","city":"Sewell","state":"NJ","zip":"08080","distance":18.070776024488,"lon":"-75.028563","lat":"39.716157","theaterChainName":"United Artists","ticketType":"STANDARD"},{"id":"439","tribuneTheaterId":"8965","providerTheaterId":"","name":"Regal Cross Keys Stadium 12","address":"151 American Blvd.","city":"Turnersville","state":"NJ","zip":"08012","distance":19.113274244772,"lon":"-75.039668","lat":"39.728596","theaterChainName":"Regal Cinemas","ticketType":"STANDARD"},{"id":"5362","tribuneTheaterId":"10801","providerTheaterId":"","name":"Strand Theatre","address":"900 Boardwalk","city":"Ocean City","state":"NJ","zip":"08226","distance":21.031277288462,"lon":"-74.5714","lat":"39.2749","theaterChainName":"Independent Chains","ticketType":"STANDARD"},{"id":"5361","tribuneTheaterId":"10800","providerTheaterId":"","name":"Moorlyn Family Theatre","address":"837 Moorlyn Terrace","city":"Ocean City","state":"NJ","zip":"08226","distance":20.957499516182,"lon":"-74.5713","lat":"39.2764","theaterChainName":"Independent Chains","ticketType":"STANDARD"}]