[{"id":"1493","tribuneTheaterId":"7420","providerTheaterId":"","name":"Regal Cumberland Mall Stadium 14","address":"3849 S. Delsea","city":"Vineland","state":"NJ","zip":"08360","distance":14.269539453202,"lon":"-75.031879","lat":"39.432249","theaterChainName":"Regal Cinemas","ticketType":"STANDARD"},{"id":"5464","tribuneTheaterId":"10905","providerTheaterId":"","name":"Westown Movies","address":"150 Commerce Drive","city":"Middletown","state":"DE","zip":"19709","distance":21.590463882295,"lon":"-75.6923","lat":"39.393","theaterChainName":"Independent Chains","ticketType":"STANDARD"},{"id":"120","tribuneTheaterId":"6569","providerTheaterId":"","name":"United Artists Washington Township 14","address":"121 Tuckahoe Rd.","city":"Sewell","state":"NJ","zip":"08080","distance":22.781877388122,"lon":"-75.028563","lat":"39.716157","theaterChainName":"United Artists","ticketType":"STANDARD"},{"id":"2867","tribuneTheaterId":"8207","providerTheaterId":"","name":"Carmike 14 Theatre","address":"1365 N. Dupont Hwy, Suite 3020","city":"Dover","state":"DE","zip":"19901","distance":22.419752451079,"lon":"-75.540318","lat":"39.195079","theaterChainName":"Carmike Cinemas","ticketType":"STANDARD"},{"id":"5574","tribuneTheaterId":"11021","providerTheaterId":"","name":"Cinemark Christiana and XD","address":"1200 Christiana Mall","city":"Christiana","state":"DE","zip":"19702","distance":24.282999145182,"lon":"-75.6513","lat":"39.6806","theaterChainName":"Cinemark","ticketType":"STANDARD"},{"id":"3591","tribuneTheaterId":"666","providerTheaterId":"","name":"Theatre N at Nemours","address":"11th ","city":"Wilmington","state":"DE","zip":"19801","distance":23.972970574953,"lon":"-75.549384","lat":"39.746753","theaterChainName":"Independent Chains","ticketType":"STANDARD"},{"id":"439","tribuneTheaterId":"8965","providerTheaterId":"","name":"Regal Cross Keys Stadium 12","address":"151 American Blvd.","city":"Turnersville","state":"NJ","zip":"08012","distance":23.10105459729,"lon":"-75.039668","lat":"39.728596","theaterChainName":"Regal Cinemas","ticketType":"STANDARD"},{"id":"5255","tribuneTheaterId":"10685","providerTheaterId":"","name":"Penn Cinema Riverfront IMAX","address":"401 S. Madison St.","city":"Wilmington","state":"DE","zip":"19801","distance":23.799077065836,"lon":"-75.562","lat":"39.7368","theaterChainName":"Independent Chains","ticketType":"STANDARD"}]