[{"id":"1613","name":"Regal Manahawkin 10","address":"733 State HWY 72 E","city":"Manahawkin","state":"NJ","zip":"08050","distance":"24.838552474975586","lon":"-74.279205","lat":"39.706089","theaterChainName":"Regal Cinemas","ticketType":"STANDARD"},{"id":"3403","name":"Regal Hamilton Commons Stadium 14","address":"4215 Black Horse Pike","city":"Mays Landing","state":"NJ","zip":"08330","distance":"11.81085205078125","lon":"-74.626923","lat":"39.446804","theaterChainName":"Regal Cinemas","ticketType":"STANDARD"},{"id":"1566","name":"Frank Theatres Towne Stadium 16","address":"6733 Black Horse Pike","city":"Egg Harbor Township","state":"NJ","zip":"08234","distance":"7.4145708084106445","lon":"-74.564056","lat":"39.398792","theaterChainName":"Frank Theatres","ticketType":"STANDARD"},{"id":"5005","name":"Frank Theatres Tilton 9","address":"331 Tilton Road","city":"Northfield","state":"NJ","zip":"08225","distance":"6.718506813049316","lon":"-74.554787","lat":"39.386444","theaterChainName":"Frank Theatres","ticketType":"STANDARD"},{"id":"5361","name":"Moorlyn Family Theatre","address":"837 Moorlyn Terrace","city":"Ocean City","state":"NJ","zip":"08226","distance":"9.713586807250977","lon":"-74.571297","lat":"39.276402","theaterChainName":"Independent Chains","ticketType":"STANDARD"},{"id":"5362","name":"Strand Theatre","address":"900 Boardwalk","city":"Ocean City","state":"NJ","zip":"08226","distance":"9.784818649291992","lon":"-74.571404","lat":"39.274899","theaterChainName":"Independent Chains","ticketType":"STANDARD"}]