[{"id":"5918","tribuneTheaterId":"11346","providerTheaterId":"","name":"Xscape Theatres Howell 14","address":"5361 US Highway 9","city":"Howell","state":"NJ","zip":"07731","distance":4.3523319611708,"lon":"-74.219658","lat":"40.1267","theaterChainName":"Independent Chains","ticketType":"STANDARD"},{"id":"4390","tribuneTheaterId":"9438","providerTheaterId":"","name":"Marquee Cinemas Orchard 10","address":"1311 Route 37W","city":"Toms River","state":"NJ","zip":"08755","distance":9.8683359664656,"lon":"-74.255455","lat":"39.98263","theaterChainName":"Marquee Cinemas","ticketType":"STANDARD"},{"id":"143","tribuneTheaterId":"8755","providerTheaterId":"2233","name":"AMC Loews Freehold Metroplex 14","address":"101 Trotters Way","city":"Freehold","state":"NJ","zip":"07728","distance":8.8986877924421,"lon":"-74.294567","lat":"40.249677","theaterChainName":"AMC Theatres","ticketType":"STANDARD"},{"id":"505","tribuneTheaterId":"8754","providerTheaterId":"2219","name":"AMC Loews Brick Plaza 10","address":"3 Brick Plaza","city":"Brick","state":"NJ","zip":"08723","distance":9.4918181647254,"lon":"-74.141858","lat":"40.0584","theaterChainName":"AMC Theatres","ticketType":"STANDARD"},{"id":"142","tribuneTheaterId":"9239","providerTheaterId":"2232","name":"AMC Loews Seacourt 10","address":"635 Bay Ave.","city":"Toms River","state":"NJ","zip":"08753","distance":11.960828768168,"lon":"-74.180632","lat":"39.974787","theaterChainName":"AMC Theatres","ticketType":"STANDARD"},{"id":"6056","tribuneTheaterId":"11463","providerTheaterId":"","name":"Picture Show at East Windsor","address":"319 US-130","city":"East Windsor","state":"NJ","zip":"08520","distance":16.212248708923,"lon":"-74.530387","lat":"40.277675","theaterChainName":"Picture Show Entertainment","ticketType":"STANDARD"},{"id":"1772","tribuneTheaterId":"8675","providerTheaterId":"","name":"Cine Grand Middlebrook 10","address":"1502 Route 35 South","city":"Ocean","state":"NJ","zip":"07712","distance":16.292203205243,"lon":"-74.040824","lat":"40.247016","theaterChainName":"Independent Chains","ticketType":"STANDARD"},{"id":"4948","tribuneTheaterId":"10303","providerTheaterId":"","name":"The Showroom","address":"708 Cookman Ave.","city":"Asbury Park","state":"NJ","zip":"07712","distance":16.618045944211,"lon":"-74.0124","lat":"40.215744","theaterChainName":"Independent Chains","ticketType":"STANDARD"},{"id":"144","tribuneTheaterId":"9110","providerTheaterId":"2234","name":"AMC Loews Monmouth Mall 15","address":"180 State Rt. 35 S.","city":"Eatontown","state":"NJ","zip":"07724","distance":17.433248177198,"lon":"-74.053195","lat":"40.287254","theaterChainName":"AMC Theatres","ticketType":"STANDARD"},{"id":"145","tribuneTheaterId":"8854","providerTheaterId":"","name":"Bow Tie Cinemas Red Bank Cinemas","address":"36 White St.","city":"Red Bank","state":"NJ","zip":"07701","distance":20.105804832381,"lon":"-74.067286","lat":"40.350467","theaterChainName":"Bow-Tie Cinemas","ticketType":"STANDARD"},{"id":"2672","tribuneTheaterId":"5895","providerTheaterId":"","name":"Bow Tie Cinemas Strathmore Cinema 4","address":"1055 Route 34","city":"Aberdeen","state":"NJ","zip":"07747","distance":19.725909147136,"lon":"-74.229301","lat":"40.4011","theaterChainName":"Bow-Tie Cinemas","ticketType":"STANDARD"},{"id":"1177","tribuneTheaterId":"6418","providerTheaterId":"","name":"Starplex East Brunswick","address":"755 State HWY 18","city":"East Brunswick","state":"NJ","zip":"08816","distance":21.221459495303,"lon":"-74.381776","lat":"40.422004","theaterChainName":"Starplex Cinemas","ticketType":"STANDARD"},{"id":"281","tribuneTheaterId":"9274","providerTheaterId":"","name":"Rave Cinemas Hazlet 12","address":"2821 Highway 35","city":"Hazlet","state":"NJ","zip":"07730","distance":21.709981967853,"lon":"-74.169227","lat":"40.418511","theaterChainName":"Cinemark","ticketType":"STANDARD"},{"id":"5755","tribuneTheaterId":"11197","providerTheaterId":"","name":"Regal Independence Plaza 12","address":"2465 South Broad Street","city":"Hamilton","state":"NJ","zip":"08610","distance":22.715811739277,"lon":"-74.721756","lat":"40.191861","theaterChainName":"Regal Cinemas","ticketType":"STANDARD"},{"id":"2476","tribuneTheaterId":"7071","providerTheaterId":"79","name":"AMC Hamilton 24","address":"325 Sloan Ave.","city":"Hamilton","state":"NJ","zip":"08619","distance":22.545166858414,"lon":"-74.694586","lat":"40.24899","theaterChainName":"AMC Theatres","ticketType":"STANDARD"},{"id":"5764","tribuneTheaterId":"11206","providerTheaterId":"68","name":"AMC MarketFair 10","address":"3521 U.S. 1","city":"Princeton","state":"NJ","zip":"08540","distance":23.265972530881,"lon":"-74.661798","lat":"40.315376","theaterChainName":"AMC Theatres","ticketType":"STANDARD"},{"id":"2267","tribuneTheaterId":"7742","providerTheaterId":"","name":"Regal Commerce Center Stadium 18","address":"2399 Route 1 South","city":"North Brunswick","state":"NJ","zip":"08902","distance":24.674992705828,"lon":"-74.503604","lat":"40.443203","theaterChainName":"Regal Cinemas","ticketType":"STANDARD"},{"id":"1797","tribuneTheaterId":"2946","providerTheaterId":"","name":"Atlantic Highlands Cinema 5","address":"82 First Ave.","city":"Atlantic Highlands","state":"NJ","zip":"07716","distance":24.54392224637,"lon":"-74.037586","lat":"40.41353","theaterChainName":"Independent Chains","ticketType":"STANDARD"},{"id":"425","tribuneTheaterId":"2665","providerTheaterId":"","name":"Princeton Garden Theatre","address":"160 Nassau St.","city":"Princeton","state":"NJ","zip":"08542","distance":24.579904239601,"lon":"-74.657536","lat":"40.350714","theaterChainName":"Independent Chains","ticketType":"STANDARD"}]