[{"id":"6056","tribuneTheaterId":"11463","providerTheaterId":"","name":"Picture Show at East Windsor","address":"319 US-130","city":"East Windsor","state":"NJ","zip":"08520","distance":4.288782878556,"lon":"-74.530387","lat":"40.277675","theaterChainName":"Picture Show Entertainment","ticketType":"STANDARD"},{"id":"5764","tribuneTheaterId":"11206","providerTheaterId":"68","name":"AMC MarketFair 10","address":"3521 U.S. 1","city":"Princeton","state":"NJ","zip":"08540","distance":5.0380556087982,"lon":"-74.661798","lat":"40.315376","theaterChainName":"AMC Theatres","ticketType":"STANDARD"},{"id":"425","tribuneTheaterId":"2665","providerTheaterId":"","name":"Princeton Garden Theatre","address":"160 Nassau St.","city":"Princeton","state":"NJ","zip":"08542","distance":4.8413783690523,"lon":"-74.657536","lat":"40.350714","theaterChainName":"Independent Chains","ticketType":"STANDARD"},{"id":"2443","tribuneTheaterId":"4078","providerTheaterId":"","name":"Montgomery Cinema","address":"1325 Route 206","city":"Belle Mead","state":"NJ","zip":"08502","distance":6.5006986374393,"lon":"-74.647465","lat":"40.404926","theaterChainName":"Independent Chains","ticketType":"STANDARD"},{"id":"2476","tribuneTheaterId":"7071","providerTheaterId":"79","name":"AMC Hamilton 24","address":"325 Sloan Ave.","city":"Hamilton","state":"NJ","zip":"08619","distance":8.7840651980796,"lon":"-74.694586","lat":"40.24899","theaterChainName":"AMC Theatres","ticketType":"STANDARD"},{"id":"2267","tribuneTheaterId":"7742","providerTheaterId":"","name":"Regal Commerce Center Stadium 18","address":"2399 Route 1 South","city":"North Brunswick","state":"NJ","zip":"08902","distance":8.3894304012117,"lon":"-74.503604","lat":"40.443203","theaterChainName":"Regal Cinemas","ticketType":"STANDARD"},{"id":"5755","tribuneTheaterId":"11197","providerTheaterId":"","name":"Regal Independence Plaza 12","address":"2465 South Broad Street","city":"Hamilton","state":"NJ","zip":"08610","distance":12.622489406461,"lon":"-74.721756","lat":"40.191861","theaterChainName":"Regal Cinemas","ticketType":"STANDARD"},{"id":"3116","tribuneTheaterId":"3161","providerTheaterId":"","name":"Hillsborough Cinemas","address":"111 Raider Blvd.","city":"Hillsborough","state":"NJ","zip":"08844","distance":11.764738337016,"lon":"-74.644439","lat":"40.492638","theaterChainName":"Independent Chains","ticketType":"STANDARD"},{"id":"1177","tribuneTheaterId":"6418","providerTheaterId":"","name":"Starplex East Brunswick","address":"755 State HWY 18","city":"East Brunswick","state":"NJ","zip":"08816","distance":11.628988361701,"lon":"-74.381776","lat":"40.422004","theaterChainName":"Starplex Cinemas","ticketType":"STANDARD"},{"id":"300","tribuneTheaterId":"7190","providerTheaterId":"2220","name":"AMC Loews New Brunswick 18","address":"17 US Highway 1","city":"New Brunswick","state":"NJ","zip":"08901","distance":13.488656565528,"lon":"-74.415618","lat":"40.488952","theaterChainName":"AMC Theatres","ticketType":"STANDARD"},{"id":"143","tribuneTheaterId":"8755","providerTheaterId":"2233","name":"AMC Loews Freehold Metroplex 14","address":"101 Trotters Way","city":"Freehold","state":"NJ","zip":"07728","distance":15.54182709904,"lon":"-74.294567","lat":"40.249677","theaterChainName":"AMC Theatres","ticketType":"STANDARD"},{"id":"2560","tribuneTheaterId":"3193","providerTheaterId":"","name":"Manville 12 Plex","address":"180 N Main Street","city":"Manville","state":"NJ","zip":"08835","distance":15.059964763779,"lon":"-74.584304","lat":"40.550046","theaterChainName":"Reading International, Inc","ticketType":"STANDARD"},{"id":"5960","tribuneTheaterId":"11391","providerTheaterId":"","name":"Rutgers Cinema","address":"105 Joyce Kilmer Ave","city":"Piscataway","state":"NJ","zip":"08854","distance":15.017536567057,"lon":"-74.437311","lat":"40.525334","theaterChainName":"Independent Chains","ticketType":"STANDARD"},{"id":"635","tribuneTheaterId":"8055","providerTheaterId":"","name":"Regal Hadley Theatre Stadium 16","address":"1000 Corporate Court","city":"South Plainfield","state":"NJ","zip":"07080","distance":16.780232055958,"lon":"-74.424281","lat":"40.548929","theaterChainName":"Regal Cinemas","ticketType":"STANDARD"},{"id":"2672","tribuneTheaterId":"5895","providerTheaterId":"","name":"Bow Tie Cinemas Strathmore Cinema 4","address":"1055 Route 34","city":"Aberdeen","state":"NJ","zip":"07747","distance":18.491891199343,"lon":"-74.229301","lat":"40.4011","theaterChainName":"Bow-Tie Cinemas","ticketType":"STANDARD"},{"id":"754","tribuneTheaterId":"7207","providerTheaterId":"","name":"AMC Bridgewater Commons 7","address":"400 Commons Way","city":"Bridgewater","state":"NJ","zip":"08807","distance":17.774848563787,"lon":"-74.619248","lat":"40.586779","theaterChainName":"AMC Theatres","ticketType":"STANDARD"},{"id":"848","tribuneTheaterId":"2421","providerTheaterId":"","name":"Dunellen Cinema Cafe","address":"458 North Ave","city":"Dunellen","state":"NJ","zip":"08812","distance":18.531513524073,"lon":"-74.467582","lat":"40.589316","theaterChainName":"Independent Chains","ticketType":"STANDARD"},{"id":"4231","tribuneTheaterId":"3117","providerTheaterId":"","name":"Big Cinemas Movie City 8","address":"1655 Oak Tree Road","city":"Edison","state":"NJ","zip":"08820","distance":20.387134505604,"lon":"-74.34062","lat":"40.57097","theaterChainName":"Independent Chains","ticketType":"STANDARD"},{"id":"420","tribuneTheaterId":"5709","providerTheaterId":"","name":"United Artists Oxford Valley Stadium 14","address":"403 Middletown Rd.","city":"Langhorne","state":"PA","zip":"19047","distance":19.452961477554,"lon":"-74.883409","lat":"40.185342","theaterChainName":"United Artists","ticketType":"STANDARD"},{"id":"438","tribuneTheaterId":"2418","providerTheaterId":"","name":"Newtown","address":"120 N. State St.","city":"Newtown","state":"PA","zip":"18940","distance":20.617525056328,"lon":"-74.93654","lat":"40.230711","theaterChainName":"Independent Chains","ticketType":"STANDARD"},{"id":"281","tribuneTheaterId":"9274","providerTheaterId":"","name":"Rave Cinemas Hazlet 12","address":"2821 Highway 35","city":"Hazlet","state":"NJ","zip":"07730","distance":21.85740122587,"lon":"-74.169227","lat":"40.418511","theaterChainName":"Cinemark","ticketType":"STANDARD"},{"id":"5918","tribuneTheaterId":"11346","providerTheaterId":"","name":"Xscape Theatres Howell 14","address":"5361 US Highway 9","city":"Howell","state":"NJ","zip":"07731","distance":23.263500427462,"lon":"-74.219658","lat":"40.1267","theaterChainName":"Independent Chains","ticketType":"STANDARD"},{"id":"1441","tribuneTheaterId":"7804","providerTheaterId":"357","name":"AMC Neshaminy 24","address":"660 Neshaminy Mall","city":"Bensalem","state":"PA","zip":"19020","distance":24.35782989398,"lon":"-74.955184","lat":"40.139323","theaterChainName":"AMC Theatres","ticketType":"STANDARD"},{"id":"123","tribuneTheaterId":"3915","providerTheaterId":"","name":"Digiplex Rialto","address":"250 E. Broad St.","city":"Westfield","state":"NJ","zip":"07090","distance":24.998294113548,"lon":"-74.3473","lat":"40.6526","theaterChainName":"Carmike Cinemas","ticketType":"STANDARD"},{"id":"417","tribuneTheaterId":"9129","providerTheaterId":"","name":"Regal Burlington Stadium 20","address":"250 Bromley Blvd.","city":"Burlington","state":"NJ","zip":"08016","distance":24.345671143078,"lon":"-74.821508","lat":"40.037637","theaterChainName":"Regal Cinemas","ticketType":"STANDARD"}]