[{"id":"123","name":"Digiplex Rialto","address":"250 E. Broad St.","city":"Westfield","state":"NJ","zip":"07090","distance":"24.999828338623047","lon":"-74.347298","lat":"40.652599","theaterChainName":"Carmike Cinemas","ticketType":"STANDARD"},{"id":"4231","name":"Big Cinemas Movie City 8","address":"1655 Oak Tree Road","city":"Edison","state":"NJ","zip":"08820","distance":"20.388248443603516","lon":"-74.340622","lat":"40.570969","theaterChainName":"Independent Chains","ticketType":"STANDARD"},{"id":"281","name":"Rave Cinemas Hazlet 12","address":"2821 Highway 35","city":"Hazlet","state":"NJ","zip":"07730","distance":"21.85878562927246","lon":"-74.169228","lat":"40.418510","theaterChainName":"Cinemark","ticketType":"STANDARD"},{"id":"2672","name":"Bow Tie Cinemas Strathmore Cinema 4","address":"1055 Route 34","city":"Aberdeen","state":"NJ","zip":"07747","distance":"18.49308967590332","lon":"-74.229301","lat":"40.401100","theaterChainName":"Bow-Tie Cinemas","ticketType":"STANDARD"},{"id":"635","name":"Regal Hadley Theatre Stadium 16","address":"1000 Corporate Court","city":"South Plainfield","state":"NJ","zip":"07080","distance":"16.781198501586914","lon":"-74.424278","lat":"40.548927","theaterChainName":"Regal Cinemas","ticketType":"STANDARD"},{"id":"300","name":"AMC Loews New Brunswick 18","address":"17 US Highway 1","city":"New Brunswick","state":"NJ","zip":"08901","distance":"13.489487648010254","lon":"-74.415619","lat":"40.488953","theaterChainName":"AMC Theatres","ticketType":"STANDARD"},{"id":"5960","name":"Rutgers Cinema","address":"105 Joyce Kilmer Ave","city":"Piscataway","state":"NJ","zip":"08854","distance":"15.018440246582031","lon":"-74.437309","lat":"40.525333","theaterChainName":"Independent Chains","ticketType":"STANDARD"},{"id":"1177","name":"Starplex East Brunswick","address":"755 State HWY 18","city":"East Brunswick","state":"NJ","zip":"08816","distance":"11.629820823669434","lon":"-74.381775","lat":"40.422005","theaterChainName":"Starplex Cinemas","ticketType":"STANDARD"},{"id":"848","name":"Dunellen Cinema Cafe","address":"458 North Ave","city":"Dunellen","state":"NJ","zip":"08812","distance":"18.532682418823242","lon":"-74.467583","lat":"40.589317","theaterChainName":"Independent Chains","ticketType":"STANDARD"},{"id":"2267","name":"Regal Commerce Center Stadium 18","address":"2399 Route 1 South","city":"North Brunswick","state":"NJ","zip":"08902","distance":"8.389971733093262","lon":"-74.503601","lat":"40.443203","theaterChainName":"Regal Cinemas","ticketType":"STANDARD"},{"id":"2560","name":"Manville 12 Plex","address":"180 N Main Street","city":"Manville","state":"NJ","zip":"08835","distance":"15.060738563537598","lon":"-74.584305","lat":"40.550045","theaterChainName":"Reading International, Inc","ticketType":"STANDARD"},{"id":"754","name":"AMC Bridgewater Commons 7","address":"400 Commons Way","city":"Bridgewater","state":"NJ","zip":"08807","distance":"17.775949478149414","lon":"-74.619247","lat":"40.586781","theaterChainName":"AMC Theatres","ticketType":"STANDARD"},{"id":"3116","name":"Hillsborough Cinemas","address":"111 Raider Blvd.","city":"Hillsborough","state":"NJ","zip":"08844","distance":"11.765339851379395","lon":"-74.644440","lat":"40.492638","theaterChainName":"Independent Chains","ticketType":"STANDARD"},{"id":"2443","name":"Montgomery Cinema","address":"1325 Route 206","city":"Belle Mead","state":"NJ","zip":"08502","distance":"6.501106262207031","lon":"-74.647469","lat":"40.404926","theaterChainName":"Independent Chains","ticketType":"STANDARD"},{"id":"143","name":"AMC Loews Freehold Metroplex 14","address":"101 Trotters Way","city":"Freehold","state":"NJ","zip":"07728","distance":"15.54312801361084","lon":"-74.294563","lat":"40.249676","theaterChainName":"AMC Theatres","ticketType":"STANDARD"},{"id":"5918","name":"Xscape Theatres Howell 14","address":"5361 US Highway 9","city":"Howell","state":"NJ","zip":"07731","distance":"23.26502227783203","lon":"-74.219658","lat":"40.126701","theaterChainName":"Independent Chains","ticketType":"STANDARD"},{"id":"6056","name":"Picture Show at East Windsor","address":"319 US-130","city":"East Windsor","state":"NJ","zip":"08520","distance":"4.2891130447387695","lon":"-74.530388","lat":"40.277676","theaterChainName":"Picture Show Entertainment","ticketType":"STANDARD"},{"id":"5764","name":"AMC MarketFair 10","address":"3521 U.S. 1","city":"Princeton","state":"NJ","zip":"08540","distance":"5.038214206695557","lon":"-74.661797","lat":"40.315376","theaterChainName":"AMC Theatres","ticketType":"STANDARD"},{"id":"425","name":"Princeton Garden Theatre","address":"160 Nassau St.","city":"Princeton","state":"NJ","zip":"08542","distance":"4.841760635375977","lon":"-74.657539","lat":"40.350716","theaterChainName":"Independent Chains","ticketType":"STANDARD"},{"id":"2476","name":"AMC Hamilton 24","address":"325 Sloan Ave.","city":"Hamilton","state":"NJ","zip":"08619","distance":"8.784701347351074","lon":"-74.694588","lat":"40.248989","theaterChainName":"AMC Theatres","ticketType":"STANDARD"},{"id":"5755","name":"Regal Independence Plaza 12","address":"2465 South Broad Street","city":"Hamilton","state":"NJ","zip":"08610","distance":"12.62331771850586","lon":"-74.721756","lat":"40.191860","theaterChainName":"Regal Cinemas","ticketType":"STANDARD"},{"id":"438","name":"Newtown","address":"120 N. State St.","city":"Newtown","state":"PA","zip":"18940","distance":"20.618629455566406","lon":"-74.936539","lat":"40.230713","theaterChainName":"Independent Chains","ticketType":"STANDARD"},{"id":"420","name":"United Artists Oxford Valley Stadium 14","address":"403 Middletown Rd.","city":"Langhorne","state":"PA","zip":"19047","distance":"19.454105377197266","lon":"-74.883408","lat":"40.185341","theaterChainName":"United Artists","ticketType":"STANDARD"},{"id":"417","name":"Regal Burlington Stadium 20","address":"250 Bromley Blvd.","city":"Burlington","state":"NJ","zip":"08016","distance":"24.347335815429688","lon":"-74.821510","lat":"40.037636","theaterChainName":"Regal Cinemas","ticketType":"STANDARD"},{"id":"1441","name":"AMC Neshaminy 24","address":"660 Neshaminy Mall","city":"Bensalem","state":"PA","zip":"19020","distance":"24.35930061340332","lon":"-74.955185","lat":"40.139324","theaterChainName":"AMC Theatres","ticketType":"STANDARD"}]