[{"id":"143","name":"AMC Loews Freehold Metroplex 14","address":"101 Trotters Way","city":"Freehold","state":"NJ","zip":"07728","distance":"23.901187896728516","lon":"-74.294563","lat":"40.249676","theaterChainName":"AMC Theatres","ticketType":"STANDARD"},{"id":"1772","name":"Cine Grand Middlebrook 10","address":"1502 Route 35 South","city":"Ocean","state":"NJ","zip":"07712","distance":"22.73459243774414","lon":"-74.040825","lat":"40.247017","theaterChainName":"Independent Chains","ticketType":"STANDARD"},{"id":"4948","name":"The Showroom","address":"708 Cookman Ave.","city":"Asbury Park","state":"NJ","zip":"07712","distance":"21.0457763671875","lon":"-74.012398","lat":"40.215744","theaterChainName":"Independent Chains","ticketType":"STANDARD"},{"id":"5918","name":"Xscape Theatres Howell 14","address":"5361 US Highway 9","city":"Howell","state":"NJ","zip":"07731","distance":"14.571891784667969","lon":"-74.219658","lat":"40.126701","theaterChainName":"Independent Chains","ticketType":"STANDARD"},{"id":"505","name":"AMC Loews Brick Plaza 10","address":"3 Brick Plaza","city":"Brick","state":"NJ","zip":"08723","distance":"9.155550956726074","lon":"-74.141861","lat":"40.058399","theaterChainName":"AMC Theatres","ticketType":"STANDARD"},{"id":"142","name":"AMC Loews Seacourt 10","address":"635 Bay Ave.","city":"Toms River","state":"NJ","zip":"08753","distance":"4.145177364349365","lon":"-74.180634","lat":"39.974789","theaterChainName":"AMC Theatres","ticketType":"STANDARD"},{"id":"4390","name":"Marquee Cinemas Orchard 10","address":"1311 Route 37W","city":"Toms River","state":"NJ","zip":"08755","distance":"7.480055332183838","lon":"-74.255455","lat":"39.982632","theaterChainName":"Marquee Cinemas","ticketType":"STANDARD"},{"id":"1613","name":"Regal Manahawkin 10","address":"733 State HWY 72 E","city":"Manahawkin","state":"NJ","zip":"08050","distance":"17.011455535888672","lon":"-74.279205","lat":"39.706089","theaterChainName":"Regal Cinemas","ticketType":"STANDARD"}]