[{"id":"4390","tribuneTheaterId":"9438","providerTheaterId":"","name":"Marquee Cinemas Orchard 10","address":"1311 Route 37W","city":"Toms River","state":"NJ","zip":"08755","distance":0.80132892624384,"lon":"-74.255455","lat":"39.98263","theaterChainName":"Marquee Cinemas","ticketType":"STANDARD"},{"id":"142","tribuneTheaterId":"9239","providerTheaterId":"2232","name":"AMC Loews Seacourt 10","address":"635 Bay Ave.","city":"Toms River","state":"NJ","zip":"08753","distance":3.7434254054036,"lon":"-74.180632","lat":"39.974787","theaterChainName":"AMC Theatres","ticketType":"STANDARD"},{"id":"505","tribuneTheaterId":"8754","providerTheaterId":"2219","name":"AMC Loews Brick Plaza 10","address":"3 Brick Plaza","city":"Brick","state":"NJ","zip":"08723","distance":8.3383936514371,"lon":"-74.141858","lat":"40.0584","theaterChainName":"AMC Theatres","ticketType":"STANDARD"},{"id":"5918","tribuneTheaterId":"11346","providerTheaterId":"","name":"Xscape Theatres Howell 14","address":"5361 US Highway 9","city":"Howell","state":"NJ","zip":"07731","distance":10.852274839833,"lon":"-74.219658","lat":"40.1267","theaterChainName":"Independent Chains","ticketType":"STANDARD"},{"id":"1613","tribuneTheaterId":"5636","providerTheaterId":"","name":"Regal Manahawkin 10","address":"733 State HWY 72 E","city":"Manahawkin","state":"NJ","zip":"08050","distance":18.398138781882,"lon":"-74.279204","lat":"39.70609","theaterChainName":"Regal Cinemas","ticketType":"STANDARD"},{"id":"143","tribuneTheaterId":"8755","providerTheaterId":"2233","name":"AMC Loews Freehold Metroplex 14","address":"101 Trotters Way","city":"Freehold","state":"NJ","zip":"07728","distance":19.35630085036,"lon":"-74.294567","lat":"40.249677","theaterChainName":"AMC Theatres","ticketType":"STANDARD"},{"id":"1772","tribuneTheaterId":"8675","providerTheaterId":"","name":"Cine Grand Middlebrook 10","address":"1502 Route 35 South","city":"Ocean","state":"NJ","zip":"07712","distance":22.044710952156,"lon":"-74.040824","lat":"40.247016","theaterChainName":"Independent Chains","ticketType":"STANDARD"},{"id":"4948","tribuneTheaterId":"10303","providerTheaterId":"","name":"The Showroom","address":"708 Cookman Ave.","city":"Asbury Park","state":"NJ","zip":"07712","distance":21.073691177551,"lon":"-74.0124","lat":"40.215744","theaterChainName":"Independent Chains","ticketType":"STANDARD"},{"id":"144","tribuneTheaterId":"9110","providerTheaterId":"2234","name":"AMC Loews Monmouth Mall 15","address":"180 State Rt. 35 S.","city":"Eatontown","state":"NJ","zip":"07724","distance":24.194516594089,"lon":"-74.053195","lat":"40.287254","theaterChainName":"AMC Theatres","ticketType":"STANDARD"}]