[{"id":"1578","tribuneTheaterId":"5637","providerTheaterId":"","name":"Regal Pohatcong 12","address":"1246 US Highway 22","city":"Phillipsburg","state":"NJ","zip":"08865","distance":6.2498715724542,"lon":"-75.147686","lat":"40.676604","theaterChainName":"Regal Cinemas","ticketType":"STANDARD"},{"id":"604","tribuneTheaterId":"5642","providerTheaterId":"","name":"Regal Northampton Cinema 14","address":"3720 Nazareth Highway","city":"Easton","state":"PA","zip":"18045","distance":12.891625376559,"lon":"-75.285203","lat":"40.717806","theaterChainName":"Regal Cinemas","ticketType":"STANDARD"},{"id":"5047","tribuneTheaterId":"10425","providerTheaterId":"","name":"Frank Banko Alehouse Cinema","address":"ArtsQuest Center at SteelStacks","city":"Bethlehem","state":"PA","zip":"18015","distance":13.985229139836,"lon":"-75.367498","lat":"40.615067","theaterChainName":"Independent Chains","ticketType":"STANDARD"},{"id":"1489","tribuneTheaterId":"8659","providerTheaterId":"","name":"Regal Richland Crossing Stadium 12","address":"185 North West End Blvd.","city":"Quakertown","state":"PA","zip":"18951","distance":16.600818576625,"lon":"-75.354769","lat":"40.448148","theaterChainName":"Regal Cinemas","ticketType":"STANDARD"},{"id":"4315","tribuneTheaterId":"2399","providerTheaterId":"","name":"Promenade 16","address":"2805 Center Valley Parkway","city":"Center Valley","state":"PA","zip":"18034","distance":16.165436161173,"lon":"-75.407303","lat":"40.559101","theaterChainName":"Carmike Cinemas","ticketType":"STANDARD"},{"id":"2629","tribuneTheaterId":"5739","providerTheaterId":"","name":"Carmike 16 Allentown","address":"1700 Catasaqua Rd.","city":"Allentown","state":"PA","zip":"18109","distance":17.452519326308,"lon":"-75.430348","lat":"40.636103","theaterChainName":"Carmike Cinemas","ticketType":"STANDARD"},{"id":"2","tribuneTheaterId":"2661","providerTheaterId":"","name":"County Theatre","address":"20 E. State St.","city":"Doylestown","state":"PA","zip":"18901","distance":19.590503601326,"lon":"-75.130065","lat":"40.31014","theaterChainName":"Independent Chains","ticketType":"STANDARD"},{"id":"2355","tribuneTheaterId":"380","providerTheaterId":"","name":"Civic's 19th Street Theatre","address":"527 N. 19th St.","city":"Allentown","state":"PA","zip":"18104","distance":20.864796203908,"lon":"-75.499982","lat":"40.603171","theaterChainName":"Independent Chains","ticketType":"STANDARD"},{"id":"4684","tribuneTheaterId":"9891","providerTheaterId":"","name":"Civic's Theatre 514","address":"514 N. 19th St.","city":"Allentown","state":"PA","zip":"18104","distance":20.86377846286,"lon":"-75.499976","lat":"40.602845","theaterChainName":"Independent Chains","ticketType":"STANDARD"},{"id":"3697","tribuneTheaterId":"687","providerTheaterId":"","name":"The Gap Theatre","address":"47 Broadway","city":"Wind Gap","state":"PA","zip":"18091","distance":20.165294320809,"lon":"-75.2917","lat":"40.8471","theaterChainName":"Independent Chains","ticketType":"STANDARD"},{"id":"2352","tribuneTheaterId":"5907","providerTheaterId":"","name":"Cin\u00e9polis Mansfield Cinema 14","address":"1965 State Route 57","city":"Hackettstown","state":"NJ","zip":"07840","distance":21.158219095653,"lon":"-74.836078","lat":"40.82309","theaterChainName":"Cinepolis Luxury Cinemas","ticketType":"STANDARD"},{"id":"2297","tribuneTheaterId":"8732","providerTheaterId":"","name":"Regal Barn Plaza Stadium 14","address":"1745 Easton Road","city":"Doylestown","state":"PA","zip":"18901","distance":22.223478073083,"lon":"-75.127054","lat":"40.271799","theaterChainName":"Regal Cinemas","ticketType":"STANDARD"},{"id":"4199","tribuneTheaterId":"2075","providerTheaterId":"","name":"Frank Theatres Montgomeryville Stadium 12","address":"750 Montgomery Glen Drive","city":"Lansdale","state":"PA","zip":"19446","distance":24.861564353406,"lon":"-75.239546","lat":"40.248532","theaterChainName":"Frank Theatres","ticketType":"STANDARD"},{"id":"83","tribuneTheaterId":"7067","providerTheaterId":"594","name":"AMC Tilghman Square 8","address":"4608 Broadway","city":"Allentown","state":"PA","zip":"18104","distance":23.926523728319,"lon":"-75.558456","lat":"40.587169","theaterChainName":"AMC Theatres","ticketType":"STANDARD"}]