[{"id":"141","name":"CityPlex 12 Newark","address":"360-394 Springfield Ave.","city":"Newark","state":"NJ","zip":"07103","distance":"23.971900939941406","lon":"-74.196304","lat":"40.733627","theaterChainName":"Independent Chains","ticketType":"STANDARD"},{"id":"4274","name":"South Orange","address":"1 SOPAC Way","city":"South Orange","state":"NJ","zip":"07079","distance":"23.321367263793945","lon":"-74.261139","lat":"40.745995","theaterChainName":"Bow-Tie Cinemas","ticketType":"STANDARD"},{"id":"1123","name":"Maplewood Theater","address":"155 Maplewood Ave.","city":"Maplewood","state":"NJ","zip":"07040","distance":"22.095481872558594","lon":"-74.276566","lat":"40.731380","theaterChainName":"Independent Chains","ticketType":"STANDARD"},{"id":"3388","name":"AMC Loews Jersey Gardens 20","address":"651 Kapowski Road","city":"Elizabeth","state":"NJ","zip":"07201","distance":"20.550106048583984","lon":"-74.168304","lat":"40.659458","theaterChainName":"AMC Theatres","ticketType":"STANDARD"},{"id":"1136","name":"Bow Tie Cinemas Millburn Cinemas","address":"350 Millburn Ave.","city":"Millburn","state":"NJ","zip":"07041","distance":"21.088394165039062","lon":"-74.307785","lat":"40.723644","theaterChainName":"Bow-Tie Cinemas","ticketType":"STANDARD"},{"id":"4012","name":"Frank Theatres South Cove Cinema 12","address":"191 Lefante Way","city":"Bayonne","state":"NJ","zip":"07002","distance":"23.195356369018555","lon":"-74.105896","lat":"40.668118","theaterChainName":"Frank Theatres","ticketType":"STANDARD"},{"id":"3445","name":"UA Staten Island Stadium 16 & RPX","address":"2474 Forest Ave.","city":"Staten Island","state":"NY","zip":"10303","distance":"18.669937133789062","lon":"-74.172867","lat":"40.626186","theaterChainName":"United Artists","ticketType":"STANDARD"},{"id":"176","name":"Digiplex Cranford","address":"25 North Ave.","city":"Cranford","state":"NJ","zip":"07016","distance":"17.015714645385742","lon":"-74.299362","lat":"40.659370","theaterChainName":"Carmike Cinemas","ticketType":"STANDARD"},{"id":"1126","name":"Bow Tie Cinemas Beacon Hill 5","address":"343 Springfield Ave.","city":"Summit","state":"NJ","zip":"07901","distance":"20.169279098510742","lon":"-74.356468","lat":"40.718216","theaterChainName":"Bow-Tie Cinemas","ticketType":"STANDARD"},{"id":"39","name":"AMC Loews Mountainside 10","address":"1021 Route 22","city":"Mountainside","state":"NJ","zip":"07092","distance":"18.046274185180664","lon":"-74.335442","lat":"40.683659","theaterChainName":"AMC Theatres","ticketType":"STANDARD"},{"id":"4383","name":"AMC Aviation 12","address":"1200 South Stiles St.","city":"Linden","state":"NJ","zip":"07036","distance":"15.963175773620605","lon":"-74.245476","lat":"40.620564","theaterChainName":"AMC Theatres","ticketType":"STANDARD"},{"id":"1135","name":"Bow Tie Cinemas Madison Cinema 4","address":"14 Lincoln Place","city":"Madison","state":"NJ","zip":"07940","distance":"22.62270164489746","lon":"-74.414726","lat":"40.757397","theaterChainName":"Bow-Tie Cinemas","ticketType":"STANDARD"},{"id":"1158","name":"Roberts Chatham Cinema","address":"641 Shunpike Rd.","city":"Chatham","state":"NJ","zip":"07928","distance":"21.811803817749023","lon":"-74.431618","lat":"40.745480","theaterChainName":"Independent Chains","ticketType":"STANDARD"},{"id":"123","name":"Digiplex Rialto","address":"250 E. Broad St.","city":"Westfield","state":"NJ","zip":"07090","distance":"15.814151763916016","lon":"-74.347298","lat":"40.652599","theaterChainName":"Carmike Cinemas","ticketType":"STANDARD"},{"id":"569","name":"Atrium Stadium Cinemas","address":"680 Arthur Kill Road","city":"Staten Island","state":"NY","zip":"10308","distance":"16.051204681396484","lon":"-74.163849","lat":"40.559669","theaterChainName":"Independent Chains","ticketType":"STANDARD"},{"id":"121","name":"United Artists Hylan Plaza","address":"107 Mill Road","city":"Staten Island","state":"NY","zip":"10306","distance":"18.73284149169922","lon":"-74.109627","lat":"40.566975","theaterChainName":"United Artists","ticketType":"STANDARD"},{"id":"4231","name":"Big Cinemas Movie City 8","address":"1655 Oak Tree Road","city":"Edison","state":"NJ","zip":"08820","distance":"10.540818214416504","lon":"-74.340622","lat":"40.570969","theaterChainName":"Independent Chains","ticketType":"STANDARD"},{"id":"281","name":"Rave Cinemas Hazlet 12","address":"2821 Highway 35","city":"Hazlet","state":"NJ","zip":"07730","distance":"13.072965621948242","lon":"-74.169228","lat":"40.418510","theaterChainName":"Cinemark","ticketType":"STANDARD"},{"id":"2672","name":"Bow Tie Cinemas Strathmore Cinema 4","address":"1055 Route 34","city":"Aberdeen","state":"NJ","zip":"07747","distance":"10.089731216430664","lon":"-74.229301","lat":"40.401100","theaterChainName":"Bow-Tie Cinemas","ticketType":"STANDARD"},{"id":"635","name":"Regal Hadley Theatre Stadium 16","address":"1000 Corporate Court","city":"South Plainfield","state":"NJ","zip":"07080","distance":"8.225752830505371","lon":"-74.424278","lat":"40.548927","theaterChainName":"Regal Cinemas","ticketType":"STANDARD"},{"id":"300","name":"AMC Loews New Brunswick 18","address":"17 US Highway 1","city":"New Brunswick","state":"NJ","zip":"08901","distance":"4.0744194984436035","lon":"-74.415619","lat":"40.488953","theaterChainName":"AMC Theatres","ticketType":"STANDARD"},{"id":"5960","name":"Rutgers Cinema","address":"105 Joyce Kilmer Ave","city":"Piscataway","state":"NJ","zip":"08854","distance":"6.670732498168945","lon":"-74.437309","lat":"40.525333","theaterChainName":"Independent Chains","ticketType":"STANDARD"},{"id":"1177","name":"Starplex East Brunswick","address":"755 State HWY 18","city":"East Brunswick","state":"NJ","zip":"08816","distance":"1.948453426361084","lon":"-74.381775","lat":"40.422005","theaterChainName":"Starplex Cinemas","ticketType":"STANDARD"},{"id":"1797","name":"Atlantic Highlands Cinema 5","address":"82 First Ave.","city":"Atlantic Highlands","state":"NJ","zip":"07716","distance":"20.00670051574707","lon":"-74.037582","lat":"40.413528","theaterChainName":"Independent Chains","ticketType":"STANDARD"},{"id":"848","name":"Dunellen Cinema Cafe","address":"458 North Ave","city":"Dunellen","state":"NJ","zip":"08812","distance":"11.320955276489258","lon":"-74.467583","lat":"40.589317","theaterChainName":"Independent Chains","ticketType":"STANDARD"},{"id":"2433","name":"Bow Tie Cinemas Bernardsville Cinema 3","address":"5 Mine Brook Road","city":"Bernardsville","state":"NJ","zip":"07924","distance":"21.458385467529297","lon":"-74.569702","lat":"40.718170","theaterChainName":"Bow-Tie Cinemas","ticketType":"STANDARD"},{"id":"2267","name":"Regal Commerce Center Stadium 18","address":"2399 Route 1 South","city":"North Brunswick","state":"NJ","zip":"08902","distance":"4.629642486572266","lon":"-74.503601","lat":"40.443203","theaterChainName":"Regal Cinemas","ticketType":"STANDARD"},{"id":"2560","name":"Manville 12 Plex","address":"180 N Main Street","city":"Manville","state":"NJ","zip":"08835","distance":"12.075846672058105","lon":"-74.584305","lat":"40.550045","theaterChainName":"Reading International, Inc","ticketType":"STANDARD"},{"id":"754","name":"AMC Bridgewater Commons 7","address":"400 Commons Way","city":"Bridgewater","state":"NJ","zip":"08807","distance":"15.163103103637695","lon":"-74.619247","lat":"40.586781","theaterChainName":"AMC Theatres","ticketType":"STANDARD"},{"id":"3116","name":"Hillsborough Cinemas","address":"111 Raider Blvd.","city":"Hillsborough","state":"NJ","zip":"08844","distance":"12.701582908630371","lon":"-74.644440","lat":"40.492638","theaterChainName":"Independent Chains","ticketType":"STANDARD"},{"id":"2443","name":"Montgomery Cinema","address":"1325 Route 206","city":"Belle Mead","state":"NJ","zip":"08502","distance":"12.231891632080078","lon":"-74.647469","lat":"40.404926","theaterChainName":"Independent Chains","ticketType":"STANDARD"},{"id":"145","name":"Bow Tie Cinemas Red Bank Cinemas","address":"36 White St.","city":"Red Bank","state":"NJ","zip":"07701","distance":"19.222822189331055","lon":"-74.067284","lat":"40.350468","theaterChainName":"Bow-Tie Cinemas","ticketType":"STANDARD"},{"id":"143","name":"AMC Loews Freehold Metroplex 14","address":"101 Trotters Way","city":"Freehold","state":"NJ","zip":"07728","distance":"14.036941528320312","lon":"-74.294563","lat":"40.249676","theaterChainName":"AMC Theatres","ticketType":"STANDARD"},{"id":"144","name":"AMC Loews Monmouth Mall 15","address":"180 State Rt. 35 S.","city":"Eatontown","state":"NJ","zip":"07724","distance":"21.559654235839844","lon":"-74.053192","lat":"40.287254","theaterChainName":"AMC Theatres","ticketType":"STANDARD"},{"id":"1772","name":"Cine Grand Middlebrook 10","address":"1502 Route 35 South","city":"Ocean","state":"NJ","zip":"07712","distance":"23.516393661499023","lon":"-74.040825","lat":"40.247017","theaterChainName":"Independent Chains","ticketType":"STANDARD"},{"id":"5918","name":"Xscape Theatres Howell 14","address":"5361 US Highway 9","city":"Howell","state":"NJ","zip":"07731","distance":"23.404115676879883","lon":"-74.219658","lat":"40.126701","theaterChainName":"Independent Chains","ticketType":"STANDARD"},{"id":"6056","name":"Picture Show at East Windsor","address":"319 US-130","city":"East Windsor","state":"NJ","zip":"08520","distance":"12.093082427978516","lon":"-74.530388","lat":"40.277676","theaterChainName":"Picture Show Entertainment","ticketType":"STANDARD"},{"id":"5764","name":"AMC MarketFair 10","address":"3521 U.S. 1","city":"Princeton","state":"NJ","zip":"08540","distance":"15.112560272216797","lon":"-74.661797","lat":"40.315376","theaterChainName":"AMC Theatres","ticketType":"STANDARD"},{"id":"425","name":"Princeton Garden Theatre","address":"160 Nassau St.","city":"Princeton","state":"NJ","zip":"08542","distance":"13.779311180114746","lon":"-74.657539","lat":"40.350716","theaterChainName":"Independent Chains","ticketType":"STANDARD"},{"id":"2476","name":"AMC Hamilton 24","address":"325 Sloan Ave.","city":"Hamilton","state":"NJ","zip":"08619","distance":"19.22808837890625","lon":"-74.694588","lat":"40.248989","theaterChainName":"AMC Theatres","ticketType":"STANDARD"},{"id":"5755","name":"Regal Independence Plaza 12","address":"2465 South Broad Street","city":"Hamilton","state":"NJ","zip":"08610","distance":"22.98055648803711","lon":"-74.721756","lat":"40.191860","theaterChainName":"Regal Cinemas","ticketType":"STANDARD"}]