[{"id":"153","name":"AMC Loews Nassau Metroplex 10","address":"3585 Hempstead Tpke.","city":"Levittown","state":"NY","zip":"11756","distance":"24.025388717651367","lon":"-73.506058","lat":"40.726601","theaterChainName":"AMC Theatres","ticketType":"STANDARD"},{"id":"319","name":"Broadway Multiplex Cinemas","address":"955 Broadway Mall","city":"Hicksville","state":"NY","zip":"11801","distance":"21.68343734741211","lon":"-73.533104","lat":"40.774269","theaterChainName":"National Amusements","ticketType":"STANDARD"},{"id":"1172","name":"Five Star Theatres Bellmore Playhouse","address":"525 Bedford Ave.","city":"Bellmore","state":"NY","zip":"11710","distance":"24.698108673095703","lon":"-73.527603","lat":"40.669998","theaterChainName":"Independent Chains","ticketType":"STANDARD"},{"id":"2819","name":"UA Westbury Stadium 12 & IMAX","address":"7000 Brush Hollow Road","city":"Westbury","state":"NY","zip":"11590","distance":"20.456951141357422","lon":"-73.555969","lat":"40.778194","theaterChainName":"United Artists","ticketType":"STANDARD"},{"id":"1541","name":"Bow Tie Cinemas Majestic 6","address":"118 Summer St.","city":"Stamford","state":"CT","zip":"06901","distance":"24.990375518798828","lon":"-73.540848","lat":"41.054337","theaterChainName":"Bow-Tie Cinemas","ticketType":"STANDARD"},{"id":"166","name":"AMC Loews Raceway 10","address":"1025 Corporate Drive","city":"Westbury","state":"NY","zip":"11590","distance":"19.2248477935791","lon":"-73.596466","lat":"40.742382","theaterChainName":"AMC Theatres","ticketType":"STANDARD"},{"id":"154","name":"AMC Loews Roosevelt Field 8","address":"630 Old Country Road","city":"Garden City","state":"NY","zip":"11530","distance":"18.40093994140625","lon":"-73.615181","lat":"40.739716","theaterChainName":"AMC Theatres","ticketType":"STANDARD"},{"id":"1133","name":"Bow Tie Cinemas Grand Ave","address":"1849 Grand Ave.","city":"Baldwin","state":"NY","zip":"11510","distance":"21.38001823425293","lon":"-73.606949","lat":"40.665848","theaterChainName":"Bow-Tie Cinemas","ticketType":"STANDARD"},{"id":"172","name":"Glen Cove 6","address":"5 School St.","city":"Glen Cove","state":"NY","zip":"11542","distance":"15.930780410766602","lon":"-73.631538","lat":"40.865974","theaterChainName":"Independent Chains","ticketType":"STANDARD"},{"id":"1144","name":"Bow Tie Roslyn Cinemas","address":"20 Tower Place","city":"Roslyn","state":"NY","zip":"11576","distance":"15.314655303955078","lon":"-73.650185","lat":"40.799831","theaterChainName":"Bow-Tie Cinemas","ticketType":"STANDARD"},{"id":"1346","name":"Bow Tie Cinemas Plaza 3","address":"2 Railroad Ave.","city":"Greenwich","state":"CT","zip":"06830","distance":"20.09861946105957","lon":"-73.624985","lat":"41.021488","theaterChainName":"Bow-Tie Cinemas","ticketType":"STANDARD"},{"id":"1134","name":"Bow Tie Cinemas Herricks Cinema","address":"3324 Hillside Ave.","city":"New Hyde Park","state":"NY","zip":"11040","distance":"15.882811546325684","lon":"-73.660332","lat":"40.752563","theaterChainName":"Bow-Tie Cinemas","ticketType":"STANDARD"},{"id":"171","name":"AMC Loews Fantasy 5","address":"18 N. Park Ave.","city":"Rockville Centre","state":"NY","zip":"11570","distance":"20.21039581298828","lon":"-73.645226","lat":"40.656818","theaterChainName":"AMC Theatres","ticketType":"STANDARD"},{"id":"1132","name":"Bow Tie Cinemas Franklin Square","address":"989 Hempstead Turnpike","city":"Franklin Square","state":"NY","zip":"11010","distance":"16.734779357910156","lon":"-73.676788","lat":"40.707310","theaterChainName":"Bow-Tie Cinemas","ticketType":"STANDARD"},{"id":"3888","name":"AMC Loews Port Chester 14","address":"40 Westchester Ave.","city":"Port Chester","state":"NY","zip":"10573","distance":"17.638174057006836","lon":"-73.662392","lat":"40.999760","theaterChainName":"AMC Theatres","ticketType":"STANDARD"},{"id":"3369","name":"Jacob Burns Film Center","address":"364 Manville Road","city":"Pleasantville","state":"NY","zip":"10570","distance":"21.10506248474121","lon":"-73.791603","lat":"41.135048","theaterChainName":"Independent Chains","ticketType":"STANDARD"},{"id":"3658","name":"City Center 15: Cinema de Lux","address":"19 Mamaroneck Ave.","city":"White Plains","state":"NY","zip":"10601","distance":"15.420475959777832","lon":"-73.765701","lat":"41.032177","theaterChainName":"National Amusements","ticketType":"STANDARD"},{"id":"2858","name":"Greenburgh Multiplex Cinemas","address":"320 Saw Mill River Road","city":"Elmsford","state":"NY","zip":"10523","distance":"16.28044319152832","lon":"-73.812698","lat":"41.066166","theaterChainName":"National Amusements","ticketType":"STANDARD"},{"id":"1529","name":"Bow Tie Cinemas Cinema 100","address":"93 Knollwood Road","city":"White Plains","state":"NY","zip":"10607","distance":"14.636273384094238","lon":"-73.808197","lat":"41.038300","theaterChainName":"Bow-Tie Cinemas","ticketType":"STANDARD"},{"id":"119","name":"Bow Tie Cinemas Mamaroneck 4","address":"243 Mamaroneck Ave.","city":"Mamaroneck","state":"NY","zip":"10543","distance":"12.63615608215332","lon":"-73.733871","lat":"40.950565","theaterChainName":"Bow-Tie Cinemas","ticketType":"STANDARD"},{"id":"5208","name":"Alamo Drafthouse Yonkers","address":"2548 Central Park Ave","city":"Yonkers","state":"NY","zip":"10710","distance":"10.863085746765137","lon":"-73.824547","lat":"40.982544","theaterChainName":"Alamo Drafthouse","ticketType":"STANDARD"},{"id":"771","name":"AMC Loews Palisades Center 21","address":"4403 Palisades Center Drive","city":"West Nyack","state":"NY","zip":"10994","distance":"17.182443618774414","lon":"-73.956482","lat":"41.097771","theaterChainName":"AMC Theatres","ticketType":"STANDARD"},{"id":"1494","name":"Bow Tie Cinemas New City Cinema 6","address":"202 S. Main St.","city":"New City","state":"NY","zip":"10956","distance":"20.22928810119629","lon":"-73.989021","lat":"41.139576","theaterChainName":"Bow-Tie Cinemas","ticketType":"STANDARD"},{"id":"1139","name":"Bow Tie Cinemas Port Washington","address":"116 Main St.","city":"Port Washington","state":"NY","zip":"11050","distance":"12.872557640075684","lon":"-73.690681","lat":"40.830280","theaterChainName":"Bow-Tie Cinemas","ticketType":"STANDARD"},{"id":"5319","name":"Soundview Cinemas","address":"7 Soundview Marketplace","city":"Port Washington","state":"NY","zip":"11050","distance":"12.016444206237793","lon":"-73.705902","lat":"40.842484","theaterChainName":"Independent Chains","ticketType":"STANDARD"},{"id":"118","name":"Bow Tie Cinemas Larchmont Playhouse","address":"1975 Palmer Ave.","city":"Larchmont","state":"NY","zip":"10538","distance":"10.718915939331055","lon":"-73.761002","lat":"40.931107","theaterChainName":"Bow-Tie Cinemas","ticketType":"STANDARD"},{"id":"2584","name":"Regal New Roc Stadium 18 + IMAX","address":"33 Le Count Place","city":"New Rochelle","state":"NY","zip":"10801","distance":"9.220623970031738","lon":"-73.779564","lat":"40.911964","theaterChainName":"Regal Cinemas","ticketType":"STANDARD"},{"id":"107","name":"Bow Tie Cinemas Manhasset 3","address":"430 Plandome Road","city":"Manhasset","state":"NY","zip":"11030","distance":"12.81844425201416","lon":"-73.699944","lat":"40.798470","theaterChainName":"Bow-Tie Cinemas","ticketType":"STANDARD"},{"id":"1145","name":"Bow Tie Squire Cinemas","address":"115 Middle Neck Rd.","city":"Great Neck","state":"NY","zip":"11021","distance":"11.51552963256836","lon":"-73.730057","lat":"40.789780","theaterChainName":"Bow-Tie Cinemas","ticketType":"STANDARD"},{"id":"5044","name":"Showcase Cinema de Lux Ridge Hill","address":"29 Fitzgerald St.","city":"Yonkers","state":"NY","zip":"10710","distance":"9.193243980407715","lon":"-73.844398","lat":"40.963402","theaterChainName":"National Amusements","ticketType":"STANDARD"},{"id":"117","name":"Bow Tie Cinemas Bronxville 3","address":"84 Kraft Ave.","city":"Bronxville","state":"NY","zip":"10708","distance":"8.195154190063477","lon":"-73.834435","lat":"40.940258","theaterChainName":"Bow-Tie Cinemas","ticketType":"STANDARD"},{"id":"1178","name":"Pelham Picture House","address":"175 Wolfs Lane","city":"Pelham","state":"NY","zip":"10803","distance":"7.6173319816589355","lon":"-73.811378","lat":"40.907318","theaterChainName":"Independent Chains","ticketType":"STANDARD"},{"id":"282","name":"Cross County Multiplex Cinemas","address":"2 South Drive","city":"Yonkers","state":"NY","zip":"10704","distance":"6.707459926605225","lon":"-73.854446","lat":"40.924828","theaterChainName":"National Amusements","ticketType":"STANDARD"},{"id":"562","name":"AMC Bay Plaza Cinema 13","address":"2210 Bartow Ave.","city":"Bronx","state":"NY","zip":"10475","distance":"5.896315097808838","lon":"-73.825142","lat":"40.866989","theaterChainName":"AMC Theatres","ticketType":"STANDARD"},{"id":"152","name":"AMC Loews Bay Terrace 6","address":"211-01  26th Ave.","city":"Bayside","state":"NY","zip":"11360","distance":"9.534807205200195","lon":"-73.778961","lat":"40.778980","theaterChainName":"AMC Theatres","ticketType":"STANDARD"},{"id":"109","name":"Movieworld At Douglaston","address":"242-02 61st Ave.","city":"Douglaston","state":"NY","zip":"11362","distance":"12.19853401184082","lon":"-73.738937","lat":"40.754707","theaterChainName":"Independent Chains","ticketType":"STANDARD"},{"id":"1130","name":"Bow Tie Cinemas Clairidge Cinemas","address":"486 Bloomfield Ave.","city":"Montclair","state":"NJ","zip":"07042","distance":"14.981937408447266","lon":"-74.218346","lat":"40.814323","theaterChainName":"Bow-Tie Cinemas","ticketType":"STANDARD"},{"id":"5357","name":"Allwood Cinemas 6","address":"96 Market St.","city":"Clifton","state":"NJ","zip":"07011","distance":"11.840642929077148","lon":"-74.162079","lat":"40.845837","theaterChainName":"Independent Chains","ticketType":"STANDARD"},{"id":"122","name":"Bow Tie Cinemas Bellevue 4","address":"260 Bellevue Ave.","city":"Upper Montclair","state":"NJ","zip":"07043","distance":"14.298942565917969","lon":"-74.208931","lat":"40.841213","theaterChainName":"Bow-Tie Cinemas","ticketType":"STANDARD"},{"id":"2573","name":"AMC Clifton Commons 16","address":"405 Route 3 East","city":"Clifton","state":"NJ","zip":"07014","distance":"10.799765586853027","lon":"-74.140358","lat":"40.828815","theaterChainName":"AMC Theatres","ticketType":"STANDARD"},{"id":"1932","name":"Lincoln Cinemas","address":"838 Kearny Ave.","city":"North Arlington","state":"NJ","zip":"07031","distance":"11.664917945861816","lon":"-74.139229","lat":"40.780685","theaterChainName":"Independent Chains","ticketType":"STANDARD"},{"id":"141","name":"CityPlex 12 Newark","address":"360-394 Springfield Ave.","city":"Newark","state":"NJ","zip":"07103","distance":"15.818294525146484","lon":"-74.196304","lat":"40.733627","theaterChainName":"Independent Chains","ticketType":"STANDARD"},{"id":"755","name":"AMC Essex Green Cinema 9","address":"495 Prospect Ave.","city":"West Orange","state":"NJ","zip":"07052","distance":"17.234325408935547","lon":"-74.256706","lat":"40.793362","theaterChainName":"AMC Theatres","ticketType":"STANDARD"},{"id":"1184","name":"Williams Center Cinemas 3","address":"1 Williams Plaza","city":"Rutherford","state":"NJ","zip":"07070","distance":"8.900179862976074","lon":"-74.103256","lat":"40.827190","theaterChainName":"Independent Chains","ticketType":"STANDARD"},{"id":"2982","name":"Bow Tie Cinemas Caldwell Cinema 4","address":"315 Bloomfield Ave.","city":"Caldwell","state":"NJ","zip":"07006","distance":"17.79710578918457","lon":"-74.275818","lat":"40.839581","theaterChainName":"Bow-Tie Cinemas","ticketType":"STANDARD"},{"id":"4274","name":"South Orange","address":"1 SOPAC Way","city":"South Orange","state":"NJ","zip":"07079","distance":"18.472028732299805","lon":"-74.261139","lat":"40.745995","theaterChainName":"Bow-Tie Cinemas","ticketType":"STANDARD"},{"id":"4888","name":"Fabian 8 Cinema","address":"301 Main St.","city":"Paterson","state":"NJ","zip":"07505","distance":"13.213909149169922","lon":"-74.173370","lat":"40.914829","theaterChainName":"Independent Chains","ticketType":"STANDARD"},{"id":"138","name":"AMC Loews Wayne 14","address":"67 Willowbrook Blvd.","city":"Wayne","state":"NJ","zip":"07470","distance":"16.661664962768555","lon":"-74.250336","lat":"40.888309","theaterChainName":"AMC Theatres","ticketType":"STANDARD"},{"id":"4232","name":"Hudson Cinemas","address":"701 Route 440","city":"Jersey City","state":"NJ","zip":"07304","distance":"12.253229141235352","lon":"-74.096451","lat":"40.720707","theaterChainName":"Independent Chains","ticketType":"STANDARD"},{"id":"1123","name":"Maplewood Theater","address":"155 Maplewood Ave.","city":"Maplewood","state":"NJ","zip":"07040","distance":"19.61878204345703","lon":"-74.276566","lat":"40.731380","theaterChainName":"Independent Chains","ticketType":"STANDARD"},{"id":"4804","name":"Secaucus ShowPlace 14","address":"650 Plaza Drive","city":"Secaucus","state":"NJ","zip":"07094","distance":"7.255534648895264","lon":"-74.046303","lat":"40.786301","theaterChainName":"Kerasotes","ticketType":"STANDARD"},{"id":"1173","name":"Hawthorne 5","address":"300 Lafayette Ave.","city":"Hawthorne","state":"NJ","zip":"07506","distance":"13.358819961547852","lon":"-74.155380","lat":"40.948498","theaterChainName":"Independent Chains","ticketType":"STANDARD"},{"id":"3235","name":"Columbia Park Stadium 12","address":"3125 Kennedy Blvd.","city":"North Bergen","state":"NJ","zip":"07047","distance":"7.331321716308594","lon":"-74.035919","lat":"40.775490","theaterChainName":"Independent Chains","ticketType":"STANDARD"},{"id":"4336","name":"AMC Garden State 16","address":"4000 Garden State Plaza","city":"Paramus","state":"NJ","zip":"07652","distance":"8.746397972106934","lon":"-74.075958","lat":"40.918610","theaterChainName":"AMC Theatres","ticketType":"STANDARD"},{"id":"3388","name":"AMC Loews Jersey Gardens 20","address":"651 Kapowski Road","city":"Elizabeth","state":"NJ","zip":"07201","distance":"17.915857315063477","lon":"-74.168304","lat":"40.659458","theaterChainName":"AMC Theatres","ticketType":"STANDARD"},{"id":"1136","name":"Bow Tie Cinemas Millburn Cinemas","address":"350 Millburn Ave.","city":"Millburn","state":"NJ","zip":"07041","distance":"21.32817840576172","lon":"-74.307785","lat":"40.723644","theaterChainName":"Bow-Tie Cinemas","ticketType":"STANDARD"},{"id":"4832","name":"Bow Tie Hoboken Cinemas","address":"409-415 14th St.","city":"Hoboken","state":"NJ","zip":"07030","distance":"8.296085357666016","lon":"-74.031898","lat":"40.754200","theaterChainName":"Bow-Tie Cinemas","ticketType":"STANDARD"},{"id":"4012","name":"Frank Theatres South Cove Cinema 12","address":"191 Lefante Way","city":"Bayonne","state":"NJ","zip":"07002","distance":"15.38498306274414","lon":"-74.105896","lat":"40.668118","theaterChainName":"Frank Theatres","ticketType":"STANDARD"},{"id":"178","name":"AMC Loews Newport Centre 11","address":"30-300 Mall Drive W.","city":"Jersey City","state":"NJ","zip":"07303","distance":"9.963295936584473","lon":"-74.038025","lat":"40.728039","theaterChainName":"AMC Theatres","ticketType":"STANDARD"},{"id":"407","name":"Bow Tie Cinemas Wayne Preakness","address":"1220 Hamburg Tpk.","city":"Wayne","state":"NJ","zip":"07470","distance":"17.882699966430664","lon":"-74.244293","lat":"40.961617","theaterChainName":"Bow-Tie Cinemas","ticketType":"STANDARD"},{"id":"5401","name":"Starplex Cinemas Ridgefield Park","address":"75 Challenger Road","city":"Ridgefield Park","state":"NJ","zip":"07660","distance":"4.0222320556640625","lon":"-74.012550","lat":"40.850277","theaterChainName":"Starplex Cinemas","ticketType":"STANDARD"},{"id":"179","name":"Bow Tie Cinemas Warner Quad","address":"190 E. Ridgewood Ave.","city":"Ridgewood","state":"NJ","zip":"07450","distance":"12.961743354797363","lon":"-74.115486","lat":"40.978867","theaterChainName":"Bow-Tie Cinemas","ticketType":"STANDARD"},{"id":"3445","name":"UA Staten Island Stadium 16 & RPX","address":"2474 Forest Ave.","city":"Staten Island","state":"NY","zip":"10303","distance":"19.81477928161621","lon":"-74.172867","lat":"40.626186","theaterChainName":"United Artists","ticketType":"STANDARD"},{"id":"3232","name":"Regal Battery Park Stadium 11","address":"102 North End Ave.","city":"New York","state":"NY","zip":"10281","distance":"10.194489479064941","lon":"-74.014969","lat":"40.714859","theaterChainName":"Regal Cinemas","ticketType":"STANDARD"},{"id":"3103","name":"Edgewater Multiplex Cinemas","address":"339 River Road","city":"Edgewater","state":"NJ","zip":"07020","distance":"3.9731805324554443","lon":"-73.988106","lat":"40.808033","theaterChainName":"National Amusements","ticketType":"STANDARD"},{"id":"176","name":"Digiplex Cranford","address":"25 North Ave.","city":"Cranford","state":"NJ","zip":"07016","distance":"23.136653900146484","lon":"-74.299362","lat":"40.659370","theaterChainName":"Carmike Cinemas","ticketType":"STANDARD"},{"id":"3442","name":"AMC Loews West 34th Street 14","address":"312 W. 34th St.","city":"New York","state":"NY","zip":"10001","distance":"7.380014896392822","lon":"-73.994392","lat":"40.752510","theaterChainName":"AMC Theatres","ticketType":"STANDARD"},{"id":"4034","name":"IFC Center","address":"323 6th Ave. at W 3rd St.","city":"New York","state":"NY","zip":"10014","distance":"8.882465362548828","lon":"-74.001534","lat":"40.731140","theaterChainName":"Independent Chains","ticketType":"STANDARD"},{"id":"2820","name":"Regal E-Walk Stadium 13","address":"247 W. 42nd St.","city":"New York","state":"NY","zip":"10036","distance":"6.97863245010376","lon":"-73.989113","lat":"40.757084","theaterChainName":"Regal Cinemas","ticketType":"STANDARD"},{"id":"573","name":"Quad Cinema","address":"34 W. 13th St.","city":"New York","state":"NY","zip":"10011","distance":"8.463163375854492","lon":"-73.996002","lat":"40.735977","theaterChainName":"Independent Chains","ticketType":"STANDARD"},{"id":"2986","name":"AMC Empire 25","address":"234 W. 42nd St.","city":"New York","state":"NY","zip":"10036","distance":"7.001156330108643","lon":"-73.988663","lat":"40.756580","theaterChainName":"AMC Theatres","ticketType":"STANDARD"},{"id":"1126","name":"Bow Tie Cinemas Beacon Hill 5","address":"343 Springfield Ave.","city":"Summit","state":"NJ","zip":"07901","distance":"23.8175106048584","lon":"-74.356468","lat":"40.718216","theaterChainName":"Bow-Tie Cinemas","ticketType":"STANDARD"},{"id":"5064","name":"Film Society of Lincoln Center","address":"144 W 65th St.","city":"New York","state":"NY","zip":"10023","distance":"5.826911449432373","lon":"-73.983597","lat":"40.773499","theaterChainName":"Independent Chains","ticketType":"STANDARD"},{"id":"575","name":"Film Society of Lincoln Center's Walter Reade Theater","address":"165 W. 65th St.","city":"New York","state":"NY","zip":"10023","distance":"5.826911449432373","lon":"-73.983597","lat":"40.773499","theaterChainName":"Independent Chains","ticketType":"STANDARD"},{"id":"39","name":"AMC Loews Mountainside 10","address":"1021 Route 22","city":"Mountainside","state":"NJ","zip":"07092","distance":"23.86046600341797","lon":"-74.335442","lat":"40.683659","theaterChainName":"AMC Theatres","ticketType":"STANDARD"},{"id":"4383","name":"AMC Aviation 12","address":"1200 South Stiles St.","city":"Linden","state":"NJ","zip":"07036","distance":"22.66473388671875","lon":"-74.245476","lat":"40.620564","theaterChainName":"AMC Theatres","ticketType":"STANDARD"},{"id":"140","name":"AMC Loews East Hanover 12","address":"145 Route 10 E.","city":"East Hanover","state":"NJ","zip":"07936","distance":"23.5167236328125","lon":"-74.382164","lat":"40.808891","theaterChainName":"AMC Theatres","ticketType":"STANDARD"},{"id":"6041","name":"Kinnelon Cinemas","address":"25 Kinnelon Rd","city":"Kinnelon","state":"NJ","zip":"07405","distance":"24.602418899536133","lon":"-74.360992","lat":"41.002808","theaterChainName":"Independent Chains","ticketType":"STANDARD"},{"id":"1779","name":"Bow Tie Cinemas Kinnelon 11","address":"25 Kinnelon Road","city":"Kinnelon","state":"NJ","zip":"07405","distance":"24.605918884277344","lon":"-74.360992","lat":"41.002926","theaterChainName":"Bow-Tie Cinemas","ticketType":"STANDARD"},{"id":"6036","name":"Washington Township Cinemas","address":"249 Pascack Road","city":"Washington Township","state":"NJ","zip":"07676","distance":"11.474263191223145","lon":"-74.063202","lat":"40.984798","theaterChainName":"Independent Chains","ticketType":"STANDARD"},{"id":"1495","name":"Lafayette Theatre","address":"97 Lafayette Ave.","city":"Suffern","state":"NY","zip":"10901","distance":"21.49278450012207","lon":"-74.150352","lat":"41.115063","theaterChainName":"Boston Culinary Group","ticketType":"STANDARD"},{"id":"569","name":"Atrium Stadium Cinemas","address":"680 Arthur Kill Road","city":"Staten Island","state":"NY","zip":"10308","distance":"23.330053329467773","lon":"-74.163849","lat":"40.559669","theaterChainName":"Independent Chains","ticketType":"STANDARD"},{"id":"121","name":"United Artists Hylan Plaza","address":"107 Mill Road","city":"Staten Island","state":"NY","zip":"10306","distance":"21.551424026489258","lon":"-74.109627","lat":"40.566975","theaterChainName":"United Artists","ticketType":"STANDARD"},{"id":"169","name":"Bay Ridge Alpine Cinemas","address":"6817 Fifth Ave.","city":"Brooklyn","state":"NY","zip":"11220","distance":"15.573848724365234","lon":"-74.020805","lat":"40.633656","theaterChainName":"Independent Chains","ticketType":"STANDARD"},{"id":"564","name":"Cobble Hill Cinema","address":"265 Court St.","city":"Brooklyn","state":"NY","zip":"11231","distance":"11.790070533752441","lon":"-73.994514","lat":"40.684910","theaterChainName":"Cobble Hill Cinemas","ticketType":"STANDARD"},{"id":"3234","name":"UA Court Street Stadium 12","address":"108 Court St.","city":"Brooklyn","state":"NY","zip":"11201","distance":"11.3814058303833","lon":"-73.992149","lat":"40.690552","theaterChainName":"United Artists","ticketType":"STANDARD"},{"id":"565","name":"Kent Theatre","address":"1170 Coney Island Ave.","city":"Brooklyn","state":"NY","zip":"11230","distance":"15.32581901550293","lon":"-73.966003","lat":"40.629002","theaterChainName":"Independent Chains","ticketType":"STANDARD"},{"id":"2746","name":"Bam Rose Cinemas","address":"30 Lafayette Ave.","city":"Brooklyn","state":"NY","zip":"11217","distance":"11.486581802368164","lon":"-73.977699","lat":"40.686451","theaterChainName":"Independent Chains","ticketType":"STANDARD"},{"id":"3044","name":"AMC Magic Johnson Harlem 9","address":"2309 Frederick Douglass Blvd.","city":"New York","state":"NY","zip":"10027","distance":"2.8856303691864014","lon":"-73.951790","lat":"40.809677","theaterChainName":"AMC Theatres","ticketType":"STANDARD"},{"id":"151","name":"AMC Loews Lincoln Square 13","address":"1998 Broadway","city":"New York","state":"NY","zip":"10023","distance":"5.691045761108398","lon":"-73.981644","lat":"40.774975","theaterChainName":"AMC Theatres","ticketType":"STANDARD"},{"id":"148","name":"AMC Loews Orpheum 7","address":"1538 Third Ave.","city":"New York","state":"NY","zip":"10028","distance":"4.950313568115234","lon":"-73.953857","lat":"40.779305","theaterChainName":"AMC Theatres","ticketType":"STANDARD"},{"id":"574","name":"Lincoln Plaza Cinemas","address":"1886 Broadway","city":"New York","state":"NY","zip":"10023","distance":"5.955642223358154","lon":"-73.981842","lat":"40.770836","theaterChainName":"Independent Chains","ticketType":"STANDARD"},{"id":"539","name":"City Cinemas 86th Street East","address":"210 E. 86th St.","city":"New York","state":"NY","zip":"10028","distance":"5.0083417892456055","lon":"-73.953339","lat":"40.778374","theaterChainName":"Reading International, Inc","ticketType":"STANDARD"},{"id":"570","name":"City Cinemas Paris Theatre","address":"4 W. 58th St.","city":"New York","state":"NY","zip":"10019","distance":"6.2492170333862305","lon":"-73.974716","lat":"40.764145","theaterChainName":"Reading International, Inc","ticketType":"STANDARD"},{"id":"4601","name":"City Cinemas Beekman Theatre","address":"1271 Second Ave.","city":"New York","state":"NY","zip":"10021","distance":"5.976165771484375","lon":"-73.961006","lat":"40.765278","theaterChainName":"Reading International, Inc","ticketType":"STANDARD"},{"id":"320","name":"Concourse Plaza Multiplex Cinemas","address":"214 E. 161st St.","city":"Bronx","state":"NY","zip":"10451","distance":"1.7878856658935547","lon":"-73.920738","lat":"40.826298","theaterChainName":"National Amusements","ticketType":"STANDARD"},{"id":"2472","name":"AMC Loews Kips Bay 15","address":"570 Second Ave.","city":"New York","state":"NY","zip":"10016","distance":"7.640111446380615","lon":"-73.976700","lat":"40.743500","theaterChainName":"AMC Theatres","ticketType":"STANDARD"},{"id":"150","name":"AMC Loews 19th Street East 6","address":"890 Broadway","city":"New York","state":"NY","zip":"10003","distance":"8.179509162902832","lon":"-73.989769","lat":"40.738556","theaterChainName":"AMC Theatres","ticketType":"STANDARD"},{"id":"3233","name":"UA Kaufman Astoria Stadium 14","address":"35-30 38th St.","city":"Astoria","state":"NY","zip":"11101","distance":"6.552465438842773","lon":"-73.923622","lat":"40.755207","theaterChainName":"United Artists","ticketType":"STANDARD"},{"id":"1609","name":"Regal Union Square Stadium 14","address":"850 Broadway","city":"New York","state":"NY","zip":"10003","distance":"8.486490249633789","lon":"-73.990578","lat":"40.734051","theaterChainName":"Regal Cinemas","ticketType":"STANDARD"},{"id":"571","name":"Cinema Village 12th Street","address":"22 E. 12th St.","city":"New York","state":"NY","zip":"10003","distance":"8.536505699157715","lon":"-73.993431","lat":"40.734077","theaterChainName":"Independent Chains","ticketType":"STANDARD"},{"id":"149","name":"AMC Loews Village 7","address":"66 3rd Ave. (11th St.)","city":"New York","state":"NY","zip":"10003","distance":"8.621380805969238","lon":"-73.988754","lat":"40.731499","theaterChainName":"AMC Theatres","ticketType":"STANDARD"},{"id":"538","name":"City Cinemas Village East","address":"181-189 Second Ave.","city":"New York","state":"NY","zip":"10003","distance":"8.616822242736816","lon":"-73.986168","lat":"40.730919","theaterChainName":"Reading International, Inc","ticketType":"STANDARD"},{"id":"540","name":"City Cinemas Angelika Film Center","address":"18 W. Houston St.","city":"New York","state":"NY","zip":"10012","distance":"9.142135620117188","lon":"-73.997284","lat":"40.725811","theaterChainName":"Reading International, Inc","ticketType":"STANDARD"},{"id":"1147","name":"Bow Tie Cinemas Tenafly Cinema 4","address":"4 1\/2 W. Railroad Ave.","city":"Tenafly","state":"NJ","zip":"07670","distance":"5.375516414642334","lon":"-73.965164","lat":"40.924118","theaterChainName":"Bow-Tie Cinemas","ticketType":"STANDARD"},{"id":"5060","name":"Nitehawk Cinema","address":"136 Metropolitan Ave.","city":"Brooklyn","state":"NY","zip":"11249","distance":"9.329984664916992","lon":"-73.962509","lat":"40.716122","theaterChainName":"Independent Chains","ticketType":"STANDARD"},{"id":"5894","name":"Metrograph","address":"7 Ludlow St.","city":"New York","state":"NY","zip":"10002","distance":"9.739624977111816","lon":"-73.991180","lat":"40.715076","theaterChainName":"Independent Chains","ticketType":"STANDARD"},{"id":"1766","name":"Bow Tie Cinemas Bergenfield 5 ","address":"58 S Washington Ave.","city":"Bergenfield","state":"NJ","zip":"07621","distance":"6.164577007293701","lon":"-73.996780","lat":"40.925892","theaterChainName":"Bow-Tie Cinemas","ticketType":"STANDARD"},{"id":"5777","name":"Videology Cinema","address":"308 Bedford Ave.","city":"Brooklyn","state":"NY","zip":"11249","distance":"9.478949546813965","lon":"-73.961815","lat":"40.713863","theaterChainName":"Independent Chains","ticketType":"STANDARD"},{"id":"5284","name":"Williamsburg Cinemas","address":"217 Grand St.","city":"Brooklyn","state":"NY","zip":"11211","distance":"9.462359428405762","lon":"-73.959900","lat":"40.713902","theaterChainName":"Independent Chains","ticketType":"STANDARD"},{"id":"5965","name":"Syndicated","address":"40 Bogart Street","city":"Brooklyn","state":"NY","zip":"11206","distance":"9.995168685913086","lon":"-73.932861","lat":"40.704964","theaterChainName":"Independent Chains","ticketType":"STANDARD"},{"id":"1131","name":"Bow Tie Cinemas Closter Cinema 4","address":"130 Closter Plaza","city":"Closter","state":"NJ","zip":"07624","distance":"8.286087036132812","lon":"-73.954964","lat":"40.968624","theaterChainName":"Bow-Tie Cinemas","ticketType":"STANDARD"},{"id":"160","name":"Westwood Theaters","address":"182 Center Ave.","city":"Westwood","state":"NJ","zip":"07675","distance":"10.981026649475098","lon":"-74.031570","lat":"40.991013","theaterChainName":"Independent Chains","ticketType":"STANDARD"},{"id":"5393","name":"Regal Nanuet Mall Stadium 12 & RPX","address":"6201 Fashion Dr.","city":"Nanuet","state":"NY","zip":"10954","distance":"17.64473533630371","lon":"-74.015152","lat":"41.097797","theaterChainName":"Regal Cinemas","ticketType":"STANDARD"},{"id":"2460","name":"College Point Multiplex Cinemas","address":"2855 Ulmer St.","city":"Whitestone","state":"NY","zip":"11357","distance":"7.5150322914123535","lon":"-73.835205","lat":"40.771790","theaterChainName":"National Amusements","ticketType":"STANDARD"},{"id":"111","name":"UA Sheepshead Bay Stadium 14 + IMAX","address":"3907 Shore Pkwy.","city":"Brooklyn","state":"NY","zip":"11235","distance":"18.20470428466797","lon":"-73.930504","lat":"40.586166","theaterChainName":"United Artists","ticketType":"STANDARD"},{"id":"824","name":"Linden Blvd. Multiplex Cinemas","address":"2784 Linden Blvd.","city":"Brooklyn","state":"NY","zip":"11208","distance":"13.043170928955078","lon":"-73.861397","lat":"40.669399","theaterChainName":"National Amusements","ticketType":"STANDARD"},{"id":"4206","name":"Regal Atlas Park Stadium 8","address":"Cooper Ave ","city":"Glendale","state":"NY","zip":"11385","distance":"10.416686058044434","lon":"-73.867638","lat":"40.707905","theaterChainName":"Regal Cinemas","ticketType":"STANDARD"},{"id":"566","name":"Cinemart Cinemas","address":"106-03 Metropolitan Ave.","city":"Forest Hills","state":"NY","zip":"11375","distance":"10.702887535095215","lon":"-73.846870","lat":"40.710037","theaterChainName":"Independent Chains","ticketType":"STANDARD"},{"id":"110","name":"UA Midway Stadium 9","address":"108-22 Queens Blvd.","city":"Forest Hills","state":"NY","zip":"11375","distance":"10.121225357055664","lon":"-73.843422","lat":"40.720821","theaterChainName":"United Artists","ticketType":"STANDARD"},{"id":"4681","name":"Phoenix Theatre Bombay","address":"6825 Fresh Meadow Lane","city":"Flushing","state":"NY","zip":"11365","distance":"10.929614067077637","lon":"-73.794357","lat":"40.733047","theaterChainName":"Independent Chains","ticketType":"STANDARD"},{"id":"2680","name":"Kew Gardens Cinemas","address":"81-05 Lefferts Blvd.","city":"Kew Gardens","state":"NY","zip":"11415","distance":"11.172207832336426","lon":"-73.829849","lat":"40.709137","theaterChainName":"Cobble Hill Cinemas","ticketType":"STANDARD"},{"id":"3512","name":"Jamaica Multiplex Cinemas","address":"159-02 Jamaica Ave.","city":"Jamaica","state":"NY","zip":"11432","distance":"12.360060691833496","lon":"-73.799828","lat":"40.703224","theaterChainName":"National Amusements","ticketType":"STANDARD"},{"id":"108","name":"UA Lynbrook 6","address":"321 Merrick Road","city":"Lynbrook","state":"NY","zip":"11563","distance":"19.165700912475586","lon":"-73.671829","lat":"40.657223","theaterChainName":"United Artists","ticketType":"STANDARD"}]