[{"id":"1684","name":"Roosevelt Cinemas","address":"4060 Albany Post Road","city":"Hyde Park","state":"NY","zip":"12538","distance":"22.58293342590332","lon":"-73.928947","lat":"41.768208","theaterChainName":"Independent Chains","ticketType":"STANDARD"},{"id":"3549","name":"Empire Southeast Towne Center","address":"Route 22 ","city":"Brewster","state":"NY","zip":"10509","distance":"18.484041213989258","lon":"-73.577103","lat":"41.428501","theaterChainName":"Garden Homes Cinemas","ticketType":"STANDARD"},{"id":"3067","name":"Carmel Movieplex 8","address":"150 Route 52","city":"Carmel","state":"NY","zip":"10512","distance":"13.161704063415527","lon":"-73.679596","lat":"41.434280","theaterChainName":"Independent Chains","ticketType":"STANDARD"},{"id":"1530","name":"Bow Tie Cinemas Mt Kisco Cinemas ","address":"144 Main St.","city":"Mount Kisco","state":"NY","zip":"10549","distance":"19.524261474609375","lon":"-73.727432","lat":"41.204987","theaterChainName":"Bow-Tie Cinemas","ticketType":"STANDARD"},{"id":"3369","name":"Jacob Burns Film Center","address":"364 Manville Road","city":"Pleasantville","state":"NY","zip":"10570","distance":"22.41352653503418","lon":"-73.791603","lat":"41.135048","theaterChainName":"Independent Chains","ticketType":"STANDARD"},{"id":"873","name":"UA Cortlandt Town Center Stadium 11","address":"3131 E. Main St.","city":"Mohegan Lake","state":"NY","zip":"10547","distance":"9.681344032287598","lon":"-73.868340","lat":"41.310097","theaterChainName":"United Artists","ticketType":"STANDARD"},{"id":"1523","name":"Regal Fishkill 10","address":"2400 Rt. 9","city":"Fishkill","state":"NY","zip":"12524","distance":"6.057058334350586","lon":"-73.896057","lat":"41.524448","theaterChainName":"Regal Cinemas","ticketType":"STANDARD"},{"id":"1526","name":"Regal Galleria Mall Stadium 16","address":"2001 South Road","city":"Poughkeepsie","state":"NY","zip":"12601","distance":"12.846067428588867","lon":"-73.917000","lat":"41.626900","theaterChainName":"Regal Cinemas","ticketType":"STANDARD"},{"id":"1527","name":"South Hills 8","address":"1895 South Road","city":"Poughkeepsie","state":"NY","zip":"12601","distance":"12.152032852172852","lon":"-73.921555","lat":"41.617039","theaterChainName":"Independent Chains","ticketType":"STANDARD"},{"id":"4603","name":"Downing Film Center","address":"19 Front Street","city":"Newburgh","state":"NY","zip":"12550","distance":"5.622171401977539","lon":"-74.005577","lat":"41.502258","theaterChainName":"Independent Chains","ticketType":"STANDARD"},{"id":"1848","name":"Destinta New Windsor 12","address":"215 Quassaik Ave.","city":"New Windsor","state":"NY","zip":"12553","distance":"5.194241046905518","lon":"-74.022850","lat":"41.475563","theaterChainName":"Independent Chains","ticketType":"STANDARD"},{"id":"1828","name":"New Paltz Cinema","address":"2 New Paltz Plaza","city":"New Paltz","state":"NY","zip":"12561","distance":"22.002107620239258","lon":"-74.069427","lat":"41.743156","theaterChainName":"Independent Chains","ticketType":"STANDARD"},{"id":"3953","name":"Showtime Cinemas - Newburgh","address":"1420 Route 300","city":"Newburgh","state":"NY","zip":"12550","distance":"9.095402717590332","lon":"-74.070198","lat":"41.524101","theaterChainName":"Independent Chains","ticketType":"STANDARD"},{"id":"771","name":"AMC Loews Palisades Center 21","address":"4403 Palisades Center Drive","city":"West Nyack","state":"NY","zip":"10994","distance":"23.773834228515625","lon":"-73.956482","lat":"41.097771","theaterChainName":"AMC Theatres","ticketType":"STANDARD"},{"id":"1494","name":"Bow Tie Cinemas New City Cinema 6","address":"202 S. Main St.","city":"New City","state":"NY","zip":"10956","distance":"21.053468704223633","lon":"-73.989021","lat":"41.139576","theaterChainName":"Bow-Tie Cinemas","ticketType":"STANDARD"},{"id":"5393","name":"Regal Nanuet Mall Stadium 12 & RPX","address":"6201 Fashion Dr.","city":"Nanuet","state":"NY","zip":"10954","distance":"24.11772346496582","lon":"-74.015152","lat":"41.097797","theaterChainName":"Regal Cinemas","ticketType":"STANDARD"},{"id":"5730","name":"Monroe Theaters at TMACC","address":"34 Millpond Parkway","city":"Monroe","state":"NY","zip":"10950","distance":"15.402058601379395","lon":"-74.188400","lat":"41.326900","theaterChainName":"Independent Chains","ticketType":"STANDARD"},{"id":"2845","name":"Elite Cinema 6","address":"78 Brookside Ave.","city":"Chester","state":"NY","zip":"10918","distance":"19.00859832763672","lon":"-74.283905","lat":"41.360188","theaterChainName":"Independent Chains","ticketType":"STANDARD"},{"id":"156","name":"AMC Loews Galleria Metroplex 16","address":"1 N. Galleria Drive","city":"Middletown","state":"NY","zip":"10940","distance":"22.449546813964844","lon":"-74.366669","lat":"41.453075","theaterChainName":"AMC Theatres","ticketType":"STANDARD"}]