[{"id":"873","tribuneTheaterId":"7904","providerTheaterId":"","name":"UA Cortlandt Town Center Stadium 11","address":"3131 E. Main St.","city":"Mohegan Lake","state":"NY","zip":"10547","distance":5.2074563859799,"lon":"-73.868339","lat":"41.310095","theaterChainName":"United Artists","ticketType":"STANDARD"},{"id":"1494","tribuneTheaterId":"5901","providerTheaterId":"","name":"Bow Tie Cinemas New City Cinema 6","address":"202 S. Main St.","city":"New City","state":"NY","zip":"10956","distance":8.5715510615831,"lon":"-73.989025","lat":"41.139576","theaterChainName":"Bow-Tie Cinemas","ticketType":"STANDARD"},{"id":"3369","tribuneTheaterId":"2853","providerTheaterId":"","name":"Jacob Burns Film Center","address":"364 Manville Road","city":"Pleasantville","state":"NY","zip":"10570","distance":11.532808654118,"lon":"-73.791606","lat":"41.135049","theaterChainName":"Independent Chains","ticketType":"STANDARD"},{"id":"1530","tribuneTheaterId":"5911","providerTheaterId":"","name":"Bow Tie Cinemas Mt Kisco Cinemas ","address":"144 Main St.","city":"Mount Kisco","state":"NY","zip":"10549","distance":11.702437132445,"lon":"-73.727436","lat":"41.204985","theaterChainName":"Bow-Tie Cinemas","ticketType":"STANDARD"},{"id":"771","tribuneTheaterId":"8756","providerTheaterId":"2729","name":"AMC Loews Palisades Center 21","address":"4403 Palisades Center Drive","city":"West Nyack","state":"NY","zip":"10994","distance":11.119856589984,"lon":"-73.956485","lat":"41.097772","theaterChainName":"AMC Theatres","ticketType":"STANDARD"},{"id":"5393","tribuneTheaterId":"10830","providerTheaterId":"","name":"Regal Nanuet Mall Stadium 12 & RPX","address":"6201 Fashion Dr.","city":"Nanuet","state":"NY","zip":"10954","distance":11.737572828482,"lon":"-74.015154","lat":"41.097798","theaterChainName":"Regal Cinemas","ticketType":"STANDARD"},{"id":"5730","tribuneTheaterId":"11172","providerTheaterId":"","name":"Monroe Theaters at TMACC","address":"34 Millpond Parkway","city":"Monroe","state":"NY","zip":"10950","distance":13.680278508171,"lon":"-74.1884","lat":"41.3269","theaterChainName":"Independent Chains","ticketType":"STANDARD"},{"id":"1848","tribuneTheaterId":"6484","providerTheaterId":"","name":"Destinta New Windsor 12","address":"215 Quassaik Ave.","city":"New Windsor","state":"NY","zip":"12553","distance":15.59717083641,"lon":"-74.022853","lat":"41.475564","theaterChainName":"Independent Chains","ticketType":"STANDARD"},{"id":"1495","tribuneTheaterId":"2498","providerTheaterId":"","name":"Lafayette Theatre","address":"97 Lafayette Ave.","city":"Suffern","state":"NY","zip":"10901","distance":14.704284856838,"lon":"-74.15035","lat":"41.115063","theaterChainName":"Boston Culinary Group","ticketType":"STANDARD"},{"id":"2858","tribuneTheaterId":"9162","providerTheaterId":"","name":"Greenburgh Multiplex Cinemas","address":"320 Saw Mill River Road","city":"Elmsford","state":"NY","zip":"10523","distance":14.86299155616,"lon":"-73.812702","lat":"41.066165","theaterChainName":"National Amusements","ticketType":"STANDARD"},{"id":"4603","tribuneTheaterId":"9775","providerTheaterId":"","name":"Downing Film Center","address":"19 Front Street","city":"Newburgh","state":"NY","zip":"12550","distance":17.183221626773,"lon":"-74.005575","lat":"41.50226","theaterChainName":"Independent Chains","ticketType":"STANDARD"},{"id":"1529","tribuneTheaterId":"8677","providerTheaterId":"","name":"Bow Tie Cinemas Cinema 100","address":"93 Knollwood Road","city":"White Plains","state":"NY","zip":"10607","distance":16.701441809417,"lon":"-73.8082","lat":"41.0383","theaterChainName":"Bow-Tie Cinemas","ticketType":"STANDARD"},{"id":"3658","tribuneTheaterId":"8684","providerTheaterId":"","name":"City Center 15: Cinema de Lux","address":"19 Mamaroneck Ave.","city":"White Plains","state":"NY","zip":"10601","distance":18.096351849334,"lon":"-73.765699","lat":"41.032177","theaterChainName":"National Amusements","ticketType":"STANDARD"},{"id":"2845","tribuneTheaterId":"3453","providerTheaterId":"","name":"Elite Cinema 6","address":"78 Brookside Ave.","city":"Chester","state":"NY","zip":"10918","distance":19.128707368086,"lon":"-74.283902","lat":"41.360188","theaterChainName":"Independent Chains","ticketType":"STANDARD"},{"id":"160","tribuneTheaterId":"3900","providerTheaterId":"","name":"Westwood Theaters","address":"182 Center Ave.","city":"Westwood","state":"NJ","zip":"07675","distance":19.057251869355,"lon":"-74.031568","lat":"40.991013","theaterChainName":"Independent Chains","ticketType":"STANDARD"},{"id":"3067","tribuneTheaterId":"7313","providerTheaterId":"","name":"Carmel Movieplex 8","address":"150 Route 52","city":"Carmel","state":"NY","zip":"10512","distance":18.220055153904,"lon":"-73.679597","lat":"41.434279","theaterChainName":"Independent Chains","ticketType":"STANDARD"},{"id":"1523","tribuneTheaterId":"8734","providerTheaterId":"","name":"Regal Fishkill 10","address":"2400 Rt. 9","city":"Fishkill","state":"NY","zip":"12524","distance":18.537405074224,"lon":"-73.896055","lat":"41.524449","theaterChainName":"Regal Cinemas","ticketType":"STANDARD"},{"id":"6036","tribuneTheaterId":"11440","providerTheaterId":"","name":"Washington Township Cinemas","address":"249 Pascack Road","city":"Washington Township","state":"NJ","zip":"07676","distance":19.935380930064,"lon":"-74.0632","lat":"40.9848","theaterChainName":"Independent Chains","ticketType":"STANDARD"},{"id":"1131","tribuneTheaterId":"5892","providerTheaterId":"","name":"Bow Tie Cinemas Closter Cinema 4","address":"130 Closter Plaza","city":"Closter","state":"NJ","zip":"07624","distance":20.027566625801,"lon":"-73.954967","lat":"40.968623","theaterChainName":"Bow-Tie Cinemas","ticketType":"STANDARD"},{"id":"5044","tribuneTheaterId":"10421","providerTheaterId":"","name":"Showcase Cinema de Lux Ridge Hill","address":"29 Fitzgerald St.","city":"Yonkers","state":"NY","zip":"10710","distance":20.989382794092,"lon":"-73.844398","lat":"40.963402","theaterChainName":"National Amusements","ticketType":"STANDARD"},{"id":"5208","tribuneTheaterId":"10632","providerTheaterId":"","name":"Alamo Drafthouse Yonkers","address":"2548 Central Park Ave","city":"Yonkers","state":"NY","zip":"10710","distance":19.996974378886,"lon":"-73.824543","lat":"40.982545","theaterChainName":"Alamo Drafthouse","ticketType":"STANDARD"},{"id":"3953","tribuneTheaterId":"2332","providerTheaterId":"","name":"Showtime Cinemas - Newburgh","address":"1420 Route 300","city":"Newburgh","state":"NY","zip":"12550","distance":19.544424540149,"lon":"-74.0702","lat":"41.5241","theaterChainName":"Independent Chains","ticketType":"STANDARD"},{"id":"179","tribuneTheaterId":"8442","providerTheaterId":"","name":"Bow Tie Cinemas Warner Quad","address":"190 E. Ridgewood Ave.","city":"Ridgewood","state":"NJ","zip":"07450","distance":21.332103525667,"lon":"-74.115486","lat":"40.978866","theaterChainName":"Bow-Tie Cinemas","ticketType":"STANDARD"},{"id":"3888","tribuneTheaterId":"9150","providerTheaterId":"2680","name":"AMC Loews Port Chester 14","address":"40 Westchester Ave.","city":"Port Chester","state":"NY","zip":"10573","distance":23.013857200985,"lon":"-73.662394","lat":"40.99976","theaterChainName":"AMC Theatres","ticketType":"STANDARD"},{"id":"1766","tribuneTheaterId":"5899","providerTheaterId":"","name":"Bow Tie Cinemas Bergenfield 5 ","address":"58 S Washington Ave.","city":"Bergenfield","state":"NJ","zip":"07621","distance":23.148856372244,"lon":"-73.996778","lat":"40.925891","theaterChainName":"Bow-Tie Cinemas","ticketType":"STANDARD"},{"id":"3549","tribuneTheaterId":"5953","providerTheaterId":"","name":"Empire Southeast Towne Center","address":"Route 22 ","city":"Brewster","state":"NY","zip":"10509","distance":22.248559478349,"lon":"-73.577103","lat":"41.428501","theaterChainName":"Garden Homes Cinemas","ticketType":"STANDARD"},{"id":"1346","tribuneTheaterId":"5881","providerTheaterId":"","name":"Bow Tie Cinemas Plaza 3","address":"2 Railroad Ave.","city":"Greenwich","state":"CT","zip":"06830","distance":23.204585324609,"lon":"-73.624985","lat":"41.021489","theaterChainName":"Bow-Tie Cinemas","ticketType":"STANDARD"},{"id":"117","tribuneTheaterId":"7034","providerTheaterId":"","name":"Bow Tie Cinemas Bronxville 3","address":"84 Kraft Ave.","city":"Bronxville","state":"NY","zip":"10708","distance":22.666727797786,"lon":"-73.834434","lat":"40.940259","theaterChainName":"Bow-Tie Cinemas","ticketType":"STANDARD"},{"id":"5604","tribuneTheaterId":"11060","providerTheaterId":"","name":"Prospector Theater","address":"25 Prospect St","city":"Ridgefield","state":"CT","zip":"06877","distance":23.130126841102,"lon":"-73.497072","lat":"41.283648","theaterChainName":"Independent Chains","ticketType":"STANDARD"},{"id":"1527","tribuneTheaterId":"3084","providerTheaterId":"","name":"South Hills 8","address":"1895 South Road","city":"Poughkeepsie","state":"NY","zip":"12601","distance":24.807344699834,"lon":"-73.921553","lat":"41.617039","theaterChainName":"Independent Chains","ticketType":"STANDARD"},{"id":"119","tribuneTheaterId":"7932","providerTheaterId":"","name":"Bow Tie Cinemas Mamaroneck 4","address":"243 Mamaroneck Ave.","city":"Mamaroneck","state":"NY","zip":"10543","distance":23.845433925,"lon":"-73.733869","lat":"40.950565","theaterChainName":"Bow-Tie Cinemas","ticketType":"STANDARD"},{"id":"282","tribuneTheaterId":"9218","providerTheaterId":"","name":"Cross County Multiplex Cinemas","address":"2 South Drive","city":"Yonkers","state":"NY","zip":"10704","distance":23.479401969673,"lon":"-73.854443","lat":"40.924828","theaterChainName":"National Amusements","ticketType":"STANDARD"},{"id":"1147","tribuneTheaterId":"5894","providerTheaterId":"","name":"Bow Tie Cinemas Tenafly Cinema 4","address":"4 1\/2 W. Railroad Ave.","city":"Tenafly","state":"NJ","zip":"07670","distance":23.12349733625,"lon":"-73.965162","lat":"40.924117","theaterChainName":"Bow-Tie Cinemas","ticketType":"STANDARD"},{"id":"2178","tribuneTheaterId":"5880","providerTheaterId":"","name":"Bow Tie Cinemas New Canaan Playhouse","address":"89 Elm St.","city":"New Canaan","state":"CT","zip":"06840","distance":24.488061701251,"lon":"-73.4941","lat":"41.1467","theaterChainName":"Bow-Tie Cinemas","ticketType":"STANDARD"},{"id":"4336","tribuneTheaterId":"9312","providerTheaterId":"2253","name":"AMC Garden State 16","address":"4000 Garden State Plaza","city":"Paramus","state":"NJ","zip":"07652","distance":24.497150018245,"lon":"-74.075962","lat":"40.918608","theaterChainName":"AMC Theatres","ticketType":"STANDARD"},{"id":"118","tribuneTheaterId":"7464","providerTheaterId":"","name":"Bow Tie Cinemas Larchmont Playhouse","address":"1975 Palmer Ave.","city":"Larchmont","state":"NY","zip":"10538","distance":24.47682518279,"lon":"-73.760999","lat":"40.931106","theaterChainName":"Bow-Tie Cinemas","ticketType":"STANDARD"},{"id":"1173","tribuneTheaterId":"2934","providerTheaterId":"","name":"Hawthorne 5","address":"300 Lafayette Ave.","city":"Hawthorne","state":"NJ","zip":"07506","distance":24.135796154685,"lon":"-74.155383","lat":"40.948496","theaterChainName":"Independent Chains","ticketType":"STANDARD"}]