[{"id":"3067","tribuneTheaterId":"7313","providerTheaterId":"","name":"Carmel Movieplex 8","address":"150 Route 52","city":"Carmel","state":"NY","zip":"10512","distance":0.624212994035,"lon":"-73.679597","lat":"41.434279","theaterChainName":"Independent Chains","ticketType":"STANDARD"},{"id":"3549","tribuneTheaterId":"5953","providerTheaterId":"","name":"Empire Southeast Towne Center","address":"Route 22 ","city":"Brewster","state":"NY","zip":"10509","distance":5.5022078100517,"lon":"-73.577103","lat":"41.428501","theaterChainName":"Garden Homes Cinemas","ticketType":"STANDARD"},{"id":"1523","tribuneTheaterId":"8734","providerTheaterId":"","name":"Regal Fishkill 10","address":"2400 Rt. 9","city":"Fishkill","state":"NY","zip":"12524","distance":12.44375033631,"lon":"-73.896055","lat":"41.524449","theaterChainName":"Regal Cinemas","ticketType":"STANDARD"},{"id":"873","tribuneTheaterId":"7904","providerTheaterId":"","name":"UA Cortlandt Town Center Stadium 11","address":"3131 E. Main St.","city":"Mohegan Lake","state":"NY","zip":"10547","distance":13.357192315945,"lon":"-73.868339","lat":"41.310095","theaterChainName":"United Artists","ticketType":"STANDARD"},{"id":"5604","tribuneTheaterId":"11060","providerTheaterId":"","name":"Prospector Theater","address":"25 Prospect St","city":"Ridgefield","state":"CT","zip":"06877","distance":14.594347098956,"lon":"-73.497072","lat":"41.283648","theaterChainName":"Independent Chains","ticketType":"STANDARD"},{"id":"155","tribuneTheaterId":"8351","providerTheaterId":"2620","name":"AMC Loews Danbury 16","address":"61 Eagle Road","city":"Danbury","state":"CT","zip":"06810","distance":13.900058777824,"lon":"-73.415609","lat":"41.416189","theaterChainName":"AMC Theatres","ticketType":"STANDARD"},{"id":"1530","tribuneTheaterId":"5911","providerTheaterId":"","name":"Bow Tie Cinemas Mt Kisco Cinemas ","address":"144 Main St.","city":"Mount Kisco","state":"NY","zip":"10549","distance":16.630751579482,"lon":"-73.727436","lat":"41.204985","theaterChainName":"Bow-Tie Cinemas","ticketType":"STANDARD"},{"id":"1526","tribuneTheaterId":"5664","providerTheaterId":"","name":"Regal Galleria Mall Stadium 16","address":"2001 South Road","city":"Poughkeepsie","state":"NY","zip":"12601","distance":17.591198553429,"lon":"-73.917","lat":"41.6269","theaterChainName":"Regal Cinemas","ticketType":"STANDARD"},{"id":"1246","tribuneTheaterId":"1096","providerTheaterId":"","name":"Bank Street Theatre","address":"46 Bank Street","city":"New Milford","state":"CT","zip":"06776","distance":16.736265042388,"lon":"-73.412258","lat":"41.577454","theaterChainName":"Independent Chains","ticketType":"STANDARD"},{"id":"1527","tribuneTheaterId":"3084","providerTheaterId":"","name":"South Hills 8","address":"1895 South Road","city":"Poughkeepsie","state":"NY","zip":"12601","distance":17.275251074701,"lon":"-73.921553","lat":"41.617039","theaterChainName":"Independent Chains","ticketType":"STANDARD"},{"id":"1848","tribuneTheaterId":"6484","providerTheaterId":"","name":"Destinta New Windsor 12","address":"215 Quassaik Ave.","city":"New Windsor","state":"NY","zip":"12553","distance":17.816224482508,"lon":"-74.022853","lat":"41.475564","theaterChainName":"Independent Chains","ticketType":"STANDARD"},{"id":"4603","tribuneTheaterId":"9775","providerTheaterId":"","name":"Downing Film Center","address":"19 Front Street","city":"Newburgh","state":"NY","zip":"12550","distance":17.266352903899,"lon":"-74.005575","lat":"41.50226","theaterChainName":"Independent Chains","ticketType":"STANDARD"},{"id":"1242","tribuneTheaterId":"2477","providerTheaterId":"","name":"Edmond Town Hall Theatre","address":"45 Main St.","city":"Newtown","state":"CT","zip":"06470","distance":19.302785960365,"lon":"-73.310815","lat":"41.414849","theaterChainName":"Independent Chains","ticketType":"STANDARD"},{"id":"3953","tribuneTheaterId":"2332","providerTheaterId":"","name":"Showtime Cinemas - Newburgh","address":"1420 Route 300","city":"Newburgh","state":"NY","zip":"12550","distance":20.881470240523,"lon":"-74.0702","lat":"41.5241","theaterChainName":"Independent Chains","ticketType":"STANDARD"},{"id":"2178","tribuneTheaterId":"5880","providerTheaterId":"","name":"Bow Tie Cinemas New Canaan Playhouse","address":"89 Elm St.","city":"New Canaan","state":"CT","zip":"06840","distance":22.678619289838,"lon":"-73.4941","lat":"41.1467","theaterChainName":"Bow-Tie Cinemas","ticketType":"STANDARD"},{"id":"3070","tribuneTheaterId":"6933","providerTheaterId":"","name":"Bow Tie Cinemas Wilton 4","address":"21 River Road","city":"Wilton","state":"CT","zip":"06897","distance":21.766618477719,"lon":"-73.431308","lat":"41.190347","theaterChainName":"Bow-Tie Cinemas","ticketType":"STANDARD"},{"id":"3369","tribuneTheaterId":"2853","providerTheaterId":"","name":"Jacob Burns Film Center","address":"364 Manville Road","city":"Pleasantville","state":"NY","zip":"10570","distance":22.04516503729,"lon":"-73.791606","lat":"41.135049","theaterChainName":"Independent Chains","ticketType":"STANDARD"}]