[{"id":"1530","tribuneTheaterId":"5911","providerTheaterId":"","name":"Bow Tie Cinemas Mt Kisco Cinemas ","address":"144 Main St.","city":"Mount Kisco","state":"NY","zip":"10549","distance":5.0804713620084,"lon":"-73.727436","lat":"41.204985","theaterChainName":"Bow-Tie Cinemas","ticketType":"STANDARD"},{"id":"3369","tribuneTheaterId":"2853","providerTheaterId":"","name":"Jacob Burns Film Center","address":"364 Manville Road","city":"Pleasantville","state":"NY","zip":"10570","distance":10.924159804718,"lon":"-73.791606","lat":"41.135049","theaterChainName":"Independent Chains","ticketType":"STANDARD"},{"id":"873","tribuneTheaterId":"7904","providerTheaterId":"","name":"UA Cortlandt Town Center Stadium 11","address":"3131 E. Main St.","city":"Mohegan Lake","state":"NY","zip":"10547","distance":9.9407339473485,"lon":"-73.868339","lat":"41.310095","theaterChainName":"United Artists","ticketType":"STANDARD"},{"id":"5604","tribuneTheaterId":"11060","providerTheaterId":"","name":"Prospector Theater","address":"25 Prospect St","city":"Ridgefield","state":"CT","zip":"06877","distance":9.7513635674047,"lon":"-73.497072","lat":"41.283648","theaterChainName":"Independent Chains","ticketType":"STANDARD"},{"id":"3549","tribuneTheaterId":"5953","providerTheaterId":"","name":"Empire Southeast Towne Center","address":"Route 22 ","city":"Brewster","state":"NY","zip":"10509","distance":12.221829895622,"lon":"-73.577103","lat":"41.428501","theaterChainName":"Garden Homes Cinemas","ticketType":"STANDARD"},{"id":"3067","tribuneTheaterId":"7313","providerTheaterId":"","name":"Carmel Movieplex 8","address":"150 Route 52","city":"Carmel","state":"NY","zip":"10512","distance":11.290810453673,"lon":"-73.679597","lat":"41.434279","theaterChainName":"Independent Chains","ticketType":"STANDARD"},{"id":"2178","tribuneTheaterId":"5880","providerTheaterId":"","name":"Bow Tie Cinemas New Canaan Playhouse","address":"89 Elm St.","city":"New Canaan","state":"CT","zip":"06840","distance":13.083531116616,"lon":"-73.4941","lat":"41.1467","theaterChainName":"Bow-Tie Cinemas","ticketType":"STANDARD"},{"id":"3070","tribuneTheaterId":"6933","providerTheaterId":"","name":"Bow Tie Cinemas Wilton 4","address":"21 River Road","city":"Wilton","state":"CT","zip":"06897","distance":14.266156405629,"lon":"-73.431308","lat":"41.190347","theaterChainName":"Bow-Tie Cinemas","ticketType":"STANDARD"},{"id":"2858","tribuneTheaterId":"9162","providerTheaterId":"","name":"Greenburgh Multiplex Cinemas","address":"320 Saw Mill River Road","city":"Elmsford","state":"NY","zip":"10523","distance":15.647502936183,"lon":"-73.812702","lat":"41.066165","theaterChainName":"National Amusements","ticketType":"STANDARD"},{"id":"3658","tribuneTheaterId":"8684","providerTheaterId":"","name":"City Center 15: Cinema de Lux","address":"19 Mamaroneck Ave.","city":"White Plains","state":"NY","zip":"10601","distance":17.031707992765,"lon":"-73.765699","lat":"41.032177","theaterChainName":"National Amusements","ticketType":"STANDARD"},{"id":"155","tribuneTheaterId":"8351","providerTheaterId":"2620","name":"AMC Loews Danbury 16","address":"61 Eagle Road","city":"Danbury","state":"CT","zip":"06810","distance":17.168042866496,"lon":"-73.415609","lat":"41.416189","theaterChainName":"AMC Theatres","ticketType":"STANDARD"},{"id":"1529","tribuneTheaterId":"8677","providerTheaterId":"","name":"Bow Tie Cinemas Cinema 100","address":"93 Knollwood Road","city":"White Plains","state":"NY","zip":"10607","distance":17.319369816967,"lon":"-73.8082","lat":"41.0383","theaterChainName":"Bow-Tie Cinemas","ticketType":"STANDARD"},{"id":"2141","tribuneTheaterId":"5004","providerTheaterId":"","name":"Avon Theatre Film Center, Inc.","address":"272 Bedford Street","city":"Stamford","state":"CT","zip":"06901","distance":16.603938599161,"lon":"-73.538268","lat":"41.057132","theaterChainName":"Independent Chains","ticketType":"STANDARD"},{"id":"1541","tribuneTheaterId":"5882","providerTheaterId":"","name":"Bow Tie Cinemas Majestic 6","address":"118 Summer St.","city":"Stamford","state":"CT","zip":"06901","distance":16.715944716651,"lon":"-73.540846","lat":"41.054335","theaterChainName":"Bow-Tie Cinemas","ticketType":"STANDARD"},{"id":"1542","tribuneTheaterId":"5885","providerTheaterId":"","name":"Bow Tie Cinemas Landmark 9 Stamford","address":"5 Landmark Square","city":"Stamford","state":"CT","zip":"06905","distance":16.767943362065,"lon":"-73.537545","lat":"41.054745","theaterChainName":"Bow-Tie Cinemas","ticketType":"STANDARD"},{"id":"1494","tribuneTheaterId":"5901","providerTheaterId":"","name":"Bow Tie Cinemas New City Cinema 6","address":"202 S. Main St.","city":"New City","state":"NY","zip":"10956","distance":18.264121035949,"lon":"-73.989025","lat":"41.139576","theaterChainName":"Bow-Tie Cinemas","ticketType":"STANDARD"},{"id":"216","tribuneTheaterId":"2664","providerTheaterId":"","name":"Darien Playhouse","address":"1077 Boston Post Road","city":"Darien","state":"CT","zip":"06820","distance":17.420996560413,"lon":"-73.473581","lat":"41.074781","theaterChainName":"Independent Chains","ticketType":"STANDARD"},{"id":"1346","tribuneTheaterId":"5881","providerTheaterId":"","name":"Bow Tie Cinemas Plaza 3","address":"2 Railroad Ave.","city":"Greenwich","state":"CT","zip":"06830","distance":17.504958514014,"lon":"-73.624985","lat":"41.021489","theaterChainName":"Bow-Tie Cinemas","ticketType":"STANDARD"},{"id":"1866","tribuneTheaterId":"5883","providerTheaterId":"","name":"Bow Tie Cinemas Royale 6","address":"542 Westport Ave.","city":"Norwalk","state":"CT","zip":"06851","distance":18.490565096866,"lon":"-73.384337","lat":"41.126864","theaterChainName":"Bow-Tie Cinemas","ticketType":"STANDARD"},{"id":"3888","tribuneTheaterId":"9150","providerTheaterId":"2680","name":"AMC Loews Port Chester 14","address":"40 Westchester Ave.","city":"Port Chester","state":"NY","zip":"10573","distance":18.767979121193,"lon":"-73.662394","lat":"40.99976","theaterChainName":"AMC Theatres","ticketType":"STANDARD"},{"id":"771","tribuneTheaterId":"8756","providerTheaterId":"2729","name":"AMC Loews Palisades Center 21","address":"4403 Palisades Center Drive","city":"West Nyack","state":"NY","zip":"10994","distance":18.539208883268,"lon":"-73.956485","lat":"41.097772","theaterChainName":"AMC Theatres","ticketType":"STANDARD"},{"id":"2399","tribuneTheaterId":"5884","providerTheaterId":"","name":"Bow Tie Cinemas SONO Regent 8","address":"64 North Main St.","city":"Norwalk","state":"CT","zip":"06854","distance":18.096576013972,"lon":"-73.419536","lat":"41.100733","theaterChainName":"Bow-Tie Cinemas","ticketType":"STANDARD"},{"id":"2399","tribuneTheaterId":"5884","providerTheaterId":"","name":"Bow Tie Cinemas SONO Regent 8","address":"64 North Main St.","city":"Norwalk","state":"CT","zip":"06854","distance":18.096576013972,"lon":"-73.419536","lat":"41.100733","theaterChainName":"Bow-Tie Cinemas","ticketType":"STANDARD"},{"id":"1523","tribuneTheaterId":"8734","providerTheaterId":"","name":"Regal Fishkill 10","address":"2400 Rt. 9","city":"Fishkill","state":"NY","zip":"12524","distance":20.678011613809,"lon":"-73.896055","lat":"41.524449","theaterChainName":"Regal Cinemas","ticketType":"STANDARD"},{"id":"5393","tribuneTheaterId":"10830","providerTheaterId":"","name":"Regal Nanuet Mall Stadium 12 & RPX","address":"6201 Fashion Dr.","city":"Nanuet","state":"NY","zip":"10954","distance":20.96154120037,"lon":"-74.015154","lat":"41.097798","theaterChainName":"Regal Cinemas","ticketType":"STANDARD"},{"id":"5208","tribuneTheaterId":"10632","providerTheaterId":"","name":"Alamo Drafthouse Yonkers","address":"2548 Central Park Ave","city":"Yonkers","state":"NY","zip":"10710","distance":21.221878576645,"lon":"-73.824543","lat":"40.982545","theaterChainName":"Alamo Drafthouse","ticketType":"STANDARD"},{"id":"1242","tribuneTheaterId":"2477","providerTheaterId":"","name":"Edmond Town Hall Theatre","address":"45 Main St.","city":"Newtown","state":"CT","zip":"06470","distance":21.768424687997,"lon":"-73.310815","lat":"41.414849","theaterChainName":"Independent Chains","ticketType":"STANDARD"},{"id":"5044","tribuneTheaterId":"10421","providerTheaterId":"","name":"Showcase Cinema de Lux Ridge Hill","address":"29 Fitzgerald St.","city":"Yonkers","state":"NY","zip":"10710","distance":22.825758775799,"lon":"-73.844398","lat":"40.963402","theaterChainName":"National Amusements","ticketType":"STANDARD"},{"id":"1848","tribuneTheaterId":"6484","providerTheaterId":"","name":"Destinta New Windsor 12","address":"215 Quassaik Ave.","city":"New Windsor","state":"NY","zip":"12553","distance":22.549014570105,"lon":"-74.022853","lat":"41.475564","theaterChainName":"Independent Chains","ticketType":"STANDARD"},{"id":"4603","tribuneTheaterId":"9775","providerTheaterId":"","name":"Downing Film Center","address":"19 Front Street","city":"Newburgh","state":"NY","zip":"12550","distance":23.092112346461,"lon":"-74.005575","lat":"41.50226","theaterChainName":"Independent Chains","ticketType":"STANDARD"},{"id":"119","tribuneTheaterId":"7932","providerTheaterId":"","name":"Bow Tie Cinemas Mamaroneck 4","address":"243 Mamaroneck Ave.","city":"Mamaroneck","state":"NY","zip":"10543","distance":22.284127035435,"lon":"-73.733869","lat":"40.950565","theaterChainName":"Bow-Tie Cinemas","ticketType":"STANDARD"},{"id":"118","tribuneTheaterId":"7464","providerTheaterId":"","name":"Bow Tie Cinemas Larchmont Playhouse","address":"1975 Palmer Ave.","city":"Larchmont","state":"NY","zip":"10538","distance":23.816435353996,"lon":"-73.760999","lat":"40.931106","theaterChainName":"Bow-Tie Cinemas","ticketType":"STANDARD"},{"id":"284","tribuneTheaterId":"7478","providerTheaterId":"","name":"Showcase Cinemas Bridgeport","address":"286 Canfield Ave.","city":"Bridgeport","state":"CT","zip":"06605","distance":24.892062455674,"lon":"-73.228002","lat":"41.160985","theaterChainName":"National Amusements","ticketType":"STANDARD"},{"id":"283","tribuneTheaterId":"7621","providerTheaterId":"","name":"Fairfield Cinemas  Bullard Square","address":"40 Blackrock Turnpike","city":"Fairfield","state":"CT","zip":"06824","distance":24.804150005754,"lon":"-73.229249","lat":"41.162221","theaterChainName":"National Amusements","ticketType":"STANDARD"},{"id":"117","tribuneTheaterId":"7034","providerTheaterId":"","name":"Bow Tie Cinemas Bronxville 3","address":"84 Kraft Ave.","city":"Bronxville","state":"NY","zip":"10708","distance":24.148572221757,"lon":"-73.834434","lat":"40.940259","theaterChainName":"Bow-Tie Cinemas","ticketType":"STANDARD"}]