[{"id":"2845","tribuneTheaterId":"3453","providerTheaterId":"","name":"Elite Cinema 6","address":"78 Brookside Ave.","city":"Chester","state":"NY","zip":"10918","distance":7.7120789786636,"lon":"-74.283902","lat":"41.360188","theaterChainName":"Independent Chains","ticketType":"STANDARD"},{"id":"5730","tribuneTheaterId":"11172","providerTheaterId":"","name":"Monroe Theaters at TMACC","address":"34 Millpond Parkway","city":"Monroe","state":"NY","zip":"10950","distance":8.2615033446797,"lon":"-74.1884","lat":"41.3269","theaterChainName":"Independent Chains","ticketType":"STANDARD"},{"id":"1495","tribuneTheaterId":"2498","providerTheaterId":"","name":"Lafayette Theatre","address":"97 Lafayette Ave.","city":"Suffern","state":"NY","zip":"10901","distance":12.528602243022,"lon":"-74.15035","lat":"41.115063","theaterChainName":"Boston Culinary Group","ticketType":"STANDARD"},{"id":"499","tribuneTheaterId":"5960","providerTheaterId":"","name":"Middletown Cinemas","address":"130 Dolson Ave.","city":"Middletown","state":"NY","zip":"10940","distance":13.874480942707,"lon":"-74.426923","lat":"41.431258","theaterChainName":"Independent Chains","ticketType":"STANDARD"},{"id":"156","tribuneTheaterId":"7318","providerTheaterId":"2744","name":"AMC Loews Galleria Metroplex 16","address":"1 N. Galleria Drive","city":"Middletown","state":"NY","zip":"10940","distance":14.301347370034,"lon":"-74.36667","lat":"41.453077","theaterChainName":"AMC Theatres","ticketType":"STANDARD"},{"id":"5320","tribuneTheaterId":"10757","providerTheaterId":"","name":"Paramount Theatre - Middletown","address":"17 S. St.","city":"Middletown","state":"NY","zip":"10940","distance":14.555474359701,"lon":"-74.4204","lat":"41.4443","theaterChainName":"Independent Chains","ticketType":"STANDARD"},{"id":"6041","tribuneTheaterId":"11445","providerTheaterId":"","name":"Kinnelon Cinemas","address":"25 Kinnelon Rd","city":"Kinnelon","state":"NJ","zip":"07405","distance":17.306131170948,"lon":"-74.360996","lat":"41.002807","theaterChainName":"Independent Chains","ticketType":"STANDARD"},{"id":"1779","tribuneTheaterId":"5905","providerTheaterId":"","name":"Bow Tie Cinemas Kinnelon 11","address":"25 Kinnelon Road","city":"Kinnelon","state":"NJ","zip":"07405","distance":17.297948225804,"lon":"-74.360989","lat":"41.002926","theaterChainName":"Bow-Tie Cinemas","ticketType":"STANDARD"},{"id":"1494","tribuneTheaterId":"5901","providerTheaterId":"","name":"Bow Tie Cinemas New City Cinema 6","address":"202 S. Main St.","city":"New City","state":"NY","zip":"10956","distance":18.393723248827,"lon":"-73.989025","lat":"41.139576","theaterChainName":"Bow-Tie Cinemas","ticketType":"STANDARD"},{"id":"5393","tribuneTheaterId":"10830","providerTheaterId":"","name":"Regal Nanuet Mall Stadium 12 & RPX","address":"6201 Fashion Dr.","city":"Nanuet","state":"NY","zip":"10954","distance":18.639346118275,"lon":"-74.015154","lat":"41.097798","theaterChainName":"Regal Cinemas","ticketType":"STANDARD"},{"id":"407","tribuneTheaterId":"8608","providerTheaterId":"","name":"Bow Tie Cinemas Wayne Preakness","address":"1220 Hamburg Tpk.","city":"Wayne","state":"NJ","zip":"07470","distance":20.250372352262,"lon":"-74.244297","lat":"40.961615","theaterChainName":"Bow-Tie Cinemas","ticketType":"STANDARD"},{"id":"179","tribuneTheaterId":"8442","providerTheaterId":"","name":"Bow Tie Cinemas Warner Quad","address":"190 E. Ridgewood Ave.","city":"Ridgewood","state":"NJ","zip":"07450","distance":21.336425807757,"lon":"-74.115486","lat":"40.978866","theaterChainName":"Bow-Tie Cinemas","ticketType":"STANDARD"},{"id":"1848","tribuneTheaterId":"6484","providerTheaterId":"","name":"Destinta New Windsor 12","address":"215 Quassaik Ave.","city":"New Windsor","state":"NY","zip":"12553","distance":21.560203514211,"lon":"-74.022853","lat":"41.475564","theaterChainName":"Independent Chains","ticketType":"STANDARD"},{"id":"771","tribuneTheaterId":"8756","providerTheaterId":"2729","name":"AMC Loews Palisades Center 21","address":"4403 Palisades Center Drive","city":"West Nyack","state":"NY","zip":"10994","distance":21.226654425512,"lon":"-73.956485","lat":"41.097772","theaterChainName":"AMC Theatres","ticketType":"STANDARD"},{"id":"3953","tribuneTheaterId":"2332","providerTheaterId":"","name":"Showtime Cinemas - Newburgh","address":"1420 Route 300","city":"Newburgh","state":"NY","zip":"12550","distance":22.650488733911,"lon":"-74.0702","lat":"41.5241","theaterChainName":"Independent Chains","ticketType":"STANDARD"},{"id":"4603","tribuneTheaterId":"9775","providerTheaterId":"","name":"Downing Film Center","address":"19 Front Street","city":"Newburgh","state":"NY","zip":"12550","distance":23.517746068785,"lon":"-74.005575","lat":"41.50226","theaterChainName":"Independent Chains","ticketType":"STANDARD"},{"id":"5100","tribuneTheaterId":"10496","providerTheaterId":"","name":"Majestic Cinemas - Matamoras","address":"111 Hulst Drive","city":"Matamoras","state":"PA","zip":"18336","distance":22.552446045019,"lon":"-74.723253","lat":"41.352797","theaterChainName":"Spotlight Theatres","ticketType":"STANDARD"},{"id":"160","tribuneTheaterId":"3900","providerTheaterId":"","name":"Westwood Theaters","address":"182 Center Ave.","city":"Westwood","state":"NJ","zip":"07675","distance":23.071151302941,"lon":"-74.031568","lat":"40.991013","theaterChainName":"Independent Chains","ticketType":"STANDARD"},{"id":"1173","tribuneTheaterId":"2934","providerTheaterId":"","name":"Hawthorne 5","address":"300 Lafayette Ave.","city":"Hawthorne","state":"NJ","zip":"07506","distance":22.37223555989,"lon":"-74.155383","lat":"40.948496","theaterChainName":"Independent Chains","ticketType":"STANDARD"},{"id":"873","tribuneTheaterId":"7904","providerTheaterId":"","name":"UA Cortlandt Town Center Stadium 11","address":"3131 E. Main St.","city":"Mohegan Lake","state":"NY","zip":"10547","distance":23.336084271357,"lon":"-73.868339","lat":"41.310095","theaterChainName":"United Artists","ticketType":"STANDARD"},{"id":"6036","tribuneTheaterId":"11440","providerTheaterId":"","name":"Washington Township Cinemas","address":"249 Pascack Road","city":"Washington Township","state":"NJ","zip":"07676","distance":22.421743107577,"lon":"-74.0632","lat":"40.9848","theaterChainName":"Independent Chains","ticketType":"STANDARD"},{"id":"4396","tribuneTheaterId":"9444","providerTheaterId":"","name":"Sparta Theatre","address":"25 Centre St.","city":"Sparta","state":"NJ","zip":"07871","distance":22.701461018243,"lon":"-74.634832","lat":"41.030475","theaterChainName":"Carmike Cinemas","ticketType":"STANDARD"},{"id":"4888","tribuneTheaterId":"10198","providerTheaterId":"","name":"Fabian 8 Cinema","address":"301 Main St.","city":"Paterson","state":"NJ","zip":"07505","distance":24.263625847013,"lon":"-74.173374","lat":"40.91483","theaterChainName":"Independent Chains","ticketType":"STANDARD"}]