[{"id":"5393","tribuneTheaterId":"10830","providerTheaterId":"","name":"Regal Nanuet Mall Stadium 12 & RPX","address":"6201 Fashion Dr.","city":"Nanuet","state":"NY","zip":"10954","distance":0.22160060832027,"lon":"-74.015154","lat":"41.097798","theaterChainName":"Regal Cinemas","ticketType":"STANDARD"},{"id":"1494","tribuneTheaterId":"5901","providerTheaterId":"","name":"Bow Tie Cinemas New City Cinema 6","address":"202 S. Main St.","city":"New City","state":"NY","zip":"10956","distance":3.1093321505891,"lon":"-73.989025","lat":"41.139576","theaterChainName":"Bow-Tie Cinemas","ticketType":"STANDARD"},{"id":"771","tribuneTheaterId":"8756","providerTheaterId":"2729","name":"AMC Loews Palisades Center 21","address":"4403 Palisades Center Drive","city":"West Nyack","state":"NY","zip":"10994","distance":2.8332833617207,"lon":"-73.956485","lat":"41.097772","theaterChainName":"AMC Theatres","ticketType":"STANDARD"},{"id":"6036","tribuneTheaterId":"11440","providerTheaterId":"","name":"Washington Township Cinemas","address":"249 Pascack Road","city":"Washington Township","state":"NJ","zip":"07676","distance":8.2630628646432,"lon":"-74.0632","lat":"40.9848","theaterChainName":"Independent Chains","ticketType":"STANDARD"},{"id":"160","tribuneTheaterId":"3900","providerTheaterId":"","name":"Westwood Theaters","address":"182 Center Ave.","city":"Westwood","state":"NJ","zip":"07675","distance":7.4496219478359,"lon":"-74.031568","lat":"40.991013","theaterChainName":"Independent Chains","ticketType":"STANDARD"},{"id":"1495","tribuneTheaterId":"2498","providerTheaterId":"","name":"Lafayette Theatre","address":"97 Lafayette Ave.","city":"Suffern","state":"NY","zip":"10901","distance":7.3583749610906,"lon":"-74.15035","lat":"41.115063","theaterChainName":"Boston Culinary Group","ticketType":"STANDARD"},{"id":"179","tribuneTheaterId":"8442","providerTheaterId":"","name":"Bow Tie Cinemas Warner Quad","address":"190 E. Ridgewood Ave.","city":"Ridgewood","state":"NJ","zip":"07450","distance":9.8550747228642,"lon":"-74.115486","lat":"40.978866","theaterChainName":"Bow-Tie Cinemas","ticketType":"STANDARD"},{"id":"1131","tribuneTheaterId":"5892","providerTheaterId":"","name":"Bow Tie Cinemas Closter Cinema 4","address":"130 Closter Plaza","city":"Closter","state":"NJ","zip":"07624","distance":9.3827148193477,"lon":"-73.954967","lat":"40.968623","theaterChainName":"Bow-Tie Cinemas","ticketType":"STANDARD"},{"id":"3369","tribuneTheaterId":"2853","providerTheaterId":"","name":"Jacob Burns Film Center","address":"364 Manville Road","city":"Pleasantville","state":"NY","zip":"10570","distance":11.703009231519,"lon":"-73.791606","lat":"41.135049","theaterChainName":"Independent Chains","ticketType":"STANDARD"},{"id":"1766","tribuneTheaterId":"5899","providerTheaterId":"","name":"Bow Tie Cinemas Bergenfield 5 ","address":"58 S Washington Ave.","city":"Bergenfield","state":"NJ","zip":"07621","distance":11.893661953063,"lon":"-73.996778","lat":"40.925891","theaterChainName":"Bow-Tie Cinemas","ticketType":"STANDARD"},{"id":"1529","tribuneTheaterId":"8677","providerTheaterId":"","name":"Bow Tie Cinemas Cinema 100","address":"93 Knollwood Road","city":"White Plains","state":"NY","zip":"10607","distance":11.328523590426,"lon":"-73.8082","lat":"41.0383","theaterChainName":"Bow-Tie Cinemas","ticketType":"STANDARD"},{"id":"2858","tribuneTheaterId":"9162","providerTheaterId":"","name":"Greenburgh Multiplex Cinemas","address":"320 Saw Mill River Road","city":"Elmsford","state":"NY","zip":"10523","distance":10.54970350854,"lon":"-73.812702","lat":"41.066165","theaterChainName":"National Amusements","ticketType":"STANDARD"},{"id":"5044","tribuneTheaterId":"10421","providerTheaterId":"","name":"Showcase Cinema de Lux Ridge Hill","address":"29 Fitzgerald St.","city":"Yonkers","state":"NY","zip":"10710","distance":12.704882253705,"lon":"-73.844398","lat":"40.963402","theaterChainName":"National Amusements","ticketType":"STANDARD"},{"id":"4336","tribuneTheaterId":"9312","providerTheaterId":"2253","name":"AMC Garden State 16","address":"4000 Garden State Plaza","city":"Paramus","state":"NJ","zip":"07652","distance":12.830616574495,"lon":"-74.075962","lat":"40.918608","theaterChainName":"AMC Theatres","ticketType":"STANDARD"},{"id":"1147","tribuneTheaterId":"5894","providerTheaterId":"","name":"Bow Tie Cinemas Tenafly Cinema 4","address":"4 1\/2 W. Railroad Ave.","city":"Tenafly","state":"NJ","zip":"07670","distance":12.228190304766,"lon":"-73.965162","lat":"40.924117","theaterChainName":"Bow-Tie Cinemas","ticketType":"STANDARD"},{"id":"1173","tribuneTheaterId":"2934","providerTheaterId":"","name":"Hawthorne 5","address":"300 Lafayette Ave.","city":"Hawthorne","state":"NJ","zip":"07506","distance":12.767086233775,"lon":"-74.155383","lat":"40.948496","theaterChainName":"Independent Chains","ticketType":"STANDARD"},{"id":"3658","tribuneTheaterId":"8684","providerTheaterId":"","name":"City Center 15: Cinema de Lux","address":"19 Mamaroneck Ave.","city":"White Plains","state":"NY","zip":"10601","distance":13.55202954036,"lon":"-73.765699","lat":"41.032177","theaterChainName":"National Amusements","ticketType":"STANDARD"},{"id":"5208","tribuneTheaterId":"10632","providerTheaterId":"","name":"Alamo Drafthouse Yonkers","address":"2548 Central Park Ave","city":"Yonkers","state":"NY","zip":"10710","distance":12.554785789975,"lon":"-73.824543","lat":"40.982545","theaterChainName":"Alamo Drafthouse","ticketType":"STANDARD"},{"id":"117","tribuneTheaterId":"7034","providerTheaterId":"","name":"Bow Tie Cinemas Bronxville 3","address":"84 Kraft Ave.","city":"Bronxville","state":"NY","zip":"10708","distance":14.246375160186,"lon":"-73.834434","lat":"40.940259","theaterChainName":"Bow-Tie Cinemas","ticketType":"STANDARD"},{"id":"4888","tribuneTheaterId":"10198","providerTheaterId":"","name":"Fabian 8 Cinema","address":"301 Main St.","city":"Paterson","state":"NJ","zip":"07505","distance":15.212199627304,"lon":"-74.173374","lat":"40.91483","theaterChainName":"Independent Chains","ticketType":"STANDARD"},{"id":"407","tribuneTheaterId":"8608","providerTheaterId":"","name":"Bow Tie Cinemas Wayne Preakness","address":"1220 Hamburg Tpk.","city":"Wayne","state":"NJ","zip":"07470","distance":15.375221547076,"lon":"-74.244297","lat":"40.961615","theaterChainName":"Bow-Tie Cinemas","ticketType":"STANDARD"},{"id":"282","tribuneTheaterId":"9218","providerTheaterId":"","name":"Cross County Multiplex Cinemas","address":"2 South Drive","city":"Yonkers","state":"NY","zip":"10704","distance":14.463906185199,"lon":"-73.854443","lat":"40.924828","theaterChainName":"National Amusements","ticketType":"STANDARD"},{"id":"1178","tribuneTheaterId":"2465","providerTheaterId":"","name":"Pelham Picture House","address":"175 Wolfs Lane","city":"Pelham","state":"NY","zip":"10803","distance":16.77116222938,"lon":"-73.811375","lat":"40.907318","theaterChainName":"Independent Chains","ticketType":"STANDARD"},{"id":"5401","tribuneTheaterId":"10839","providerTheaterId":"","name":"Starplex Cinemas Ridgefield Park","address":"75 Challenger Road","city":"Ridgefield Park","state":"NJ","zip":"07660","distance":17.095420369139,"lon":"-74.012552","lat":"40.850278","theaterChainName":"Starplex Cinemas","ticketType":"STANDARD"},{"id":"873","tribuneTheaterId":"7904","providerTheaterId":"","name":"UA Cortlandt Town Center Stadium 11","address":"3131 E. Main St.","city":"Mohegan Lake","state":"NY","zip":"10547","distance":16.44014189941,"lon":"-73.868339","lat":"41.310095","theaterChainName":"United Artists","ticketType":"STANDARD"},{"id":"1530","tribuneTheaterId":"5911","providerTheaterId":"","name":"Bow Tie Cinemas Mt Kisco Cinemas ","address":"144 Main St.","city":"Mount Kisco","state":"NY","zip":"10549","distance":16.505500569112,"lon":"-73.727436","lat":"41.204985","theaterChainName":"Bow-Tie Cinemas","ticketType":"STANDARD"},{"id":"118","tribuneTheaterId":"7464","providerTheaterId":"","name":"Bow Tie Cinemas Larchmont Playhouse","address":"1975 Palmer Ave.","city":"Larchmont","state":"NY","zip":"10538","distance":17.384742541176,"lon":"-73.760999","lat":"40.931106","theaterChainName":"Bow-Tie Cinemas","ticketType":"STANDARD"},{"id":"2584","tribuneTheaterId":"7575","providerTheaterId":"","name":"Regal New Roc Stadium 18 + IMAX","address":"33 Le Count Place","city":"New Rochelle","state":"NY","zip":"10801","distance":17.612010348811,"lon":"-73.779566","lat":"40.911964","theaterChainName":"Regal Cinemas","ticketType":"STANDARD"},{"id":"562","tribuneTheaterId":"7336","providerTheaterId":"866","name":"AMC Bay Plaza Cinema 13","address":"2210 Bartow Ave.","city":"Bronx","state":"NY","zip":"10475","distance":18.654072161628,"lon":"-73.825142","lat":"40.866991","theaterChainName":"AMC Theatres","ticketType":"STANDARD"},{"id":"119","tribuneTheaterId":"7932","providerTheaterId":"","name":"Bow Tie Cinemas Mamaroneck 4","address":"243 Mamaroneck Ave.","city":"Mamaroneck","state":"NY","zip":"10543","distance":17.660087340058,"lon":"-73.733869","lat":"40.950565","theaterChainName":"Bow-Tie Cinemas","ticketType":"STANDARD"},{"id":"138","tribuneTheaterId":"7954","providerTheaterId":"2176","name":"AMC Loews Wayne 14","address":"67 Willowbrook Blvd.","city":"Wayne","state":"NJ","zip":"07470","distance":19.110990713264,"lon":"-74.250337","lat":"40.888309","theaterChainName":"AMC Theatres","ticketType":"STANDARD"},{"id":"5730","tribuneTheaterId":"11172","providerTheaterId":"","name":"Monroe Theaters at TMACC","address":"34 Millpond Parkway","city":"Monroe","state":"NY","zip":"10950","distance":18.32763215695,"lon":"-74.1884","lat":"41.3269","theaterChainName":"Independent Chains","ticketType":"STANDARD"},{"id":"1779","tribuneTheaterId":"5905","providerTheaterId":"","name":"Bow Tie Cinemas Kinnelon 11","address":"25 Kinnelon Road","city":"Kinnelon","state":"NJ","zip":"07405","distance":19.381283113668,"lon":"-74.360989","lat":"41.002926","theaterChainName":"Bow-Tie Cinemas","ticketType":"STANDARD"},{"id":"6041","tribuneTheaterId":"11445","providerTheaterId":"","name":"Kinnelon Cinemas","address":"25 Kinnelon Rd","city":"Kinnelon","state":"NJ","zip":"07405","distance":19.384421364646,"lon":"-74.360996","lat":"41.002807","theaterChainName":"Independent Chains","ticketType":"STANDARD"},{"id":"5357","tribuneTheaterId":"10795","providerTheaterId":"","name":"Allwood Cinemas 6","address":"96 Market St.","city":"Clifton","state":"NJ","zip":"07011","distance":19.105725067757,"lon":"-74.16208","lat":"40.845838","theaterChainName":"Independent Chains","ticketType":"STANDARD"},{"id":"1346","tribuneTheaterId":"5881","providerTheaterId":"","name":"Bow Tie Cinemas Plaza 3","address":"2 Railroad Ave.","city":"Greenwich","state":"CT","zip":"06830","distance":20.783566687701,"lon":"-73.624985","lat":"41.021489","theaterChainName":"Bow-Tie Cinemas","ticketType":"STANDARD"},{"id":"3103","tribuneTheaterId":"7174","providerTheaterId":"","name":"Edgewater Multiplex Cinemas","address":"339 River Road","city":"Edgewater","state":"NJ","zip":"07020","distance":20.049423048186,"lon":"-73.988109","lat":"40.808032","theaterChainName":"National Amusements","ticketType":"STANDARD"},{"id":"3044","tribuneTheaterId":"9040","providerTheaterId":"2304","name":"AMC Magic Johnson Harlem 9","address":"2309 Frederick Douglass Blvd.","city":"New York","state":"NY","zip":"10027","distance":20.138003591469,"lon":"-73.951791","lat":"40.809678","theaterChainName":"AMC Theatres","ticketType":"STANDARD"},{"id":"2573","tribuneTheaterId":"5324","providerTheaterId":"865","name":"AMC Clifton Commons 16","address":"405 Route 3 East","city":"Clifton","state":"NJ","zip":"07014","distance":19.767916643455,"lon":"-74.140356","lat":"40.828814","theaterChainName":"AMC Theatres","ticketType":"STANDARD"},{"id":"320","tribuneTheaterId":"6015","providerTheaterId":"","name":"Concourse Plaza Multiplex Cinemas","address":"214 E. 161st St.","city":"Bronx","state":"NY","zip":"10451","distance":19.33327928971,"lon":"-73.920736","lat":"40.826296","theaterChainName":"National Amusements","ticketType":"STANDARD"},{"id":"1184","tribuneTheaterId":"2813","providerTheaterId":"","name":"Williams Center Cinemas 3","address":"1 Williams Plaza","city":"Rutherford","state":"NJ","zip":"07070","distance":19.30158527609,"lon":"-74.103255","lat":"40.82719","theaterChainName":"Independent Chains","ticketType":"STANDARD"},{"id":"3888","tribuneTheaterId":"9150","providerTheaterId":"2680","name":"AMC Loews Port Chester 14","address":"40 Westchester Ave.","city":"Port Chester","state":"NY","zip":"10573","distance":19.379377129878,"lon":"-73.662394","lat":"40.99976","theaterChainName":"AMC Theatres","ticketType":"STANDARD"},{"id":"122","tribuneTheaterId":"7299","providerTheaterId":"","name":"Bow Tie Cinemas Bellevue 4","address":"260 Bellevue Ave.","city":"Upper Montclair","state":"NJ","zip":"07043","distance":20.51308366289,"lon":"-74.208932","lat":"40.841213","theaterChainName":"Bow-Tie Cinemas","ticketType":"STANDARD"},{"id":"148","tribuneTheaterId":"9039","providerTheaterId":"2104","name":"AMC Loews Orpheum 7","address":"1538 Third Ave.","city":"New York","state":"NY","zip":"10028","distance":22.199600257382,"lon":"-73.953855","lat":"40.779304","theaterChainName":"AMC Theatres","ticketType":"STANDARD"},{"id":"575","tribuneTheaterId":"8099","providerTheaterId":"","name":"Film Society of Lincoln Center's Walter Reade Theater","address":"165 W. 65th St.","city":"New York","state":"NY","zip":"10023","distance":22.445405231501,"lon":"-73.983597","lat":"40.773499","theaterChainName":"Independent Chains","ticketType":"STANDARD"},{"id":"151","tribuneTheaterId":"9062","providerTheaterId":"2116","name":"AMC Loews Lincoln Square 13","address":"1998 Broadway","city":"New York","state":"NY","zip":"10023","distance":22.350376661399,"lon":"-73.98164","lat":"40.774975","theaterChainName":"AMC Theatres","ticketType":"STANDARD"},{"id":"3235","tribuneTheaterId":"5871","providerTheaterId":"","name":"Columbia Park Stadium 12","address":"3125 Kennedy Blvd.","city":"North Bergen","state":"NJ","zip":"07047","distance":22.300810910568,"lon":"-74.035916","lat":"40.77549","theaterChainName":"Independent Chains","ticketType":"STANDARD"},{"id":"4804","tribuneTheaterId":"10061","providerTheaterId":"","name":"Secaucus ShowPlace 14","address":"650 Plaza Drive","city":"Secaucus","state":"NJ","zip":"07094","distance":21.594834439555,"lon":"-74.0463","lat":"40.7863","theaterChainName":"Kerasotes","ticketType":"STANDARD"},{"id":"2982","tribuneTheaterId":"5896","providerTheaterId":"","name":"Bow Tie Cinemas Caldwell Cinema 4","address":"315 Bloomfield Ave.","city":"Caldwell","state":"NJ","zip":"07006","distance":22.562751709424,"lon":"-74.275821","lat":"40.839582","theaterChainName":"Bow-Tie Cinemas","ticketType":"STANDARD"},{"id":"5064","tribuneTheaterId":"10447","providerTheaterId":"","name":"Film Society of Lincoln Center","address":"144 W 65th St.","city":"New York","state":"NY","zip":"10023","distance":22.445405231501,"lon":"-73.983597","lat":"40.773499","theaterChainName":"Independent Chains","ticketType":"STANDARD"},{"id":"574","tribuneTheaterId":"2976","providerTheaterId":"","name":"Lincoln Plaza Cinemas","address":"1886 Broadway","city":"New York","state":"NY","zip":"10023","distance":22.63492614951,"lon":"-73.98184","lat":"40.770837","theaterChainName":"Independent Chains","ticketType":"STANDARD"},{"id":"539","tribuneTheaterId":"2863","providerTheaterId":"","name":"City Cinemas 86th Street East","address":"210 E. 86th St.","city":"New York","state":"NY","zip":"10028","distance":22.26683029228,"lon":"-73.953339","lat":"40.778375","theaterChainName":"Reading International, Inc","ticketType":"STANDARD"},{"id":"1130","tribuneTheaterId":"5898","providerTheaterId":"","name":"Bow Tie Cinemas Clairidge Cinemas","address":"486 Bloomfield Ave.","city":"Montclair","state":"NJ","zip":"07042","distance":22.372379129077,"lon":"-74.218349","lat":"40.814325","theaterChainName":"Bow-Tie Cinemas","ticketType":"STANDARD"},{"id":"2845","tribuneTheaterId":"3453","providerTheaterId":"","name":"Elite Cinema 6","address":"78 Brookside Ave.","city":"Chester","state":"NY","zip":"10918","distance":23.025381903975,"lon":"-74.283902","lat":"41.360188","theaterChainName":"Independent Chains","ticketType":"STANDARD"},{"id":"2472","tribuneTheaterId":"9151","providerTheaterId":"2195","name":"AMC Loews Kips Bay 15","address":"570 Second Ave.","city":"New York","state":"NY","zip":"10016","distance":24.53789568642,"lon":"-73.9767","lat":"40.7435","theaterChainName":"AMC Theatres","ticketType":"STANDARD"},{"id":"150","tribuneTheaterId":"9084","providerTheaterId":"2112","name":"AMC Loews 19th Street East 6","address":"890 Broadway","city":"New York","state":"NY","zip":"10003","distance":24.838886726182,"lon":"-73.98977","lat":"40.738557","theaterChainName":"AMC Theatres","ticketType":"STANDARD"},{"id":"1541","tribuneTheaterId":"5882","providerTheaterId":"","name":"Bow Tie Cinemas Majestic 6","address":"118 Summer St.","city":"Stamford","state":"CT","zip":"06901","distance":24.665480130563,"lon":"-73.540846","lat":"41.054335","theaterChainName":"Bow-Tie Cinemas","ticketType":"STANDARD"},{"id":"2141","tribuneTheaterId":"5004","providerTheaterId":"","name":"Avon Theatre Film Center, Inc.","address":"272 Bedford Street","city":"Stamford","state":"CT","zip":"06901","distance":24.77563952353,"lon":"-73.538268","lat":"41.057132","theaterChainName":"Independent Chains","ticketType":"STANDARD"},{"id":"2460","tribuneTheaterId":"9245","providerTheaterId":"","name":"College Point Multiplex Cinemas","address":"2855 Ulmer St.","city":"Whitestone","state":"NY","zip":"11357","distance":24.314054316968,"lon":"-73.835206","lat":"40.771789","theaterChainName":"National Amusements","ticketType":"STANDARD"},{"id":"3233","tribuneTheaterId":"5712","providerTheaterId":"","name":"UA Kaufman Astoria Stadium 14","address":"35-30 38th St.","city":"Astoria","state":"NY","zip":"11101","distance":24.098667894595,"lon":"-73.923622","lat":"40.755206","theaterChainName":"United Artists","ticketType":"STANDARD"},{"id":"3442","tribuneTheaterId":"9013","providerTheaterId":"2120","name":"AMC Loews West 34th Street 14","address":"312 W. 34th St.","city":"New York","state":"NY","zip":"10001","distance":23.865874175316,"lon":"-73.994396","lat":"40.75251","theaterChainName":"AMC Theatres","ticketType":"STANDARD"},{"id":"4832","tribuneTheaterId":"10108","providerTheaterId":"","name":"Bow Tie Hoboken Cinemas","address":"409-415 14th St.","city":"Hoboken","state":"NJ","zip":"07030","distance":23.75885508531,"lon":"-74.0319","lat":"40.7542","theaterChainName":"Bow-Tie Cinemas","ticketType":"STANDARD"},{"id":"5319","tribuneTheaterId":"10756","providerTheaterId":"","name":"Soundview Cinemas","address":"7 Soundview Marketplace","city":"Port Washington","state":"NY","zip":"11050","distance":23.751274177107,"lon":"-73.705902","lat":"40.842483","theaterChainName":"Independent Chains","ticketType":"STANDARD"},{"id":"4601","tribuneTheaterId":"9770","providerTheaterId":"","name":"City Cinemas Beekman Theatre","address":"1271 Second Ave.","city":"New York","state":"NY","zip":"10021","distance":23.115381695011,"lon":"-73.961008","lat":"40.765277","theaterChainName":"Reading International, Inc","ticketType":"STANDARD"},{"id":"2820","tribuneTheaterId":"9074","providerTheaterId":"","name":"Regal E-Walk Stadium 13","address":"247 W. 42nd St.","city":"New York","state":"NY","zip":"10036","distance":23.561888326183,"lon":"-73.989113","lat":"40.757082","theaterChainName":"Regal Cinemas","ticketType":"STANDARD"},{"id":"570","tribuneTheaterId":"6648","providerTheaterId":"","name":"City Cinemas Paris Theatre","address":"4 W. 58th St.","city":"New York","state":"NY","zip":"10019","distance":23.123699081124,"lon":"-73.974713","lat":"40.764145","theaterChainName":"Reading International, Inc","ticketType":"STANDARD"},{"id":"2986","tribuneTheaterId":"7503","providerTheaterId":"552","name":"AMC Empire 25","address":"234 W. 42nd St.","city":"New York","state":"NY","zip":"10036","distance":23.597615624463,"lon":"-73.98866","lat":"40.756581","theaterChainName":"AMC Theatres","ticketType":"STANDARD"},{"id":"1932","tribuneTheaterId":"2993","providerTheaterId":"","name":"Lincoln Cinemas","address":"838 Kearny Ave.","city":"North Arlington","state":"NJ","zip":"07031","distance":22.904787441174,"lon":"-74.139232","lat":"40.780686","theaterChainName":"Independent Chains","ticketType":"STANDARD"},{"id":"1139","tribuneTheaterId":"5912","providerTheaterId":"","name":"Bow Tie Cinemas Port Washington","address":"116 Main St.","city":"Port Washington","state":"NY","zip":"11050","distance":24.910237729629,"lon":"-73.690683","lat":"40.830279","theaterChainName":"Bow-Tie Cinemas","ticketType":"STANDARD"},{"id":"1542","tribuneTheaterId":"5885","providerTheaterId":"","name":"Bow Tie Cinemas Landmark 9 Stamford","address":"5 Landmark Square","city":"Stamford","state":"CT","zip":"06905","distance":24.83267034634,"lon":"-73.537545","lat":"41.054745","theaterChainName":"Bow-Tie Cinemas","ticketType":"STANDARD"},{"id":"755","tribuneTheaterId":"7809","providerTheaterId":"","name":"AMC Essex Green Cinema 9","address":"495 Prospect Ave.","city":"West Orange","state":"NJ","zip":"07052","distance":24.631998960504,"lon":"-74.25671","lat":"40.793361","theaterChainName":"AMC Theatres","ticketType":"STANDARD"}]