[{"id":"1542","name":"Bow Tie Cinemas Landmark 9 Stamford","address":"5 Landmark Square","city":"Stamford","state":"CT","zip":"06905","distance":"24.834360122680664","lon":"-73.537544","lat":"41.054745","theaterChainName":"Bow-Tie Cinemas","ticketType":"STANDARD"},{"id":"2141","name":"Avon Theatre Film Center, Inc.","address":"272 Bedford Street","city":"Stamford","state":"CT","zip":"06901","distance":"24.777225494384766","lon":"-73.538269","lat":"41.057133","theaterChainName":"Independent Chains","ticketType":"STANDARD"},{"id":"1541","name":"Bow Tie Cinemas Majestic 6","address":"118 Summer St.","city":"Stamford","state":"CT","zip":"06901","distance":"24.66701316833496","lon":"-73.540848","lat":"41.054337","theaterChainName":"Bow-Tie Cinemas","ticketType":"STANDARD"},{"id":"1346","name":"Bow Tie Cinemas Plaza 3","address":"2 Railroad Ave.","city":"Greenwich","state":"CT","zip":"06830","distance":"20.78497314453125","lon":"-73.624985","lat":"41.021488","theaterChainName":"Bow-Tie Cinemas","ticketType":"STANDARD"},{"id":"1530","name":"Bow Tie Cinemas Mt Kisco Cinemas ","address":"144 Main St.","city":"Mount Kisco","state":"NY","zip":"10549","distance":"16.506914138793945","lon":"-73.727432","lat":"41.204987","theaterChainName":"Bow-Tie Cinemas","ticketType":"STANDARD"},{"id":"3888","name":"AMC Loews Port Chester 14","address":"40 Westchester Ave.","city":"Port Chester","state":"NY","zip":"10573","distance":"19.380775451660156","lon":"-73.662392","lat":"40.999760","theaterChainName":"AMC Theatres","ticketType":"STANDARD"},{"id":"3369","name":"Jacob Burns Film Center","address":"364 Manville Road","city":"Pleasantville","state":"NY","zip":"10570","distance":"11.704015731811523","lon":"-73.791603","lat":"41.135048","theaterChainName":"Independent Chains","ticketType":"STANDARD"},{"id":"873","name":"UA Cortlandt Town Center Stadium 11","address":"3131 E. Main St.","city":"Mohegan Lake","state":"NY","zip":"10547","distance":"16.441421508789062","lon":"-73.868340","lat":"41.310097","theaterChainName":"United Artists","ticketType":"STANDARD"},{"id":"3658","name":"City Center 15: Cinema de Lux","address":"19 Mamaroneck Ave.","city":"White Plains","state":"NY","zip":"10601","distance":"13.552834510803223","lon":"-73.765701","lat":"41.032177","theaterChainName":"National Amusements","ticketType":"STANDARD"},{"id":"2858","name":"Greenburgh Multiplex Cinemas","address":"320 Saw Mill River Road","city":"Elmsford","state":"NY","zip":"10523","distance":"10.550626754760742","lon":"-73.812698","lat":"41.066166","theaterChainName":"National Amusements","ticketType":"STANDARD"},{"id":"1529","name":"Bow Tie Cinemas Cinema 100","address":"93 Knollwood Road","city":"White Plains","state":"NY","zip":"10607","distance":"11.329453468322754","lon":"-73.808197","lat":"41.038300","theaterChainName":"Bow-Tie Cinemas","ticketType":"STANDARD"},{"id":"119","name":"Bow Tie Cinemas Mamaroneck 4","address":"243 Mamaroneck Ave.","city":"Mamaroneck","state":"NY","zip":"10543","distance":"17.661094665527344","lon":"-73.733871","lat":"40.950565","theaterChainName":"Bow-Tie Cinemas","ticketType":"STANDARD"},{"id":"5208","name":"Alamo Drafthouse Yonkers","address":"2548 Central Park Ave","city":"Yonkers","state":"NY","zip":"10710","distance":"12.555475234985352","lon":"-73.824547","lat":"40.982544","theaterChainName":"Alamo Drafthouse","ticketType":"STANDARD"},{"id":"771","name":"AMC Loews Palisades Center 21","address":"4403 Palisades Center Drive","city":"West Nyack","state":"NY","zip":"10994","distance":"2.8337440490722656","lon":"-73.956482","lat":"41.097771","theaterChainName":"AMC Theatres","ticketType":"STANDARD"},{"id":"1494","name":"Bow Tie Cinemas New City Cinema 6","address":"202 S. Main St.","city":"New City","state":"NY","zip":"10956","distance":"3.1097536087036133","lon":"-73.989021","lat":"41.139576","theaterChainName":"Bow-Tie Cinemas","ticketType":"STANDARD"},{"id":"1139","name":"Bow Tie Cinemas Port Washington","address":"116 Main St.","city":"Port Washington","state":"NY","zip":"11050","distance":"24.911762237548828","lon":"-73.690681","lat":"40.830280","theaterChainName":"Bow-Tie Cinemas","ticketType":"STANDARD"},{"id":"5319","name":"Soundview Cinemas","address":"7 Soundview Marketplace","city":"Port Washington","state":"NY","zip":"11050","distance":"23.752708435058594","lon":"-73.705902","lat":"40.842484","theaterChainName":"Independent Chains","ticketType":"STANDARD"},{"id":"118","name":"Bow Tie Cinemas Larchmont Playhouse","address":"1975 Palmer Ave.","city":"Larchmont","state":"NY","zip":"10538","distance":"17.385705947875977","lon":"-73.761002","lat":"40.931107","theaterChainName":"Bow-Tie Cinemas","ticketType":"STANDARD"},{"id":"2584","name":"Regal New Roc Stadium 18 + IMAX","address":"33 Le Count Place","city":"New Rochelle","state":"NY","zip":"10801","distance":"17.61315155029297","lon":"-73.779564","lat":"40.911964","theaterChainName":"Regal Cinemas","ticketType":"STANDARD"},{"id":"5044","name":"Showcase Cinema de Lux Ridge Hill","address":"29 Fitzgerald St.","city":"Yonkers","state":"NY","zip":"10710","distance":"12.705657958984375","lon":"-73.844398","lat":"40.963402","theaterChainName":"National Amusements","ticketType":"STANDARD"},{"id":"117","name":"Bow Tie Cinemas Bronxville 3","address":"84 Kraft Ave.","city":"Bronxville","state":"NY","zip":"10708","distance":"14.247279167175293","lon":"-73.834435","lat":"40.940258","theaterChainName":"Bow-Tie Cinemas","ticketType":"STANDARD"},{"id":"1178","name":"Pelham Picture House","address":"175 Wolfs Lane","city":"Pelham","state":"NY","zip":"10803","distance":"16.772064208984375","lon":"-73.811378","lat":"40.907318","theaterChainName":"Independent Chains","ticketType":"STANDARD"},{"id":"282","name":"Cross County Multiplex Cinemas","address":"2 South Drive","city":"Yonkers","state":"NY","zip":"10704","distance":"14.46469497680664","lon":"-73.854446","lat":"40.924828","theaterChainName":"National Amusements","ticketType":"STANDARD"},{"id":"562","name":"AMC Bay Plaza Cinema 13","address":"2210 Bartow Ave.","city":"Bronx","state":"NY","zip":"10475","distance":"18.65530014038086","lon":"-73.825142","lat":"40.866989","theaterChainName":"AMC Theatres","ticketType":"STANDARD"},{"id":"1130","name":"Bow Tie Cinemas Clairidge Cinemas","address":"486 Bloomfield Ave.","city":"Montclair","state":"NJ","zip":"07042","distance":"22.373607635498047","lon":"-74.218346","lat":"40.814323","theaterChainName":"Bow-Tie Cinemas","ticketType":"STANDARD"},{"id":"5357","name":"Allwood Cinemas 6","address":"96 Market St.","city":"Clifton","state":"NJ","zip":"07011","distance":"19.1068058013916","lon":"-74.162079","lat":"40.845837","theaterChainName":"Independent Chains","ticketType":"STANDARD"},{"id":"122","name":"Bow Tie Cinemas Bellevue 4","address":"260 Bellevue Ave.","city":"Upper Montclair","state":"NJ","zip":"07043","distance":"20.514144897460938","lon":"-74.208931","lat":"40.841213","theaterChainName":"Bow-Tie Cinemas","ticketType":"STANDARD"},{"id":"2573","name":"AMC Clifton Commons 16","address":"405 Route 3 East","city":"Clifton","state":"NJ","zip":"07014","distance":"19.768922805786133","lon":"-74.140358","lat":"40.828815","theaterChainName":"AMC Theatres","ticketType":"STANDARD"},{"id":"1932","name":"Lincoln Cinemas","address":"838 Kearny Ave.","city":"North Arlington","state":"NJ","zip":"07031","distance":"22.906042098999023","lon":"-74.139229","lat":"40.780685","theaterChainName":"Independent Chains","ticketType":"STANDARD"},{"id":"755","name":"AMC Essex Green Cinema 9","address":"495 Prospect Ave.","city":"West Orange","state":"NJ","zip":"07052","distance":"24.63321304321289","lon":"-74.256706","lat":"40.793362","theaterChainName":"AMC Theatres","ticketType":"STANDARD"},{"id":"1184","name":"Williams Center Cinemas 3","address":"1 Williams Plaza","city":"Rutherford","state":"NJ","zip":"07070","distance":"19.30261993408203","lon":"-74.103256","lat":"40.827190","theaterChainName":"Independent Chains","ticketType":"STANDARD"},{"id":"2982","name":"Bow Tie Cinemas Caldwell Cinema 4","address":"315 Bloomfield Ave.","city":"Caldwell","state":"NJ","zip":"07006","distance":"22.563955307006836","lon":"-74.275818","lat":"40.839581","theaterChainName":"Bow-Tie Cinemas","ticketType":"STANDARD"},{"id":"4888","name":"Fabian 8 Cinema","address":"301 Main St.","city":"Paterson","state":"NJ","zip":"07505","distance":"15.212906837463379","lon":"-74.173370","lat":"40.914829","theaterChainName":"Independent Chains","ticketType":"STANDARD"},{"id":"138","name":"AMC Loews Wayne 14","address":"67 Willowbrook Blvd.","city":"Wayne","state":"NJ","zip":"07470","distance":"19.11193084716797","lon":"-74.250336","lat":"40.888309","theaterChainName":"AMC Theatres","ticketType":"STANDARD"},{"id":"4804","name":"Secaucus ShowPlace 14","address":"650 Plaza Drive","city":"Secaucus","state":"NJ","zip":"07094","distance":"21.596006393432617","lon":"-74.046303","lat":"40.786301","theaterChainName":"Kerasotes","ticketType":"STANDARD"},{"id":"1173","name":"Hawthorne 5","address":"300 Lafayette Ave.","city":"Hawthorne","state":"NJ","zip":"07506","distance":"12.7675199508667","lon":"-74.155380","lat":"40.948498","theaterChainName":"Independent Chains","ticketType":"STANDARD"},{"id":"3235","name":"Columbia Park Stadium 12","address":"3125 Kennedy Blvd.","city":"North Bergen","state":"NJ","zip":"07047","distance":"22.302085876464844","lon":"-74.035919","lat":"40.775490","theaterChainName":"Independent Chains","ticketType":"STANDARD"},{"id":"4336","name":"AMC Garden State 16","address":"4000 Garden State Plaza","city":"Paramus","state":"NJ","zip":"07652","distance":"12.831099510192871","lon":"-74.075958","lat":"40.918610","theaterChainName":"AMC Theatres","ticketType":"STANDARD"},{"id":"4832","name":"Bow Tie Hoboken Cinemas","address":"409-415 14th St.","city":"Hoboken","state":"NJ","zip":"07030","distance":"23.760196685791016","lon":"-74.031898","lat":"40.754200","theaterChainName":"Bow-Tie Cinemas","ticketType":"STANDARD"},{"id":"407","name":"Bow Tie Cinemas Wayne Preakness","address":"1220 Hamburg Tpk.","city":"Wayne","state":"NJ","zip":"07470","distance":"15.375779151916504","lon":"-74.244293","lat":"40.961617","theaterChainName":"Bow-Tie Cinemas","ticketType":"STANDARD"},{"id":"5401","name":"Starplex Cinemas Ridgefield Park","address":"75 Challenger Road","city":"Ridgefield Park","state":"NJ","zip":"07660","distance":"17.09642791748047","lon":"-74.012550","lat":"40.850277","theaterChainName":"Starplex Cinemas","ticketType":"STANDARD"},{"id":"179","name":"Bow Tie Cinemas Warner Quad","address":"190 E. Ridgewood Ave.","city":"Ridgewood","state":"NJ","zip":"07450","distance":"9.855484008789062","lon":"-74.115486","lat":"40.978867","theaterChainName":"Bow-Tie Cinemas","ticketType":"STANDARD"},{"id":"3103","name":"Edgewater Multiplex Cinemas","address":"339 River Road","city":"Edgewater","state":"NJ","zip":"07020","distance":"20.050491333007812","lon":"-73.988106","lat":"40.808033","theaterChainName":"National Amusements","ticketType":"STANDARD"},{"id":"3442","name":"AMC Loews West 34th Street 14","address":"312 W. 34th St.","city":"New York","state":"NY","zip":"10001","distance":"23.867237091064453","lon":"-73.994392","lat":"40.752510","theaterChainName":"AMC Theatres","ticketType":"STANDARD"},{"id":"2820","name":"Regal E-Walk Stadium 13","address":"247 W. 42nd St.","city":"New York","state":"NY","zip":"10036","distance":"23.563100814819336","lon":"-73.989113","lat":"40.757084","theaterChainName":"Regal Cinemas","ticketType":"STANDARD"},{"id":"2986","name":"AMC Empire 25","address":"234 W. 42nd St.","city":"New York","state":"NY","zip":"10036","distance":"23.5989990234375","lon":"-73.988663","lat":"40.756580","theaterChainName":"AMC Theatres","ticketType":"STANDARD"},{"id":"5064","name":"Film Society of Lincoln Center","address":"144 W 65th St.","city":"New York","state":"NY","zip":"10023","distance":"22.446714401245117","lon":"-73.983597","lat":"40.773499","theaterChainName":"Independent Chains","ticketType":"STANDARD"},{"id":"575","name":"Film Society of Lincoln Center's Walter Reade Theater","address":"165 W. 65th St.","city":"New York","state":"NY","zip":"10023","distance":"22.446714401245117","lon":"-73.983597","lat":"40.773499","theaterChainName":"Independent Chains","ticketType":"STANDARD"},{"id":"6041","name":"Kinnelon Cinemas","address":"25 Kinnelon Rd","city":"Kinnelon","state":"NJ","zip":"07405","distance":"19.385272979736328","lon":"-74.360992","lat":"41.002808","theaterChainName":"Independent Chains","ticketType":"STANDARD"},{"id":"1779","name":"Bow Tie Cinemas Kinnelon 11","address":"25 Kinnelon Road","city":"Kinnelon","state":"NJ","zip":"07405","distance":"19.382495880126953","lon":"-74.360992","lat":"41.002926","theaterChainName":"Bow-Tie Cinemas","ticketType":"STANDARD"},{"id":"6036","name":"Washington Township Cinemas","address":"249 Pascack Road","city":"Washington Township","state":"NJ","zip":"07676","distance":"8.263551712036133","lon":"-74.063202","lat":"40.984798","theaterChainName":"Independent Chains","ticketType":"STANDARD"},{"id":"1495","name":"Lafayette Theatre","address":"97 Lafayette Ave.","city":"Suffern","state":"NY","zip":"10901","distance":"7.358851909637451","lon":"-74.150352","lat":"41.115063","theaterChainName":"Boston Culinary Group","ticketType":"STANDARD"},{"id":"3044","name":"AMC Magic Johnson Harlem 9","address":"2309 Frederick Douglass Blvd.","city":"New York","state":"NY","zip":"10027","distance":"20.139217376708984","lon":"-73.951790","lat":"40.809677","theaterChainName":"AMC Theatres","ticketType":"STANDARD"},{"id":"151","name":"AMC Loews Lincoln Square 13","address":"1998 Broadway","city":"New York","state":"NY","zip":"10023","distance":"22.351646423339844","lon":"-73.981644","lat":"40.774975","theaterChainName":"AMC Theatres","ticketType":"STANDARD"},{"id":"148","name":"AMC Loews Orpheum 7","address":"1538 Third Ave.","city":"New York","state":"NY","zip":"10028","distance":"22.20081901550293","lon":"-73.953857","lat":"40.779305","theaterChainName":"AMC Theatres","ticketType":"STANDARD"},{"id":"574","name":"Lincoln Plaza Cinemas","address":"1886 Broadway","city":"New York","state":"NY","zip":"10023","distance":"22.63628387451172","lon":"-73.981842","lat":"40.770836","theaterChainName":"Independent Chains","ticketType":"STANDARD"},{"id":"539","name":"City Cinemas 86th Street East","address":"210 E. 86th St.","city":"New York","state":"NY","zip":"10028","distance":"22.26819610595703","lon":"-73.953339","lat":"40.778374","theaterChainName":"Reading International, Inc","ticketType":"STANDARD"},{"id":"570","name":"City Cinemas Paris Theatre","address":"4 W. 58th St.","city":"New York","state":"NY","zip":"10019","distance":"23.12501335144043","lon":"-73.974716","lat":"40.764145","theaterChainName":"Reading International, Inc","ticketType":"STANDARD"},{"id":"4601","name":"City Cinemas Beekman Theatre","address":"1271 Second Ave.","city":"New York","state":"NY","zip":"10021","distance":"23.116657257080078","lon":"-73.961006","lat":"40.765278","theaterChainName":"Reading International, Inc","ticketType":"STANDARD"},{"id":"320","name":"Concourse Plaza Multiplex Cinemas","address":"214 E. 161st St.","city":"Bronx","state":"NY","zip":"10451","distance":"19.33424186706543","lon":"-73.920738","lat":"40.826298","theaterChainName":"National Amusements","ticketType":"STANDARD"},{"id":"2472","name":"AMC Loews Kips Bay 15","address":"570 Second Ave.","city":"New York","state":"NY","zip":"10016","distance":"24.53931999206543","lon":"-73.976700","lat":"40.743500","theaterChainName":"AMC Theatres","ticketType":"STANDARD"},{"id":"150","name":"AMC Loews 19th Street East 6","address":"890 Broadway","city":"New York","state":"NY","zip":"10003","distance":"24.84038543701172","lon":"-73.989769","lat":"40.738556","theaterChainName":"AMC Theatres","ticketType":"STANDARD"},{"id":"3233","name":"UA Kaufman Astoria Stadium 14","address":"35-30 38th St.","city":"Astoria","state":"NY","zip":"11101","distance":"24.099990844726562","lon":"-73.923622","lat":"40.755207","theaterChainName":"United Artists","ticketType":"STANDARD"},{"id":"1147","name":"Bow Tie Cinemas Tenafly Cinema 4","address":"4 1\/2 W. Railroad Ave.","city":"Tenafly","state":"NJ","zip":"07670","distance":"12.228758811950684","lon":"-73.965164","lat":"40.924118","theaterChainName":"Bow-Tie Cinemas","ticketType":"STANDARD"},{"id":"1766","name":"Bow Tie Cinemas Bergenfield 5 ","address":"58 S Washington Ave.","city":"Bergenfield","state":"NJ","zip":"07621","distance":"11.89421558380127","lon":"-73.996780","lat":"40.925892","theaterChainName":"Bow-Tie Cinemas","ticketType":"STANDARD"},{"id":"1131","name":"Bow Tie Cinemas Closter Cinema 4","address":"130 Closter Plaza","city":"Closter","state":"NJ","zip":"07624","distance":"9.383198738098145","lon":"-73.954964","lat":"40.968624","theaterChainName":"Bow-Tie Cinemas","ticketType":"STANDARD"},{"id":"160","name":"Westwood Theaters","address":"182 Center Ave.","city":"Westwood","state":"NJ","zip":"07675","distance":"7.449990749359131","lon":"-74.031570","lat":"40.991013","theaterChainName":"Independent Chains","ticketType":"STANDARD"},{"id":"5393","name":"Regal Nanuet Mall Stadium 12 & RPX","address":"6201 Fashion Dr.","city":"Nanuet","state":"NY","zip":"10954","distance":"0.22138643264770508","lon":"-74.015152","lat":"41.097797","theaterChainName":"Regal Cinemas","ticketType":"STANDARD"},{"id":"5730","name":"Monroe Theaters at TMACC","address":"34 Millpond Parkway","city":"Monroe","state":"NY","zip":"10950","distance":"18.328847885131836","lon":"-74.188400","lat":"41.326900","theaterChainName":"Independent Chains","ticketType":"STANDARD"},{"id":"2845","name":"Elite Cinema 6","address":"78 Brookside Ave.","city":"Chester","state":"NY","zip":"10918","distance":"23.026901245117188","lon":"-74.283905","lat":"41.360188","theaterChainName":"Independent Chains","ticketType":"STANDARD"},{"id":"2460","name":"College Point Multiplex Cinemas","address":"2855 Ulmer St.","city":"Whitestone","state":"NY","zip":"11357","distance":"24.31547737121582","lon":"-73.835205","lat":"40.771790","theaterChainName":"National Amusements","ticketType":"STANDARD"}]