[{"id":"499","tribuneTheaterId":"5960","providerTheaterId":"","name":"Middletown Cinemas","address":"130 Dolson Ave.","city":"Middletown","state":"NY","zip":"10940","distance":4.8520619539544,"lon":"-74.426923","lat":"41.431258","theaterChainName":"Independent Chains","ticketType":"STANDARD"},{"id":"5320","tribuneTheaterId":"10757","providerTheaterId":"","name":"Paramount Theatre - Middletown","address":"17 S. St.","city":"Middletown","state":"NY","zip":"10940","distance":5.7768372079723,"lon":"-74.4204","lat":"41.4443","theaterChainName":"Independent Chains","ticketType":"STANDARD"},{"id":"156","tribuneTheaterId":"7318","providerTheaterId":"2744","name":"AMC Loews Galleria Metroplex 16","address":"1 N. Galleria Drive","city":"Middletown","state":"NY","zip":"10940","distance":8.109536533938,"lon":"-74.36667","lat":"41.453077","theaterChainName":"AMC Theatres","ticketType":"STANDARD"},{"id":"2845","tribuneTheaterId":"3453","providerTheaterId":"","name":"Elite Cinema 6","address":"78 Brookside Ave.","city":"Chester","state":"NY","zip":"10918","distance":10.469153704656,"lon":"-74.283902","lat":"41.360188","theaterChainName":"Independent Chains","ticketType":"STANDARD"},{"id":"5100","tribuneTheaterId":"10496","providerTheaterId":"","name":"Majestic Cinemas - Matamoras","address":"111 Hulst Drive","city":"Matamoras","state":"PA","zip":"18336","distance":12.47385882245,"lon":"-74.723253","lat":"41.352797","theaterChainName":"Spotlight Theatres","ticketType":"STANDARD"},{"id":"5730","tribuneTheaterId":"11172","providerTheaterId":"","name":"Monroe Theaters at TMACC","address":"34 Millpond Parkway","city":"Monroe","state":"NY","zip":"10950","distance":15.737981506752,"lon":"-74.1884","lat":"41.3269","theaterChainName":"Independent Chains","ticketType":"STANDARD"},{"id":"3953","tribuneTheaterId":"2332","providerTheaterId":"","name":"Showtime Cinemas - Newburgh","address":"1420 Route 300","city":"Newburgh","state":"NY","zip":"12550","distance":23.780166594098,"lon":"-74.0702","lat":"41.5241","theaterChainName":"Independent Chains","ticketType":"STANDARD"},{"id":"1848","tribuneTheaterId":"6484","providerTheaterId":"","name":"Destinta New Windsor 12","address":"215 Quassaik Ave.","city":"New Windsor","state":"NY","zip":"12553","distance":24.896192936153,"lon":"-74.022853","lat":"41.475564","theaterChainName":"Independent Chains","ticketType":"STANDARD"}]