[{"id":"1494","tribuneTheaterId":"5901","providerTheaterId":"","name":"Bow Tie Cinemas New City Cinema 6","address":"202 S. Main St.","city":"New City","state":"NY","zip":"10956","distance":4.4993797223287,"lon":"-73.989025","lat":"41.139576","theaterChainName":"Bow-Tie Cinemas","ticketType":"STANDARD"},{"id":"5393","tribuneTheaterId":"10830","providerTheaterId":"","name":"Regal Nanuet Mall Stadium 12 & RPX","address":"6201 Fashion Dr.","city":"Nanuet","state":"NY","zip":"10954","distance":6.5469468854358,"lon":"-74.015154","lat":"41.097798","theaterChainName":"Regal Cinemas","ticketType":"STANDARD"},{"id":"1495","tribuneTheaterId":"2498","providerTheaterId":"","name":"Lafayette Theatre","address":"97 Lafayette Ave.","city":"Suffern","state":"NY","zip":"10901","distance":7.5975128731165,"lon":"-74.15035","lat":"41.115063","theaterChainName":"Boston Culinary Group","ticketType":"STANDARD"},{"id":"771","tribuneTheaterId":"8756","providerTheaterId":"2729","name":"AMC Loews Palisades Center 21","address":"4403 Palisades Center Drive","city":"West Nyack","state":"NY","zip":"10994","distance":7.8256136950516,"lon":"-73.956485","lat":"41.097772","theaterChainName":"AMC Theatres","ticketType":"STANDARD"},{"id":"873","tribuneTheaterId":"7904","providerTheaterId":"","name":"UA Cortlandt Town Center Stadium 11","address":"3131 E. Main St.","city":"Mohegan Lake","state":"NY","zip":"10547","distance":12.313655385816,"lon":"-73.868339","lat":"41.310095","theaterChainName":"United Artists","ticketType":"STANDARD"},{"id":"5730","tribuneTheaterId":"11172","providerTheaterId":"","name":"Monroe Theaters at TMACC","address":"34 Millpond Parkway","city":"Monroe","state":"NY","zip":"10950","distance":12.079088050946,"lon":"-74.1884","lat":"41.3269","theaterChainName":"Independent Chains","ticketType":"STANDARD"},{"id":"160","tribuneTheaterId":"3900","providerTheaterId":"","name":"Westwood Theaters","address":"182 Center Ave.","city":"Westwood","state":"NJ","zip":"07675","distance":13.769840242764,"lon":"-74.031568","lat":"40.991013","theaterChainName":"Independent Chains","ticketType":"STANDARD"},{"id":"6036","tribuneTheaterId":"11440","providerTheaterId":"","name":"Washington Township Cinemas","address":"249 Pascack Road","city":"Washington Township","state":"NJ","zip":"07676","distance":14.22153022171,"lon":"-74.0632","lat":"40.9848","theaterChainName":"Independent Chains","ticketType":"STANDARD"},{"id":"3369","tribuneTheaterId":"2853","providerTheaterId":"","name":"Jacob Burns Film Center","address":"364 Manville Road","city":"Pleasantville","state":"NY","zip":"10570","distance":13.648573935681,"lon":"-73.791606","lat":"41.135049","theaterChainName":"Independent Chains","ticketType":"STANDARD"},{"id":"179","tribuneTheaterId":"8442","providerTheaterId":"","name":"Bow Tie Cinemas Warner Quad","address":"190 E. Ridgewood Ave.","city":"Ridgewood","state":"NJ","zip":"07450","distance":15.067352929276,"lon":"-74.115486","lat":"40.978866","theaterChainName":"Bow-Tie Cinemas","ticketType":"STANDARD"},{"id":"2858","tribuneTheaterId":"9162","providerTheaterId":"","name":"Greenburgh Multiplex Cinemas","address":"320 Saw Mill River Road","city":"Elmsford","state":"NY","zip":"10523","distance":14.755682651243,"lon":"-73.812702","lat":"41.066165","theaterChainName":"National Amusements","ticketType":"STANDARD"},{"id":"1131","tribuneTheaterId":"5892","providerTheaterId":"","name":"Bow Tie Cinemas Closter Cinema 4","address":"130 Closter Plaza","city":"Closter","state":"NJ","zip":"07624","distance":15.983691166741,"lon":"-73.954967","lat":"40.968623","theaterChainName":"Bow-Tie Cinemas","ticketType":"STANDARD"},{"id":"1530","tribuneTheaterId":"5911","providerTheaterId":"","name":"Bow Tie Cinemas Mt Kisco Cinemas ","address":"144 Main St.","city":"Mount Kisco","state":"NY","zip":"10549","distance":16.469115929667,"lon":"-73.727436","lat":"41.204985","theaterChainName":"Bow-Tie Cinemas","ticketType":"STANDARD"},{"id":"1529","tribuneTheaterId":"8677","providerTheaterId":"","name":"Bow Tie Cinemas Cinema 100","address":"93 Knollwood Road","city":"White Plains","state":"NY","zip":"10607","distance":16.129453499301,"lon":"-73.8082","lat":"41.0383","theaterChainName":"Bow-Tie Cinemas","ticketType":"STANDARD"},{"id":"1766","tribuneTheaterId":"5899","providerTheaterId":"","name":"Bow Tie Cinemas Bergenfield 5 ","address":"58 S Washington Ave.","city":"Bergenfield","state":"NJ","zip":"07621","distance":18.417337304303,"lon":"-73.996778","lat":"40.925891","theaterChainName":"Bow-Tie Cinemas","ticketType":"STANDARD"},{"id":"1173","tribuneTheaterId":"2934","providerTheaterId":"","name":"Hawthorne 5","address":"300 Lafayette Ave.","city":"Hawthorne","state":"NJ","zip":"07506","distance":17.679614371176,"lon":"-74.155383","lat":"40.948496","theaterChainName":"Independent Chains","ticketType":"STANDARD"},{"id":"407","tribuneTheaterId":"8608","providerTheaterId":"","name":"Bow Tie Cinemas Wayne Preakness","address":"1220 Hamburg Tpk.","city":"Wayne","state":"NJ","zip":"07470","distance":18.933961138517,"lon":"-74.244297","lat":"40.961615","theaterChainName":"Bow-Tie Cinemas","ticketType":"STANDARD"},{"id":"1147","tribuneTheaterId":"5894","providerTheaterId":"","name":"Bow Tie Cinemas Tenafly Cinema 4","address":"4 1\/2 W. Railroad Ave.","city":"Tenafly","state":"NJ","zip":"07670","distance":18.826530971957,"lon":"-73.965162","lat":"40.924117","theaterChainName":"Bow-Tie Cinemas","ticketType":"STANDARD"},{"id":"4336","tribuneTheaterId":"9312","providerTheaterId":"2253","name":"AMC Garden State 16","address":"4000 Garden State Plaza","city":"Paramus","state":"NJ","zip":"07652","distance":18.833907389347,"lon":"-74.075962","lat":"40.918608","theaterChainName":"AMC Theatres","ticketType":"STANDARD"},{"id":"3658","tribuneTheaterId":"8684","providerTheaterId":"","name":"City Center 15: Cinema de Lux","address":"19 Mamaroneck Ave.","city":"White Plains","state":"NY","zip":"10601","distance":18.1203348259,"lon":"-73.765699","lat":"41.032177","theaterChainName":"National Amusements","ticketType":"STANDARD"},{"id":"2845","tribuneTheaterId":"3453","providerTheaterId":"","name":"Elite Cinema 6","address":"78 Brookside Ave.","city":"Chester","state":"NY","zip":"10918","distance":17.140967596389,"lon":"-74.283902","lat":"41.360188","theaterChainName":"Independent Chains","ticketType":"STANDARD"},{"id":"5208","tribuneTheaterId":"10632","providerTheaterId":"","name":"Alamo Drafthouse Yonkers","address":"2548 Central Park Ave","city":"Yonkers","state":"NY","zip":"10710","distance":18.324648633052,"lon":"-73.824543","lat":"40.982545","theaterChainName":"Alamo Drafthouse","ticketType":"STANDARD"},{"id":"5044","tribuneTheaterId":"10421","providerTheaterId":"","name":"Showcase Cinema de Lux Ridge Hill","address":"29 Fitzgerald St.","city":"Yonkers","state":"NY","zip":"10710","distance":18.787946823711,"lon":"-73.844398","lat":"40.963402","theaterChainName":"National Amusements","ticketType":"STANDARD"},{"id":"117","tribuneTheaterId":"7034","providerTheaterId":"","name":"Bow Tie Cinemas Bronxville 3","address":"84 Kraft Ave.","city":"Bronxville","state":"NY","zip":"10708","distance":20.413620531183,"lon":"-73.834434","lat":"40.940259","theaterChainName":"Bow-Tie Cinemas","ticketType":"STANDARD"},{"id":"4888","tribuneTheaterId":"10198","providerTheaterId":"","name":"Fabian 8 Cinema","address":"301 Main St.","city":"Paterson","state":"NJ","zip":"07505","distance":20.185512378382,"lon":"-74.173374","lat":"40.91483","theaterChainName":"Independent Chains","ticketType":"STANDARD"},{"id":"1848","tribuneTheaterId":"6484","providerTheaterId":"","name":"Destinta New Windsor 12","address":"215 Quassaik Ave.","city":"New Windsor","state":"NY","zip":"12553","distance":19.752999156838,"lon":"-74.022853","lat":"41.475564","theaterChainName":"Independent Chains","ticketType":"STANDARD"},{"id":"1779","tribuneTheaterId":"5905","providerTheaterId":"","name":"Bow Tie Cinemas Kinnelon 11","address":"25 Kinnelon Road","city":"Kinnelon","state":"NJ","zip":"07405","distance":20.984757111233,"lon":"-74.360989","lat":"41.002926","theaterChainName":"Bow-Tie Cinemas","ticketType":"STANDARD"},{"id":"6041","tribuneTheaterId":"11445","providerTheaterId":"","name":"Kinnelon Cinemas","address":"25 Kinnelon Rd","city":"Kinnelon","state":"NJ","zip":"07405","distance":20.99012395469,"lon":"-74.360996","lat":"41.002807","theaterChainName":"Independent Chains","ticketType":"STANDARD"},{"id":"282","tribuneTheaterId":"9218","providerTheaterId":"","name":"Cross County Multiplex Cinemas","address":"2 South Drive","city":"Yonkers","state":"NY","zip":"10704","distance":20.810001677896,"lon":"-73.854443","lat":"40.924828","theaterChainName":"National Amusements","ticketType":"STANDARD"},{"id":"4603","tribuneTheaterId":"9775","providerTheaterId":"","name":"Downing Film Center","address":"19 Front Street","city":"Newburgh","state":"NY","zip":"12550","distance":21.658162427701,"lon":"-74.005575","lat":"41.50226","theaterChainName":"Independent Chains","ticketType":"STANDARD"},{"id":"119","tribuneTheaterId":"7932","providerTheaterId":"","name":"Bow Tie Cinemas Mamaroneck 4","address":"243 Mamaroneck Ave.","city":"Mamaroneck","state":"NY","zip":"10543","distance":23.11296212967,"lon":"-73.733869","lat":"40.950565","theaterChainName":"Bow-Tie Cinemas","ticketType":"STANDARD"},{"id":"3953","tribuneTheaterId":"2332","providerTheaterId":"","name":"Showtime Cinemas - Newburgh","address":"1420 Route 300","city":"Newburgh","state":"NY","zip":"12550","distance":23.118359145565,"lon":"-74.0702","lat":"41.5241","theaterChainName":"Independent Chains","ticketType":"STANDARD"},{"id":"5401","tribuneTheaterId":"10839","providerTheaterId":"","name":"Starplex Cinemas Ridgefield Park","address":"75 Challenger Road","city":"Ridgefield Park","state":"NJ","zip":"07660","distance":23.535142411152,"lon":"-74.012552","lat":"40.850278","theaterChainName":"Starplex Cinemas","ticketType":"STANDARD"},{"id":"1178","tribuneTheaterId":"2465","providerTheaterId":"","name":"Pelham Picture House","address":"175 Wolfs Lane","city":"Pelham","state":"NY","zip":"10803","distance":22.981906567593,"lon":"-73.811375","lat":"40.907318","theaterChainName":"Independent Chains","ticketType":"STANDARD"},{"id":"118","tribuneTheaterId":"7464","providerTheaterId":"","name":"Bow Tie Cinemas Larchmont Playhouse","address":"1975 Palmer Ave.","city":"Larchmont","state":"NY","zip":"10538","distance":23.172848406409,"lon":"-73.760999","lat":"40.931106","theaterChainName":"Bow-Tie Cinemas","ticketType":"STANDARD"},{"id":"138","tribuneTheaterId":"7954","providerTheaterId":"2176","name":"AMC Loews Wayne 14","address":"67 Willowbrook Blvd.","city":"Wayne","state":"NJ","zip":"07470","distance":23.470669009719,"lon":"-74.250337","lat":"40.888309","theaterChainName":"AMC Theatres","ticketType":"STANDARD"},{"id":"156","tribuneTheaterId":"7318","providerTheaterId":"2744","name":"AMC Loews Galleria Metroplex 16","address":"1 N. Galleria Drive","city":"Middletown","state":"NY","zip":"10940","distance":24.722088956012,"lon":"-74.36667","lat":"41.453077","theaterChainName":"AMC Theatres","ticketType":"STANDARD"},{"id":"5357","tribuneTheaterId":"10795","providerTheaterId":"","name":"Allwood Cinemas 6","address":"96 Market St.","city":"Clifton","state":"NJ","zip":"07011","distance":24.575028201296,"lon":"-74.16208","lat":"40.845838","theaterChainName":"Independent Chains","ticketType":"STANDARD"},{"id":"1523","tribuneTheaterId":"8734","providerTheaterId":"","name":"Regal Fishkill 10","address":"2400 Rt. 9","city":"Fishkill","state":"NY","zip":"12524","distance":24.335581799384,"lon":"-73.896055","lat":"41.524449","theaterChainName":"Regal Cinemas","ticketType":"STANDARD"},{"id":"2584","tribuneTheaterId":"7575","providerTheaterId":"","name":"Regal New Roc Stadium 18 + IMAX","address":"33 Le Count Place","city":"New Rochelle","state":"NY","zip":"10801","distance":23.634150057627,"lon":"-73.779566","lat":"40.911964","theaterChainName":"Regal Cinemas","ticketType":"STANDARD"},{"id":"1346","tribuneTheaterId":"5881","providerTheaterId":"","name":"Bow Tie Cinemas Plaza 3","address":"2 Railroad Ave.","city":"Greenwich","state":"CT","zip":"06830","distance":24.712061826218,"lon":"-73.624985","lat":"41.021489","theaterChainName":"Bow-Tie Cinemas","ticketType":"STANDARD"},{"id":"3888","tribuneTheaterId":"9150","providerTheaterId":"2680","name":"AMC Loews Port Chester 14","address":"40 Westchester Ave.","city":"Port Chester","state":"NY","zip":"10573","distance":23.81080330864,"lon":"-73.662394","lat":"40.99976","theaterChainName":"AMC Theatres","ticketType":"STANDARD"}]