[{"id":"319","name":"Broadway Multiplex Cinemas","address":"955 Broadway Mall","city":"Hicksville","state":"NY","zip":"11801","distance":"24.937454223632812","lon":"-73.533104","lat":"40.774269","theaterChainName":"National Amusements","ticketType":"STANDARD"},{"id":"1172","name":"Five Star Theatres Bellmore Playhouse","address":"525 Bedford Ave.","city":"Bellmore","state":"NY","zip":"11710","distance":"23.16506576538086","lon":"-73.527603","lat":"40.669998","theaterChainName":"Independent Chains","ticketType":"STANDARD"},{"id":"2819","name":"UA Westbury Stadium 12 & IMAX","address":"7000 Brush Hollow Road","city":"Westbury","state":"NY","zip":"11590","distance":"23.975906372070312","lon":"-73.555969","lat":"40.778194","theaterChainName":"United Artists","ticketType":"STANDARD"},{"id":"166","name":"AMC Loews Raceway 10","address":"1025 Corporate Drive","city":"Westbury","state":"NY","zip":"11590","distance":"21.012271881103516","lon":"-73.596466","lat":"40.742382","theaterChainName":"AMC Theatres","ticketType":"STANDARD"},{"id":"154","name":"AMC Loews Roosevelt Field 8","address":"630 Old Country Road","city":"Garden City","state":"NY","zip":"11530","distance":"20.039928436279297","lon":"-73.615181","lat":"40.739716","theaterChainName":"AMC Theatres","ticketType":"STANDARD"},{"id":"1133","name":"Bow Tie Cinemas Grand Ave","address":"1849 Grand Ave.","city":"Baldwin","state":"NY","zip":"11510","distance":"19.00954246520996","lon":"-73.606949","lat":"40.665848","theaterChainName":"Bow-Tie Cinemas","ticketType":"STANDARD"},{"id":"172","name":"Glen Cove 6","address":"5 School St.","city":"Glen Cove","state":"NY","zip":"11542","distance":"24.2437686920166","lon":"-73.631538","lat":"40.865974","theaterChainName":"Independent Chains","ticketType":"STANDARD"},{"id":"1144","name":"Bow Tie Roslyn Cinemas","address":"20 Tower Place","city":"Roslyn","state":"NY","zip":"11576","distance":"20.54300308227539","lon":"-73.650185","lat":"40.799831","theaterChainName":"Bow-Tie Cinemas","ticketType":"STANDARD"},{"id":"1134","name":"Bow Tie Cinemas Herricks Cinema","address":"3324 Hillside Ave.","city":"New Hyde Park","state":"NY","zip":"11040","distance":"18.3188419342041","lon":"-73.660332","lat":"40.752563","theaterChainName":"Bow-Tie Cinemas","ticketType":"STANDARD"},{"id":"171","name":"AMC Loews Fantasy 5","address":"18 N. Park Ave.","city":"Rockville Centre","state":"NY","zip":"11570","distance":"16.933277130126953","lon":"-73.645226","lat":"40.656818","theaterChainName":"AMC Theatres","ticketType":"STANDARD"},{"id":"1132","name":"Bow Tie Cinemas Franklin Square","address":"989 Hempstead Turnpike","city":"Franklin Square","state":"NY","zip":"11010","distance":"16.202625274658203","lon":"-73.676788","lat":"40.707310","theaterChainName":"Bow-Tie Cinemas","ticketType":"STANDARD"},{"id":"1139","name":"Bow Tie Cinemas Port Washington","address":"116 Main St.","city":"Port Washington","state":"NY","zip":"11050","distance":"20.309062957763672","lon":"-73.690681","lat":"40.830280","theaterChainName":"Bow-Tie Cinemas","ticketType":"STANDARD"},{"id":"5319","name":"Soundview Cinemas","address":"7 Soundview Marketplace","city":"Port Washington","state":"NY","zip":"11050","distance":"20.373640060424805","lon":"-73.705902","lat":"40.842484","theaterChainName":"Independent Chains","ticketType":"STANDARD"},{"id":"118","name":"Bow Tie Cinemas Larchmont Playhouse","address":"1975 Palmer Ave.","city":"Larchmont","state":"NY","zip":"10538","distance":"23.8461856842041","lon":"-73.761002","lat":"40.931107","theaterChainName":"Bow-Tie Cinemas","ticketType":"STANDARD"},{"id":"2584","name":"Regal New Roc Stadium 18 + IMAX","address":"33 Le Count Place","city":"New Rochelle","state":"NY","zip":"10801","distance":"22.230993270874023","lon":"-73.779564","lat":"40.911964","theaterChainName":"Regal Cinemas","ticketType":"STANDARD"},{"id":"107","name":"Bow Tie Cinemas Manhasset 3","address":"430 Plandome Road","city":"Manhasset","state":"NY","zip":"11030","distance":"18.45450210571289","lon":"-73.699944","lat":"40.798470","theaterChainName":"Bow-Tie Cinemas","ticketType":"STANDARD"},{"id":"1145","name":"Bow Tie Squire Cinemas","address":"115 Middle Neck Rd.","city":"Great Neck","state":"NY","zip":"11021","distance":"16.883201599121094","lon":"-73.730057","lat":"40.789780","theaterChainName":"Bow-Tie Cinemas","ticketType":"STANDARD"},{"id":"5044","name":"Showcase Cinema de Lux Ridge Hill","address":"29 Fitzgerald St.","city":"Yonkers","state":"NY","zip":"10710","distance":"24.385576248168945","lon":"-73.844398","lat":"40.963402","theaterChainName":"National Amusements","ticketType":"STANDARD"},{"id":"117","name":"Bow Tie Cinemas Bronxville 3","address":"84 Kraft Ave.","city":"Bronxville","state":"NY","zip":"10708","distance":"22.994340896606445","lon":"-73.834435","lat":"40.940258","theaterChainName":"Bow-Tie Cinemas","ticketType":"STANDARD"},{"id":"1178","name":"Pelham Picture House","address":"175 Wolfs Lane","city":"Pelham","state":"NY","zip":"10803","distance":"21.258899688720703","lon":"-73.811378","lat":"40.907318","theaterChainName":"Independent Chains","ticketType":"STANDARD"},{"id":"282","name":"Cross County Multiplex Cinemas","address":"2 South Drive","city":"Yonkers","state":"NY","zip":"10704","distance":"21.67616081237793","lon":"-73.854446","lat":"40.924828","theaterChainName":"National Amusements","ticketType":"STANDARD"},{"id":"562","name":"AMC Bay Plaza Cinema 13","address":"2210 Bartow Ave.","city":"Bronx","state":"NY","zip":"10475","distance":"18.41176986694336","lon":"-73.825142","lat":"40.866989","theaterChainName":"AMC Theatres","ticketType":"STANDARD"},{"id":"152","name":"AMC Loews Bay Terrace 6","address":"211-01  26th Ave.","city":"Bayside","state":"NY","zip":"11360","distance":"14.556047439575195","lon":"-73.778961","lat":"40.778980","theaterChainName":"AMC Theatres","ticketType":"STANDARD"},{"id":"109","name":"Movieworld At Douglaston","address":"242-02 61st Ave.","city":"Douglaston","state":"NY","zip":"11362","distance":"14.957761764526367","lon":"-73.738937","lat":"40.754707","theaterChainName":"Independent Chains","ticketType":"STANDARD"},{"id":"1130","name":"Bow Tie Cinemas Clairidge Cinemas","address":"486 Bloomfield Ave.","city":"Montclair","state":"NJ","zip":"07042","distance":"18.75425148010254","lon":"-74.218346","lat":"40.814323","theaterChainName":"Bow-Tie Cinemas","ticketType":"STANDARD"},{"id":"5357","name":"Allwood Cinemas 6","address":"96 Market St.","city":"Clifton","state":"NJ","zip":"07011","distance":"18.56405258178711","lon":"-74.162079","lat":"40.845837","theaterChainName":"Independent Chains","ticketType":"STANDARD"},{"id":"122","name":"Bow Tie Cinemas Bellevue 4","address":"260 Bellevue Ave.","city":"Upper Montclair","state":"NJ","zip":"07043","distance":"19.786903381347656","lon":"-74.208931","lat":"40.841213","theaterChainName":"Bow-Tie Cinemas","ticketType":"STANDARD"},{"id":"2573","name":"AMC Clifton Commons 16","address":"405 Route 3 East","city":"Clifton","state":"NJ","zip":"07014","distance":"16.957355499267578","lon":"-74.140358","lat":"40.828815","theaterChainName":"AMC Theatres","ticketType":"STANDARD"},{"id":"1932","name":"Lincoln Cinemas","address":"838 Kearny Ave.","city":"North Arlington","state":"NJ","zip":"07031","distance":"14.23972225189209","lon":"-74.139229","lat":"40.780685","theaterChainName":"Independent Chains","ticketType":"STANDARD"},{"id":"141","name":"CityPlex 12 Newark","address":"360-394 Springfield Ave.","city":"Newark","state":"NJ","zip":"07103","distance":"14.34855842590332","lon":"-74.196304","lat":"40.733627","theaterChainName":"Independent Chains","ticketType":"STANDARD"},{"id":"755","name":"AMC Essex Green Cinema 9","address":"495 Prospect Ave.","city":"West Orange","state":"NJ","zip":"07052","distance":"19.30916976928711","lon":"-74.256706","lat":"40.793362","theaterChainName":"AMC Theatres","ticketType":"STANDARD"},{"id":"1184","name":"Williams Center Cinemas 3","address":"1 Williams Plaza","city":"Rutherford","state":"NJ","zip":"07070","distance":"15.888914108276367","lon":"-74.103256","lat":"40.827190","theaterChainName":"Independent Chains","ticketType":"STANDARD"},{"id":"2982","name":"Bow Tie Cinemas Caldwell Cinema 4","address":"315 Bloomfield Ave.","city":"Caldwell","state":"NJ","zip":"07006","distance":"22.13277244567871","lon":"-74.275818","lat":"40.839581","theaterChainName":"Bow-Tie Cinemas","ticketType":"STANDARD"},{"id":"4274","name":"South Orange","address":"1 SOPAC Way","city":"South Orange","state":"NJ","zip":"07079","distance":"17.708629608154297","lon":"-74.261139","lat":"40.745995","theaterChainName":"Bow-Tie Cinemas","ticketType":"STANDARD"},{"id":"4888","name":"Fabian 8 Cinema","address":"301 Main St.","city":"Paterson","state":"NJ","zip":"07505","distance":"22.954566955566406","lon":"-74.173370","lat":"40.914829","theaterChainName":"Independent Chains","ticketType":"STANDARD"},{"id":"138","name":"AMC Loews Wayne 14","address":"67 Willowbrook Blvd.","city":"Wayne","state":"NJ","zip":"07470","distance":"23.672607421875","lon":"-74.250336","lat":"40.888309","theaterChainName":"AMC Theatres","ticketType":"STANDARD"},{"id":"4232","name":"Hudson Cinemas","address":"701 Route 440","city":"Jersey City","state":"NJ","zip":"07304","distance":"9.669943809509277","lon":"-74.096451","lat":"40.720707","theaterChainName":"Independent Chains","ticketType":"STANDARD"},{"id":"1123","name":"Maplewood Theater","address":"155 Maplewood Ave.","city":"Maplewood","state":"NJ","zip":"07040","distance":"17.977188110351562","lon":"-74.276566","lat":"40.731380","theaterChainName":"Independent Chains","ticketType":"STANDARD"},{"id":"4804","name":"Secaucus ShowPlace 14","address":"650 Plaza Drive","city":"Secaucus","state":"NJ","zip":"07094","distance":"12.092933654785156","lon":"-74.046303","lat":"40.786301","theaterChainName":"Kerasotes","ticketType":"STANDARD"},{"id":"1173","name":"Hawthorne 5","address":"300 Lafayette Ave.","city":"Hawthorne","state":"NJ","zip":"07506","distance":"24.629486083984375","lon":"-74.155380","lat":"40.948498","theaterChainName":"Independent Chains","ticketType":"STANDARD"},{"id":"3235","name":"Columbia Park Stadium 12","address":"3125 Kennedy Blvd.","city":"North Bergen","state":"NJ","zip":"07047","distance":"11.205032348632812","lon":"-74.035919","lat":"40.775490","theaterChainName":"Independent Chains","ticketType":"STANDARD"},{"id":"4336","name":"AMC Garden State 16","address":"4000 Garden State Plaza","city":"Paramus","state":"NJ","zip":"07652","distance":"21.268356323242188","lon":"-74.075958","lat":"40.918610","theaterChainName":"AMC Theatres","ticketType":"STANDARD"},{"id":"3388","name":"AMC Loews Jersey Gardens 20","address":"651 Kapowski Road","city":"Elizabeth","state":"NJ","zip":"07201","distance":"10.961377143859863","lon":"-74.168304","lat":"40.659458","theaterChainName":"AMC Theatres","ticketType":"STANDARD"},{"id":"1136","name":"Bow Tie Cinemas Millburn Cinemas","address":"350 Millburn Ave.","city":"Millburn","state":"NJ","zip":"07041","distance":"19.275859832763672","lon":"-74.307785","lat":"40.723644","theaterChainName":"Bow-Tie Cinemas","ticketType":"STANDARD"},{"id":"4832","name":"Bow Tie Hoboken Cinemas","address":"409-415 14th St.","city":"Hoboken","state":"NJ","zip":"07030","distance":"9.751826286315918","lon":"-74.031898","lat":"40.754200","theaterChainName":"Bow-Tie Cinemas","ticketType":"STANDARD"},{"id":"4012","name":"Frank Theatres South Cove Cinema 12","address":"191 Lefante Way","city":"Bayonne","state":"NJ","zip":"07002","distance":"8.031464576721191","lon":"-74.105896","lat":"40.668118","theaterChainName":"Frank Theatres","ticketType":"STANDARD"},{"id":"178","name":"AMC Loews Newport Centre 11","address":"30-300 Mall Drive W.","city":"Jersey City","state":"NJ","zip":"07303","distance":"8.235595703125","lon":"-74.038025","lat":"40.728039","theaterChainName":"AMC Theatres","ticketType":"STANDARD"},{"id":"5401","name":"Starplex Cinemas Ridgefield Park","address":"75 Challenger Road","city":"Ridgefield Park","state":"NJ","zip":"07660","distance":"15.934456825256348","lon":"-74.012550","lat":"40.850277","theaterChainName":"Starplex Cinemas","ticketType":"STANDARD"},{"id":"3445","name":"UA Staten Island Stadium 16 & RPX","address":"2474 Forest Ave.","city":"Staten Island","state":"NY","zip":"10303","distance":"10.90467643737793","lon":"-74.172867","lat":"40.626186","theaterChainName":"United Artists","ticketType":"STANDARD"},{"id":"3232","name":"Regal Battery Park Stadium 11","address":"102 North End Ave.","city":"New York","state":"NY","zip":"10281","distance":"6.89821720123291","lon":"-74.014969","lat":"40.714859","theaterChainName":"Regal Cinemas","ticketType":"STANDARD"},{"id":"3103","name":"Edgewater Multiplex Cinemas","address":"339 River Road","city":"Edgewater","state":"NJ","zip":"07020","distance":"12.876792907714844","lon":"-73.988106","lat":"40.808033","theaterChainName":"National Amusements","ticketType":"STANDARD"},{"id":"176","name":"Digiplex Cranford","address":"25 North Ave.","city":"Cranford","state":"NJ","zip":"07016","distance":"17.71548080444336","lon":"-74.299362","lat":"40.659370","theaterChainName":"Carmike Cinemas","ticketType":"STANDARD"},{"id":"3442","name":"AMC Loews West 34th Street 14","address":"312 W. 34th St.","city":"New York","state":"NY","zip":"10001","distance":"9.11436653137207","lon":"-73.994392","lat":"40.752510","theaterChainName":"AMC Theatres","ticketType":"STANDARD"},{"id":"4034","name":"IFC Center","address":"323 6th Ave. at W 3rd St.","city":"New York","state":"NY","zip":"10014","distance":"7.747009754180908","lon":"-74.001534","lat":"40.731140","theaterChainName":"Independent Chains","ticketType":"STANDARD"},{"id":"2820","name":"Regal E-Walk Stadium 13","address":"247 W. 42nd St.","city":"New York","state":"NY","zip":"10036","distance":"9.38477611541748","lon":"-73.989113","lat":"40.757084","theaterChainName":"Regal Cinemas","ticketType":"STANDARD"},{"id":"573","name":"Quad Cinema","address":"34 W. 13th St.","city":"New York","state":"NY","zip":"10011","distance":"8.007471084594727","lon":"-73.996002","lat":"40.735977","theaterChainName":"Independent Chains","ticketType":"STANDARD"},{"id":"2986","name":"AMC Empire 25","address":"234 W. 42nd St.","city":"New York","state":"NY","zip":"10036","distance":"9.347143173217773","lon":"-73.988663","lat":"40.756580","theaterChainName":"AMC Theatres","ticketType":"STANDARD"},{"id":"1126","name":"Bow Tie Cinemas Beacon Hill 5","address":"343 Springfield Ave.","city":"Summit","state":"NJ","zip":"07901","distance":"21.55609130859375","lon":"-74.356468","lat":"40.718216","theaterChainName":"Bow-Tie Cinemas","ticketType":"STANDARD"},{"id":"5064","name":"Film Society of Lincoln Center","address":"144 W 65th St.","city":"New York","state":"NY","zip":"10023","distance":"10.478941917419434","lon":"-73.983597","lat":"40.773499","theaterChainName":"Independent Chains","ticketType":"STANDARD"},{"id":"575","name":"Film Society of Lincoln Center's Walter Reade Theater","address":"165 W. 65th St.","city":"New York","state":"NY","zip":"10023","distance":"10.478941917419434","lon":"-73.983597","lat":"40.773499","theaterChainName":"Independent Chains","ticketType":"STANDARD"},{"id":"39","name":"AMC Loews Mountainside 10","address":"1021 Route 22","city":"Mountainside","state":"NJ","zip":"07092","distance":"19.873977661132812","lon":"-74.335442","lat":"40.683659","theaterChainName":"AMC Theatres","ticketType":"STANDARD"},{"id":"4383","name":"AMC Aviation 12","address":"1200 South Stiles St.","city":"Linden","state":"NJ","zip":"07036","distance":"14.710883140563965","lon":"-74.245476","lat":"40.620564","theaterChainName":"AMC Theatres","ticketType":"STANDARD"},{"id":"123","name":"Digiplex Rialto","address":"250 E. Broad St.","city":"Westfield","state":"NJ","zip":"07090","distance":"20.153291702270508","lon":"-74.347298","lat":"40.652599","theaterChainName":"Carmike Cinemas","ticketType":"STANDARD"},{"id":"569","name":"Atrium Stadium Cinemas","address":"680 Arthur Kill Road","city":"Staten Island","state":"NY","zip":"10308","distance":"11.301158905029297","lon":"-74.163849","lat":"40.559669","theaterChainName":"Independent Chains","ticketType":"STANDARD"},{"id":"121","name":"United Artists Hylan Plaza","address":"107 Mill Road","city":"Staten Island","state":"NY","zip":"10306","distance":"8.503262519836426","lon":"-74.109627","lat":"40.566975","theaterChainName":"United Artists","ticketType":"STANDARD"},{"id":"4231","name":"Big Cinemas Movie City 8","address":"1655 Oak Tree Road","city":"Edison","state":"NJ","zip":"08820","distance":"20.026796340942383","lon":"-74.340622","lat":"40.570969","theaterChainName":"Independent Chains","ticketType":"STANDARD"},{"id":"281","name":"Rave Cinemas Hazlet 12","address":"2821 Highway 35","city":"Hazlet","state":"NJ","zip":"07730","distance":"17.71314239501953","lon":"-74.169228","lat":"40.418510","theaterChainName":"Cinemark","ticketType":"STANDARD"},{"id":"2672","name":"Bow Tie Cinemas Strathmore Cinema 4","address":"1055 Route 34","city":"Aberdeen","state":"NJ","zip":"07747","distance":"20.659685134887695","lon":"-74.229301","lat":"40.401100","theaterChainName":"Bow-Tie Cinemas","ticketType":"STANDARD"},{"id":"169","name":"Bay Ridge Alpine Cinemas","address":"6817 Fifth Ave.","city":"Brooklyn","state":"NY","zip":"11220","distance":"3.0265049934387207","lon":"-74.020805","lat":"40.633656","theaterChainName":"Independent Chains","ticketType":"STANDARD"},{"id":"635","name":"Regal Hadley Theatre Stadium 16","address":"1000 Corporate Court","city":"South Plainfield","state":"NJ","zip":"07080","distance":"24.631145477294922","lon":"-74.424278","lat":"40.548927","theaterChainName":"Regal Cinemas","ticketType":"STANDARD"},{"id":"1797","name":"Atlantic Highlands Cinema 5","address":"82 First Ave.","city":"Atlantic Highlands","state":"NJ","zip":"07716","distance":"14.93443489074707","lon":"-74.037582","lat":"40.413528","theaterChainName":"Independent Chains","ticketType":"STANDARD"},{"id":"564","name":"Cobble Hill Cinema","address":"265 Court St.","city":"Brooklyn","state":"NY","zip":"11231","distance":"4.581496238708496","lon":"-73.994514","lat":"40.684910","theaterChainName":"Cobble Hill Cinemas","ticketType":"STANDARD"},{"id":"3234","name":"UA Court Street Stadium 12","address":"108 Court St.","city":"Brooklyn","state":"NY","zip":"11201","distance":"4.9128217697143555","lon":"-73.992149","lat":"40.690552","theaterChainName":"United Artists","ticketType":"STANDARD"},{"id":"565","name":"Kent Theatre","address":"1170 Coney Island Ave.","city":"Brooklyn","state":"NY","zip":"11230","distance":"0.45224571228027344","lon":"-73.966003","lat":"40.629002","theaterChainName":"Independent Chains","ticketType":"STANDARD"},{"id":"2746","name":"Bam Rose Cinemas","address":"30 Lafayette Ave.","city":"Brooklyn","state":"NY","zip":"11217","distance":"4.468655586242676","lon":"-73.977699","lat":"40.686451","theaterChainName":"Independent Chains","ticketType":"STANDARD"},{"id":"3044","name":"AMC Magic Johnson Harlem 9","address":"2309 Frederick Douglass Blvd.","city":"New York","state":"NY","zip":"10027","distance":"12.951873779296875","lon":"-73.951790","lat":"40.809677","theaterChainName":"AMC Theatres","ticketType":"STANDARD"},{"id":"151","name":"AMC Loews Lincoln Square 13","address":"1998 Broadway","city":"New York","state":"NY","zip":"10023","distance":"10.571579933166504","lon":"-73.981644","lat":"40.774975","theaterChainName":"AMC Theatres","ticketType":"STANDARD"},{"id":"148","name":"AMC Loews Orpheum 7","address":"1538 Third Ave.","city":"New York","state":"NY","zip":"10028","distance":"10.850419044494629","lon":"-73.953857","lat":"40.779305","theaterChainName":"AMC Theatres","ticketType":"STANDARD"},{"id":"574","name":"Lincoln Plaza Cinemas","address":"1886 Broadway","city":"New York","state":"NY","zip":"10023","distance":"10.28747844696045","lon":"-73.981842","lat":"40.770836","theaterChainName":"Independent Chains","ticketType":"STANDARD"},{"id":"539","name":"City Cinemas 86th Street East","address":"210 E. 86th St.","city":"New York","state":"NY","zip":"10028","distance":"10.787701606750488","lon":"-73.953339","lat":"40.778374","theaterChainName":"Reading International, Inc","ticketType":"STANDARD"},{"id":"570","name":"City Cinemas Paris Theatre","address":"4 W. 58th St.","city":"New York","state":"NY","zip":"10019","distance":"9.800463676452637","lon":"-73.974716","lat":"40.764145","theaterChainName":"Reading International, Inc","ticketType":"STANDARD"},{"id":"4601","name":"City Cinemas Beekman Theatre","address":"1271 Second Ave.","city":"New York","state":"NY","zip":"10021","distance":"9.867725372314453","lon":"-73.961006","lat":"40.765278","theaterChainName":"Reading International, Inc","ticketType":"STANDARD"},{"id":"320","name":"Concourse Plaza Multiplex Cinemas","address":"214 E. 161st St.","city":"Bronx","state":"NY","zip":"10451","distance":"14.271283149719238","lon":"-73.920738","lat":"40.826298","theaterChainName":"National Amusements","ticketType":"STANDARD"},{"id":"2472","name":"AMC Loews Kips Bay 15","address":"570 Second Ave.","city":"New York","state":"NY","zip":"10016","distance":"8.383155822753906","lon":"-73.976700","lat":"40.743500","theaterChainName":"AMC Theatres","ticketType":"STANDARD"},{"id":"150","name":"AMC Loews 19th Street East 6","address":"890 Broadway","city":"New York","state":"NY","zip":"10003","distance":"8.12347412109375","lon":"-73.989769","lat":"40.738556","theaterChainName":"AMC Theatres","ticketType":"STANDARD"},{"id":"3233","name":"UA Kaufman Astoria Stadium 14","address":"35-30 38th St.","city":"Astoria","state":"NY","zip":"11101","distance":"9.422394752502441","lon":"-73.923622","lat":"40.755207","theaterChainName":"United Artists","ticketType":"STANDARD"},{"id":"1609","name":"Regal Union Square Stadium 14","address":"850 Broadway","city":"New York","state":"NY","zip":"10003","distance":"7.8234944343566895","lon":"-73.990578","lat":"40.734051","theaterChainName":"Regal Cinemas","ticketType":"STANDARD"},{"id":"571","name":"Cinema Village 12th Street","address":"22 E. 12th St.","city":"New York","state":"NY","zip":"10003","distance":"7.852308750152588","lon":"-73.993431","lat":"40.734077","theaterChainName":"Independent Chains","ticketType":"STANDARD"},{"id":"149","name":"AMC Loews Village 7","address":"66 3rd Ave. (11th St.)","city":"New York","state":"NY","zip":"10003","distance":"7.633662223815918","lon":"-73.988754","lat":"40.731499","theaterChainName":"AMC Theatres","ticketType":"STANDARD"},{"id":"538","name":"City Cinemas Village East","address":"181-189 Second Ave.","city":"New York","state":"NY","zip":"10003","distance":"7.5730977058410645","lon":"-73.986168","lat":"40.730919","theaterChainName":"Reading International, Inc","ticketType":"STANDARD"},{"id":"540","name":"City Cinemas Angelika Film Center","address":"18 W. Houston St.","city":"New York","state":"NY","zip":"10012","distance":"7.336241722106934","lon":"-73.997284","lat":"40.725811","theaterChainName":"Reading International, Inc","ticketType":"STANDARD"},{"id":"1147","name":"Bow Tie Cinemas Tenafly Cinema 4","address":"4 1\/2 W. Railroad Ave.","city":"Tenafly","state":"NJ","zip":"07670","distance":"20.840984344482422","lon":"-73.965164","lat":"40.924118","theaterChainName":"Bow-Tie Cinemas","ticketType":"STANDARD"},{"id":"5060","name":"Nitehawk Cinema","address":"136 Metropolitan Ave.","city":"Brooklyn","state":"NY","zip":"11249","distance":"6.470249652862549","lon":"-73.962509","lat":"40.716122","theaterChainName":"Independent Chains","ticketType":"STANDARD"},{"id":"5894","name":"Metrograph","address":"7 Ludlow St.","city":"New York","state":"NY","zip":"10002","distance":"6.542259693145752","lon":"-73.991180","lat":"40.715076","theaterChainName":"Independent Chains","ticketType":"STANDARD"},{"id":"1766","name":"Bow Tie Cinemas Bergenfield 5 ","address":"58 S Washington Ave.","city":"Bergenfield","state":"NJ","zip":"07621","distance":"21.029420852661133","lon":"-73.996780","lat":"40.925892","theaterChainName":"Bow-Tie Cinemas","ticketType":"STANDARD"},{"id":"5777","name":"Videology Cinema","address":"308 Bedford Ave.","city":"Brooklyn","state":"NY","zip":"11249","distance":"6.3150954246521","lon":"-73.961815","lat":"40.713863","theaterChainName":"Independent Chains","ticketType":"STANDARD"},{"id":"5284","name":"Williamsburg Cinemas","address":"217 Grand St.","city":"Brooklyn","state":"NY","zip":"11211","distance":"6.3211750984191895","lon":"-73.959900","lat":"40.713902","theaterChainName":"Independent Chains","ticketType":"STANDARD"},{"id":"5965","name":"Syndicated","address":"40 Bogart Street","city":"Brooklyn","state":"NY","zip":"11206","distance":"5.941676139831543","lon":"-73.932861","lat":"40.704964","theaterChainName":"Independent Chains","ticketType":"STANDARD"},{"id":"1131","name":"Bow Tie Cinemas Closter Cinema 4","address":"130 Closter Plaza","city":"Closter","state":"NJ","zip":"07624","distance":"23.9220027923584","lon":"-73.954964","lat":"40.968624","theaterChainName":"Bow-Tie Cinemas","ticketType":"STANDARD"},{"id":"145","name":"Bow Tie Cinemas Red Bank Cinemas","address":"36 White St.","city":"Red Bank","state":"NJ","zip":"07701","distance":"19.550395965576172","lon":"-74.067284","lat":"40.350468","theaterChainName":"Bow-Tie Cinemas","ticketType":"STANDARD"},{"id":"2460","name":"College Point Multiplex Cinemas","address":"2855 Ulmer St.","city":"Whitestone","state":"NY","zip":"11357","distance":"12.354790687561035","lon":"-73.835205","lat":"40.771790","theaterChainName":"National Amusements","ticketType":"STANDARD"},{"id":"144","name":"AMC Loews Monmouth Mall 15","address":"180 State Rt. 35 S.","city":"Eatontown","state":"NJ","zip":"07724","distance":"23.624326705932617","lon":"-74.053192","lat":"40.287254","theaterChainName":"AMC Theatres","ticketType":"STANDARD"},{"id":"111","name":"UA Sheepshead Bay Stadium 14 + IMAX","address":"3907 Shore Pkwy.","city":"Brooklyn","state":"NY","zip":"11235","distance":"3.094780921936035","lon":"-73.930504","lat":"40.586166","theaterChainName":"United Artists","ticketType":"STANDARD"},{"id":"824","name":"Linden Blvd. Multiplex Cinemas","address":"2784 Linden Blvd.","city":"Brooklyn","state":"NY","zip":"11208","distance":"6.3247222900390625","lon":"-73.861397","lat":"40.669399","theaterChainName":"National Amusements","ticketType":"STANDARD"},{"id":"4206","name":"Regal Atlas Park Stadium 8","address":"Cooper Ave ","city":"Glendale","state":"NY","zip":"11385","distance":"7.801449775695801","lon":"-73.867638","lat":"40.707905","theaterChainName":"Regal Cinemas","ticketType":"STANDARD"},{"id":"566","name":"Cinemart Cinemas","address":"106-03 Metropolitan Ave.","city":"Forest Hills","state":"NY","zip":"11375","distance":"8.655364036560059","lon":"-73.846870","lat":"40.710037","theaterChainName":"Independent Chains","ticketType":"STANDARD"},{"id":"110","name":"UA Midway Stadium 9","address":"108-22 Queens Blvd.","city":"Forest Hills","state":"NY","zip":"11375","distance":"9.313909530639648","lon":"-73.843422","lat":"40.720821","theaterChainName":"United Artists","ticketType":"STANDARD"},{"id":"4681","name":"Phoenix Theatre Bombay","address":"6825 Fresh Meadow Lane","city":"Flushing","state":"NY","zip":"11365","distance":"11.760297775268555","lon":"-73.794357","lat":"40.733047","theaterChainName":"Independent Chains","ticketType":"STANDARD"},{"id":"2680","name":"Kew Gardens Cinemas","address":"81-05 Lefferts Blvd.","city":"Kew Gardens","state":"NY","zip":"11415","distance":"9.274139404296875","lon":"-73.829849","lat":"40.709137","theaterChainName":"Cobble Hill Cinemas","ticketType":"STANDARD"},{"id":"3512","name":"Jamaica Multiplex Cinemas","address":"159-02 Jamaica Ave.","city":"Jamaica","state":"NY","zip":"11432","distance":"10.29848861694336","lon":"-73.799828","lat":"40.703224","theaterChainName":"National Amusements","ticketType":"STANDARD"},{"id":"108","name":"UA Lynbrook 6","address":"321 Merrick Road","city":"Lynbrook","state":"NY","zip":"11563","distance":"15.557584762573242","lon":"-73.671829","lat":"40.657223","theaterChainName":"United Artists","ticketType":"STANDARD"}]