[{"id":"3512","tribuneTheaterId":"5152","providerTheaterId":"","name":"Jamaica Multiplex Cinemas","address":"159-02 Jamaica Ave.","city":"Jamaica","state":"NY","zip":"11432","distance":0.59084445202649,"lon":"-73.799828","lat":"40.703223","theaterChainName":"National Amusements","ticketType":"STANDARD"},{"id":"110","tribuneTheaterId":"7903","providerTheaterId":"","name":"UA Midway Stadium 9","address":"108-22 Queens Blvd.","city":"Forest Hills","state":"NY","zip":"11375","distance":2.0972692864634,"lon":"-73.843419","lat":"40.720823","theaterChainName":"United Artists","ticketType":"STANDARD"},{"id":"4681","tribuneTheaterId":"9885","providerTheaterId":"","name":"Phoenix Theatre Bombay","address":"6825 Fresh Meadow Lane","city":"Flushing","state":"NY","zip":"11365","distance":2.2599316401293,"lon":"-73.794359","lat":"40.733047","theaterChainName":"Independent Chains","ticketType":"STANDARD"},{"id":"566","tribuneTheaterId":"7948","providerTheaterId":"","name":"Cinemart Cinemas","address":"106-03 Metropolitan Ave.","city":"Forest Hills","state":"NY","zip":"11375","distance":1.9375513975801,"lon":"-73.846874","lat":"40.710038","theaterChainName":"Independent Chains","ticketType":"STANDARD"},{"id":"2680","tribuneTheaterId":"2955","providerTheaterId":"","name":"Kew Gardens Cinemas","address":"81-05 Lefferts Blvd.","city":"Kew Gardens","state":"NY","zip":"11415","distance":1.0723455106576,"lon":"-73.829847","lat":"40.709138","theaterChainName":"Cobble Hill Cinemas","ticketType":"STANDARD"},{"id":"4206","tribuneTheaterId":"4646","providerTheaterId":"","name":"Regal Atlas Park Stadium 8","address":"Cooper Ave ","city":"Glendale","state":"NY","zip":"11385","distance":2.9815164264732,"lon":"-73.867639","lat":"40.707906","theaterChainName":"Regal Cinemas","ticketType":"STANDARD"},{"id":"824","tribuneTheaterId":"7620","providerTheaterId":"","name":"Linden Blvd. Multiplex Cinemas","address":"2784 Linden Blvd.","city":"Brooklyn","state":"NY","zip":"11208","distance":3.5075101063316,"lon":"-73.8614","lat":"40.6694","theaterChainName":"National Amusements","ticketType":"STANDARD"},{"id":"2460","tribuneTheaterId":"9245","providerTheaterId":"","name":"College Point Multiplex Cinemas","address":"2855 Ulmer St.","city":"Whitestone","state":"NY","zip":"11357","distance":4.9242330638279,"lon":"-73.835206","lat":"40.771789","theaterChainName":"National Amusements","ticketType":"STANDARD"},{"id":"152","tribuneTheaterId":"8451","providerTheaterId":"2130","name":"AMC Loews Bay Terrace 6","address":"211-01  26th Ave.","city":"Bayside","state":"NY","zip":"11360","distance":5.5192744030506,"lon":"-73.778963","lat":"40.77898","theaterChainName":"AMC Theatres","ticketType":"STANDARD"},{"id":"109","tribuneTheaterId":"8449","providerTheaterId":"","name":"Movieworld At Douglaston","address":"242-02 61st Ave.","city":"Douglaston","state":"NY","zip":"11362","distance":5.2048523137938,"lon":"-73.738934","lat":"40.754707","theaterChainName":"Independent Chains","ticketType":"STANDARD"},{"id":"1132","tribuneTheaterId":"5914","providerTheaterId":"","name":"Bow Tie Cinemas Franklin Square","address":"989 Hempstead Turnpike","city":"Franklin Square","state":"NY","zip":"11010","distance":7.0416340037669,"lon":"-73.676787","lat":"40.707308","theaterChainName":"Bow-Tie Cinemas","ticketType":"STANDARD"},{"id":"3233","tribuneTheaterId":"5712","providerTheaterId":"","name":"UA Kaufman Astoria Stadium 14","address":"35-30 38th St.","city":"Astoria","state":"NY","zip":"11101","distance":6.9116843384194,"lon":"-73.923622","lat":"40.755206","theaterChainName":"United Artists","ticketType":"STANDARD"},{"id":"1145","tribuneTheaterId":"5913","providerTheaterId":"","name":"Bow Tie Squire Cinemas","address":"115 Middle Neck Rd.","city":"Great Neck","state":"NY","zip":"11021","distance":7.3504583595101,"lon":"-73.730058","lat":"40.789779","theaterChainName":"Bow-Tie Cinemas","ticketType":"STANDARD"},{"id":"5965","tribuneTheaterId":"11401","providerTheaterId":"","name":"Syndicated","address":"40 Bogart Street","city":"Brooklyn","state":"NY","zip":"11206","distance":6.379247167084,"lon":"-73.93286","lat":"40.704962","theaterChainName":"Independent Chains","ticketType":"STANDARD"},{"id":"5060","tribuneTheaterId":"10443","providerTheaterId":"","name":"Nitehawk Cinema","address":"136 Metropolitan Ave.","city":"Brooklyn","state":"NY","zip":"11249","distance":7.982257739312,"lon":"-73.962506","lat":"40.716121","theaterChainName":"Independent Chains","ticketType":"STANDARD"},{"id":"108","tribuneTheaterId":"8662","providerTheaterId":"","name":"UA Lynbrook 6","address":"321 Merrick Road","city":"Lynbrook","state":"NY","zip":"11563","distance":7.9506813335869,"lon":"-73.671829","lat":"40.657223","theaterChainName":"United Artists","ticketType":"STANDARD"},{"id":"565","tribuneTheaterId":"7481","providerTheaterId":"","name":"Kent Theatre","address":"1170 Coney Island Ave.","city":"Brooklyn","state":"NY","zip":"11230","distance":9.5904187154004,"lon":"-73.966003","lat":"40.629002","theaterChainName":"Independent Chains","ticketType":"STANDARD"},{"id":"3234","tribuneTheaterId":"5711","providerTheaterId":"","name":"UA Court Street Stadium 12","address":"108 Court St.","city":"Brooklyn","state":"NY","zip":"11201","distance":9.5226792850396,"lon":"-73.992153","lat":"40.690552","theaterChainName":"United Artists","ticketType":"STANDARD"},{"id":"148","tribuneTheaterId":"9039","providerTheaterId":"2104","name":"AMC Loews Orpheum 7","address":"1538 Third Ave.","city":"New York","state":"NY","zip":"10028","distance":9.1496573221365,"lon":"-73.953855","lat":"40.779304","theaterChainName":"AMC Theatres","ticketType":"STANDARD"},{"id":"570","tribuneTheaterId":"6648","providerTheaterId":"","name":"City Cinemas Paris Theatre","address":"4 W. 58th St.","city":"New York","state":"NY","zip":"10019","distance":9.5542653226313,"lon":"-73.974713","lat":"40.764145","theaterChainName":"Reading International, Inc","ticketType":"STANDARD"},{"id":"4601","tribuneTheaterId":"9770","providerTheaterId":"","name":"City Cinemas Beekman Theatre","address":"1271 Second Ave.","city":"New York","state":"NY","zip":"10021","distance":8.953936451851,"lon":"-73.961008","lat":"40.765277","theaterChainName":"Reading International, Inc","ticketType":"STANDARD"},{"id":"539","tribuneTheaterId":"2863","providerTheaterId":"","name":"City Cinemas 86th Street East","address":"210 E. 86th St.","city":"New York","state":"NY","zip":"10028","distance":9.0906777949674,"lon":"-73.953339","lat":"40.778375","theaterChainName":"Reading International, Inc","ticketType":"STANDARD"},{"id":"2746","tribuneTheaterId":"2576","providerTheaterId":"","name":"Bam Rose Cinemas","address":"30 Lafayette Ave.","city":"Brooklyn","state":"NY","zip":"11217","distance":8.8013914963168,"lon":"-73.977703","lat":"40.68645","theaterChainName":"Independent Chains","ticketType":"STANDARD"},{"id":"1134","tribuneTheaterId":"6934","providerTheaterId":"","name":"Bow Tie Cinemas Herricks Cinema","address":"3324 Hillside Ave.","city":"New Hyde Park","state":"NY","zip":"11040","distance":8.6077108559499,"lon":"-73.660334","lat":"40.752565","theaterChainName":"Bow-Tie Cinemas","ticketType":"STANDARD"},{"id":"5284","tribuneTheaterId":"10718","providerTheaterId":"","name":"Williamsburg Cinemas","address":"217 Grand St.","city":"Brooklyn","state":"NY","zip":"11211","distance":7.83043001688,"lon":"-73.9599","lat":"40.7139","theaterChainName":"Independent Chains","ticketType":"STANDARD"},{"id":"5777","tribuneTheaterId":"11217","providerTheaterId":"","name":"Videology Cinema","address":"308 Bedford Ave.","city":"Brooklyn","state":"NY","zip":"11249","distance":7.9299732703128,"lon":"-73.961814","lat":"40.713864","theaterChainName":"Independent Chains","ticketType":"STANDARD"},{"id":"3442","tribuneTheaterId":"9013","providerTheaterId":"2120","name":"AMC Loews West 34th Street 14","address":"312 W. 34th St.","city":"New York","state":"NY","zip":"10001","distance":10.191154378806,"lon":"-73.994396","lat":"40.75251","theaterChainName":"AMC Theatres","ticketType":"STANDARD"},{"id":"2986","tribuneTheaterId":"7503","providerTheaterId":"552","name":"AMC Empire 25","address":"234 W. 42nd St.","city":"New York","state":"NY","zip":"10036","distance":10.009346156609,"lon":"-73.98866","lat":"40.756581","theaterChainName":"AMC Theatres","ticketType":"STANDARD"},{"id":"575","tribuneTheaterId":"8099","providerTheaterId":"","name":"Film Society of Lincoln Center's Walter Reade Theater","address":"165 W. 65th St.","city":"New York","state":"NY","zip":"10023","distance":10.263768858852,"lon":"-73.983597","lat":"40.773499","theaterChainName":"Independent Chains","ticketType":"STANDARD"},{"id":"320","tribuneTheaterId":"6015","providerTheaterId":"","name":"Concourse Plaza Multiplex Cinemas","address":"214 E. 161st St.","city":"Bronx","state":"NY","zip":"10451","distance":10.276545651887,"lon":"-73.920736","lat":"40.826296","theaterChainName":"National Amusements","ticketType":"STANDARD"},{"id":"4034","tribuneTheaterId":"1642","providerTheaterId":"","name":"IFC Center","address":"323 6th Ave. at W 3rd St.","city":"New York","state":"NY","zip":"10014","distance":10.161900102399,"lon":"-74.001535","lat":"40.73114","theaterChainName":"Independent Chains","ticketType":"STANDARD"},{"id":"574","tribuneTheaterId":"2976","providerTheaterId":"","name":"Lincoln Plaza Cinemas","address":"1886 Broadway","city":"New York","state":"NY","zip":"10023","distance":10.096275683841,"lon":"-73.98184","lat":"40.770837","theaterChainName":"Independent Chains","ticketType":"STANDARD"},{"id":"3044","tribuneTheaterId":"9040","providerTheaterId":"2304","name":"AMC Magic Johnson Harlem 9","address":"2309 Frederick Douglass Blvd.","city":"New York","state":"NY","zip":"10027","distance":10.423526752817,"lon":"-73.951791","lat":"40.809678","theaterChainName":"AMC Theatres","ticketType":"STANDARD"},{"id":"151","tribuneTheaterId":"9062","providerTheaterId":"2116","name":"AMC Loews Lincoln Square 13","address":"1998 Broadway","city":"New York","state":"NY","zip":"10023","distance":10.222944095668,"lon":"-73.98164","lat":"40.774975","theaterChainName":"AMC Theatres","ticketType":"STANDARD"},{"id":"573","tribuneTheaterId":"7785","providerTheaterId":"","name":"Quad Cinema","address":"34 W. 13th St.","city":"New York","state":"NY","zip":"10011","distance":9.9487790796872,"lon":"-73.996002","lat":"40.735978","theaterChainName":"Independent Chains","ticketType":"STANDARD"},{"id":"564","tribuneTheaterId":"6948","providerTheaterId":"","name":"Cobble Hill Cinema","address":"265 Court St.","city":"Brooklyn","state":"NY","zip":"11231","distance":9.6884316564123,"lon":"-73.994512","lat":"40.68491","theaterChainName":"Cobble Hill Cinemas","ticketType":"STANDARD"},{"id":"5064","tribuneTheaterId":"10447","providerTheaterId":"","name":"Film Society of Lincoln Center","address":"144 W 65th St.","city":"New York","state":"NY","zip":"10023","distance":10.263768858852,"lon":"-73.983597","lat":"40.773499","theaterChainName":"Independent Chains","ticketType":"STANDARD"},{"id":"1609","tribuneTheaterId":"7572","providerTheaterId":"","name":"Regal Union Square Stadium 14","address":"850 Broadway","city":"New York","state":"NY","zip":"10003","distance":9.6418648262383,"lon":"-73.990574","lat":"40.734049","theaterChainName":"Regal Cinemas","ticketType":"STANDARD"},{"id":"538","tribuneTheaterId":"3034","providerTheaterId":"","name":"City Cinemas Village East","address":"181-189 Second Ave.","city":"New York","state":"NY","zip":"10003","distance":9.3703647322499,"lon":"-73.98617","lat":"40.73092","theaterChainName":"Reading International, Inc","ticketType":"STANDARD"},{"id":"171","tribuneTheaterId":"7633","providerTheaterId":"2158","name":"AMC Loews Fantasy 5","address":"18 N. Park Ave.","city":"Rockville Centre","state":"NY","zip":"11570","distance":9.2563264425306,"lon":"-73.645225","lat":"40.656818","theaterChainName":"AMC Theatres","ticketType":"STANDARD"},{"id":"2472","tribuneTheaterId":"9151","providerTheaterId":"2195","name":"AMC Loews Kips Bay 15","address":"570 Second Ave.","city":"New York","state":"NY","zip":"10016","distance":9.1138843555522,"lon":"-73.9767","lat":"40.7435","theaterChainName":"AMC Theatres","ticketType":"STANDARD"},{"id":"5894","tribuneTheaterId":"11315","providerTheaterId":"","name":"Metrograph","address":"7 Ludlow St.","city":"New York","state":"NY","zip":"10002","distance":9.4691868153445,"lon":"-73.991181","lat":"40.715078","theaterChainName":"Independent Chains","ticketType":"STANDARD"},{"id":"149","tribuneTheaterId":"9112","providerTheaterId":"2110","name":"AMC Loews Village 7","address":"66 3rd Ave. (11th St.)","city":"New York","state":"NY","zip":"10003","distance":9.511202940309,"lon":"-73.988758","lat":"40.731499","theaterChainName":"AMC Theatres","ticketType":"STANDARD"},{"id":"107","tribuneTheaterId":"7463","providerTheaterId":"","name":"Bow Tie Cinemas Manhasset 3","address":"430 Plandome Road","city":"Manhasset","state":"NY","zip":"11030","distance":8.8008943541854,"lon":"-73.699942","lat":"40.798471","theaterChainName":"Bow-Tie Cinemas","ticketType":"STANDARD"},{"id":"2820","tribuneTheaterId":"9074","providerTheaterId":"","name":"Regal E-Walk Stadium 13","address":"247 W. 42nd St.","city":"New York","state":"NY","zip":"10036","distance":10.044197679464,"lon":"-73.989113","lat":"40.757082","theaterChainName":"Regal Cinemas","ticketType":"STANDARD"},{"id":"111","tribuneTheaterId":"7750","providerTheaterId":"","name":"UA Sheepshead Bay Stadium 14 + IMAX","address":"3907 Shore Pkwy.","city":"Brooklyn","state":"NY","zip":"11235","distance":10.209618085682,"lon":"-73.930501","lat":"40.586166","theaterChainName":"United Artists","ticketType":"STANDARD"},{"id":"150","tribuneTheaterId":"9084","providerTheaterId":"2112","name":"AMC Loews 19th Street East 6","address":"890 Broadway","city":"New York","state":"NY","zip":"10003","distance":9.6751063572734,"lon":"-73.98977","lat":"40.738557","theaterChainName":"AMC Theatres","ticketType":"STANDARD"},{"id":"3232","tribuneTheaterId":"5635","providerTheaterId":"","name":"Regal Battery Park Stadium 11","address":"102 North End Ave.","city":"New York","state":"NY","zip":"10281","distance":10.709511976548,"lon":"-74.014968","lat":"40.714859","theaterChainName":"Regal Cinemas","ticketType":"STANDARD"},{"id":"1144","tribuneTheaterId":"5910","providerTheaterId":"","name":"Bow Tie Roslyn Cinemas","address":"20 Tower Place","city":"Roslyn","state":"NY","zip":"11576","distance":10.760832423617,"lon":"-73.650183","lat":"40.799832","theaterChainName":"Bow-Tie Cinemas","ticketType":"STANDARD"},{"id":"571","tribuneTheaterId":"8448","providerTheaterId":"","name":"Cinema Village 12th Street","address":"22 E. 12th St.","city":"New York","state":"NY","zip":"10003","distance":9.7880822444293,"lon":"-73.993429","lat":"40.734077","theaterChainName":"Independent Chains","ticketType":"STANDARD"},{"id":"540","tribuneTheaterId":"2975","providerTheaterId":"","name":"City Cinemas Angelika Film Center","address":"18 W. Houston St.","city":"New York","state":"NY","zip":"10012","distance":9.8781985569965,"lon":"-73.997283","lat":"40.725811","theaterChainName":"Reading International, Inc","ticketType":"STANDARD"},{"id":"3103","tribuneTheaterId":"7174","providerTheaterId":"","name":"Edgewater Multiplex Cinemas","address":"339 River Road","city":"Edgewater","state":"NJ","zip":"07020","distance":11.772543403991,"lon":"-73.988109","lat":"40.808032","theaterChainName":"National Amusements","ticketType":"STANDARD"},{"id":"5319","tribuneTheaterId":"10756","providerTheaterId":"","name":"Soundview Cinemas","address":"7 Soundview Marketplace","city":"Port Washington","state":"NY","zip":"11050","distance":11.104532563861,"lon":"-73.705902","lat":"40.842483","theaterChainName":"Independent Chains","ticketType":"STANDARD"},{"id":"562","tribuneTheaterId":"7336","providerTheaterId":"866","name":"AMC Bay Plaza Cinema 13","address":"2210 Bartow Ave.","city":"Bronx","state":"NY","zip":"10475","distance":11.361363353973,"lon":"-73.825142","lat":"40.866991","theaterChainName":"AMC Theatres","ticketType":"STANDARD"},{"id":"1133","tribuneTheaterId":"8676","providerTheaterId":"","name":"Bow Tie Cinemas Grand Ave","address":"1849 Grand Ave.","city":"Baldwin","state":"NY","zip":"11510","distance":10.998522176312,"lon":"-73.606947","lat":"40.665849","theaterChainName":"Bow-Tie Cinemas","ticketType":"STANDARD"},{"id":"166","tribuneTheaterId":"8686","providerTheaterId":"2146","name":"AMC Loews Raceway 10","address":"1025 Corporate Drive","city":"Westbury","state":"NY","zip":"11590","distance":11.565371154792,"lon":"-73.596468","lat":"40.742383","theaterChainName":"AMC Theatres","ticketType":"STANDARD"},{"id":"1139","tribuneTheaterId":"5912","providerTheaterId":"","name":"Bow Tie Cinemas Port Washington","address":"116 Main St.","city":"Port Washington","state":"NY","zip":"11050","distance":10.824300836447,"lon":"-73.690683","lat":"40.830279","theaterChainName":"Bow-Tie Cinemas","ticketType":"STANDARD"},{"id":"154","tribuneTheaterId":"7952","providerTheaterId":"2144","name":"AMC Loews Roosevelt Field 8","address":"630 Old Country Road","city":"Garden City","state":"NY","zip":"11530","distance":10.570061208631,"lon":"-73.615179","lat":"40.739714","theaterChainName":"AMC Theatres","ticketType":"STANDARD"},{"id":"3235","tribuneTheaterId":"5871","providerTheaterId":"","name":"Columbia Park Stadium 12","address":"3125 Kennedy Blvd.","city":"North Bergen","state":"NJ","zip":"07047","distance":12.793485052727,"lon":"-74.035916","lat":"40.77549","theaterChainName":"Independent Chains","ticketType":"STANDARD"},{"id":"169","tribuneTheaterId":"3033","providerTheaterId":"","name":"Bay Ridge Alpine Cinemas","address":"6817 Fifth Ave.","city":"Brooklyn","state":"NY","zip":"11220","distance":11.986363025731,"lon":"-74.020808","lat":"40.633656","theaterChainName":"Independent Chains","ticketType":"STANDARD"},{"id":"4832","tribuneTheaterId":"10108","providerTheaterId":"","name":"Bow Tie Hoboken Cinemas","address":"409-415 14th St.","city":"Hoboken","state":"NJ","zip":"07030","distance":12.092135146454,"lon":"-74.0319","lat":"40.7542","theaterChainName":"Bow-Tie Cinemas","ticketType":"STANDARD"},{"id":"178","tribuneTheaterId":"7790","providerTheaterId":"2184","name":"AMC Loews Newport Centre 11","address":"30-300 Mall Drive W.","city":"Jersey City","state":"NJ","zip":"07303","distance":12.010232424598,"lon":"-74.038024","lat":"40.728039","theaterChainName":"AMC Theatres","ticketType":"STANDARD"},{"id":"4804","tribuneTheaterId":"10061","providerTheaterId":"","name":"Secaucus ShowPlace 14","address":"650 Plaza Drive","city":"Secaucus","state":"NJ","zip":"07094","distance":13.593751599521,"lon":"-74.0463","lat":"40.7863","theaterChainName":"Kerasotes","ticketType":"STANDARD"},{"id":"5401","tribuneTheaterId":"10839","providerTheaterId":"","name":"Starplex Cinemas Ridgefield Park","address":"75 Challenger Road","city":"Ridgefield Park","state":"NJ","zip":"07660","distance":14.655651721882,"lon":"-74.012552","lat":"40.850278","theaterChainName":"Starplex Cinemas","ticketType":"STANDARD"},{"id":"172","tribuneTheaterId":"6737","providerTheaterId":"","name":"Glen Cove 6","address":"5 School St.","city":"Glen Cove","state":"NY","zip":"11542","distance":14.669612743542,"lon":"-73.631541","lat":"40.865976","theaterChainName":"Independent Chains","ticketType":"STANDARD"},{"id":"2584","tribuneTheaterId":"7575","providerTheaterId":"","name":"Regal New Roc Stadium 18 + IMAX","address":"33 Le Count Place","city":"New Rochelle","state":"NY","zip":"10801","distance":14.538757014968,"lon":"-73.779566","lat":"40.911964","theaterChainName":"Regal Cinemas","ticketType":"STANDARD"},{"id":"1178","tribuneTheaterId":"2465","providerTheaterId":"","name":"Pelham Picture House","address":"175 Wolfs Lane","city":"Pelham","state":"NY","zip":"10803","distance":14.123922087099,"lon":"-73.811375","lat":"40.907318","theaterChainName":"Independent Chains","ticketType":"STANDARD"},{"id":"4232","tribuneTheaterId":"3065","providerTheaterId":"","name":"Hudson Cinemas","address":"701 Route 440","city":"Jersey City","state":"NJ","zip":"07304","distance":14.995266048331,"lon":"-74.096453","lat":"40.720707","theaterChainName":"Independent Chains","ticketType":"STANDARD"},{"id":"2819","tribuneTheaterId":"8058","providerTheaterId":"","name":"UA Westbury Stadium 12 & IMAX","address":"7000 Brush Hollow Road","city":"Westbury","state":"NY","zip":"11590","distance":14.333387080092,"lon":"-73.555972","lat":"40.778194","theaterChainName":"United Artists","ticketType":"STANDARD"},{"id":"1172","tribuneTheaterId":"3039","providerTheaterId":"","name":"Five Star Theatres Bellmore Playhouse","address":"525 Bedford Ave.","city":"Bellmore","state":"NY","zip":"11710","distance":15.02611512952,"lon":"-73.527603","lat":"40.669998","theaterChainName":"Independent Chains","ticketType":"STANDARD"},{"id":"153","tribuneTheaterId":"8982","providerTheaterId":"2141","name":"AMC Loews Nassau Metroplex 10","address":"3585 Hempstead Tpke.","city":"Levittown","state":"NY","zip":"11756","distance":16.058825447374,"lon":"-73.506059","lat":"40.726601","theaterChainName":"AMC Theatres","ticketType":"STANDARD"},{"id":"319","tribuneTheaterId":"6014","providerTheaterId":"","name":"Broadway Multiplex Cinemas","address":"955 Broadway Mall","city":"Hicksville","state":"NY","zip":"11801","distance":15.366294704249,"lon":"-73.533103","lat":"40.774269","theaterChainName":"National Amusements","ticketType":"STANDARD"},{"id":"118","tribuneTheaterId":"7464","providerTheaterId":"","name":"Bow Tie Cinemas Larchmont Playhouse","address":"1975 Palmer Ave.","city":"Larchmont","state":"NY","zip":"10538","distance":15.983661925266,"lon":"-73.760999","lat":"40.931106","theaterChainName":"Bow-Tie Cinemas","ticketType":"STANDARD"},{"id":"117","tribuneTheaterId":"7034","providerTheaterId":"","name":"Bow Tie Cinemas Bronxville 3","address":"84 Kraft Ave.","city":"Bronxville","state":"NY","zip":"10708","distance":16.445236278286,"lon":"-73.834434","lat":"40.940259","theaterChainName":"Bow-Tie Cinemas","ticketType":"STANDARD"},{"id":"282","tribuneTheaterId":"9218","providerTheaterId":"","name":"Cross County Multiplex Cinemas","address":"2 South Drive","city":"Yonkers","state":"NY","zip":"10704","distance":15.500341071012,"lon":"-73.854443","lat":"40.924828","theaterChainName":"National Amusements","ticketType":"STANDARD"},{"id":"4012","tribuneTheaterId":"2320","providerTheaterId":"","name":"Frank Theatres South Cove Cinema 12","address":"191 Lefante Way","city":"Bayonne","state":"NJ","zip":"07002","distance":15.631137706475,"lon":"-74.105895","lat":"40.668119","theaterChainName":"Frank Theatres","ticketType":"STANDARD"},{"id":"119","tribuneTheaterId":"7932","providerTheaterId":"","name":"Bow Tie Cinemas Mamaroneck 4","address":"243 Mamaroneck Ave.","city":"Mamaroneck","state":"NY","zip":"10543","distance":17.581925632902,"lon":"-73.733869","lat":"40.950565","theaterChainName":"Bow-Tie Cinemas","ticketType":"STANDARD"},{"id":"1766","tribuneTheaterId":"5899","providerTheaterId":"","name":"Bow Tie Cinemas Bergenfield 5 ","address":"58 S Washington Ave.","city":"Bergenfield","state":"NJ","zip":"07621","distance":18.21138658578,"lon":"-73.996778","lat":"40.925891","theaterChainName":"Bow-Tie Cinemas","ticketType":"STANDARD"},{"id":"1147","tribuneTheaterId":"5894","providerTheaterId":"","name":"Bow Tie Cinemas Tenafly Cinema 4","address":"4 1\/2 W. Railroad Ave.","city":"Tenafly","state":"NJ","zip":"07670","distance":17.277825060088,"lon":"-73.965162","lat":"40.924117","theaterChainName":"Bow-Tie Cinemas","ticketType":"STANDARD"},{"id":"5044","tribuneTheaterId":"10421","providerTheaterId":"","name":"Showcase Cinema de Lux Ridge Hill","address":"29 Fitzgerald St.","city":"Yonkers","state":"NY","zip":"10710","distance":18.082922193671,"lon":"-73.844398","lat":"40.963402","theaterChainName":"National Amusements","ticketType":"STANDARD"},{"id":"3388","tribuneTheaterId":"9257","providerTheaterId":"2198","name":"AMC Loews Jersey Gardens 20","address":"651 Kapowski Road","city":"Elizabeth","state":"NJ","zip":"07201","distance":18.955496761175,"lon":"-74.168304","lat":"40.659457","theaterChainName":"AMC Theatres","ticketType":"STANDARD"},{"id":"121","tribuneTheaterId":"8205","providerTheaterId":"","name":"United Artists Hylan Plaza","address":"107 Mill Road","city":"Staten Island","state":"NY","zip":"10306","distance":18.253968332236,"lon":"-74.109628","lat":"40.566976","theaterChainName":"United Artists","ticketType":"STANDARD"},{"id":"1932","tribuneTheaterId":"2993","providerTheaterId":"","name":"Lincoln Cinemas","address":"838 Kearny Ave.","city":"North Arlington","state":"NJ","zip":"07031","distance":17.99857083974,"lon":"-74.139232","lat":"40.780686","theaterChainName":"Independent Chains","ticketType":"STANDARD"},{"id":"1184","tribuneTheaterId":"2813","providerTheaterId":"","name":"Williams Center Cinemas 3","address":"1 Williams Plaza","city":"Rutherford","state":"NJ","zip":"07070","distance":17.535426123421,"lon":"-74.103255","lat":"40.82719","theaterChainName":"Independent Chains","ticketType":"STANDARD"},{"id":"3048","tribuneTheaterId":"5981","providerTheaterId":"","name":"Seaford Cinemas","address":"3951 Merrick Road","city":"Seaford","state":"NY","zip":"11783","distance":17.185796952727,"lon":"-73.4867","lat":"40.6661","theaterChainName":"Your Neighborhood Theatre","ticketType":"STANDARD"},{"id":"1044","tribuneTheaterId":"7587","providerTheaterId":"","name":"UA Farmingdale Stadium 10","address":"20 Michael Avenue","city":"Farmingdale","state":"NY","zip":"11735","distance":20.250266833427,"lon":"-73.425788","lat":"40.727503","theaterChainName":"United Artists","ticketType":"STANDARD"},{"id":"3445","tribuneTheaterId":"4673","providerTheaterId":"","name":"UA Staten Island Stadium 16 & RPX","address":"2474 Forest Ave.","city":"Staten Island","state":"NY","zip":"10303","distance":19.686941694396,"lon":"-74.172864","lat":"40.626186","theaterChainName":"United Artists","ticketType":"STANDARD"},{"id":"5208","tribuneTheaterId":"10632","providerTheaterId":"","name":"Alamo Drafthouse Yonkers","address":"2548 Central Park Ave","city":"Yonkers","state":"NY","zip":"10710","distance":19.334369024604,"lon":"-73.824543","lat":"40.982545","theaterChainName":"Alamo Drafthouse","ticketType":"STANDARD"},{"id":"2573","tribuneTheaterId":"5324","providerTheaterId":"865","name":"AMC Clifton Commons 16","address":"405 Route 3 East","city":"Clifton","state":"NJ","zip":"07014","distance":19.301809492123,"lon":"-74.140356","lat":"40.828814","theaterChainName":"AMC Theatres","ticketType":"STANDARD"},{"id":"321","tribuneTheaterId":"6016","providerTheaterId":"","name":"Farmingdale Multiplex Cinemas","address":"1001 Broad Hollow Road","city":"Farmingdale","state":"NY","zip":"11735","distance":20.544407533181,"lon":"-73.42154","lat":"40.738138","theaterChainName":"National Amusements","ticketType":"STANDARD"},{"id":"1131","tribuneTheaterId":"5892","providerTheaterId":"","name":"Bow Tie Cinemas Closter Cinema 4","address":"130 Closter Plaza","city":"Closter","state":"NJ","zip":"07624","distance":19.840308726137,"lon":"-73.954967","lat":"40.968623","theaterChainName":"Bow-Tie Cinemas","ticketType":"STANDARD"},{"id":"3888","tribuneTheaterId":"9150","providerTheaterId":"2680","name":"AMC Loews Port Chester 14","address":"40 Westchester Ave.","city":"Port Chester","state":"NY","zip":"10573","distance":21.934060743508,"lon":"-73.662394","lat":"40.99976","theaterChainName":"AMC Theatres","ticketType":"STANDARD"},{"id":"569","tribuneTheaterId":"8349","providerTheaterId":"","name":"Atrium Stadium Cinemas","address":"680 Arthur Kill Road","city":"Staten Island","state":"NY","zip":"10308","distance":20.977533026429,"lon":"-74.163846","lat":"40.559671","theaterChainName":"Independent Chains","ticketType":"STANDARD"},{"id":"141","tribuneTheaterId":"8531","providerTheaterId":"","name":"CityPlex 12 Newark","address":"360-394 Springfield Ave.","city":"Newark","state":"NJ","zip":"07103","distance":20.283834915188,"lon":"-74.196308","lat":"40.733628","theaterChainName":"Independent Chains","ticketType":"STANDARD"},{"id":"4336","tribuneTheaterId":"9312","providerTheaterId":"2253","name":"AMC Garden State 16","address":"4000 Garden State Plaza","city":"Paramus","state":"NJ","zip":"07652","distance":20.346384577591,"lon":"-74.075962","lat":"40.918608","theaterChainName":"AMC Theatres","ticketType":"STANDARD"},{"id":"5357","tribuneTheaterId":"10795","providerTheaterId":"","name":"Allwood Cinemas 6","address":"96 Market St.","city":"Clifton","state":"NJ","zip":"07011","distance":20.851623172879,"lon":"-74.16208","lat":"40.845838","theaterChainName":"Independent Chains","ticketType":"STANDARD"},{"id":"175","tribuneTheaterId":"7055","providerTheaterId":"2162","name":"AMC Loews Shore 8","address":"37 Wall St.","city":"Huntington","state":"NY","zip":"11743","distance":23.230948694333,"lon":"-73.427811","lat":"40.872698","theaterChainName":"AMC Theatres","ticketType":"STANDARD"},{"id":"4383","tribuneTheaterId":"9427","providerTheaterId":"2249","name":"AMC Aviation 12","address":"1200 South Stiles St.","city":"Linden","state":"NJ","zip":"07036","distance":23.466558305755,"lon":"-74.245477","lat":"40.620565","theaterChainName":"AMC Theatres","ticketType":"STANDARD"},{"id":"4274","tribuneTheaterId":"4919","providerTheaterId":"","name":"South Orange","address":"1 SOPAC Way","city":"South Orange","state":"NJ","zip":"07079","distance":23.752581765918,"lon":"-74.261138","lat":"40.745995","theaterChainName":"Bow-Tie Cinemas","ticketType":"STANDARD"},{"id":"4888","tribuneTheaterId":"10198","providerTheaterId":"","name":"Fabian 8 Cinema","address":"301 Main St.","city":"Paterson","state":"NJ","zip":"07505","distance":23.944714913279,"lon":"-74.173374","lat":"40.91483","theaterChainName":"Independent Chains","ticketType":"STANDARD"},{"id":"6036","tribuneTheaterId":"11440","providerTheaterId":"","name":"Washington Township Cinemas","address":"249 Pascack Road","city":"Washington Township","state":"NJ","zip":"07676","distance":23.515947856104,"lon":"-74.0632","lat":"40.9848","theaterChainName":"Independent Chains","ticketType":"STANDARD"},{"id":"160","tribuneTheaterId":"3900","providerTheaterId":"","name":"Westwood Theaters","address":"182 Center Ave.","city":"Westwood","state":"NJ","zip":"07675","distance":23.001202953946,"lon":"-74.031568","lat":"40.991013","theaterChainName":"Independent Chains","ticketType":"STANDARD"},{"id":"1529","tribuneTheaterId":"8677","providerTheaterId":"","name":"Bow Tie Cinemas Cinema 100","address":"93 Knollwood Road","city":"White Plains","state":"NY","zip":"10607","distance":23.17438907329,"lon":"-73.8082","lat":"41.0383","theaterChainName":"Bow-Tie Cinemas","ticketType":"STANDARD"},{"id":"1130","tribuneTheaterId":"5898","providerTheaterId":"","name":"Bow Tie Cinemas Clairidge Cinemas","address":"486 Bloomfield Ave.","city":"Montclair","state":"NJ","zip":"07042","distance":22.661518922891,"lon":"-74.218349","lat":"40.814325","theaterChainName":"Bow-Tie Cinemas","ticketType":"STANDARD"},{"id":"3658","tribuneTheaterId":"8684","providerTheaterId":"","name":"City Center 15: Cinema de Lux","address":"19 Mamaroneck Ave.","city":"White Plains","state":"NY","zip":"10601","distance":22.874173523524,"lon":"-73.765699","lat":"41.032177","theaterChainName":"National Amusements","ticketType":"STANDARD"},{"id":"1797","tribuneTheaterId":"2946","providerTheaterId":"","name":"Atlantic Highlands Cinema 5","address":"82 First Ave.","city":"Atlantic Highlands","state":"NJ","zip":"07716","distance":23.261312143732,"lon":"-74.037586","lat":"40.41353","theaterChainName":"Independent Chains","ticketType":"STANDARD"},{"id":"122","tribuneTheaterId":"7299","providerTheaterId":"","name":"Bow Tie Cinemas Bellevue 4","address":"260 Bellevue Ave.","city":"Upper Montclair","state":"NJ","zip":"07043","distance":22.905445540307,"lon":"-74.208932","lat":"40.841213","theaterChainName":"Bow-Tie Cinemas","ticketType":"STANDARD"},{"id":"1123","tribuneTheaterId":"4076","providerTheaterId":"","name":"Maplewood Theater","address":"155 Maplewood Ave.","city":"Maplewood","state":"NJ","zip":"07040","distance":24.454936556198,"lon":"-74.276564","lat":"40.731381","theaterChainName":"Independent Chains","ticketType":"STANDARD"},{"id":"1176","tribuneTheaterId":"2935","providerTheaterId":"","name":"South Bay Cinemas","address":"495 W. Montauk Hwy","city":"West Babylon","state":"NY","zip":"11704","distance":24.75528587629,"lon":"-73.338898","lat":"40.6889","theaterChainName":"Independent Chains","ticketType":"STANDARD"},{"id":"1346","tribuneTheaterId":"5881","providerTheaterId":"","name":"Bow Tie Cinemas Plaza 3","address":"2 Railroad Ave.","city":"Greenwich","state":"CT","zip":"06830","distance":24.065013995813,"lon":"-73.624985","lat":"41.021489","theaterChainName":"Bow-Tie Cinemas","ticketType":"STANDARD"},{"id":"755","tribuneTheaterId":"7809","providerTheaterId":"","name":"AMC Essex Green Cinema 9","address":"495 Prospect Ave.","city":"West Orange","state":"NJ","zip":"07052","distance":24.147940780634,"lon":"-74.25671","lat":"40.793361","theaterChainName":"AMC Theatres","ticketType":"STANDARD"},{"id":"1173","tribuneTheaterId":"2934","providerTheaterId":"","name":"Hawthorne 5","address":"300 Lafayette Ave.","city":"Hawthorne","state":"NJ","zip":"07506","distance":24.737663774545,"lon":"-74.155383","lat":"40.948496","theaterChainName":"Independent Chains","ticketType":"STANDARD"},{"id":"179","tribuneTheaterId":"8442","providerTheaterId":"","name":"Bow Tie Cinemas Warner Quad","address":"190 E. Ridgewood Ave.","city":"Ridgewood","state":"NJ","zip":"07450","distance":24.833657039185,"lon":"-74.115486","lat":"40.978866","theaterChainName":"Bow-Tie Cinemas","ticketType":"STANDARD"}]