[{"id":"1849","name":"Regal Ronkonkoma Stadium 9","address":"565 Portion Road","city":"Ronkonkoma","state":"NY","zip":"11779","distance":"6.1721343994140625","lon":"-73.093941","lat":"40.831322","theaterChainName":"Regal Cinemas","ticketType":"STANDARD"},{"id":"1826","name":"Movieland of Coram","address":"1850 Rt 112","city":"Coram","state":"NY","zip":"11727","distance":"11.860820770263672","lon":"-73.015007","lat":"40.890011","theaterChainName":"Independent Chains","ticketType":"STANDARD"},{"id":"1179","name":"Sayville Theatre","address":"103 Railroad Ave.","city":"Sayville","state":"NY","zip":"11782","distance":"6.8282012939453125","lon":"-73.082886","lat":"40.737484","theaterChainName":"Independent Chains","ticketType":"STANDARD"},{"id":"2076","name":"AMC Loews Stony Brook 17","address":"2196 Nesconset Highway","city":"Stony Brook","state":"NY","zip":"11790","distance":"7.126492977142334","lon":"-73.126656","lat":"40.875347","theaterChainName":"AMC Theatres","ticketType":"STANDARD"},{"id":"1175","name":"P.J. Cinemas","address":"1068 Route 112","city":"Port Jefferson Station","state":"NY","zip":"11776","distance":"12.272808074951172","lon":"-73.043503","lat":"40.921600","theaterChainName":"Independent Chains","ticketType":"STANDARD"},{"id":"4484","name":"Island Cinemas - Mastic","address":"1708 Montauk Highway","city":"Mastic","state":"NY","zip":"11950","distance":"18.82625961303711","lon":"-72.837082","lat":"40.805691","theaterChainName":"Independent Chains","ticketType":"STANDARD"},{"id":"4554","name":"Regal Deer Park Stadium 16 & IMAX","address":"1050 Commack Road","city":"Deer Park","state":"NY","zip":"11729","distance":"5.926899433135986","lon":"-73.305786","lat":"40.765198","theaterChainName":"Regal Cinemas","ticketType":"STANDARD"},{"id":"1174","name":"Elwood Cinema","address":"1950 East Jericho Turnpike","city":"East Northport","state":"NY","zip":"11731","distance":"7.886114597320557","lon":"-73.330971","lat":"40.837643","theaterChainName":"Independent Chains","ticketType":"STANDARD"},{"id":"1176","name":"South Bay Cinemas","address":"495 W. Montauk Hwy","city":"West Babylon","state":"NY","zip":"11704","distance":"10.073118209838867","lon":"-73.338898","lat":"40.688900","theaterChainName":"Independent Chains","ticketType":"STANDARD"},{"id":"321","name":"Farmingdale Multiplex Cinemas","address":"1001 Broad Hollow Road","city":"Farmingdale","state":"NY","zip":"11735","distance":"12.26469612121582","lon":"-73.421539","lat":"40.738136","theaterChainName":"National Amusements","ticketType":"STANDARD"},{"id":"175","name":"AMC Loews Shore 8","address":"37 Wall St.","city":"Huntington","state":"NY","zip":"11743","distance":"13.49666976928711","lon":"-73.427811","lat":"40.872700","theaterChainName":"AMC Theatres","ticketType":"STANDARD"},{"id":"1044","name":"UA Farmingdale Stadium 10","address":"20 Michael Avenue","city":"Farmingdale","state":"NY","zip":"11735","distance":"12.696578025817871","lon":"-73.425789","lat":"40.727505","theaterChainName":"United Artists","ticketType":"STANDARD"},{"id":"3048","name":"Seaford Cinemas","address":"3951 Merrick Road","city":"Seaford","state":"NY","zip":"11783","distance":"17.346221923828125","lon":"-73.486702","lat":"40.666100","theaterChainName":"Your Neighborhood Theatre","ticketType":"STANDARD"},{"id":"153","name":"AMC Loews Nassau Metroplex 10","address":"3585 Hempstead Tpke.","city":"Levittown","state":"NY","zip":"11756","distance":"16.744796752929688","lon":"-73.506058","lat":"40.726601","theaterChainName":"AMC Theatres","ticketType":"STANDARD"},{"id":"2399","name":"Bow Tie Cinemas SONO Regent 8","address":"64 North Main St.","city":"Norwalk","state":"CT","zip":"06854","distance":"24.640390396118164","lon":"-73.419533","lat":"41.100735","theaterChainName":"Bow-Tie Cinemas","ticketType":"STANDARD"},{"id":"319","name":"Broadway Multiplex Cinemas","address":"955 Broadway Mall","city":"Hicksville","state":"NY","zip":"11801","distance":"17.65334701538086","lon":"-73.533104","lat":"40.774269","theaterChainName":"National Amusements","ticketType":"STANDARD"},{"id":"1172","name":"Five Star Theatres Bellmore Playhouse","address":"525 Bedford Ave.","city":"Bellmore","state":"NY","zip":"11710","distance":"19.137174606323242","lon":"-73.527603","lat":"40.669998","theaterChainName":"Independent Chains","ticketType":"STANDARD"},{"id":"216","name":"Darien Playhouse","address":"1077 Boston Post Road","city":"Darien","state":"CT","zip":"06820","distance":"24.62396812438965","lon":"-73.473579","lat":"41.074780","theaterChainName":"Independent Chains","ticketType":"STANDARD"},{"id":"2819","name":"UA Westbury Stadium 12 & IMAX","address":"7000 Brush Hollow Road","city":"Westbury","state":"NY","zip":"11590","distance":"18.837528228759766","lon":"-73.555969","lat":"40.778194","theaterChainName":"United Artists","ticketType":"STANDARD"},{"id":"166","name":"AMC Loews Raceway 10","address":"1025 Corporate Drive","city":"Westbury","state":"NY","zip":"11590","distance":"21.17460060119629","lon":"-73.596466","lat":"40.742382","theaterChainName":"AMC Theatres","ticketType":"STANDARD"},{"id":"154","name":"AMC Loews Roosevelt Field 8","address":"630 Old Country Road","city":"Garden City","state":"NY","zip":"11530","distance":"22.17084312438965","lon":"-73.615181","lat":"40.739716","theaterChainName":"AMC Theatres","ticketType":"STANDARD"},{"id":"1133","name":"Bow Tie Cinemas Grand Ave","address":"1849 Grand Ave.","city":"Baldwin","state":"NY","zip":"11510","distance":"23.075252532958984","lon":"-73.606949","lat":"40.665848","theaterChainName":"Bow-Tie Cinemas","ticketType":"STANDARD"},{"id":"172","name":"Glen Cove 6","address":"5 School St.","city":"Glen Cove","state":"NY","zip":"11542","distance":"23.418630599975586","lon":"-73.631538","lat":"40.865974","theaterChainName":"Independent Chains","ticketType":"STANDARD"},{"id":"1144","name":"Bow Tie Roslyn Cinemas","address":"20 Tower Place","city":"Roslyn","state":"NY","zip":"11576","distance":"23.77167320251465","lon":"-73.650185","lat":"40.799831","theaterChainName":"Bow-Tie Cinemas","ticketType":"STANDARD"},{"id":"1134","name":"Bow Tie Cinemas Herricks Cinema","address":"3324 Hillside Ave.","city":"New Hyde Park","state":"NY","zip":"11040","distance":"24.40709686279297","lon":"-73.660332","lat":"40.752563","theaterChainName":"Bow-Tie Cinemas","ticketType":"STANDARD"}]