[{"id":"175","tribuneTheaterId":"7055","providerTheaterId":"2162","name":"AMC Loews Shore 8","address":"37 Wall St.","city":"Huntington","state":"NY","zip":"11743","distance":3.0731284302878,"lon":"-73.427811","lat":"40.872698","theaterChainName":"AMC Theatres","ticketType":"STANDARD"},{"id":"1174","tribuneTheaterId":"6463","providerTheaterId":"","name":"Elwood Cinema","address":"1950 East Jericho Turnpike","city":"East Northport","state":"NY","zip":"11731","distance":4.468457796973,"lon":"-73.330967","lat":"40.837642","theaterChainName":"Independent Chains","ticketType":"STANDARD"},{"id":"4554","tribuneTheaterId":"9692","providerTheaterId":"","name":"Regal Deer Park Stadium 16 & IMAX","address":"1050 Commack Road","city":"Deer Park","state":"NY","zip":"11729","distance":9.544524811609,"lon":"-73.305787","lat":"40.765197","theaterChainName":"Regal Cinemas","ticketType":"STANDARD"},{"id":"1044","tribuneTheaterId":"7587","providerTheaterId":"","name":"UA Farmingdale Stadium 10","address":"20 Michael Avenue","city":"Farmingdale","state":"NY","zip":"11735","distance":11.727688297588,"lon":"-73.425788","lat":"40.727503","theaterChainName":"United Artists","ticketType":"STANDARD"},{"id":"321","tribuneTheaterId":"6016","providerTheaterId":"","name":"Farmingdale Multiplex Cinemas","address":"1001 Broad Hollow Road","city":"Farmingdale","state":"NY","zip":"11735","distance":10.96183302185,"lon":"-73.42154","lat":"40.738138","theaterChainName":"National Amusements","ticketType":"STANDARD"},{"id":"2819","tribuneTheaterId":"8058","providerTheaterId":"","name":"UA Westbury Stadium 12 & IMAX","address":"7000 Brush Hollow Road","city":"Westbury","state":"NY","zip":"11590","distance":12.325392896121,"lon":"-73.555972","lat":"40.778194","theaterChainName":"United Artists","ticketType":"STANDARD"},{"id":"319","tribuneTheaterId":"6014","providerTheaterId":"","name":"Broadway Multiplex Cinemas","address":"955 Broadway Mall","city":"Hicksville","state":"NY","zip":"11801","distance":11.625458700511,"lon":"-73.533103","lat":"40.774269","theaterChainName":"National Amusements","ticketType":"STANDARD"},{"id":"216","tribuneTheaterId":"2664","providerTheaterId":"","name":"Darien Playhouse","address":"1077 Boston Post Road","city":"Darien","state":"CT","zip":"06820","distance":13.570091624894,"lon":"-73.473581","lat":"41.074781","theaterChainName":"Independent Chains","ticketType":"STANDARD"},{"id":"1542","tribuneTheaterId":"5885","providerTheaterId":"","name":"Bow Tie Cinemas Landmark 9 Stamford","address":"5 Landmark Square","city":"Stamford","state":"CT","zip":"06905","distance":14.02111706459,"lon":"-73.537545","lat":"41.054745","theaterChainName":"Bow-Tie Cinemas","ticketType":"STANDARD"},{"id":"172","tribuneTheaterId":"6737","providerTheaterId":"","name":"Glen Cove 6","address":"5 School St.","city":"Glen Cove","state":"NY","zip":"11542","distance":13.509657242323,"lon":"-73.631541","lat":"40.865976","theaterChainName":"Independent Chains","ticketType":"STANDARD"},{"id":"1541","tribuneTheaterId":"5882","providerTheaterId":"","name":"Bow Tie Cinemas Majestic 6","address":"118 Summer St.","city":"Stamford","state":"CT","zip":"06901","distance":14.103268402009,"lon":"-73.540846","lat":"41.054335","theaterChainName":"Bow-Tie Cinemas","ticketType":"STANDARD"},{"id":"2141","tribuneTheaterId":"5004","providerTheaterId":"","name":"Avon Theatre Film Center, Inc.","address":"272 Bedford Street","city":"Stamford","state":"CT","zip":"06901","distance":14.175482409097,"lon":"-73.538268","lat":"41.057132","theaterChainName":"Independent Chains","ticketType":"STANDARD"},{"id":"153","tribuneTheaterId":"8982","providerTheaterId":"2141","name":"AMC Loews Nassau Metroplex 10","address":"3585 Hempstead Tpke.","city":"Levittown","state":"NY","zip":"11756","distance":13.368312240482,"lon":"-73.506059","lat":"40.726601","theaterChainName":"AMC Theatres","ticketType":"STANDARD"},{"id":"2076","tribuneTheaterId":"8239","providerTheaterId":"2140","name":"AMC Loews Stony Brook 17","address":"2196 Nesconset Highway","city":"Stony Brook","state":"NY","zip":"11790","distance":13.050300868371,"lon":"-73.126652","lat":"40.875348","theaterChainName":"AMC Theatres","ticketType":"STANDARD"},{"id":"1176","tribuneTheaterId":"2935","providerTheaterId":"","name":"South Bay Cinemas","address":"495 W. Montauk Hwy","city":"West Babylon","state":"NY","zip":"11704","distance":14.223779788724,"lon":"-73.338898","lat":"40.6889","theaterChainName":"Independent Chains","ticketType":"STANDARD"},{"id":"1849","tribuneTheaterId":"5634","providerTheaterId":"","name":"Regal Ronkonkoma Stadium 9","address":"565 Portion Road","city":"Ronkonkoma","state":"NY","zip":"11779","distance":15.310624735813,"lon":"-73.093938","lat":"40.831322","theaterChainName":"Regal Cinemas","ticketType":"STANDARD"},{"id":"2399","tribuneTheaterId":"5884","providerTheaterId":"","name":"Bow Tie Cinemas SONO Regent 8","address":"64 North Main St.","city":"Norwalk","state":"CT","zip":"06854","distance":14.543148271014,"lon":"-73.419536","lat":"41.100733","theaterChainName":"Bow-Tie Cinemas","ticketType":"STANDARD"},{"id":"2399","tribuneTheaterId":"5884","providerTheaterId":"","name":"Bow Tie Cinemas SONO Regent 8","address":"64 North Main St.","city":"Norwalk","state":"CT","zip":"06854","distance":14.543148271014,"lon":"-73.419536","lat":"41.100733","theaterChainName":"Bow-Tie Cinemas","ticketType":"STANDARD"},{"id":"1144","tribuneTheaterId":"5910","providerTheaterId":"","name":"Bow Tie Roslyn Cinemas","address":"20 Tower Place","city":"Roslyn","state":"NY","zip":"11576","distance":15.735843314067,"lon":"-73.650183","lat":"40.799832","theaterChainName":"Bow-Tie Cinemas","ticketType":"STANDARD"},{"id":"154","tribuneTheaterId":"7952","providerTheaterId":"2144","name":"AMC Loews Roosevelt Field 8","address":"630 Old Country Road","city":"Garden City","state":"NY","zip":"11530","distance":16.408184230433,"lon":"-73.615179","lat":"40.739714","theaterChainName":"AMC Theatres","ticketType":"STANDARD"},{"id":"166","tribuneTheaterId":"8686","providerTheaterId":"2146","name":"AMC Loews Raceway 10","address":"1025 Corporate Drive","city":"Westbury","state":"NY","zip":"11590","distance":15.549149621169,"lon":"-73.596468","lat":"40.742383","theaterChainName":"AMC Theatres","ticketType":"STANDARD"},{"id":"1175","tribuneTheaterId":"6590","providerTheaterId":"","name":"P.J. Cinemas","address":"1068 Route 112","city":"Port Jefferson Station","state":"NY","zip":"11776","distance":17.444444390259,"lon":"-73.0435","lat":"40.9216","theaterChainName":"Independent Chains","ticketType":"STANDARD"},{"id":"1139","tribuneTheaterId":"5912","providerTheaterId":"","name":"Bow Tie Cinemas Port Washington","address":"116 Main St.","city":"Port Washington","state":"NY","zip":"11050","distance":17.033684547557,"lon":"-73.690683","lat":"40.830279","theaterChainName":"Bow-Tie Cinemas","ticketType":"STANDARD"},{"id":"3888","tribuneTheaterId":"9150","providerTheaterId":"2680","name":"AMC Loews Port Chester 14","address":"40 Westchester Ave.","city":"Port Chester","state":"NY","zip":"10573","distance":16.698534583242,"lon":"-73.662394","lat":"40.99976","theaterChainName":"AMC Theatres","ticketType":"STANDARD"},{"id":"1866","tribuneTheaterId":"5883","providerTheaterId":"","name":"Bow Tie Cinemas Royale 6","address":"542 Westport Ave.","city":"Norwalk","state":"CT","zip":"06851","distance":16.172059432608,"lon":"-73.384337","lat":"41.126864","theaterChainName":"Bow-Tie Cinemas","ticketType":"STANDARD"},{"id":"1346","tribuneTheaterId":"5881","providerTheaterId":"","name":"Bow Tie Cinemas Plaza 3","address":"2 Railroad Ave.","city":"Greenwich","state":"CT","zip":"06830","distance":15.765118586451,"lon":"-73.624985","lat":"41.021489","theaterChainName":"Bow-Tie Cinemas","ticketType":"STANDARD"},{"id":"1134","tribuneTheaterId":"6934","providerTheaterId":"","name":"Bow Tie Cinemas Herricks Cinema","address":"3324 Hillside Ave.","city":"New Hyde Park","state":"NY","zip":"11040","distance":17.775340836325,"lon":"-73.660334","lat":"40.752565","theaterChainName":"Bow-Tie Cinemas","ticketType":"STANDARD"},{"id":"1172","tribuneTheaterId":"3039","providerTheaterId":"","name":"Five Star Theatres Bellmore Playhouse","address":"525 Bedford Ave.","city":"Bellmore","state":"NY","zip":"11710","distance":17.337821631547,"lon":"-73.527603","lat":"40.669998","theaterChainName":"Independent Chains","ticketType":"STANDARD"},{"id":"5319","tribuneTheaterId":"10756","providerTheaterId":"","name":"Soundview Cinemas","address":"7 Soundview Marketplace","city":"Port Washington","state":"NY","zip":"11050","distance":17.616532822299,"lon":"-73.705902","lat":"40.842483","theaterChainName":"Independent Chains","ticketType":"STANDARD"},{"id":"3048","tribuneTheaterId":"5981","providerTheaterId":"","name":"Seaford Cinemas","address":"3951 Merrick Road","city":"Seaford","state":"NY","zip":"11783","distance":16.717331875275,"lon":"-73.4867","lat":"40.6661","theaterChainName":"Your Neighborhood Theatre","ticketType":"STANDARD"},{"id":"119","tribuneTheaterId":"7932","providerTheaterId":"","name":"Bow Tie Cinemas Mamaroneck 4","address":"243 Mamaroneck Ave.","city":"Mamaroneck","state":"NY","zip":"10543","distance":19.134080977606,"lon":"-73.733869","lat":"40.950565","theaterChainName":"Bow-Tie Cinemas","ticketType":"STANDARD"},{"id":"107","tribuneTheaterId":"7463","providerTheaterId":"","name":"Bow Tie Cinemas Manhasset 3","address":"430 Plandome Road","city":"Manhasset","state":"NY","zip":"11030","distance":18.174384308975,"lon":"-73.699942","lat":"40.798471","theaterChainName":"Bow-Tie Cinemas","ticketType":"STANDARD"},{"id":"2178","tribuneTheaterId":"5880","providerTheaterId":"","name":"Bow Tie Cinemas New Canaan Playhouse","address":"89 Elm St.","city":"New Canaan","state":"CT","zip":"06840","distance":18.595583112628,"lon":"-73.4941","lat":"41.1467","theaterChainName":"Bow-Tie Cinemas","ticketType":"STANDARD"},{"id":"1179","tribuneTheaterId":"2874","providerTheaterId":"","name":"Sayville Theatre","address":"103 Railroad Ave.","city":"Sayville","state":"NY","zip":"11782","distance":18.688790483536,"lon":"-73.082889","lat":"40.737483","theaterChainName":"Independent Chains","ticketType":"STANDARD"},{"id":"1133","tribuneTheaterId":"8676","providerTheaterId":"","name":"Bow Tie Cinemas Grand Ave","address":"1849 Grand Ave.","city":"Baldwin","state":"NY","zip":"11510","distance":19.820766766451,"lon":"-73.606947","lat":"40.665849","theaterChainName":"Bow-Tie Cinemas","ticketType":"STANDARD"},{"id":"1826","tribuneTheaterId":"3088","providerTheaterId":"","name":"Movieland of Coram","address":"1850 Rt 112","city":"Coram","state":"NY","zip":"11727","distance":18.824735775196,"lon":"-73.015008","lat":"40.890012","theaterChainName":"Independent Chains","ticketType":"STANDARD"},{"id":"118","tribuneTheaterId":"7464","providerTheaterId":"","name":"Bow Tie Cinemas Larchmont Playhouse","address":"1975 Palmer Ave.","city":"Larchmont","state":"NY","zip":"10538","distance":20.30632289322,"lon":"-73.760999","lat":"40.931106","theaterChainName":"Bow-Tie Cinemas","ticketType":"STANDARD"},{"id":"1145","tribuneTheaterId":"5913","providerTheaterId":"","name":"Bow Tie Squire Cinemas","address":"115 Middle Neck Rd.","city":"Great Neck","state":"NY","zip":"11021","distance":19.86026481611,"lon":"-73.730058","lat":"40.789779","theaterChainName":"Bow-Tie Cinemas","ticketType":"STANDARD"},{"id":"283","tribuneTheaterId":"7621","providerTheaterId":"","name":"Fairfield Cinemas  Bullard Square","address":"40 Blackrock Turnpike","city":"Fairfield","state":"CT","zip":"06824","distance":20.107217596211,"lon":"-73.229249","lat":"41.162221","theaterChainName":"National Amusements","ticketType":"STANDARD"},{"id":"284","tribuneTheaterId":"7478","providerTheaterId":"","name":"Showcase Cinemas Bridgeport","address":"286 Canfield Ave.","city":"Bridgeport","state":"CT","zip":"06605","distance":20.053050961019,"lon":"-73.228002","lat":"41.160985","theaterChainName":"National Amusements","ticketType":"STANDARD"},{"id":"109","tribuneTheaterId":"8449","providerTheaterId":"","name":"Movieworld At Douglaston","address":"242-02 61st Ave.","city":"Douglaston","state":"NY","zip":"11362","distance":21.270661239621,"lon":"-73.738934","lat":"40.754707","theaterChainName":"Independent Chains","ticketType":"STANDARD"},{"id":"1132","tribuneTheaterId":"5914","providerTheaterId":"","name":"Bow Tie Cinemas Franklin Square","address":"989 Hempstead Turnpike","city":"Franklin Square","state":"NY","zip":"11010","distance":20.320451077773,"lon":"-73.676787","lat":"40.707308","theaterChainName":"Bow-Tie Cinemas","ticketType":"STANDARD"},{"id":"171","tribuneTheaterId":"7633","providerTheaterId":"2158","name":"AMC Loews Fantasy 5","address":"18 N. Park Ave.","city":"Rockville Centre","state":"NY","zip":"11570","distance":21.572903156048,"lon":"-73.645225","lat":"40.656818","theaterChainName":"AMC Theatres","ticketType":"STANDARD"},{"id":"3070","tribuneTheaterId":"6933","providerTheaterId":"","name":"Bow Tie Cinemas Wilton 4","address":"21 River Road","city":"Wilton","state":"CT","zip":"06897","distance":20.757083457103,"lon":"-73.431308","lat":"41.190347","theaterChainName":"Bow-Tie Cinemas","ticketType":"STANDARD"},{"id":"2584","tribuneTheaterId":"7575","providerTheaterId":"","name":"Regal New Roc Stadium 18 + IMAX","address":"33 Le Count Place","city":"New Rochelle","state":"NY","zip":"10801","distance":21.147597879283,"lon":"-73.779566","lat":"40.911964","theaterChainName":"Regal Cinemas","ticketType":"STANDARD"},{"id":"108","tribuneTheaterId":"8662","providerTheaterId":"","name":"UA Lynbrook 6","address":"321 Merrick Road","city":"Lynbrook","state":"NY","zip":"11563","distance":22.488192997131,"lon":"-73.671829","lat":"40.657223","theaterChainName":"United Artists","ticketType":"STANDARD"},{"id":"3658","tribuneTheaterId":"8684","providerTheaterId":"","name":"City Center 15: Cinema de Lux","address":"19 Mamaroneck Ave.","city":"White Plains","state":"NY","zip":"10601","distance":22.523083995648,"lon":"-73.765699","lat":"41.032177","theaterChainName":"National Amusements","ticketType":"STANDARD"},{"id":"1178","tribuneTheaterId":"2465","providerTheaterId":"","name":"Pelham Picture House","address":"175 Wolfs Lane","city":"Pelham","state":"NY","zip":"10803","distance":22.790259643743,"lon":"-73.811375","lat":"40.907318","theaterChainName":"Independent Chains","ticketType":"STANDARD"},{"id":"152","tribuneTheaterId":"8451","providerTheaterId":"2130","name":"AMC Loews Bay Terrace 6","address":"211-01  26th Ave.","city":"Bayside","state":"NY","zip":"11360","distance":22.5167583219,"lon":"-73.778963","lat":"40.77898","theaterChainName":"AMC Theatres","ticketType":"STANDARD"},{"id":"4681","tribuneTheaterId":"9885","providerTheaterId":"","name":"Phoenix Theatre Bombay","address":"6825 Fresh Meadow Lane","city":"Flushing","state":"NY","zip":"11365","distance":24.535158605056,"lon":"-73.794359","lat":"40.733047","theaterChainName":"Independent Chains","ticketType":"STANDARD"},{"id":"117","tribuneTheaterId":"7034","providerTheaterId":"","name":"Bow Tie Cinemas Bronxville 3","address":"84 Kraft Ave.","city":"Bronxville","state":"NY","zip":"10708","distance":24.189086707521,"lon":"-73.834434","lat":"40.940259","theaterChainName":"Bow-Tie Cinemas","ticketType":"STANDARD"},{"id":"1529","tribuneTheaterId":"8677","providerTheaterId":"","name":"Bow Tie Cinemas Cinema 100","address":"93 Knollwood Road","city":"White Plains","state":"NY","zip":"10607","distance":24.714230821417,"lon":"-73.8082","lat":"41.0383","theaterChainName":"Bow-Tie Cinemas","ticketType":"STANDARD"},{"id":"5044","tribuneTheaterId":"10421","providerTheaterId":"","name":"Showcase Cinema de Lux Ridge Hill","address":"29 Fitzgerald St.","city":"Yonkers","state":"NY","zip":"10710","distance":24.962582661937,"lon":"-73.844398","lat":"40.963402","theaterChainName":"National Amusements","ticketType":"STANDARD"},{"id":"5208","tribuneTheaterId":"10632","providerTheaterId":"","name":"Alamo Drafthouse Yonkers","address":"2548 Central Park Ave","city":"Yonkers","state":"NY","zip":"10710","distance":24.247257904731,"lon":"-73.824543","lat":"40.982545","theaterChainName":"Alamo Drafthouse","ticketType":"STANDARD"},{"id":"562","tribuneTheaterId":"7336","providerTheaterId":"866","name":"AMC Bay Plaza Cinema 13","address":"2210 Bartow Ave.","city":"Bronx","state":"NY","zip":"10475","distance":23.562704964258,"lon":"-73.825142","lat":"40.866991","theaterChainName":"AMC Theatres","ticketType":"STANDARD"}]