[{"id":"1849","name":"Regal Ronkonkoma Stadium 9","address":"565 Portion Road","city":"Ronkonkoma","state":"NY","zip":"11779","distance":"11.604546546936035","lon":"-73.093941","lat":"40.831322","theaterChainName":"Regal Cinemas","ticketType":"STANDARD"},{"id":"1826","name":"Movieland of Coram","address":"1850 Rt 112","city":"Coram","state":"NY","zip":"11727","distance":"5.820042133331299","lon":"-73.015007","lat":"40.890011","theaterChainName":"Independent Chains","ticketType":"STANDARD"},{"id":"1179","name":"Sayville Theatre","address":"103 Railroad Ave.","city":"Sayville","state":"NY","zip":"11782","distance":"16.52884864807129","lon":"-73.082886","lat":"40.737484","theaterChainName":"Independent Chains","ticketType":"STANDARD"},{"id":"2076","name":"AMC Loews Stony Brook 17","address":"2196 Nesconset Highway","city":"Stony Brook","state":"NY","zip":"11790","distance":"11.201269149780273","lon":"-73.126656","lat":"40.875347","theaterChainName":"AMC Theatres","ticketType":"STANDARD"},{"id":"1175","name":"P.J. Cinemas","address":"1068 Route 112","city":"Port Jefferson Station","state":"NY","zip":"11776","distance":"5.941661357879639","lon":"-73.043503","lat":"40.921600","theaterChainName":"Independent Chains","ticketType":"STANDARD"},{"id":"4484","name":"Island Cinemas - Mastic","address":"1708 Montauk Highway","city":"Mastic","state":"NY","zip":"11950","distance":"11.174782752990723","lon":"-72.837082","lat":"40.805691","theaterChainName":"Independent Chains","ticketType":"STANDARD"},{"id":"4554","name":"Regal Deer Park Stadium 16 & IMAX","address":"1050 Commack Road","city":"Deer Park","state":"NY","zip":"11729","distance":"23.145858764648438","lon":"-73.305786","lat":"40.765198","theaterChainName":"Regal Cinemas","ticketType":"STANDARD"},{"id":"1174","name":"Elwood Cinema","address":"1950 East Jericho Turnpike","city":"East Northport","state":"NY","zip":"11731","distance":"22.03815460205078","lon":"-73.330971","lat":"40.837643","theaterChainName":"Independent Chains","ticketType":"STANDARD"},{"id":"284","name":"Showcase Cinemas Bridgeport","address":"286 Canfield Ave.","city":"Bridgeport","state":"CT","zip":"06605","distance":"21.1214656829834","lon":"-73.228004","lat":"41.160984","theaterChainName":"National Amusements","ticketType":"STANDARD"},{"id":"283","name":"Fairfield Cinemas  Bullard Square","address":"40 Blackrock Turnpike","city":"Fairfield","state":"CT","zip":"06824","distance":"21.227264404296875","lon":"-73.229248","lat":"41.162220","theaterChainName":"National Amusements","ticketType":"STANDARD"},{"id":"4172","name":"Connecticut Post 14 + Imax","address":"1201 Boston Post Road","city":"Milford","state":"CT","zip":"06460","distance":"20.550315856933594","lon":"-73.038696","lat":"41.236301","theaterChainName":"Cinemark","ticketType":"STANDARD"},{"id":"1863","name":"Bow Tie Cinemas Marquis 16 & BTX","address":"100 Quarry Road","city":"Trumbull","state":"CT","zip":"06611","distance":"23.239831924438477","lon":"-73.184189","lat":"41.228565","theaterChainName":"Bow-Tie Cinemas","ticketType":"STANDARD"},{"id":"3915","name":"Criterion Cinemas","address":"86 Temple Street","city":"New Haven","state":"CT","zip":"06510","distance":"24.565683364868164","lon":"-72.928497","lat":"41.304680","theaterChainName":"Bow-Tie Cinemas","ticketType":"STANDARD"},{"id":"699","name":"UA Hampton Bays 5","address":"119 West Montauk Hwy","city":"Hampton Bays","state":"NY","zip":"11946","distance":"21.81131362915039","lon":"-72.529327","lat":"40.876183","theaterChainName":"United Artists","ticketType":"STANDARD"},{"id":"875","name":"Regal Branford Stadium 12","address":"325 E Main Street","city":"Branford","state":"CT","zip":"06405","distance":"24.969615936279297","lon":"-72.784157","lat":"41.292061","theaterChainName":"Regal Cinemas","ticketType":"STANDARD"}]