[{"id":"2076","tribuneTheaterId":"8239","providerTheaterId":"2140","name":"AMC Loews Stony Brook 17","address":"2196 Nesconset Highway","city":"Stony Brook","state":"NY","zip":"11790","distance":5.1081195376444,"lon":"-73.126652","lat":"40.875348","theaterChainName":"AMC Theatres","ticketType":"STANDARD"},{"id":"1849","tribuneTheaterId":"5634","providerTheaterId":"","name":"Regal Ronkonkoma Stadium 9","address":"565 Portion Road","city":"Ronkonkoma","state":"NY","zip":"11779","distance":5.3557462916889,"lon":"-73.093938","lat":"40.831322","theaterChainName":"Regal Cinemas","ticketType":"STANDARD"},{"id":"1174","tribuneTheaterId":"6463","providerTheaterId":"","name":"Elwood Cinema","address":"1950 East Jericho Turnpike","city":"East Northport","state":"NY","zip":"11731","distance":7.1375161437788,"lon":"-73.330967","lat":"40.837642","theaterChainName":"Independent Chains","ticketType":"STANDARD"},{"id":"4554","tribuneTheaterId":"9692","providerTheaterId":"","name":"Regal Deer Park Stadium 16 & IMAX","address":"1050 Commack Road","city":"Deer Park","state":"NY","zip":"11729","distance":7.0074849690353,"lon":"-73.305787","lat":"40.765197","theaterChainName":"Regal Cinemas","ticketType":"STANDARD"},{"id":"1179","tribuneTheaterId":"2874","providerTheaterId":"","name":"Sayville Theatre","address":"103 Railroad Ave.","city":"Sayville","state":"NY","zip":"11782","distance":8.3600751677554,"lon":"-73.082889","lat":"40.737483","theaterChainName":"Independent Chains","ticketType":"STANDARD"},{"id":"1175","tribuneTheaterId":"6590","providerTheaterId":"","name":"P.J. Cinemas","address":"1068 Route 112","city":"Port Jefferson Station","state":"NY","zip":"11776","distance":10.470569539826,"lon":"-73.0435","lat":"40.9216","theaterChainName":"Independent Chains","ticketType":"STANDARD"},{"id":"1826","tribuneTheaterId":"3088","providerTheaterId":"","name":"Movieland of Coram","address":"1850 Rt 112","city":"Coram","state":"NY","zip":"11727","distance":10.518435932798,"lon":"-73.015008","lat":"40.890012","theaterChainName":"Independent Chains","ticketType":"STANDARD"},{"id":"175","tribuneTheaterId":"7055","providerTheaterId":"2162","name":"AMC Loews Shore 8","address":"37 Wall St.","city":"Huntington","state":"NY","zip":"11743","distance":12.601096518796,"lon":"-73.427811","lat":"40.872698","theaterChainName":"AMC Theatres","ticketType":"STANDARD"},{"id":"1176","tribuneTheaterId":"2935","providerTheaterId":"","name":"South Bay Cinemas","address":"495 W. Montauk Hwy","city":"West Babylon","state":"NY","zip":"11704","distance":11.919219046139,"lon":"-73.338898","lat":"40.6889","theaterChainName":"Independent Chains","ticketType":"STANDARD"},{"id":"321","tribuneTheaterId":"6016","providerTheaterId":"","name":"Farmingdale Multiplex Cinemas","address":"1001 Broad Hollow Road","city":"Farmingdale","state":"NY","zip":"11735","distance":13.188846078679,"lon":"-73.42154","lat":"40.738138","theaterChainName":"National Amusements","ticketType":"STANDARD"},{"id":"1044","tribuneTheaterId":"7587","providerTheaterId":"","name":"UA Farmingdale Stadium 10","address":"20 Michael Avenue","city":"Farmingdale","state":"NY","zip":"11735","distance":13.727160416315,"lon":"-73.425788","lat":"40.727503","theaterChainName":"United Artists","ticketType":"STANDARD"},{"id":"153","tribuneTheaterId":"8982","providerTheaterId":"2141","name":"AMC Loews Nassau Metroplex 10","address":"3585 Hempstead Tpke.","city":"Levittown","state":"NY","zip":"11756","distance":17.549576639388,"lon":"-73.506059","lat":"40.726601","theaterChainName":"AMC Theatres","ticketType":"STANDARD"},{"id":"319","tribuneTheaterId":"6014","providerTheaterId":"","name":"Broadway Multiplex Cinemas","address":"955 Broadway Mall","city":"Hicksville","state":"NY","zip":"11801","distance":17.962104687127,"lon":"-73.533103","lat":"40.774269","theaterChainName":"National Amusements","ticketType":"STANDARD"},{"id":"2819","tribuneTheaterId":"8058","providerTheaterId":"","name":"UA Westbury Stadium 12 & IMAX","address":"7000 Brush Hollow Road","city":"Westbury","state":"NY","zip":"11590","distance":19.091786793539,"lon":"-73.555972","lat":"40.778194","theaterChainName":"United Artists","ticketType":"STANDARD"},{"id":"3048","tribuneTheaterId":"5981","providerTheaterId":"","name":"Seaford Cinemas","address":"3951 Merrick Road","city":"Seaford","state":"NY","zip":"11783","distance":18.696368664188,"lon":"-73.4867","lat":"40.6661","theaterChainName":"Your Neighborhood Theatre","ticketType":"STANDARD"},{"id":"4484","tribuneTheaterId":"9583","providerTheaterId":"","name":"Island Cinemas - Mastic","address":"1708 Montauk Highway","city":"Mastic","state":"NY","zip":"11950","distance":18.796631116527,"lon":"-72.837081","lat":"40.80569","theaterChainName":"Independent Chains","ticketType":"STANDARD"},{"id":"1172","tribuneTheaterId":"3039","providerTheaterId":"","name":"Five Star Theatres Bellmore Playhouse","address":"525 Bedford Ave.","city":"Bellmore","state":"NY","zip":"11710","distance":20.336168223169,"lon":"-73.527603","lat":"40.669998","theaterChainName":"Independent Chains","ticketType":"STANDARD"},{"id":"172","tribuneTheaterId":"6737","providerTheaterId":"","name":"Glen Cove 6","address":"5 School St.","city":"Glen Cove","state":"NY","zip":"11542","distance":22.96722106776,"lon":"-73.631541","lat":"40.865976","theaterChainName":"Independent Chains","ticketType":"STANDARD"},{"id":"154","tribuneTheaterId":"7952","providerTheaterId":"2144","name":"AMC Loews Roosevelt Field 8","address":"630 Old Country Road","city":"Garden City","state":"NY","zip":"11530","distance":22.684843110485,"lon":"-73.615179","lat":"40.739714","theaterChainName":"AMC Theatres","ticketType":"STANDARD"},{"id":"2399","tribuneTheaterId":"5884","providerTheaterId":"","name":"Bow Tie Cinemas SONO Regent 8","address":"64 North Main St.","city":"Norwalk","state":"CT","zip":"06854","distance":22.455331788315,"lon":"-73.419536","lat":"41.100733","theaterChainName":"Bow-Tie Cinemas","ticketType":"STANDARD"},{"id":"216","tribuneTheaterId":"2664","providerTheaterId":"","name":"Darien Playhouse","address":"1077 Boston Post Road","city":"Darien","state":"CT","zip":"06820","distance":22.639181961951,"lon":"-73.473581","lat":"41.074781","theaterChainName":"Independent Chains","ticketType":"STANDARD"},{"id":"166","tribuneTheaterId":"8686","providerTheaterId":"2146","name":"AMC Loews Raceway 10","address":"1025 Corporate Drive","city":"Westbury","state":"NY","zip":"11590","distance":21.69089481428,"lon":"-73.596468","lat":"40.742383","theaterChainName":"AMC Theatres","ticketType":"STANDARD"},{"id":"1144","tribuneTheaterId":"5910","providerTheaterId":"","name":"Bow Tie Roslyn Cinemas","address":"20 Tower Place","city":"Roslyn","state":"NY","zip":"11576","distance":23.815915885608,"lon":"-73.650183","lat":"40.799832","theaterChainName":"Bow-Tie Cinemas","ticketType":"STANDARD"},{"id":"1133","tribuneTheaterId":"8676","providerTheaterId":"","name":"Bow Tie Cinemas Grand Ave","address":"1849 Grand Ave.","city":"Baldwin","state":"NY","zip":"11510","distance":24.109260507661,"lon":"-73.606947","lat":"40.665849","theaterChainName":"Bow-Tie Cinemas","ticketType":"STANDARD"},{"id":"1134","tribuneTheaterId":"6934","providerTheaterId":"","name":"Bow Tie Cinemas Herricks Cinema","address":"3324 Hillside Ave.","city":"New Hyde Park","state":"NY","zip":"11040","distance":24.784939854632,"lon":"-73.660334","lat":"40.752565","theaterChainName":"Bow-Tie Cinemas","ticketType":"STANDARD"},{"id":"1542","tribuneTheaterId":"5885","providerTheaterId":"","name":"Bow Tie Cinemas Landmark 9 Stamford","address":"5 Landmark Square","city":"Stamford","state":"CT","zip":"06905","distance":23.964930593721,"lon":"-73.537545","lat":"41.054745","theaterChainName":"Bow-Tie Cinemas","ticketType":"STANDARD"},{"id":"283","tribuneTheaterId":"7621","providerTheaterId":"","name":"Fairfield Cinemas  Bullard Square","address":"40 Blackrock Turnpike","city":"Fairfield","state":"CT","zip":"06824","distance":23.495833854161,"lon":"-73.229249","lat":"41.162221","theaterChainName":"National Amusements","ticketType":"STANDARD"},{"id":"284","tribuneTheaterId":"7478","providerTheaterId":"","name":"Showcase Cinemas Bridgeport","address":"286 Canfield Ave.","city":"Bridgeport","state":"CT","zip":"06605","distance":23.405916314824,"lon":"-73.228002","lat":"41.160985","theaterChainName":"National Amusements","ticketType":"STANDARD"},{"id":"1866","tribuneTheaterId":"5883","providerTheaterId":"","name":"Bow Tie Cinemas Royale 6","address":"542 Westport Ave.","city":"Norwalk","state":"CT","zip":"06851","distance":23.178142343481,"lon":"-73.384337","lat":"41.126864","theaterChainName":"Bow-Tie Cinemas","ticketType":"STANDARD"},{"id":"2141","tribuneTheaterId":"5004","providerTheaterId":"","name":"Avon Theatre Film Center, Inc.","address":"272 Bedford Street","city":"Stamford","state":"CT","zip":"06901","distance":24.103120923724,"lon":"-73.538268","lat":"41.057132","theaterChainName":"Independent Chains","ticketType":"STANDARD"},{"id":"1541","tribuneTheaterId":"5882","providerTheaterId":"","name":"Bow Tie Cinemas Majestic 6","address":"118 Summer St.","city":"Stamford","state":"CT","zip":"06901","distance":24.074672587923,"lon":"-73.540846","lat":"41.054335","theaterChainName":"Bow-Tie Cinemas","ticketType":"STANDARD"}]