[{"id":"1826","tribuneTheaterId":"3088","providerTheaterId":"","name":"Movieland of Coram","address":"1850 Rt 112","city":"Coram","state":"NY","zip":"11727","distance":7.5568934773884,"lon":"-73.015008","lat":"40.890012","theaterChainName":"Independent Chains","ticketType":"STANDARD"},{"id":"1175","tribuneTheaterId":"6590","providerTheaterId":"","name":"P.J. Cinemas","address":"1068 Route 112","city":"Port Jefferson Station","state":"NY","zip":"11776","distance":8.0877222523207,"lon":"-73.0435","lat":"40.9216","theaterChainName":"Independent Chains","ticketType":"STANDARD"},{"id":"4484","tribuneTheaterId":"9583","providerTheaterId":"","name":"Island Cinemas - Mastic","address":"1708 Montauk Highway","city":"Mastic","state":"NY","zip":"11950","distance":10.286148811951,"lon":"-72.837081","lat":"40.80569","theaterChainName":"Independent Chains","ticketType":"STANDARD"},{"id":"2076","tribuneTheaterId":"8239","providerTheaterId":"2140","name":"AMC Loews Stony Brook 17","address":"2196 Nesconset Highway","city":"Stony Brook","state":"NY","zip":"11790","distance":13.220127425818,"lon":"-73.126652","lat":"40.875348","theaterChainName":"AMC Theatres","ticketType":"STANDARD"},{"id":"1849","tribuneTheaterId":"5634","providerTheaterId":"","name":"Regal Ronkonkoma Stadium 9","address":"565 Portion Road","city":"Ronkonkoma","state":"NY","zip":"11779","distance":13.267726686066,"lon":"-73.093938","lat":"40.831322","theaterChainName":"Regal Cinemas","ticketType":"STANDARD"},{"id":"1179","tribuneTheaterId":"2874","providerTheaterId":"","name":"Sayville Theatre","address":"103 Railroad Ave.","city":"Sayville","state":"NY","zip":"11782","distance":17.646436582194,"lon":"-73.082889","lat":"40.737483","theaterChainName":"Independent Chains","ticketType":"STANDARD"},{"id":"699","tribuneTheaterId":"7429","providerTheaterId":"","name":"UA Hampton Bays 5","address":"119 West Montauk Hwy","city":"Hampton Bays","state":"NY","zip":"11946","distance":19.620415550097,"lon":"-72.529324","lat":"40.876184","theaterChainName":"United Artists","ticketType":"STANDARD"},{"id":"4172","tribuneTheaterId":"6012","providerTheaterId":"","name":"Connecticut Post 14 + Imax","address":"1201 Boston Post Road","city":"Milford","state":"CT","zip":"06460","distance":21.288812843666,"lon":"-73.0387","lat":"41.2363","theaterChainName":"Cinemark","ticketType":"STANDARD"},{"id":"284","tribuneTheaterId":"7478","providerTheaterId":"","name":"Showcase Cinemas Bridgeport","address":"286 Canfield Ave.","city":"Bridgeport","state":"CT","zip":"06605","distance":22.819659552701,"lon":"-73.228002","lat":"41.160985","theaterChainName":"National Amusements","ticketType":"STANDARD"},{"id":"283","tribuneTheaterId":"7621","providerTheaterId":"","name":"Fairfield Cinemas  Bullard Square","address":"40 Blackrock Turnpike","city":"Fairfield","state":"CT","zip":"06824","distance":22.924227386686,"lon":"-73.229249","lat":"41.162221","theaterChainName":"National Amusements","ticketType":"STANDARD"},{"id":"875","tribuneTheaterId":"7581","providerTheaterId":"","name":"Regal Branford Stadium 12","address":"325 E Main Street","city":"Branford","state":"CT","zip":"06405","distance":24.400897907767,"lon":"-72.784156","lat":"41.292062","theaterChainName":"Regal Cinemas","ticketType":"STANDARD"},{"id":"1174","tribuneTheaterId":"6463","providerTheaterId":"","name":"Elwood Cinema","address":"1950 East Jericho Turnpike","city":"East Northport","state":"NY","zip":"11731","distance":24.138105574025,"lon":"-73.330967","lat":"40.837642","theaterChainName":"Independent Chains","ticketType":"STANDARD"},{"id":"1863","tribuneTheaterId":"5887","providerTheaterId":"","name":"Bow Tie Cinemas Marquis 16 & BTX","address":"100 Quarry Road","city":"Trumbull","state":"CT","zip":"06611","distance":24.593868294435,"lon":"-73.184191","lat":"41.228564","theaterChainName":"Bow-Tie Cinemas","ticketType":"STANDARD"},{"id":"3915","tribuneTheaterId":"1890","providerTheaterId":"","name":"Criterion Cinemas","address":"86 Temple Street","city":"New Haven","state":"CT","zip":"06510","distance":24.680071918631,"lon":"-72.928497","lat":"41.30468","theaterChainName":"Bow-Tie Cinemas","ticketType":"STANDARD"}]