[{"id":"1849","name":"Regal Ronkonkoma Stadium 9","address":"565 Portion Road","city":"Ronkonkoma","state":"NY","zip":"11779","distance":"23.475128173828125","lon":"-73.093941","lat":"40.831322","theaterChainName":"Regal Cinemas","ticketType":"STANDARD"},{"id":"1179","name":"Sayville Theatre","address":"103 Railroad Ave.","city":"Sayville","state":"NY","zip":"11782","distance":"24.207275390625","lon":"-73.082886","lat":"40.737484","theaterChainName":"Independent Chains","ticketType":"STANDARD"},{"id":"2076","name":"AMC Loews Stony Brook 17","address":"2196 Nesconset Highway","city":"Stony Brook","state":"NY","zip":"11790","distance":"22.35389518737793","lon":"-73.126656","lat":"40.875347","theaterChainName":"AMC Theatres","ticketType":"STANDARD"},{"id":"4554","name":"Regal Deer Park Stadium 16 & IMAX","address":"1050 Commack Road","city":"Deer Park","state":"NY","zip":"11729","distance":"12.3837890625","lon":"-73.305786","lat":"40.765198","theaterChainName":"Regal Cinemas","ticketType":"STANDARD"},{"id":"1174","name":"Elwood Cinema","address":"1950 East Jericho Turnpike","city":"East Northport","state":"NY","zip":"11731","distance":"11.367097854614258","lon":"-73.330971","lat":"40.837643","theaterChainName":"Independent Chains","ticketType":"STANDARD"},{"id":"1176","name":"South Bay Cinemas","address":"495 W. Montauk Hwy","city":"West Babylon","state":"NY","zip":"11704","distance":"12.703544616699219","lon":"-73.338898","lat":"40.688900","theaterChainName":"Independent Chains","ticketType":"STANDARD"},{"id":"321","name":"Farmingdale Multiplex Cinemas","address":"1001 Broad Hollow Road","city":"Farmingdale","state":"NY","zip":"11735","distance":"7.2220635414123535","lon":"-73.421539","lat":"40.738136","theaterChainName":"National Amusements","ticketType":"STANDARD"},{"id":"175","name":"AMC Loews Shore 8","address":"37 Wall St.","city":"Huntington","state":"NY","zip":"11743","distance":"8.08549690246582","lon":"-73.427811","lat":"40.872700","theaterChainName":"AMC Theatres","ticketType":"STANDARD"},{"id":"1044","name":"UA Farmingdale Stadium 10","address":"20 Michael Avenue","city":"Farmingdale","state":"NY","zip":"11735","distance":"7.447706699371338","lon":"-73.425789","lat":"40.727505","theaterChainName":"United Artists","ticketType":"STANDARD"},{"id":"1866","name":"Bow Tie Cinemas Royale 6","address":"542 Westport Ave.","city":"Norwalk","state":"CT","zip":"06851","distance":"24.519243240356445","lon":"-73.384338","lat":"41.126865","theaterChainName":"Bow-Tie Cinemas","ticketType":"STANDARD"},{"id":"3048","name":"Seaford Cinemas","address":"3951 Merrick Road","city":"Seaford","state":"NY","zip":"11783","distance":"9.132944107055664","lon":"-73.486702","lat":"40.666100","theaterChainName":"Your Neighborhood Theatre","ticketType":"STANDARD"},{"id":"153","name":"AMC Loews Nassau Metroplex 10","address":"3585 Hempstead Tpke.","city":"Levittown","state":"NY","zip":"11756","distance":"4.851802349090576","lon":"-73.506058","lat":"40.726601","theaterChainName":"AMC Theatres","ticketType":"STANDARD"},{"id":"2399","name":"Bow Tie Cinemas SONO Regent 8","address":"64 North Main St.","city":"Norwalk","state":"CT","zip":"06854","distance":"22.237138748168945","lon":"-73.419533","lat":"41.100735","theaterChainName":"Bow-Tie Cinemas","ticketType":"STANDARD"},{"id":"319","name":"Broadway Multiplex Cinemas","address":"955 Broadway Mall","city":"Hicksville","state":"NY","zip":"11801","distance":"1.2742921113967896","lon":"-73.533104","lat":"40.774269","theaterChainName":"National Amusements","ticketType":"STANDARD"},{"id":"1172","name":"Five Star Theatres Bellmore Playhouse","address":"525 Bedford Ave.","city":"Bellmore","state":"NY","zip":"11710","distance":"8.454185485839844","lon":"-73.527603","lat":"40.669998","theaterChainName":"Independent Chains","ticketType":"STANDARD"},{"id":"216","name":"Darien Playhouse","address":"1077 Boston Post Road","city":"Darien","state":"CT","zip":"06820","distance":"19.842838287353516","lon":"-73.473579","lat":"41.074780","theaterChainName":"Independent Chains","ticketType":"STANDARD"},{"id":"2819","name":"UA Westbury Stadium 12 & IMAX","address":"7000 Brush Hollow Road","city":"Westbury","state":"NY","zip":"11590","distance":"1.2748966217041016","lon":"-73.555969","lat":"40.778194","theaterChainName":"United Artists","ticketType":"STANDARD"},{"id":"1542","name":"Bow Tie Cinemas Landmark 9 Stamford","address":"5 Landmark Square","city":"Stamford","state":"CT","zip":"06905","distance":"18.155420303344727","lon":"-73.537544","lat":"41.054745","theaterChainName":"Bow-Tie Cinemas","ticketType":"STANDARD"},{"id":"2141","name":"Avon Theatre Film Center, Inc.","address":"272 Bedford Street","city":"Stamford","state":"CT","zip":"06901","distance":"18.320219039916992","lon":"-73.538269","lat":"41.057133","theaterChainName":"Independent Chains","ticketType":"STANDARD"},{"id":"1541","name":"Bow Tie Cinemas Majestic 6","address":"118 Summer St.","city":"Stamford","state":"CT","zip":"06901","distance":"18.126916885375977","lon":"-73.540848","lat":"41.054337","theaterChainName":"Bow-Tie Cinemas","ticketType":"STANDARD"},{"id":"166","name":"AMC Loews Raceway 10","address":"1025 Corporate Drive","city":"Westbury","state":"NY","zip":"11590","distance":"4.532947063446045","lon":"-73.596466","lat":"40.742382","theaterChainName":"AMC Theatres","ticketType":"STANDARD"},{"id":"2178","name":"Bow Tie Cinemas New Canaan Playhouse","address":"89 Elm St.","city":"New Canaan","state":"CT","zip":"06840","distance":"24.624752044677734","lon":"-73.494102","lat":"41.146702","theaterChainName":"Bow-Tie Cinemas","ticketType":"STANDARD"},{"id":"154","name":"AMC Loews Roosevelt Field 8","address":"630 Old Country Road","city":"Garden City","state":"NY","zip":"11530","distance":"5.3491339683532715","lon":"-73.615181","lat":"40.739716","theaterChainName":"AMC Theatres","ticketType":"STANDARD"},{"id":"1133","name":"Bow Tie Cinemas Grand Ave","address":"1849 Grand Ave.","city":"Baldwin","state":"NY","zip":"11510","distance":"9.399175643920898","lon":"-73.606949","lat":"40.665848","theaterChainName":"Bow-Tie Cinemas","ticketType":"STANDARD"},{"id":"172","name":"Glen Cove 6","address":"5 School St.","city":"Glen Cove","state":"NY","zip":"11542","distance":"7.009383201599121","lon":"-73.631538","lat":"40.865974","theaterChainName":"Independent Chains","ticketType":"STANDARD"},{"id":"1144","name":"Bow Tie Roslyn Cinemas","address":"20 Tower Place","city":"Roslyn","state":"NY","zip":"11576","distance":"5.799360752105713","lon":"-73.650185","lat":"40.799831","theaterChainName":"Bow-Tie Cinemas","ticketType":"STANDARD"},{"id":"1346","name":"Bow Tie Cinemas Plaza 3","address":"2 Railroad Ave.","city":"Greenwich","state":"CT","zip":"06830","distance":"16.469234466552734","lon":"-73.624985","lat":"41.021488","theaterChainName":"Bow-Tie Cinemas","ticketType":"STANDARD"},{"id":"1134","name":"Bow Tie Cinemas Herricks Cinema","address":"3324 Hillside Ave.","city":"New Hyde Park","state":"NY","zip":"11040","distance":"6.87057638168335","lon":"-73.660332","lat":"40.752563","theaterChainName":"Bow-Tie Cinemas","ticketType":"STANDARD"},{"id":"171","name":"AMC Loews Fantasy 5","address":"18 N. Park Ave.","city":"Rockville Centre","state":"NY","zip":"11570","distance":"10.850146293640137","lon":"-73.645226","lat":"40.656818","theaterChainName":"AMC Theatres","ticketType":"STANDARD"},{"id":"1132","name":"Bow Tie Cinemas Franklin Square","address":"989 Hempstead Turnpike","city":"Franklin Square","state":"NY","zip":"11010","distance":"9.255439758300781","lon":"-73.676788","lat":"40.707310","theaterChainName":"Bow-Tie Cinemas","ticketType":"STANDARD"},{"id":"3888","name":"AMC Loews Port Chester 14","address":"40 Westchester Ave.","city":"Port Chester","state":"NY","zip":"10573","distance":"15.718897819519043","lon":"-73.662392","lat":"40.999760","theaterChainName":"AMC Theatres","ticketType":"STANDARD"},{"id":"3658","name":"City Center 15: Cinema de Lux","address":"19 Mamaroneck Ave.","city":"White Plains","state":"NY","zip":"10601","distance":"20.360769271850586","lon":"-73.765701","lat":"41.032177","theaterChainName":"National Amusements","ticketType":"STANDARD"},{"id":"2858","name":"Greenburgh Multiplex Cinemas","address":"320 Saw Mill River Road","city":"Elmsford","state":"NY","zip":"10523","distance":"23.70322608947754","lon":"-73.812698","lat":"41.066166","theaterChainName":"National Amusements","ticketType":"STANDARD"},{"id":"1529","name":"Bow Tie Cinemas Cinema 100","address":"93 Knollwood Road","city":"White Plains","state":"NY","zip":"10607","distance":"22.046293258666992","lon":"-73.808197","lat":"41.038300","theaterChainName":"Bow-Tie Cinemas","ticketType":"STANDARD"},{"id":"119","name":"Bow Tie Cinemas Mamaroneck 4","address":"243 Mamaroneck Ave.","city":"Mamaroneck","state":"NY","zip":"10543","distance":"14.928744316101074","lon":"-73.733871","lat":"40.950565","theaterChainName":"Bow-Tie Cinemas","ticketType":"STANDARD"},{"id":"5208","name":"Alamo Drafthouse Yonkers","address":"2548 Central Park Ave","city":"Yonkers","state":"NY","zip":"10710","distance":"19.864381790161133","lon":"-73.824547","lat":"40.982544","theaterChainName":"Alamo Drafthouse","ticketType":"STANDARD"},{"id":"1139","name":"Bow Tie Cinemas Port Washington","address":"116 Main St.","city":"Port Washington","state":"NY","zip":"11050","distance":"8.32216739654541","lon":"-73.690681","lat":"40.830280","theaterChainName":"Bow-Tie Cinemas","ticketType":"STANDARD"},{"id":"5319","name":"Soundview Cinemas","address":"7 Soundview Marketplace","city":"Port Washington","state":"NY","zip":"11050","distance":"9.360124588012695","lon":"-73.705902","lat":"40.842484","theaterChainName":"Independent Chains","ticketType":"STANDARD"},{"id":"118","name":"Bow Tie Cinemas Larchmont Playhouse","address":"1975 Palmer Ave.","city":"Larchmont","state":"NY","zip":"10538","distance":"15.033604621887207","lon":"-73.761002","lat":"40.931107","theaterChainName":"Bow-Tie Cinemas","ticketType":"STANDARD"},{"id":"2584","name":"Regal New Roc Stadium 18 + IMAX","address":"33 Le Count Place","city":"New Rochelle","state":"NY","zip":"10801","distance":"15.024781227111816","lon":"-73.779564","lat":"40.911964","theaterChainName":"Regal Cinemas","ticketType":"STANDARD"},{"id":"107","name":"Bow Tie Cinemas Manhasset 3","address":"430 Plandome Road","city":"Manhasset","state":"NY","zip":"11030","distance":"8.38893985748291","lon":"-73.699944","lat":"40.798470","theaterChainName":"Bow-Tie Cinemas","ticketType":"STANDARD"},{"id":"1145","name":"Bow Tie Squire Cinemas","address":"115 Middle Neck Rd.","city":"Great Neck","state":"NY","zip":"11021","distance":"9.954083442687988","lon":"-73.730057","lat":"40.789780","theaterChainName":"Bow-Tie Cinemas","ticketType":"STANDARD"},{"id":"5044","name":"Showcase Cinema de Lux Ridge Hill","address":"29 Fitzgerald St.","city":"Yonkers","state":"NY","zip":"10710","distance":"19.83714485168457","lon":"-73.844398","lat":"40.963402","theaterChainName":"National Amusements","ticketType":"STANDARD"},{"id":"117","name":"Bow Tie Cinemas Bronxville 3","address":"84 Kraft Ave.","city":"Bronxville","state":"NY","zip":"10708","distance":"18.492586135864258","lon":"-73.834435","lat":"40.940258","theaterChainName":"Bow-Tie Cinemas","ticketType":"STANDARD"},{"id":"1178","name":"Pelham Picture House","address":"175 Wolfs Lane","city":"Pelham","state":"NY","zip":"10803","distance":"16.278135299682617","lon":"-73.811378","lat":"40.907318","theaterChainName":"Independent Chains","ticketType":"STANDARD"},{"id":"282","name":"Cross County Multiplex Cinemas","address":"2 South Drive","city":"Yonkers","state":"NY","zip":"10704","distance":"18.831438064575195","lon":"-73.854446","lat":"40.924828","theaterChainName":"National Amusements","ticketType":"STANDARD"},{"id":"562","name":"AMC Bay Plaza Cinema 13","address":"2210 Bartow Ave.","city":"Bronx","state":"NY","zip":"10475","distance":"15.792702674865723","lon":"-73.825142","lat":"40.866989","theaterChainName":"AMC Theatres","ticketType":"STANDARD"},{"id":"152","name":"AMC Loews Bay Terrace 6","address":"211-01  26th Ave.","city":"Bayside","state":"NY","zip":"11360","distance":"12.544587135314941","lon":"-73.778961","lat":"40.778980","theaterChainName":"AMC Theatres","ticketType":"STANDARD"},{"id":"109","name":"Movieworld At Douglaston","address":"242-02 61st Ave.","city":"Douglaston","state":"NY","zip":"11362","distance":"10.734112739562988","lon":"-73.738937","lat":"40.754707","theaterChainName":"Independent Chains","ticketType":"STANDARD"},{"id":"3103","name":"Edgewater Multiplex Cinemas","address":"339 River Road","city":"Edgewater","state":"NJ","zip":"07020","distance":"23.475309371948242","lon":"-73.988106","lat":"40.808033","theaterChainName":"National Amusements","ticketType":"STANDARD"},{"id":"3442","name":"AMC Loews West 34th Street 14","address":"312 W. 34th St.","city":"New York","state":"NY","zip":"10001","distance":"23.943912506103516","lon":"-73.994392","lat":"40.752510","theaterChainName":"AMC Theatres","ticketType":"STANDARD"},{"id":"4034","name":"IFC Center","address":"323 6th Ave. at W 3rd St.","city":"New York","state":"NY","zip":"10014","distance":"24.528657913208008","lon":"-74.001534","lat":"40.731140","theaterChainName":"Independent Chains","ticketType":"STANDARD"},{"id":"2820","name":"Regal E-Walk Stadium 13","address":"247 W. 42nd St.","city":"New York","state":"NY","zip":"10036","distance":"23.634309768676758","lon":"-73.989113","lat":"40.757084","theaterChainName":"Regal Cinemas","ticketType":"STANDARD"},{"id":"573","name":"Quad Cinema","address":"34 W. 13th St.","city":"New York","state":"NY","zip":"10011","distance":"24.186912536621094","lon":"-73.996002","lat":"40.735977","theaterChainName":"Independent Chains","ticketType":"STANDARD"},{"id":"2986","name":"AMC Empire 25","address":"234 W. 42nd St.","city":"New York","state":"NY","zip":"10036","distance":"23.614547729492188","lon":"-73.988663","lat":"40.756580","theaterChainName":"AMC Theatres","ticketType":"STANDARD"},{"id":"5064","name":"Film Society of Lincoln Center","address":"144 W 65th St.","city":"New York","state":"NY","zip":"10023","distance":"23.2545108795166","lon":"-73.983597","lat":"40.773499","theaterChainName":"Independent Chains","ticketType":"STANDARD"},{"id":"575","name":"Film Society of Lincoln Center's Walter Reade Theater","address":"165 W. 65th St.","city":"New York","state":"NY","zip":"10023","distance":"23.2545108795166","lon":"-73.983597","lat":"40.773499","theaterChainName":"Independent Chains","ticketType":"STANDARD"},{"id":"564","name":"Cobble Hill Cinema","address":"265 Court St.","city":"Brooklyn","state":"NY","zip":"11231","distance":"24.929899215698242","lon":"-73.994514","lat":"40.684910","theaterChainName":"Cobble Hill Cinemas","ticketType":"STANDARD"},{"id":"3234","name":"UA Court Street Stadium 12","address":"108 Court St.","city":"Brooklyn","state":"NY","zip":"11201","distance":"24.69725799560547","lon":"-73.992149","lat":"40.690552","theaterChainName":"United Artists","ticketType":"STANDARD"},{"id":"2746","name":"Bam Rose Cinemas","address":"30 Lafayette Ave.","city":"Brooklyn","state":"NY","zip":"11217","distance":"24.057886123657227","lon":"-73.977699","lat":"40.686451","theaterChainName":"Independent Chains","ticketType":"STANDARD"},{"id":"3044","name":"AMC Magic Johnson Harlem 9","address":"2309 Frederick Douglass Blvd.","city":"New York","state":"NY","zip":"10027","distance":"21.58392333984375","lon":"-73.951790","lat":"40.809677","theaterChainName":"AMC Theatres","ticketType":"STANDARD"},{"id":"151","name":"AMC Loews Lincoln Square 13","address":"1998 Broadway","city":"New York","state":"NY","zip":"10023","distance":"23.146812438964844","lon":"-73.981644","lat":"40.774975","theaterChainName":"AMC Theatres","ticketType":"STANDARD"},{"id":"148","name":"AMC Loews Orpheum 7","address":"1538 Third Ave.","city":"New York","state":"NY","zip":"10028","distance":"21.680187225341797","lon":"-73.953857","lat":"40.779305","theaterChainName":"AMC Theatres","ticketType":"STANDARD"},{"id":"574","name":"Lincoln Plaza Cinemas","address":"1886 Broadway","city":"New York","state":"NY","zip":"10023","distance":"23.174184799194336","lon":"-73.981842","lat":"40.770836","theaterChainName":"Independent Chains","ticketType":"STANDARD"},{"id":"539","name":"City Cinemas 86th Street East","address":"210 E. 86th St.","city":"New York","state":"NY","zip":"10028","distance":"21.655920028686523","lon":"-73.953339","lat":"40.778374","theaterChainName":"Reading International, Inc","ticketType":"STANDARD"},{"id":"570","name":"City Cinemas Paris Theatre","address":"4 W. 58th St.","city":"New York","state":"NY","zip":"10019","distance":"22.837562561035156","lon":"-73.974716","lat":"40.764145","theaterChainName":"Reading International, Inc","ticketType":"STANDARD"},{"id":"4601","name":"City Cinemas Beekman Theatre","address":"1271 Second Ave.","city":"New York","state":"NY","zip":"10021","distance":"22.115978240966797","lon":"-73.961006","lat":"40.765278","theaterChainName":"Reading International, Inc","ticketType":"STANDARD"},{"id":"320","name":"Concourse Plaza Multiplex Cinemas","address":"214 E. 161st St.","city":"Bronx","state":"NY","zip":"10451","distance":"20.063121795654297","lon":"-73.920738","lat":"40.826298","theaterChainName":"National Amusements","ticketType":"STANDARD"},{"id":"2472","name":"AMC Loews Kips Bay 15","address":"570 Second Ave.","city":"New York","state":"NY","zip":"10016","distance":"23.107952117919922","lon":"-73.976700","lat":"40.743500","theaterChainName":"AMC Theatres","ticketType":"STANDARD"},{"id":"150","name":"AMC Loews 19th Street East 6","address":"890 Broadway","city":"New York","state":"NY","zip":"10003","distance":"23.836257934570312","lon":"-73.989769","lat":"40.738556","theaterChainName":"AMC Theatres","ticketType":"STANDARD"},{"id":"3233","name":"UA Kaufman Astoria Stadium 14","address":"35-30 38th St.","city":"Astoria","state":"NY","zip":"11101","distance":"20.24449920654297","lon":"-73.923622","lat":"40.755207","theaterChainName":"United Artists","ticketType":"STANDARD"},{"id":"1609","name":"Regal Union Square Stadium 14","address":"850 Broadway","city":"New York","state":"NY","zip":"10003","distance":"23.928977966308594","lon":"-73.990578","lat":"40.734051","theaterChainName":"Regal Cinemas","ticketType":"STANDARD"},{"id":"571","name":"Cinema Village 12th Street","address":"22 E. 12th St.","city":"New York","state":"NY","zip":"10003","distance":"24.07590675354004","lon":"-73.993431","lat":"40.734077","theaterChainName":"Independent Chains","ticketType":"STANDARD"},{"id":"149","name":"AMC Loews Village 7","address":"66 3rd Ave. (11th St.)","city":"New York","state":"NY","zip":"10003","distance":"23.865598678588867","lon":"-73.988754","lat":"40.731499","theaterChainName":"AMC Theatres","ticketType":"STANDARD"},{"id":"538","name":"City Cinemas Village East","address":"181-189 Second Ave.","city":"New York","state":"NY","zip":"10003","distance":"23.739534378051758","lon":"-73.986168","lat":"40.730919","theaterChainName":"Reading International, Inc","ticketType":"STANDARD"},{"id":"540","name":"City Cinemas Angelika Film Center","address":"18 W. Houston St.","city":"New York","state":"NY","zip":"10012","distance":"24.37691307067871","lon":"-73.997284","lat":"40.725811","theaterChainName":"Reading International, Inc","ticketType":"STANDARD"},{"id":"1147","name":"Bow Tie Cinemas Tenafly Cinema 4","address":"4 1\/2 W. Railroad Ave.","city":"Tenafly","state":"NJ","zip":"07670","distance":"24.03119468688965","lon":"-73.965164","lat":"40.924118","theaterChainName":"Bow-Tie Cinemas","ticketType":"STANDARD"},{"id":"5060","name":"Nitehawk Cinema","address":"136 Metropolitan Ave.","city":"Brooklyn","state":"NY","zip":"11249","distance":"22.738304138183594","lon":"-73.962509","lat":"40.716122","theaterChainName":"Independent Chains","ticketType":"STANDARD"},{"id":"5894","name":"Metrograph","address":"7 Ludlow St.","city":"New York","state":"NY","zip":"10002","distance":"24.216995239257812","lon":"-73.991180","lat":"40.715076","theaterChainName":"Independent Chains","ticketType":"STANDARD"},{"id":"5777","name":"Videology Cinema","address":"308 Bedford Ave.","city":"Brooklyn","state":"NY","zip":"11249","distance":"22.739852905273438","lon":"-73.961815","lat":"40.713863","theaterChainName":"Independent Chains","ticketType":"STANDARD"},{"id":"5284","name":"Williamsburg Cinemas","address":"217 Grand St.","city":"Brooklyn","state":"NY","zip":"11211","distance":"22.641860961914062","lon":"-73.959900","lat":"40.713902","theaterChainName":"Independent Chains","ticketType":"STANDARD"},{"id":"5965","name":"Syndicated","address":"40 Bogart Street","city":"Brooklyn","state":"NY","zip":"11206","distance":"21.43636703491211","lon":"-73.932861","lat":"40.704964","theaterChainName":"Independent Chains","ticketType":"STANDARD"},{"id":"1131","name":"Bow Tie Cinemas Closter Cinema 4","address":"130 Closter Plaza","city":"Closter","state":"NJ","zip":"07624","distance":"24.88715934753418","lon":"-73.954964","lat":"40.968624","theaterChainName":"Bow-Tie Cinemas","ticketType":"STANDARD"},{"id":"2460","name":"College Point Multiplex Cinemas","address":"2855 Ulmer St.","city":"Whitestone","state":"NY","zip":"11357","distance":"15.518648147583008","lon":"-73.835205","lat":"40.771790","theaterChainName":"National Amusements","ticketType":"STANDARD"},{"id":"111","name":"UA Sheepshead Bay Stadium 14 + IMAX","address":"3907 Shore Pkwy.","city":"Brooklyn","state":"NY","zip":"11235","distance":"24.92618751525879","lon":"-73.930504","lat":"40.586166","theaterChainName":"United Artists","ticketType":"STANDARD"},{"id":"824","name":"Linden Blvd. Multiplex Cinemas","address":"2784 Linden Blvd.","city":"Brooklyn","state":"NY","zip":"11208","distance":"18.849851608276367","lon":"-73.861397","lat":"40.669399","theaterChainName":"National Amusements","ticketType":"STANDARD"},{"id":"4206","name":"Regal Atlas Park Stadium 8","address":"Cooper Ave ","city":"Glendale","state":"NY","zip":"11385","distance":"18.1179141998291","lon":"-73.867638","lat":"40.707905","theaterChainName":"Regal Cinemas","ticketType":"STANDARD"},{"id":"566","name":"Cinemart Cinemas","address":"106-03 Metropolitan Ave.","city":"Forest Hills","state":"NY","zip":"11375","distance":"17.04204559326172","lon":"-73.846870","lat":"40.710037","theaterChainName":"Independent Chains","ticketType":"STANDARD"},{"id":"110","name":"UA Midway Stadium 9","address":"108-22 Queens Blvd.","city":"Forest Hills","state":"NY","zip":"11375","distance":"16.63535499572754","lon":"-73.843422","lat":"40.720821","theaterChainName":"United Artists","ticketType":"STANDARD"},{"id":"4681","name":"Phoenix Theatre Bombay","address":"6825 Fresh Meadow Lane","city":"Flushing","state":"NY","zip":"11365","distance":"13.931224822998047","lon":"-73.794357","lat":"40.733047","theaterChainName":"Independent Chains","ticketType":"STANDARD"},{"id":"2680","name":"Kew Gardens Cinemas","address":"81-05 Lefferts Blvd.","city":"Kew Gardens","state":"NY","zip":"11415","distance":"16.226356506347656","lon":"-73.829849","lat":"40.709137","theaterChainName":"Cobble Hill Cinemas","ticketType":"STANDARD"},{"id":"3512","name":"Jamaica Multiplex Cinemas","address":"159-02 Jamaica Ave.","city":"Jamaica","state":"NY","zip":"11432","distance":"14.930079460144043","lon":"-73.799828","lat":"40.703224","theaterChainName":"National Amusements","ticketType":"STANDARD"},{"id":"108","name":"UA Lynbrook 6","address":"321 Merrick Road","city":"Lynbrook","state":"NY","zip":"11563","distance":"11.598567962646484","lon":"-73.671829","lat":"40.657223","theaterChainName":"United Artists","ticketType":"STANDARD"}]