[{"id":"1826","name":"Movieland of Coram","address":"1850 Rt 112","city":"Coram","state":"NY","zip":"11727","distance":"24.653690338134766","lon":"-73.015007","lat":"40.890011","theaterChainName":"Independent Chains","ticketType":"STANDARD"},{"id":"4484","name":"Island Cinemas - Mastic","address":"1708 Montauk Highway","city":"Mastic","state":"NY","zip":"11950","distance":"18.534446716308594","lon":"-72.837082","lat":"40.805691","theaterChainName":"Independent Chains","ticketType":"STANDARD"},{"id":"699","name":"UA Hampton Bays 5","address":"119 West Montauk Hwy","city":"Hampton Bays","state":"NY","zip":"11946","distance":"6.433176040649414","lon":"-72.529327","lat":"40.876183","theaterChainName":"United Artists","ticketType":"STANDARD"},{"id":"2478","name":"Marquee Westbrook Cinemas","address":"314 Flatrock Place","city":"Westbrook","state":"CT","zip":"06498","distance":"23.20990753173828","lon":"-72.426712","lat":"41.289326","theaterChainName":"Marquee Cinemas","ticketType":"STANDARD"},{"id":"112","name":"UA East Hampton 6","address":"30 Main St.","city":"East Hampton","state":"NY","zip":"11937","distance":"19.231704711914062","lon":"-72.185448","lat":"40.963303","theaterChainName":"United Artists","ticketType":"STANDARD"},{"id":"2551","name":"Madison Art Cinemas","address":"761 Boston Post Road","city":"Madison","state":"CT","zip":"06443","distance":"21.690126419067383","lon":"-72.595268","lat":"41.279762","theaterChainName":"Independent Chains","ticketType":"STANDARD"},{"id":"113","name":"UA Southampton 4","address":"43 Hill St.","city":"Southampton","state":"NY","zip":"11968","distance":"10.135438919067383","lon":"-72.394493","lat":"40.883785","theaterChainName":"United Artists","ticketType":"STANDARD"}]