[{"id":"113","tribuneTheaterId":"7150","providerTheaterId":"","name":"UA Southampton 4","address":"43 Hill St.","city":"Southampton","state":"NY","zip":"11968","distance":8.5700375048196,"lon":"-72.39449","lat":"40.883784","theaterChainName":"United Artists","ticketType":"STANDARD"},{"id":"699","tribuneTheaterId":"7429","providerTheaterId":"","name":"UA Hampton Bays 5","address":"119 West Montauk Hwy","city":"Hampton Bays","state":"NY","zip":"11946","distance":8.441468860512,"lon":"-72.529324","lat":"40.876184","theaterChainName":"United Artists","ticketType":"STANDARD"},{"id":"112","tribuneTheaterId":"7151","providerTheaterId":"","name":"UA East Hampton 6","address":"30 Main St.","city":"East Hampton","state":"NY","zip":"11937","distance":15.275856907481,"lon":"-72.185444","lat":"40.963304","theaterChainName":"United Artists","ticketType":"STANDARD"},{"id":"2551","tribuneTheaterId":"2743","providerTheaterId":"","name":"Madison Art Cinemas","address":"761 Boston Post Road","city":"Madison","state":"CT","zip":"06443","distance":20.863199146214,"lon":"-72.595268","lat":"41.279763","theaterChainName":"Independent Chains","ticketType":"STANDARD"},{"id":"2478","tribuneTheaterId":"3191","providerTheaterId":"","name":"Marquee Westbrook Cinemas","address":"314 Flatrock Place","city":"Westbrook","state":"CT","zip":"06498","distance":20.736328990301,"lon":"-72.426714","lat":"41.289326","theaterChainName":"Marquee Cinemas","ticketType":"STANDARD"},{"id":"4484","tribuneTheaterId":"9583","providerTheaterId":"","name":"Island Cinemas - Mastic","address":"1708 Montauk Highway","city":"Mastic","state":"NY","zip":"11950","distance":22.817236145752,"lon":"-72.837081","lat":"40.80569","theaterChainName":"Independent Chains","ticketType":"STANDARD"}]