[{"id":"4484","tribuneTheaterId":"9583","providerTheaterId":"","name":"Island Cinemas - Mastic","address":"1708 Montauk Highway","city":"Mastic","state":"NY","zip":"11950","distance":1.0219929509676,"lon":"-72.837081","lat":"40.80569","theaterChainName":"Independent Chains","ticketType":"STANDARD"},{"id":"1826","tribuneTheaterId":"3088","providerTheaterId":"","name":"Movieland of Coram","address":"1850 Rt 112","city":"Coram","state":"NY","zip":"11727","distance":10.095534296062,"lon":"-73.015008","lat":"40.890012","theaterChainName":"Independent Chains","ticketType":"STANDARD"},{"id":"1849","tribuneTheaterId":"5634","providerTheaterId":"","name":"Regal Ronkonkoma Stadium 9","address":"565 Portion Road","city":"Ronkonkoma","state":"NY","zip":"11779","distance":12.528919764725,"lon":"-73.093938","lat":"40.831322","theaterChainName":"Regal Cinemas","ticketType":"STANDARD"},{"id":"1175","tribuneTheaterId":"6590","providerTheaterId":"","name":"P.J. Cinemas","address":"1068 Route 112","city":"Port Jefferson Station","state":"NY","zip":"11776","distance":12.598812135992,"lon":"-73.0435","lat":"40.9216","theaterChainName":"Independent Chains","ticketType":"STANDARD"},{"id":"1179","tribuneTheaterId":"2874","providerTheaterId":"","name":"Sayville Theatre","address":"103 Railroad Ave.","city":"Sayville","state":"NY","zip":"11782","distance":12.762246092772,"lon":"-73.082889","lat":"40.737483","theaterChainName":"Independent Chains","ticketType":"STANDARD"},{"id":"2076","tribuneTheaterId":"8239","providerTheaterId":"2140","name":"AMC Loews Stony Brook 17","address":"2196 Nesconset Highway","city":"Stony Brook","state":"NY","zip":"11790","distance":14.898080387297,"lon":"-73.126652","lat":"40.875348","theaterChainName":"AMC Theatres","ticketType":"STANDARD"},{"id":"699","tribuneTheaterId":"7429","providerTheaterId":"","name":"UA Hampton Bays 5","address":"119 West Montauk Hwy","city":"Hampton Bays","state":"NY","zip":"11946","distance":17.773448035115,"lon":"-72.529324","lat":"40.876184","theaterChainName":"United Artists","ticketType":"STANDARD"},{"id":"4554","tribuneTheaterId":"9692","providerTheaterId":"","name":"Regal Deer Park Stadium 16 & IMAX","address":"1050 Commack Road","city":"Deer Park","state":"NY","zip":"11729","distance":23.670772795914,"lon":"-73.305787","lat":"40.765197","theaterChainName":"Regal Cinemas","ticketType":"STANDARD"},{"id":"113","tribuneTheaterId":"7150","providerTheaterId":"","name":"UA Southampton 4","address":"43 Hill St.","city":"Southampton","state":"NY","zip":"11968","distance":24.738122172859,"lon":"-72.39449","lat":"40.883784","theaterChainName":"United Artists","ticketType":"STANDARD"},{"id":"1174","tribuneTheaterId":"6463","providerTheaterId":"","name":"Elwood Cinema","address":"1950 East Jericho Turnpike","city":"East Northport","state":"NY","zip":"11731","distance":24.896446250742,"lon":"-73.330967","lat":"40.837642","theaterChainName":"Independent Chains","ticketType":"STANDARD"}]