[{"id":"113","tribuneTheaterId":"7150","providerTheaterId":"","name":"UA Southampton 4","address":"43 Hill St.","city":"Southampton","state":"NY","zip":"11968","distance":0.26308954525861,"lon":"-72.39449","lat":"40.883784","theaterChainName":"United Artists","ticketType":"STANDARD"},{"id":"699","tribuneTheaterId":"7429","providerTheaterId":"","name":"UA Hampton Bays 5","address":"119 West Montauk Hwy","city":"Hampton Bays","state":"NY","zip":"11946","distance":7.3258995697097,"lon":"-72.529324","lat":"40.876184","theaterChainName":"United Artists","ticketType":"STANDARD"},{"id":"112","tribuneTheaterId":"7151","providerTheaterId":"","name":"UA East Hampton 6","address":"30 Main St.","city":"East Hampton","state":"NY","zip":"11937","distance":11.969976524631,"lon":"-72.185444","lat":"40.963304","theaterChainName":"United Artists","ticketType":"STANDARD"},{"id":"4484","tribuneTheaterId":"9583","providerTheaterId":"","name":"Island Cinemas - Mastic","address":"1708 Montauk Highway","city":"Mastic","state":"NY","zip":"11950","distance":24.016285899519,"lon":"-72.837081","lat":"40.80569","theaterChainName":"Independent Chains","ticketType":"STANDARD"}]