[{"id":"699","tribuneTheaterId":"7429","providerTheaterId":"","name":"UA Hampton Bays 5","address":"119 West Montauk Hwy","city":"Hampton Bays","state":"NY","zip":"11946","distance":4.8624996884055,"lon":"-72.529324","lat":"40.876184","theaterChainName":"United Artists","ticketType":"STANDARD"},{"id":"113","tribuneTheaterId":"7150","providerTheaterId":"","name":"UA Southampton 4","address":"43 Hill St.","city":"Southampton","state":"NY","zip":"11968","distance":10.216970297517,"lon":"-72.39449","lat":"40.883784","theaterChainName":"United Artists","ticketType":"STANDARD"},{"id":"4484","tribuneTheaterId":"9583","providerTheaterId":"","name":"Island Cinemas - Mastic","address":"1708 Montauk Highway","city":"Mastic","state":"NY","zip":"11950","distance":16.306706394253,"lon":"-72.837081","lat":"40.80569","theaterChainName":"Independent Chains","ticketType":"STANDARD"},{"id":"112","tribuneTheaterId":"7151","providerTheaterId":"","name":"UA East Hampton 6","address":"30 Main St.","city":"East Hampton","state":"NY","zip":"11937","distance":20.532676190341,"lon":"-72.185444","lat":"40.963304","theaterChainName":"United Artists","ticketType":"STANDARD"},{"id":"2551","tribuneTheaterId":"2743","providerTheaterId":"","name":"Madison Art Cinemas","address":"761 Boston Post Road","city":"Madison","state":"CT","zip":"06443","distance":23.735613388962,"lon":"-72.595268","lat":"41.279763","theaterChainName":"Independent Chains","ticketType":"STANDARD"},{"id":"1826","tribuneTheaterId":"3088","providerTheaterId":"","name":"Movieland of Coram","address":"1850 Rt 112","city":"Coram","state":"NY","zip":"11727","distance":23.07904301446,"lon":"-73.015008","lat":"40.890012","theaterChainName":"Independent Chains","ticketType":"STANDARD"},{"id":"1175","tribuneTheaterId":"6590","providerTheaterId":"","name":"P.J. Cinemas","address":"1068 Route 112","city":"Port Jefferson Station","state":"NY","zip":"11776","distance":24.358061303039,"lon":"-73.0435","lat":"40.9216","theaterChainName":"Independent Chains","ticketType":"STANDARD"}]