[{"id":"699","tribuneTheaterId":"7429","providerTheaterId":"","name":"UA Hampton Bays 5","address":"119 West Montauk Hwy","city":"Hampton Bays","state":"NY","zip":"11946","distance":6.9583773805389,"lon":"-72.529324","lat":"40.876184","theaterChainName":"United Artists","ticketType":"STANDARD"},{"id":"4484","tribuneTheaterId":"9583","providerTheaterId":"","name":"Island Cinemas - Mastic","address":"1708 Montauk Highway","city":"Mastic","state":"NY","zip":"11950","distance":10.058974636356,"lon":"-72.837081","lat":"40.80569","theaterChainName":"Independent Chains","ticketType":"STANDARD"},{"id":"113","tribuneTheaterId":"7150","providerTheaterId":"","name":"UA Southampton 4","address":"43 Hill St.","city":"Southampton","state":"NY","zip":"11968","distance":13.733577310149,"lon":"-72.39449","lat":"40.883784","theaterChainName":"United Artists","ticketType":"STANDARD"},{"id":"1826","tribuneTheaterId":"3088","providerTheaterId":"","name":"Movieland of Coram","address":"1850 Rt 112","city":"Coram","state":"NY","zip":"11727","distance":19.664603503747,"lon":"-73.015008","lat":"40.890012","theaterChainName":"Independent Chains","ticketType":"STANDARD"},{"id":"1175","tribuneTheaterId":"6590","providerTheaterId":"","name":"P.J. Cinemas","address":"1068 Route 112","city":"Port Jefferson Station","state":"NY","zip":"11776","distance":21.655020515472,"lon":"-73.0435","lat":"40.9216","theaterChainName":"Independent Chains","ticketType":"STANDARD"},{"id":"1179","tribuneTheaterId":"2874","providerTheaterId":"","name":"Sayville Theatre","address":"103 Railroad Ave.","city":"Sayville","state":"NY","zip":"11782","distance":23.658633697954,"lon":"-73.082889","lat":"40.737483","theaterChainName":"Independent Chains","ticketType":"STANDARD"},{"id":"1849","tribuneTheaterId":"5634","providerTheaterId":"","name":"Regal Ronkonkoma Stadium 9","address":"565 Portion Road","city":"Ronkonkoma","state":"NY","zip":"11779","distance":23.350244306844,"lon":"-73.093938","lat":"40.831322","theaterChainName":"Regal Cinemas","ticketType":"STANDARD"}]