[{"id":"1849","name":"Regal Ronkonkoma Stadium 9","address":"565 Portion Road","city":"Ronkonkoma","state":"NY","zip":"11779","distance":"23.351797103881836","lon":"-73.093941","lat":"40.831322","theaterChainName":"Regal Cinemas","ticketType":"STANDARD"},{"id":"1826","name":"Movieland of Coram","address":"1850 Rt 112","city":"Coram","state":"NY","zip":"11727","distance":"19.665742874145508","lon":"-73.015007","lat":"40.890011","theaterChainName":"Independent Chains","ticketType":"STANDARD"},{"id":"1179","name":"Sayville Theatre","address":"103 Railroad Ave.","city":"Sayville","state":"NY","zip":"11782","distance":"23.659849166870117","lon":"-73.082886","lat":"40.737484","theaterChainName":"Independent Chains","ticketType":"STANDARD"},{"id":"1175","name":"P.J. Cinemas","address":"1068 Route 112","city":"Port Jefferson Station","state":"NY","zip":"11776","distance":"21.656509399414062","lon":"-73.043503","lat":"40.921600","theaterChainName":"Independent Chains","ticketType":"STANDARD"},{"id":"4484","name":"Island Cinemas - Mastic","address":"1708 Montauk Highway","city":"Mastic","state":"NY","zip":"11950","distance":"10.059579849243164","lon":"-72.837082","lat":"40.805691","theaterChainName":"Independent Chains","ticketType":"STANDARD"},{"id":"699","name":"UA Hampton Bays 5","address":"119 West Montauk Hwy","city":"Hampton Bays","state":"NY","zip":"11946","distance":"6.958693504333496","lon":"-72.529327","lat":"40.876183","theaterChainName":"United Artists","ticketType":"STANDARD"},{"id":"113","name":"UA Southampton 4","address":"43 Hill St.","city":"Southampton","state":"NY","zip":"11968","distance":"13.73436450958252","lon":"-72.394493","lat":"40.883785","theaterChainName":"United Artists","ticketType":"STANDARD"}]