[{"id":"4322","name":"North Adams Movieplex","address":"86 Main Street","city":"North Adams","state":"MA","zip":"01247","distance":"24.99486541748047","lon":"-73.111160","lat":"42.697025","theaterChainName":"Independent Chains","ticketType":"STANDARD"},{"id":"2809","name":"Images Cinema","address":"50 Spring St.","city":"Williamstown","state":"MA","zip":"01267","distance":"21.25031852722168","lon":"-73.204231","lat":"42.710739","theaterChainName":"Independent Chains","ticketType":"STANDARD"},{"id":"2810","name":"Bennington Cinemas","address":"319 Northside Drive","city":"Bennington","state":"VT","zip":"05201","distance":"12.4448881149292","lon":"-73.216087","lat":"42.903683","theaterChainName":"Independent Chains","ticketType":"STANDARD"},{"id":"3876","name":"Village Picture Shows","address":"263 Depot Street","city":"Manchester Center","state":"VT","zip":"05255","distance":"24.952211380004883","lon":"-73.053032","lat":"43.175575","theaterChainName":"Independent Chains","ticketType":"STANDARD"},{"id":"891","name":"Clifton Park Stadium 10 and RPX","address":"22 Clifton Park Country Rd.","city":"Clifton Park","state":"NY","zip":"12065","distance":"18.131057739257812","lon":"-73.779510","lat":"42.857635","theaterChainName":"Regal Cinemas","ticketType":"STANDARD"},{"id":"5421","name":"Wilton Mall Cinemas","address":"3065 Route 50","city":"Saratoga Springs","state":"NY","zip":"12866","distance":"17.578025817871094","lon":"-73.739174","lat":"43.101311","theaterChainName":"Bow-Tie Cinemas","ticketType":"STANDARD"},{"id":"5422","name":"Criterion Cinemas Saratoga","address":"19 Railroad Place","city":"Saratoga Springs","state":"NY","zip":"12866","distance":"19.06428337097168","lon":"-73.787674","lat":"43.082851","theaterChainName":"Bow-Tie Cinemas","ticketType":"STANDARD"}]