[{"id":"897","name":"Regal East Greenbush 8","address":"279 Troy Road","city":"Rensselaer","state":"NY","zip":"12144","distance":"22.52528190612793","lon":"-73.700958","lat":"42.640015","theaterChainName":"Regal Cinemas","ticketType":"STANDARD"},{"id":"917","name":"Madison Theatre","address":"1036 Madison Avenue","city":"Albany","state":"NY","zip":"12208","distance":"19.313426971435547","lon":"-73.789612","lat":"42.664513","theaterChainName":"Independent Chains","ticketType":"STANDARD"},{"id":"4474","name":"Regal Colonie Center Stadium 13","address":"131 Colonie Center","city":"Albany","state":"NY","zip":"12205","distance":"15.88928508758545","lon":"-73.816170","lat":"42.710526","theaterChainName":"Regal Cinemas","ticketType":"STANDARD"},{"id":"895","name":"Regal Crossgates Stadium 18 & IMAX","address":"1 Crossgates Mall Road","city":"Albany","state":"NY","zip":"12203","distance":"16.878658294677734","lon":"-73.852509","lat":"42.690720","theaterChainName":"Regal Cinemas","ticketType":"STANDARD"},{"id":"891","name":"Clifton Park Stadium 10 and RPX","address":"22 Clifton Park Country Rd.","city":"Clifton Park","state":"NY","zip":"12065","distance":"7.862582683563232","lon":"-73.779510","lat":"42.857635","theaterChainName":"Regal Cinemas","ticketType":"STANDARD"},{"id":"5421","name":"Wilton Mall Cinemas","address":"3065 Route 50","city":"Saratoga Springs","state":"NY","zip":"12866","distance":"14.078052520751953","lon":"-73.739174","lat":"43.101311","theaterChainName":"Bow-Tie Cinemas","ticketType":"STANDARD"},{"id":"5422","name":"Criterion Cinemas Saratoga","address":"19 Railroad Place","city":"Saratoga Springs","state":"NY","zip":"12866","distance":"11.718294143676758","lon":"-73.787674","lat":"43.082851","theaterChainName":"Bow-Tie Cinemas","ticketType":"STANDARD"},{"id":"4798","name":"Rotterdam Square Cinema","address":"93 W. Campbell Road","city":"Schenectady","state":"NY","zip":"12306","distance":"9.795214653015137","lon":"-73.987488","lat":"42.807999","theaterChainName":"Zurich Cinemas","ticketType":"STANDARD"},{"id":"4359","name":"Bow Tie Cinemas Movieland","address":"400 State St","city":"Schenectady","state":"NY","zip":"12305","distance":"8.608497619628906","lon":"-73.942368","lat":"42.813038","theaterChainName":"Bow-Tie Cinemas","ticketType":"STANDARD"},{"id":"2811","name":"Emerald Cinema","address":"136 Perth Plaza, Route 30","city":"Amsterdam","state":"NY","zip":"12010","distance":"14.805184364318848","lon":"-74.184441","lat":"42.969494","theaterChainName":"Independent Chains","ticketType":"STANDARD"},{"id":"2812","name":"Johnstown MoviePlex 9","address":"Pyramid Mall - Rt 30A","city":"Johnstown","state":"NY","zip":"12095","distance":"24.19450569152832","lon":"-74.361099","lat":"43.015400","theaterChainName":"Independent Chains","ticketType":"STANDARD"}]