[{"id":"895","tribuneTheaterId":"6811","providerTheaterId":"","name":"Regal Crossgates Stadium 18 & IMAX","address":"1 Crossgates Mall Road","city":"Albany","state":"NY","zip":"12203","distance":9.7496205064479,"lon":"-73.852512","lat":"42.690721","theaterChainName":"Regal Cinemas","ticketType":"STANDARD"},{"id":"917","tribuneTheaterId":"3035","providerTheaterId":"","name":"Madison Theatre","address":"1036 Madison Avenue","city":"Albany","state":"NY","zip":"12208","distance":10.774862464079,"lon":"-73.789613","lat":"42.664513","theaterChainName":"Independent Chains","ticketType":"STANDARD"},{"id":"4474","tribuneTheaterId":"9566","providerTheaterId":"","name":"Regal Colonie Center Stadium 13","address":"131 Colonie Center","city":"Albany","state":"NY","zip":"12205","distance":11.956911781298,"lon":"-73.816173","lat":"42.710524","theaterChainName":"Regal Cinemas","ticketType":"STANDARD"},{"id":"897","tribuneTheaterId":"5659","providerTheaterId":"","name":"Regal East Greenbush 8","address":"279 Troy Road","city":"Rensselaer","state":"NY","zip":"12144","distance":14.090944400814,"lon":"-73.700956","lat":"42.640013","theaterChainName":"Regal Cinemas","ticketType":"STANDARD"},{"id":"4798","tribuneTheaterId":"10053","providerTheaterId":"","name":"Rotterdam Square Cinema","address":"93 W. Campbell Road","city":"Schenectady","state":"NY","zip":"12306","distance":16.080660569236,"lon":"-73.987491","lat":"42.807997","theaterChainName":"Zurich Cinemas","ticketType":"STANDARD"},{"id":"4359","tribuneTheaterId":"9384","providerTheaterId":"","name":"Bow Tie Cinemas Movieland","address":"400 State St","city":"Schenectady","state":"NY","zip":"12305","distance":16.421424911122,"lon":"-73.94237","lat":"42.813038","theaterChainName":"Bow-Tie Cinemas","ticketType":"STANDARD"},{"id":"891","tribuneTheaterId":"7898","providerTheaterId":"","name":"Clifton Park Stadium 10 and RPX","address":"22 Clifton Park Country Rd.","city":"Clifton Park","state":"NY","zip":"12065","distance":21.601695155469,"lon":"-73.779513","lat":"42.857635","theaterChainName":"Regal Cinemas","ticketType":"STANDARD"},{"id":"5656","tribuneTheaterId":"11124","providerTheaterId":"","name":"Time & Space Limited\/TSL","address":"434 Columbia Street","city":"Hudson","state":"NY","zip":"12534","distance":24.206881090081,"lon":"-73.7864","lat":"42.251011","theaterChainName":"Independent Chains","ticketType":"STANDARD"},{"id":"2813","tribuneTheaterId":"6472","providerTheaterId":"","name":"Hudson Movieplex","address":"350 Fairview Ave","city":"Hudson","state":"NY","zip":"12534","distance":23.424267062128,"lon":"-73.759134","lat":"42.272473","theaterChainName":"Independent Chains","ticketType":"STANDARD"},{"id":"904","tribuneTheaterId":"212","providerTheaterId":"","name":"Crandell Theatre","address":"46-48 Main Street","city":"Chatham","state":"NY","zip":"12037","distance":23.837519714498,"lon":"-73.595632","lat":"42.363306","theaterChainName":"Independent Chains","ticketType":"STANDARD"}]