[{"id":"4798","name":"Rotterdam Square Cinema","address":"93 W. Campbell Road","city":"Schenectady","state":"NY","zip":"12306","distance":"23.38414192199707","lon":"-73.987488","lat":"42.807999","theaterChainName":"Zurich Cinemas","ticketType":"STANDARD"},{"id":"2811","name":"Emerald Cinema","address":"136 Perth Plaza, Route 30","city":"Amsterdam","state":"NY","zip":"12010","distance":"11.03918170928955","lon":"-74.184441","lat":"42.969494","theaterChainName":"Independent Chains","ticketType":"STANDARD"},{"id":"3386","name":"Park Theatre","address":"1 Park Place","city":"Cobleskill","state":"NY","zip":"12043","distance":"19.771381378173828","lon":"-74.485374","lat":"42.677559","theaterChainName":"Independent Chains","ticketType":"STANDARD"},{"id":"2812","name":"Johnstown MoviePlex 9","address":"Pyramid Mall - Rt 30A","city":"Johnstown","state":"NY","zip":"12095","distance":"4.530210018157959","lon":"-74.361099","lat":"43.015400","theaterChainName":"Independent Chains","ticketType":"STANDARD"}]