[{"id":"5422","name":"Criterion Cinemas Saratoga","address":"19 Railroad Place","city":"Saratoga Springs","state":"NY","zip":"12866","distance":"24.403966903686523","lon":"-73.787674","lat":"43.082851","theaterChainName":"Bow-Tie Cinemas","ticketType":"STANDARD"},{"id":"4798","name":"Rotterdam Square Cinema","address":"93 W. Campbell Road","city":"Schenectady","state":"NY","zip":"12306","distance":"17.60729217529297","lon":"-73.987488","lat":"42.807999","theaterChainName":"Zurich Cinemas","ticketType":"STANDARD"},{"id":"4359","name":"Bow Tie Cinemas Movieland","address":"400 State St","city":"Schenectady","state":"NY","zip":"12305","distance":"19.1719970703125","lon":"-73.942368","lat":"42.813038","theaterChainName":"Bow-Tie Cinemas","ticketType":"STANDARD"},{"id":"2811","name":"Emerald Cinema","address":"136 Perth Plaza, Route 30","city":"Amsterdam","state":"NY","zip":"12010","distance":"3.2695369720458984","lon":"-74.184441","lat":"42.969494","theaterChainName":"Independent Chains","ticketType":"STANDARD"},{"id":"3386","name":"Park Theatre","address":"1 Park Place","city":"Cobleskill","state":"NY","zip":"12043","distance":"23.89349365234375","lon":"-74.485374","lat":"42.677559","theaterChainName":"Independent Chains","ticketType":"STANDARD"},{"id":"2812","name":"Johnstown MoviePlex 9","address":"Pyramid Mall - Rt 30A","city":"Johnstown","state":"NY","zip":"12095","distance":"6.298046112060547","lon":"-74.361099","lat":"43.015400","theaterChainName":"Independent Chains","ticketType":"STANDARD"}]