[{"id":"2811","tribuneTheaterId":"6599","providerTheaterId":"","name":"Emerald Cinema","address":"136 Perth Plaza, Route 30","city":"Amsterdam","state":"NY","zip":"12010","distance":3.2694470831753,"lon":"-74.18444","lat":"42.969495","theaterChainName":"Independent Chains","ticketType":"STANDARD"},{"id":"2812","tribuneTheaterId":"2187","providerTheaterId":"","name":"Johnstown MoviePlex 9","address":"Pyramid Mall - Rt 30A","city":"Johnstown","state":"NY","zip":"12095","distance":6.2976365185883,"lon":"-74.3611","lat":"43.0154","theaterChainName":"Independent Chains","ticketType":"STANDARD"},{"id":"4798","tribuneTheaterId":"10053","providerTheaterId":"","name":"Rotterdam Square Cinema","address":"93 W. Campbell Road","city":"Schenectady","state":"NY","zip":"12306","distance":17.606170108496,"lon":"-73.987491","lat":"42.807997","theaterChainName":"Zurich Cinemas","ticketType":"STANDARD"},{"id":"4359","tribuneTheaterId":"9384","providerTheaterId":"","name":"Bow Tie Cinemas Movieland","address":"400 State St","city":"Schenectady","state":"NY","zip":"12305","distance":19.170732656286,"lon":"-73.94237","lat":"42.813038","theaterChainName":"Bow-Tie Cinemas","ticketType":"STANDARD"},{"id":"5422","tribuneTheaterId":"10859","providerTheaterId":"","name":"Criterion Cinemas Saratoga","address":"19 Railroad Place","city":"Saratoga Springs","state":"NY","zip":"12866","distance":24.402724114756,"lon":"-73.787671","lat":"43.082851","theaterChainName":"Bow-Tie Cinemas","ticketType":"STANDARD"},{"id":"3386","tribuneTheaterId":"613","providerTheaterId":"","name":"Park Theatre","address":"1 Park Place","city":"Cobleskill","state":"NY","zip":"12043","distance":23.891947032338,"lon":"-74.485373","lat":"42.677557","theaterChainName":"Independent Chains","ticketType":"STANDARD"}]