[{"id":"904","name":"Crandell Theatre","address":"46-48 Main Street","city":"Chatham","state":"NY","zip":"12037","distance":"19.108251571655273","lon":"-73.595634","lat":"42.363304","theaterChainName":"Independent Chains","ticketType":"STANDARD"},{"id":"897","name":"Regal East Greenbush 8","address":"279 Troy Road","city":"Rensselaer","state":"NY","zip":"12144","distance":"5.665478229522705","lon":"-73.700958","lat":"42.640015","theaterChainName":"Regal Cinemas","ticketType":"STANDARD"},{"id":"2813","name":"Hudson Movieplex","address":"350 Fairview Ave","city":"Hudson","state":"NY","zip":"12534","distance":"22.5091609954834","lon":"-73.759132","lat":"42.272472","theaterChainName":"Independent Chains","ticketType":"STANDARD"},{"id":"5656","name":"Time & Space Limited\/TSL","address":"434 Columbia Street","city":"Hudson","state":"NY","zip":"12534","distance":"23.918781280517578","lon":"-73.786400","lat":"42.251011","theaterChainName":"Independent Chains","ticketType":"STANDARD"},{"id":"917","name":"Madison Theatre","address":"1036 Madison Avenue","city":"Albany","state":"NY","zip":"12208","distance":"4.669049263000488","lon":"-73.789612","lat":"42.664513","theaterChainName":"Independent Chains","ticketType":"STANDARD"},{"id":"4474","name":"Regal Colonie Center Stadium 13","address":"131 Colonie Center","city":"Albany","state":"NY","zip":"12205","distance":"7.904889106750488","lon":"-73.816170","lat":"42.710526","theaterChainName":"Regal Cinemas","ticketType":"STANDARD"},{"id":"895","name":"Regal Crossgates Stadium 18 & IMAX","address":"1 Crossgates Mall Road","city":"Albany","state":"NY","zip":"12203","distance":"7.079972267150879","lon":"-73.852509","lat":"42.690720","theaterChainName":"Regal Cinemas","ticketType":"STANDARD"},{"id":"891","name":"Clifton Park Stadium 10 and RPX","address":"22 Clifton Park Country Rd.","city":"Clifton Park","state":"NY","zip":"12065","distance":"18.021629333496094","lon":"-73.779510","lat":"42.857635","theaterChainName":"Regal Cinemas","ticketType":"STANDARD"},{"id":"4798","name":"Rotterdam Square Cinema","address":"93 W. Campbell Road","city":"Schenectady","state":"NY","zip":"12306","distance":"17.521650314331055","lon":"-73.987488","lat":"42.807999","theaterChainName":"Zurich Cinemas","ticketType":"STANDARD"},{"id":"4359","name":"Bow Tie Cinemas Movieland","address":"400 State St","city":"Schenectady","state":"NY","zip":"12305","distance":"16.671628952026367","lon":"-73.942368","lat":"42.813038","theaterChainName":"Bow-Tie Cinemas","ticketType":"STANDARD"}]