[{"id":"1710","name":"Regal Berkshire Mall 10","address":"Route 8 and Old State Road","city":"Lanesboro","state":"MA","zip":"01237","distance":"22.820730209350586","lon":"-73.207375","lat":"42.493225","theaterChainName":"Regal Cinemas","ticketType":"STANDARD"},{"id":"4861","name":"The Beacon Cinema","address":"57 North Street","city":"Pittsfield","state":"MA","zip":"01201","distance":"24.39274787902832","lon":"-73.253738","lat":"42.449436","theaterChainName":"Independent Chains","ticketType":"STANDARD"},{"id":"4322","name":"North Adams Movieplex","address":"86 Main Street","city":"North Adams","state":"MA","zip":"01247","distance":"17.81691551208496","lon":"-73.111160","lat":"42.697025","theaterChainName":"Independent Chains","ticketType":"STANDARD"},{"id":"2809","name":"Images Cinema","address":"50 Spring St.","city":"Williamstown","state":"MA","zip":"01267","distance":"13.030558586120605","lon":"-73.204231","lat":"42.710739","theaterChainName":"Independent Chains","ticketType":"STANDARD"},{"id":"2810","name":"Bennington Cinemas","address":"319 Northside Drive","city":"Bennington","state":"VT","zip":"05201","distance":"14.788138389587402","lon":"-73.216087","lat":"42.903683","theaterChainName":"Independent Chains","ticketType":"STANDARD"},{"id":"897","name":"Regal East Greenbush 8","address":"279 Troy Road","city":"Rensselaer","state":"NY","zip":"12144","distance":"15.826164245605469","lon":"-73.700958","lat":"42.640015","theaterChainName":"Regal Cinemas","ticketType":"STANDARD"},{"id":"917","name":"Madison Theatre","address":"1036 Madison Avenue","city":"Albany","state":"NY","zip":"12208","distance":"18.93787956237793","lon":"-73.789612","lat":"42.664513","theaterChainName":"Independent Chains","ticketType":"STANDARD"},{"id":"4474","name":"Regal Colonie Center Stadium 13","address":"131 Colonie Center","city":"Albany","state":"NY","zip":"12205","distance":"19.228763580322266","lon":"-73.816170","lat":"42.710526","theaterChainName":"Regal Cinemas","ticketType":"STANDARD"},{"id":"895","name":"Regal Crossgates Stadium 18 & IMAX","address":"1 Crossgates Mall Road","city":"Albany","state":"NY","zip":"12203","distance":"21.354751586914062","lon":"-73.852509","lat":"42.690720","theaterChainName":"Regal Cinemas","ticketType":"STANDARD"},{"id":"891","name":"Clifton Park Stadium 10 and RPX","address":"22 Clifton Park Country Rd.","city":"Clifton Park","state":"NY","zip":"12065","distance":"17.8582706451416","lon":"-73.779510","lat":"42.857635","theaterChainName":"Regal Cinemas","ticketType":"STANDARD"}]