[{"id":"1710","name":"Regal Berkshire Mall 10","address":"Route 8 and Old State Road","city":"Lanesboro","state":"MA","zip":"01237","distance":"23.679237365722656","lon":"-73.207375","lat":"42.493225","theaterChainName":"Regal Cinemas","ticketType":"STANDARD"},{"id":"4861","name":"The Beacon Cinema","address":"57 North Street","city":"Pittsfield","state":"MA","zip":"01201","distance":"21.046123504638672","lon":"-73.253738","lat":"42.449436","theaterChainName":"Independent Chains","ticketType":"STANDARD"},{"id":"2808","name":"Triplex Cinema","address":"70 Railroad Street","city":"Great Barrington","state":"MA","zip":"01230","distance":"22.940324783325195","lon":"-73.362968","lat":"42.195217","theaterChainName":"Independent Chains","ticketType":"STANDARD"},{"id":"904","name":"Crandell Theatre","address":"46-48 Main Street","city":"Chatham","state":"NY","zip":"12037","distance":"6.40964937210083","lon":"-73.595634","lat":"42.363304","theaterChainName":"Independent Chains","ticketType":"STANDARD"},{"id":"897","name":"Regal East Greenbush 8","address":"279 Troy Road","city":"Rensselaer","state":"NY","zip":"12144","distance":"13.932820320129395","lon":"-73.700958","lat":"42.640015","theaterChainName":"Regal Cinemas","ticketType":"STANDARD"},{"id":"2813","name":"Hudson Movieplex","address":"350 Fairview Ave","city":"Hudson","state":"NY","zip":"12534","distance":"12.50861930847168","lon":"-73.759132","lat":"42.272472","theaterChainName":"Independent Chains","ticketType":"STANDARD"},{"id":"5656","name":"Time & Space Limited\/TSL","address":"434 Columbia Street","city":"Hudson","state":"NY","zip":"12534","distance":"14.42732048034668","lon":"-73.786400","lat":"42.251011","theaterChainName":"Independent Chains","ticketType":"STANDARD"},{"id":"917","name":"Madison Theatre","address":"1036 Madison Avenue","city":"Albany","state":"NY","zip":"12208","distance":"16.7351016998291","lon":"-73.789612","lat":"42.664513","theaterChainName":"Independent Chains","ticketType":"STANDARD"},{"id":"4474","name":"Regal Colonie Center Stadium 13","address":"131 Colonie Center","city":"Albany","state":"NY","zip":"12205","distance":"20.188432693481445","lon":"-73.816170","lat":"42.710526","theaterChainName":"Regal Cinemas","ticketType":"STANDARD"},{"id":"895","name":"Regal Crossgates Stadium 18 & IMAX","address":"1 Crossgates Mall Road","city":"Albany","state":"NY","zip":"12203","distance":"19.74664878845215","lon":"-73.852509","lat":"42.690720","theaterChainName":"Regal Cinemas","ticketType":"STANDARD"}]