[{"id":"4798","tribuneTheaterId":"10053","providerTheaterId":"","name":"Rotterdam Square Cinema","address":"93 W. Campbell Road","city":"Schenectady","state":"NY","zip":"12306","distance":7.4566104410963,"lon":"-73.987491","lat":"42.807997","theaterChainName":"Zurich Cinemas","ticketType":"STANDARD"},{"id":"2811","tribuneTheaterId":"6599","providerTheaterId":"","name":"Emerald Cinema","address":"136 Perth Plaza, Route 30","city":"Amsterdam","state":"NY","zip":"12010","distance":8.8270329603043,"lon":"-74.18444","lat":"42.969495","theaterChainName":"Independent Chains","ticketType":"STANDARD"},{"id":"4359","tribuneTheaterId":"9384","providerTheaterId":"","name":"Bow Tie Cinemas Movieland","address":"400 State St","city":"Schenectady","state":"NY","zip":"12305","distance":9.5051710503236,"lon":"-73.94237","lat":"42.813038","theaterChainName":"Bow-Tie Cinemas","ticketType":"STANDARD"},{"id":"2812","tribuneTheaterId":"2187","providerTheaterId":"","name":"Johnstown MoviePlex 9","address":"Pyramid Mall - Rt 30A","city":"Johnstown","state":"NY","zip":"12095","distance":16.604575890774,"lon":"-74.3611","lat":"43.0154","theaterChainName":"Independent Chains","ticketType":"STANDARD"},{"id":"891","tribuneTheaterId":"7898","providerTheaterId":"","name":"Clifton Park Stadium 10 and RPX","address":"22 Clifton Park Country Rd.","city":"Clifton Park","state":"NY","zip":"12065","distance":17.411472514557,"lon":"-73.779513","lat":"42.857635","theaterChainName":"Regal Cinemas","ticketType":"STANDARD"},{"id":"4474","tribuneTheaterId":"9566","providerTheaterId":"","name":"Regal Colonie Center Stadium 13","address":"131 Colonie Center","city":"Albany","state":"NY","zip":"12205","distance":18.303033768918,"lon":"-73.816173","lat":"42.710524","theaterChainName":"Regal Cinemas","ticketType":"STANDARD"},{"id":"895","tribuneTheaterId":"6811","providerTheaterId":"","name":"Regal Crossgates Stadium 18 & IMAX","address":"1 Crossgates Mall Road","city":"Albany","state":"NY","zip":"12203","distance":17.587359361529,"lon":"-73.852512","lat":"42.690721","theaterChainName":"Regal Cinemas","ticketType":"STANDARD"},{"id":"917","tribuneTheaterId":"3035","providerTheaterId":"","name":"Madison Theatre","address":"1036 Madison Avenue","city":"Albany","state":"NY","zip":"12208","distance":21.220057052074,"lon":"-73.789613","lat":"42.664513","theaterChainName":"Independent Chains","ticketType":"STANDARD"},{"id":"3386","tribuneTheaterId":"613","providerTheaterId":"","name":"Park Theatre","address":"1 Park Place","city":"Cobleskill","state":"NY","zip":"12043","distance":21.897222954599,"lon":"-74.485373","lat":"42.677557","theaterChainName":"Independent Chains","ticketType":"STANDARD"},{"id":"5422","tribuneTheaterId":"10859","providerTheaterId":"","name":"Criterion Cinemas Saratoga","address":"19 Railroad Place","city":"Saratoga Springs","state":"NY","zip":"12866","distance":23.380933082974,"lon":"-73.787671","lat":"43.082851","theaterChainName":"Bow-Tie Cinemas","ticketType":"STANDARD"}]