[{"id":"3386","tribuneTheaterId":"613","providerTheaterId":"","name":"Park Theatre","address":"1 Park Place","city":"Cobleskill","state":"NY","zip":"12043","distance":8.3787712244997,"lon":"-74.485373","lat":"42.677557","theaterChainName":"Independent Chains","ticketType":"STANDARD"},{"id":"2812","tribuneTheaterId":"2187","providerTheaterId":"","name":"Johnstown MoviePlex 9","address":"Pyramid Mall - Rt 30A","city":"Johnstown","state":"NY","zip":"12095","distance":17.654036393368,"lon":"-74.3611","lat":"43.0154","theaterChainName":"Independent Chains","ticketType":"STANDARD"},{"id":"2811","tribuneTheaterId":"6599","providerTheaterId":"","name":"Emerald Cinema","address":"136 Perth Plaza, Route 30","city":"Amsterdam","state":"NY","zip":"12010","distance":17.105298420091,"lon":"-74.18444","lat":"42.969495","theaterChainName":"Independent Chains","ticketType":"STANDARD"},{"id":"4798","tribuneTheaterId":"10053","providerTheaterId":"","name":"Rotterdam Square Cinema","address":"93 W. Campbell Road","city":"Schenectady","state":"NY","zip":"12306","distance":19.389412389983,"lon":"-73.987491","lat":"42.807997","theaterChainName":"Zurich Cinemas","ticketType":"STANDARD"},{"id":"4359","tribuneTheaterId":"9384","providerTheaterId":"","name":"Bow Tie Cinemas Movieland","address":"400 State St","city":"Schenectady","state":"NY","zip":"12305","distance":21.702481156326,"lon":"-73.94237","lat":"42.813038","theaterChainName":"Bow-Tie Cinemas","ticketType":"STANDARD"}]