[{"id":"5422","tribuneTheaterId":"10859","providerTheaterId":"","name":"Criterion Cinemas Saratoga","address":"19 Railroad Place","city":"Saratoga Springs","state":"NY","zip":"12866","distance":8.5007698998748,"lon":"-73.787671","lat":"43.082851","theaterChainName":"Bow-Tie Cinemas","ticketType":"STANDARD"},{"id":"5421","tribuneTheaterId":"10858","providerTheaterId":"","name":"Wilton Mall Cinemas","address":"3065 Route 50","city":"Saratoga Springs","state":"NY","zip":"12866","distance":7.9243990155888,"lon":"-73.739171","lat":"43.101312","theaterChainName":"Bow-Tie Cinemas","ticketType":"STANDARD"},{"id":"891","tribuneTheaterId":"7898","providerTheaterId":"","name":"Clifton Park Stadium 10 and RPX","address":"22 Clifton Park Country Rd.","city":"Clifton Park","state":"NY","zip":"12065","distance":11.63454124865,"lon":"-73.779513","lat":"42.857635","theaterChainName":"Regal Cinemas","ticketType":"STANDARD"},{"id":"4359","tribuneTheaterId":"9384","providerTheaterId":"","name":"Bow Tie Cinemas Movieland","address":"400 State St","city":"Schenectady","state":"NY","zip":"12305","distance":19.318000490325,"lon":"-73.94237","lat":"42.813038","theaterChainName":"Bow-Tie Cinemas","ticketType":"STANDARD"},{"id":"3577","tribuneTheaterId":"1302","providerTheaterId":"","name":"190 Grille & Cinema","address":"190 Glen Street","city":"Glens Falls","state":"NY","zip":"12801","distance":21.296260196153,"lon":"-73.644699","lat":"43.309898","theaterChainName":"Independent Chains","ticketType":"STANDARD"},{"id":"4474","tribuneTheaterId":"9566","providerTheaterId":"","name":"Regal Colonie Center Stadium 13","address":"131 Colonie Center","city":"Albany","state":"NY","zip":"12205","distance":21.613725046473,"lon":"-73.816173","lat":"42.710524","theaterChainName":"Regal Cinemas","ticketType":"STANDARD"},{"id":"4798","tribuneTheaterId":"10053","providerTheaterId":"","name":"Rotterdam Square Cinema","address":"93 W. Campbell Road","city":"Schenectady","state":"NY","zip":"12306","distance":21.276431187786,"lon":"-73.987491","lat":"42.807997","theaterChainName":"Zurich Cinemas","ticketType":"STANDARD"},{"id":"889","tribuneTheaterId":"4655","providerTheaterId":"","name":"Regal Aviation Mall 7","address":"Aviation Mall Road","city":"Queensbury","state":"NY","zip":"12804","distance":23.211950134048,"lon":"-73.6747","lat":"43.3377","theaterChainName":"Regal Cinemas","ticketType":"STANDARD"},{"id":"917","tribuneTheaterId":"3035","providerTheaterId":"","name":"Madison Theatre","address":"1036 Madison Avenue","city":"Albany","state":"NY","zip":"12208","distance":24.206268604037,"lon":"-73.789613","lat":"42.664513","theaterChainName":"Independent Chains","ticketType":"STANDARD"},{"id":"895","tribuneTheaterId":"6811","providerTheaterId":"","name":"Regal Crossgates Stadium 18 & IMAX","address":"1 Crossgates Mall Road","city":"Albany","state":"NY","zip":"12203","distance":23.589930156656,"lon":"-73.852512","lat":"42.690721","theaterChainName":"Regal Cinemas","ticketType":"STANDARD"},{"id":"2810","tribuneTheaterId":"6197","providerTheaterId":"","name":"Bennington Cinemas","address":"319 Northside Drive","city":"Bennington","state":"VT","zip":"05201","distance":23.495669017979,"lon":"-73.216088","lat":"42.903682","theaterChainName":"Independent Chains","ticketType":"STANDARD"}]