[{"id":"2813","tribuneTheaterId":"6472","providerTheaterId":"","name":"Hudson Movieplex","address":"350 Fairview Ave","city":"Hudson","state":"NY","zip":"12534","distance":6.0209092396159,"lon":"-73.759134","lat":"42.272473","theaterChainName":"Independent Chains","ticketType":"STANDARD"},{"id":"5656","tribuneTheaterId":"11124","providerTheaterId":"","name":"Time & Space Limited\/TSL","address":"434 Columbia Street","city":"Hudson","state":"NY","zip":"12534","distance":7.6116119074634,"lon":"-73.7864","lat":"42.251011","theaterChainName":"Independent Chains","ticketType":"STANDARD"},{"id":"904","tribuneTheaterId":"212","providerTheaterId":"","name":"Crandell Theatre","address":"46-48 Main Street","city":"Chatham","state":"NY","zip":"12037","distance":8.4618300853309,"lon":"-73.595632","lat":"42.363306","theaterChainName":"Independent Chains","ticketType":"STANDARD"},{"id":"897","tribuneTheaterId":"5659","providerTheaterId":"","name":"Regal East Greenbush 8","address":"279 Troy Road","city":"Rensselaer","state":"NY","zip":"12144","distance":19.617002885659,"lon":"-73.700956","lat":"42.640013","theaterChainName":"Regal Cinemas","ticketType":"STANDARD"},{"id":"2285","tribuneTheaterId":"2830","providerTheaterId":"","name":"Orpheum Theatre - Saugerties","address":"Main Street","city":"Saugerties","state":"NY","zip":"12477","distance":21.77127036589,"lon":"-73.951885","lat":"42.07788","theaterChainName":"Independent Chains","ticketType":"STANDARD"},{"id":"917","tribuneTheaterId":"3035","providerTheaterId":"","name":"Madison Theatre","address":"1036 Madison Avenue","city":"Albany","state":"NY","zip":"12208","distance":21.116739158287,"lon":"-73.789613","lat":"42.664513","theaterChainName":"Independent Chains","ticketType":"STANDARD"},{"id":"5753","tribuneTheaterId":"11195","providerTheaterId":"","name":"Orpheum Theatre","address":"6050 Main Street","city":"Tannersville","state":"NY","zip":"12424","distance":22.218587840817,"lon":"-74.135385","lat":"42.195889","theaterChainName":"Independent Chains","ticketType":"STANDARD"},{"id":"2808","tribuneTheaterId":"6118","providerTheaterId":"","name":"Triplex Cinema","address":"70 Railroad Street","city":"Great Barrington","state":"MA","zip":"01230","distance":23.316700317238,"lon":"-73.362968","lat":"42.195217","theaterChainName":"Independent Chains","ticketType":"STANDARD"},{"id":"895","tribuneTheaterId":"6811","providerTheaterId":"","name":"Regal Crossgates Stadium 18 & IMAX","address":"1 Crossgates Mall Road","city":"Albany","state":"NY","zip":"12203","distance":23.344928586163,"lon":"-73.852512","lat":"42.690721","theaterChainName":"Regal Cinemas","ticketType":"STANDARD"},{"id":"4474","tribuneTheaterId":"9566","providerTheaterId":"","name":"Regal Colonie Center Stadium 13","address":"131 Colonie Center","city":"Albany","state":"NY","zip":"12205","distance":24.40691341962,"lon":"-73.816173","lat":"42.710524","theaterChainName":"Regal Cinemas","ticketType":"STANDARD"}]