[{"id":"4861","tribuneTheaterId":"10158","providerTheaterId":"","name":"The Beacon Cinema","address":"57 North Street","city":"Pittsfield","state":"MA","zip":"01201","distance":11.122583556146,"lon":"-73.253737","lat":"42.449435","theaterChainName":"Independent Chains","ticketType":"STANDARD"},{"id":"904","tribuneTheaterId":"212","providerTheaterId":"","name":"Crandell Theatre","address":"46-48 Main Street","city":"Chatham","state":"NY","zip":"12037","distance":10.755322400932,"lon":"-73.595632","lat":"42.363306","theaterChainName":"Independent Chains","ticketType":"STANDARD"},{"id":"1710","tribuneTheaterId":"4659","providerTheaterId":"","name":"Regal Berkshire Mall 10","address":"Route 8 and Old State Road","city":"Lanesboro","state":"MA","zip":"01237","distance":13.196080199654,"lon":"-73.207371","lat":"42.493224","theaterChainName":"Regal Cinemas","ticketType":"STANDARD"},{"id":"897","tribuneTheaterId":"5659","providerTheaterId":"","name":"Regal East Greenbush 8","address":"279 Troy Road","city":"Rensselaer","state":"NY","zip":"12144","distance":15.989489809807,"lon":"-73.700956","lat":"42.640013","theaterChainName":"Regal Cinemas","ticketType":"STANDARD"},{"id":"917","tribuneTheaterId":"3035","providerTheaterId":"","name":"Madison Theatre","address":"1036 Madison Avenue","city":"Albany","state":"NY","zip":"12208","distance":20.556191244314,"lon":"-73.789613","lat":"42.664513","theaterChainName":"Independent Chains","ticketType":"STANDARD"},{"id":"2809","tribuneTheaterId":"5161","providerTheaterId":"","name":"Images Cinema","address":"50 Spring St.","city":"Williamstown","state":"MA","zip":"01267","distance":20.450298787019,"lon":"-73.204229","lat":"42.710738","theaterChainName":"Independent Chains","ticketType":"STANDARD"},{"id":"2813","tribuneTheaterId":"6472","providerTheaterId":"","name":"Hudson Movieplex","address":"350 Fairview Ave","city":"Hudson","state":"NY","zip":"12534","distance":21.014314637936,"lon":"-73.759134","lat":"42.272473","theaterChainName":"Independent Chains","ticketType":"STANDARD"},{"id":"2808","tribuneTheaterId":"6118","providerTheaterId":"","name":"Triplex Cinema","address":"70 Railroad Street","city":"Great Barrington","state":"MA","zip":"01230","distance":20.784730336846,"lon":"-73.362968","lat":"42.195217","theaterChainName":"Independent Chains","ticketType":"STANDARD"},{"id":"4474","tribuneTheaterId":"9566","providerTheaterId":"","name":"Regal Colonie Center Stadium 13","address":"131 Colonie Center","city":"Albany","state":"NY","zip":"12205","distance":23.602152830859,"lon":"-73.816173","lat":"42.710524","theaterChainName":"Regal Cinemas","ticketType":"STANDARD"},{"id":"4322","tribuneTheaterId":"9284","providerTheaterId":"","name":"North Adams Movieplex","address":"86 Main Street","city":"North Adams","state":"MA","zip":"01247","distance":23.202005919334,"lon":"-73.11116","lat":"42.697026","theaterChainName":"Independent Chains","ticketType":"STANDARD"},{"id":"5656","tribuneTheaterId":"11124","providerTheaterId":"","name":"Time & Space Limited\/TSL","address":"434 Columbia Street","city":"Hudson","state":"NY","zip":"12534","distance":23.048564791714,"lon":"-73.7864","lat":"42.251011","theaterChainName":"Independent Chains","ticketType":"STANDARD"},{"id":"895","tribuneTheaterId":"6811","providerTheaterId":"","name":"Regal Crossgates Stadium 18 & IMAX","address":"1 Crossgates Mall Road","city":"Albany","state":"NY","zip":"12203","distance":24.20443428463,"lon":"-73.852512","lat":"42.690721","theaterChainName":"Regal Cinemas","ticketType":"STANDARD"}]