[{"id":"897","tribuneTheaterId":"5659","providerTheaterId":"","name":"Regal East Greenbush 8","address":"279 Troy Road","city":"Rensselaer","state":"NY","zip":"12144","distance":4.5864477832629,"lon":"-73.700956","lat":"42.640013","theaterChainName":"Regal Cinemas","ticketType":"STANDARD"},{"id":"917","tribuneTheaterId":"3035","providerTheaterId":"","name":"Madison Theatre","address":"1036 Madison Avenue","city":"Albany","state":"NY","zip":"12208","distance":7.8528700188578,"lon":"-73.789613","lat":"42.664513","theaterChainName":"Independent Chains","ticketType":"STANDARD"},{"id":"4474","tribuneTheaterId":"9566","providerTheaterId":"","name":"Regal Colonie Center Stadium 13","address":"131 Colonie Center","city":"Albany","state":"NY","zip":"12205","distance":9.1675475494183,"lon":"-73.816173","lat":"42.710524","theaterChainName":"Regal Cinemas","ticketType":"STANDARD"},{"id":"895","tribuneTheaterId":"6811","providerTheaterId":"","name":"Regal Crossgates Stadium 18 & IMAX","address":"1 Crossgates Mall Road","city":"Albany","state":"NY","zip":"12203","distance":10.880937794788,"lon":"-73.852512","lat":"42.690721","theaterChainName":"Regal Cinemas","ticketType":"STANDARD"},{"id":"891","tribuneTheaterId":"7898","providerTheaterId":"","name":"Clifton Park Stadium 10 and RPX","address":"22 Clifton Park Country Rd.","city":"Clifton Park","state":"NY","zip":"12065","distance":13.747457952723,"lon":"-73.779513","lat":"42.857635","theaterChainName":"Regal Cinemas","ticketType":"STANDARD"},{"id":"4359","tribuneTheaterId":"9384","providerTheaterId":"","name":"Bow Tie Cinemas Movieland","address":"400 State St","city":"Schenectady","state":"NY","zip":"12305","distance":17.688445272981,"lon":"-73.94237","lat":"42.813038","theaterChainName":"Bow-Tie Cinemas","ticketType":"STANDARD"},{"id":"4798","tribuneTheaterId":"10053","providerTheaterId":"","name":"Rotterdam Square Cinema","address":"93 W. Campbell Road","city":"Schenectady","state":"NY","zip":"12306","distance":19.567219008175,"lon":"-73.987491","lat":"42.807997","theaterChainName":"Zurich Cinemas","ticketType":"STANDARD"},{"id":"2809","tribuneTheaterId":"5161","providerTheaterId":"","name":"Images Cinema","address":"50 Spring St.","city":"Williamstown","state":"MA","zip":"01267","distance":22.098257133839,"lon":"-73.204229","lat":"42.710738","theaterChainName":"Independent Chains","ticketType":"STANDARD"},{"id":"904","tribuneTheaterId":"212","providerTheaterId":"","name":"Crandell Theatre","address":"46-48 Main Street","city":"Chatham","state":"NY","zip":"12037","distance":22.525386634131,"lon":"-73.595632","lat":"42.363306","theaterChainName":"Independent Chains","ticketType":"STANDARD"}]