[{"id":"1852","tribuneTheaterId":"7747","providerTheaterId":"","name":"Regal Hudson Valley Mall 12","address":"1300 Ulster Ave. #242","city":"Kingston","state":"NY","zip":"12401","distance":4.1062697900936,"lon":"-73.984959","lat":"41.966943","theaterChainName":"Regal Cinemas","ticketType":"STANDARD"},{"id":"4606","tribuneTheaterId":"9778","providerTheaterId":"","name":"Rosendale Theatre","address":"408 Main St.","city":"Rosendale","state":"NY","zip":"12472","distance":6.4758548471716,"lon":"-74.082164","lat":"41.844327","theaterChainName":"Independent Chains","ticketType":"STANDARD"},{"id":"1823","tribuneTheaterId":"3046","providerTheaterId":"","name":"Lyceum Cinemas","address":"7270 South Broadway","city":"Red Hook","state":"NY","zip":"12571","distance":7.4714166690078,"lon":"-73.883657","lat":"41.98189","theaterChainName":"Independent Chains","ticketType":"STANDARD"},{"id":"1684","tribuneTheaterId":"3044","providerTheaterId":"","name":"Roosevelt Cinemas","address":"4060 Albany Post Road","city":"Hyde Park","state":"NY","zip":"12538","distance":10.119729726551,"lon":"-73.928944","lat":"41.768209","theaterChainName":"Independent Chains","ticketType":"STANDARD"},{"id":"1828","tribuneTheaterId":"2890","providerTheaterId":"","name":"New Paltz Cinema","address":"2 New Paltz Plaza","city":"New Paltz","state":"NY","zip":"12561","distance":12.087773389884,"lon":"-74.069427","lat":"41.743156","theaterChainName":"Independent Chains","ticketType":"STANDARD"},{"id":"2285","tribuneTheaterId":"2830","providerTheaterId":"","name":"Orpheum Theatre - Saugerties","address":"Main Street","city":"Saugerties","state":"NY","zip":"12477","distance":11.921059345023,"lon":"-73.951885","lat":"42.07788","theaterChainName":"Independent Chains","ticketType":"STANDARD"},{"id":"5753","tribuneTheaterId":"11195","providerTheaterId":"","name":"Orpheum Theatre","address":"6050 Main Street","city":"Tannersville","state":"NY","zip":"12424","distance":21.282202674924,"lon":"-74.135385","lat":"42.195889","theaterChainName":"Independent Chains","ticketType":"STANDARD"},{"id":"1527","tribuneTheaterId":"3084","providerTheaterId":"","name":"South Hills 8","address":"1895 South Road","city":"Poughkeepsie","state":"NY","zip":"12601","distance":20.377172442616,"lon":"-73.921553","lat":"41.617039","theaterChainName":"Independent Chains","ticketType":"STANDARD"},{"id":"1526","tribuneTheaterId":"5664","providerTheaterId":"","name":"Regal Galleria Mall Stadium 16","address":"2001 South Road","city":"Poughkeepsie","state":"NY","zip":"12601","distance":19.749136401141,"lon":"-73.917","lat":"41.6269","theaterChainName":"Regal Cinemas","ticketType":"STANDARD"},{"id":"2751","tribuneTheaterId":"2580","providerTheaterId":"","name":"Moviehouse","address":"48 Main St.","city":"Millerton","state":"NY","zip":"12546","distance":24.841139149881,"lon":"-73.509976","lat":"41.953446","theaterChainName":"Independent Chains","ticketType":"STANDARD"}]