[{"id":"1823","name":"Lyceum Cinemas","address":"7270 South Broadway","city":"Red Hook","state":"NY","zip":"12571","distance":"13.8074951171875","lon":"-73.883659","lat":"41.981892","theaterChainName":"Independent Chains","ticketType":"STANDARD"},{"id":"2285","name":"Orpheum Theatre - Saugerties","address":"Main Street","city":"Saugerties","state":"NY","zip":"12477","distance":"17.56283187866211","lon":"-73.951881","lat":"42.077881","theaterChainName":"Independent Chains","ticketType":"STANDARD"},{"id":"1852","name":"Regal Hudson Valley Mall 12","address":"1300 Ulster Ave. #242","city":"Kingston","state":"NY","zip":"12401","distance":"9.858708381652832","lon":"-73.984962","lat":"41.966942","theaterChainName":"Regal Cinemas","ticketType":"STANDARD"},{"id":"1684","name":"Roosevelt Cinemas","address":"4060 Albany Post Road","city":"Hyde Park","state":"NY","zip":"12538","distance":"8.93284797668457","lon":"-73.928947","lat":"41.768208","theaterChainName":"Independent Chains","ticketType":"STANDARD"},{"id":"1523","name":"Regal Fishkill 10","address":"2400 Rt. 9","city":"Fishkill","state":"NY","zip":"12524","distance":"23.65125274658203","lon":"-73.896057","lat":"41.524448","theaterChainName":"Regal Cinemas","ticketType":"STANDARD"},{"id":"1526","name":"Regal Galleria Mall Stadium 16","address":"2001 South Road","city":"Poughkeepsie","state":"NY","zip":"12601","distance":"16.790630340576172","lon":"-73.917000","lat":"41.626900","theaterChainName":"Regal Cinemas","ticketType":"STANDARD"},{"id":"1527","name":"South Hills 8","address":"1895 South Road","city":"Poughkeepsie","state":"NY","zip":"12601","distance":"17.284683227539062","lon":"-73.921555","lat":"41.617039","theaterChainName":"Independent Chains","ticketType":"STANDARD"},{"id":"4603","name":"Downing Film Center","address":"19 Front Street","city":"Newburgh","state":"NY","zip":"12550","distance":"23.608720779418945","lon":"-74.005577","lat":"41.502258","theaterChainName":"Independent Chains","ticketType":"STANDARD"},{"id":"1828","name":"New Paltz Cinema","address":"2 New Paltz Plaza","city":"New Paltz","state":"NY","zip":"12561","distance":"6.7078962326049805","lon":"-74.069427","lat":"41.743156","theaterChainName":"Independent Chains","ticketType":"STANDARD"},{"id":"3953","name":"Showtime Cinemas - Newburgh","address":"1420 Route 300","city":"Newburgh","state":"NY","zip":"12550","distance":"21.8420352935791","lon":"-74.070198","lat":"41.524101","theaterChainName":"Independent Chains","ticketType":"STANDARD"},{"id":"4606","name":"Rosendale Theatre","address":"408 Main St.","city":"Rosendale","state":"NY","zip":"12472","distance":"0.5511957406997681","lon":"-74.082161","lat":"41.844326","theaterChainName":"Independent Chains","ticketType":"STANDARD"},{"id":"5753","name":"Orpheum Theatre","address":"6050 Main Street","city":"Tannersville","state":"NY","zip":"12424","distance":"24.78509521484375","lon":"-74.135384","lat":"42.195889","theaterChainName":"Independent Chains","ticketType":"STANDARD"}]