[{"id":"4603","name":"Downing Film Center","address":"19 Front Street","city":"Newburgh","state":"NY","zip":"12550","distance":"24.362783432006836","lon":"-74.005577","lat":"41.502258","theaterChainName":"Independent Chains","ticketType":"STANDARD"},{"id":"1848","name":"Destinta New Windsor 12","address":"215 Quassaik Ave.","city":"New Windsor","state":"NY","zip":"12553","distance":"24.504440307617188","lon":"-74.022850","lat":"41.475563","theaterChainName":"Independent Chains","ticketType":"STANDARD"},{"id":"1828","name":"New Paltz Cinema","address":"2 New Paltz Plaza","city":"New Paltz","state":"NY","zip":"12561","distance":"19.118623733520508","lon":"-74.069427","lat":"41.743156","theaterChainName":"Independent Chains","ticketType":"STANDARD"},{"id":"3953","name":"Showtime Cinemas - Newburgh","address":"1420 Route 300","city":"Newburgh","state":"NY","zip":"12550","distance":"20.700748443603516","lon":"-74.070198","lat":"41.524101","theaterChainName":"Independent Chains","ticketType":"STANDARD"},{"id":"4606","name":"Rosendale Theatre","address":"408 Main St.","city":"Rosendale","state":"NY","zip":"12472","distance":"21.6063175201416","lon":"-74.082161","lat":"41.844326","theaterChainName":"Independent Chains","ticketType":"STANDARD"},{"id":"2845","name":"Elite Cinema 6","address":"78 Brookside Ave.","city":"Chester","state":"NY","zip":"10918","distance":"22.210763931274414","lon":"-74.283905","lat":"41.360188","theaterChainName":"Independent Chains","ticketType":"STANDARD"},{"id":"499","name":"Middletown Cinemas","address":"130 Dolson Ave.","city":"Middletown","state":"NY","zip":"10940","distance":"16.07530403137207","lon":"-74.426926","lat":"41.431259","theaterChainName":"Independent Chains","ticketType":"STANDARD"},{"id":"5320","name":"Paramount Theatre - Middletown","address":"17 S. St.","city":"Middletown","state":"NY","zip":"10940","distance":"15.175091743469238","lon":"-74.420403","lat":"41.444302","theaterChainName":"Independent Chains","ticketType":"STANDARD"},{"id":"156","name":"AMC Loews Galleria Metroplex 16","address":"1 N. Galleria Drive","city":"Middletown","state":"NY","zip":"10940","distance":"14.871071815490723","lon":"-74.366669","lat":"41.453075","theaterChainName":"AMC Theatres","ticketType":"STANDARD"}]