[{"id":"1526","tribuneTheaterId":"5664","providerTheaterId":"","name":"Regal Galleria Mall Stadium 16","address":"2001 South Road","city":"Poughkeepsie","state":"NY","zip":"12601","distance":3.2322945099162,"lon":"-73.917","lat":"41.6269","theaterChainName":"Regal Cinemas","ticketType":"STANDARD"},{"id":"1527","tribuneTheaterId":"3084","providerTheaterId":"","name":"South Hills 8","address":"1895 South Road","city":"Poughkeepsie","state":"NY","zip":"12601","distance":2.5116848347033,"lon":"-73.921553","lat":"41.617039","theaterChainName":"Independent Chains","ticketType":"STANDARD"},{"id":"1523","tribuneTheaterId":"8734","providerTheaterId":"","name":"Regal Fishkill 10","address":"2400 Rt. 9","city":"Fishkill","state":"NY","zip":"12524","distance":4.5124552247672,"lon":"-73.896055","lat":"41.524449","theaterChainName":"Regal Cinemas","ticketType":"STANDARD"},{"id":"4603","tribuneTheaterId":"9775","providerTheaterId":"","name":"Downing Film Center","address":"19 Front Street","city":"Newburgh","state":"NY","zip":"12550","distance":6.5950049531585,"lon":"-74.005575","lat":"41.50226","theaterChainName":"Independent Chains","ticketType":"STANDARD"},{"id":"1848","tribuneTheaterId":"6484","providerTheaterId":"","name":"Destinta New Windsor 12","address":"215 Quassaik Ave.","city":"New Windsor","state":"NY","zip":"12553","distance":8.6331696981862,"lon":"-74.022853","lat":"41.475564","theaterChainName":"Independent Chains","ticketType":"STANDARD"},{"id":"3953","tribuneTheaterId":"2332","providerTheaterId":"","name":"Showtime Cinemas - Newburgh","address":"1420 Route 300","city":"Newburgh","state":"NY","zip":"12550","distance":8.0098956537067,"lon":"-74.0702","lat":"41.5241","theaterChainName":"Independent Chains","ticketType":"STANDARD"},{"id":"1684","tribuneTheaterId":"3044","providerTheaterId":"","name":"Roosevelt Cinemas","address":"4060 Albany Post Road","city":"Hyde Park","state":"NY","zip":"12538","distance":12.843769010083,"lon":"-73.928944","lat":"41.768209","theaterChainName":"Independent Chains","ticketType":"STANDARD"},{"id":"1828","tribuneTheaterId":"2890","providerTheaterId":"","name":"New Paltz Cinema","address":"2 New Paltz Plaza","city":"New Paltz","state":"NY","zip":"12561","distance":13.060974973729,"lon":"-74.069427","lat":"41.743156","theaterChainName":"Independent Chains","ticketType":"STANDARD"},{"id":"3067","tribuneTheaterId":"7313","providerTheaterId":"","name":"Carmel Movieplex 8","address":"150 Route 52","city":"Carmel","state":"NY","zip":"10512","distance":16.767594684921,"lon":"-73.679597","lat":"41.434279","theaterChainName":"Independent Chains","ticketType":"STANDARD"},{"id":"4606","tribuneTheaterId":"9778","providerTheaterId":"","name":"Rosendale Theatre","address":"408 Main St.","city":"Rosendale","state":"NY","zip":"12472","distance":19.598839121591,"lon":"-74.082164","lat":"41.844327","theaterChainName":"Independent Chains","ticketType":"STANDARD"},{"id":"873","tribuneTheaterId":"7904","providerTheaterId":"","name":"UA Cortlandt Town Center Stadium 11","address":"3131 E. Main St.","city":"Mohegan Lake","state":"NY","zip":"10547","distance":19.140850764863,"lon":"-73.868339","lat":"41.310095","theaterChainName":"United Artists","ticketType":"STANDARD"},{"id":"5730","tribuneTheaterId":"11172","providerTheaterId":"","name":"Monroe Theaters at TMACC","address":"34 Millpond Parkway","city":"Monroe","state":"NY","zip":"10950","distance":21.956001712958,"lon":"-74.1884","lat":"41.3269","theaterChainName":"Independent Chains","ticketType":"STANDARD"},{"id":"3549","tribuneTheaterId":"5953","providerTheaterId":"","name":"Empire Southeast Towne Center","address":"Route 22 ","city":"Brewster","state":"NY","zip":"10509","distance":21.412866762429,"lon":"-73.577103","lat":"41.428501","theaterChainName":"Garden Homes Cinemas","ticketType":"STANDARD"},{"id":"156","tribuneTheaterId":"7318","providerTheaterId":"2744","name":"AMC Loews Galleria Metroplex 16","address":"1 N. Galleria Drive","city":"Middletown","state":"NY","zip":"10940","distance":23.990657896672,"lon":"-74.36667","lat":"41.453077","theaterChainName":"AMC Theatres","ticketType":"STANDARD"},{"id":"2845","tribuneTheaterId":"3453","providerTheaterId":"","name":"Elite Cinema 6","address":"78 Brookside Ave.","city":"Chester","state":"NY","zip":"10918","distance":23.655151133525,"lon":"-74.283902","lat":"41.360188","theaterChainName":"Independent Chains","ticketType":"STANDARD"}]