[{"id":"1828","tribuneTheaterId":"2890","providerTheaterId":"","name":"New Paltz Cinema","address":"2 New Paltz Plaza","city":"New Paltz","state":"NY","zip":"12561","distance":6.6535490602467,"lon":"-74.069427","lat":"41.743156","theaterChainName":"Independent Chains","ticketType":"STANDARD"},{"id":"1527","tribuneTheaterId":"3084","providerTheaterId":"","name":"South Hills 8","address":"1895 South Road","city":"Poughkeepsie","state":"NY","zip":"12601","distance":9.6778781178948,"lon":"-73.921553","lat":"41.617039","theaterChainName":"Independent Chains","ticketType":"STANDARD"},{"id":"1526","tribuneTheaterId":"5664","providerTheaterId":"","name":"Regal Galleria Mall Stadium 16","address":"2001 South Road","city":"Poughkeepsie","state":"NY","zip":"12601","distance":9.7701506507867,"lon":"-73.917","lat":"41.6269","theaterChainName":"Regal Cinemas","ticketType":"STANDARD"},{"id":"3953","tribuneTheaterId":"2332","providerTheaterId":"","name":"Showtime Cinemas - Newburgh","address":"1420 Route 300","city":"Newburgh","state":"NY","zip":"12550","distance":8.8887694753357,"lon":"-74.0702","lat":"41.5241","theaterChainName":"Independent Chains","ticketType":"STANDARD"},{"id":"4603","tribuneTheaterId":"9775","providerTheaterId":"","name":"Downing Film Center","address":"19 Front Street","city":"Newburgh","state":"NY","zip":"12550","distance":11.41464378826,"lon":"-74.005575","lat":"41.50226","theaterChainName":"Independent Chains","ticketType":"STANDARD"},{"id":"1848","tribuneTheaterId":"6484","providerTheaterId":"","name":"Destinta New Windsor 12","address":"215 Quassaik Ave.","city":"New Windsor","state":"NY","zip":"12553","distance":12.774394785377,"lon":"-74.022853","lat":"41.475564","theaterChainName":"Independent Chains","ticketType":"STANDARD"},{"id":"1684","tribuneTheaterId":"3044","providerTheaterId":"","name":"Roosevelt Cinemas","address":"4060 Albany Post Road","city":"Hyde Park","state":"NY","zip":"12538","distance":12.146090393124,"lon":"-73.928944","lat":"41.768209","theaterChainName":"Independent Chains","ticketType":"STANDARD"},{"id":"1523","tribuneTheaterId":"8734","providerTheaterId":"","name":"Regal Fishkill 10","address":"2400 Rt. 9","city":"Fishkill","state":"NY","zip":"12524","distance":13.807504303425,"lon":"-73.896055","lat":"41.524449","theaterChainName":"Regal Cinemas","ticketType":"STANDARD"},{"id":"4606","tribuneTheaterId":"9778","providerTheaterId":"","name":"Rosendale Theatre","address":"408 Main St.","city":"Rosendale","state":"NY","zip":"12472","distance":13.451431012463,"lon":"-74.082164","lat":"41.844327","theaterChainName":"Independent Chains","ticketType":"STANDARD"},{"id":"156","tribuneTheaterId":"7318","providerTheaterId":"2744","name":"AMC Loews Galleria Metroplex 16","address":"1 N. Galleria Drive","city":"Middletown","state":"NY","zip":"10940","distance":19.253952572211,"lon":"-74.36667","lat":"41.453077","theaterChainName":"AMC Theatres","ticketType":"STANDARD"},{"id":"5320","tribuneTheaterId":"10757","providerTheaterId":"","name":"Paramount Theatre - Middletown","address":"17 S. St.","city":"Middletown","state":"NY","zip":"10940","distance":21.701253905763,"lon":"-74.4204","lat":"41.4443","theaterChainName":"Independent Chains","ticketType":"STANDARD"},{"id":"499","tribuneTheaterId":"5960","providerTheaterId":"","name":"Middletown Cinemas","address":"130 Dolson Ave.","city":"Middletown","state":"NY","zip":"10940","distance":22.552808788995,"lon":"-74.426923","lat":"41.431258","theaterChainName":"Independent Chains","ticketType":"STANDARD"},{"id":"5730","tribuneTheaterId":"11172","providerTheaterId":"","name":"Monroe Theaters at TMACC","address":"34 Millpond Parkway","city":"Monroe","state":"NY","zip":"10950","distance":22.771736257227,"lon":"-74.1884","lat":"41.3269","theaterChainName":"Independent Chains","ticketType":"STANDARD"},{"id":"1852","tribuneTheaterId":"7747","providerTheaterId":"","name":"Regal Hudson Valley Mall 12","address":"1300 Ulster Ave. #242","city":"Kingston","state":"NY","zip":"12401","distance":22.71509555625,"lon":"-73.984959","lat":"41.966943","theaterChainName":"Regal Cinemas","ticketType":"STANDARD"},{"id":"2845","tribuneTheaterId":"3453","providerTheaterId":"","name":"Elite Cinema 6","address":"78 Brookside Ave.","city":"Chester","state":"NY","zip":"10918","distance":22.109554771021,"lon":"-74.283902","lat":"41.360188","theaterChainName":"Independent Chains","ticketType":"STANDARD"}]