[{"id":"2751","name":"Moviehouse","address":"48 Main St.","city":"Millerton","state":"NY","zip":"12546","distance":"24.657060623168945","lon":"-73.509979","lat":"41.953445","theaterChainName":"Independent Chains","ticketType":"STANDARD"},{"id":"878","name":"Bantam Cinema","address":"115 Bantam Lake Road","city":"Bantam","state":"CT","zip":"06750","distance":"23.889854431152344","lon":"-73.235733","lat":"41.720627","theaterChainName":"Independent Chains","ticketType":"STANDARD"},{"id":"1246","name":"Bank Street Theatre","address":"46 Bank Street","city":"New Milford","state":"CT","zip":"06776","distance":"14.049352645874023","lon":"-73.412254","lat":"41.577454","theaterChainName":"Independent Chains","ticketType":"STANDARD"},{"id":"1242","name":"Edmond Town Hall Theatre","address":"45 Main St.","city":"Newtown","state":"CT","zip":"06470","distance":"23.690752029418945","lon":"-73.310814","lat":"41.414848","theaterChainName":"Independent Chains","ticketType":"STANDARD"},{"id":"1684","name":"Roosevelt Cinemas","address":"4060 Albany Post Road","city":"Hyde Park","state":"NY","zip":"12538","distance":"16.521854400634766","lon":"-73.928947","lat":"41.768208","theaterChainName":"Independent Chains","ticketType":"STANDARD"},{"id":"155","name":"AMC Loews Danbury 16","address":"61 Eagle Road","city":"Danbury","state":"CT","zip":"06810","distance":"19.54144859313965","lon":"-73.415611","lat":"41.416187","theaterChainName":"AMC Theatres","ticketType":"STANDARD"},{"id":"3549","name":"Empire Southeast Towne Center","address":"Route 22 ","city":"Brewster","state":"NY","zip":"10509","distance":"14.191519737243652","lon":"-73.577103","lat":"41.428501","theaterChainName":"Garden Homes Cinemas","ticketType":"STANDARD"},{"id":"3067","name":"Carmel Movieplex 8","address":"150 Route 52","city":"Carmel","state":"NY","zip":"10512","distance":"12.791495323181152","lon":"-73.679596","lat":"41.434280","theaterChainName":"Independent Chains","ticketType":"STANDARD"},{"id":"873","name":"UA Cortlandt Town Center Stadium 11","address":"3131 E. Main St.","city":"Mohegan Lake","state":"NY","zip":"10547","distance":"23.528594970703125","lon":"-73.868340","lat":"41.310097","theaterChainName":"United Artists","ticketType":"STANDARD"},{"id":"1523","name":"Regal Fishkill 10","address":"2400 Rt. 9","city":"Fishkill","state":"NY","zip":"12524","distance":"13.029144287109375","lon":"-73.896057","lat":"41.524448","theaterChainName":"Regal Cinemas","ticketType":"STANDARD"},{"id":"1526","name":"Regal Galleria Mall Stadium 16","address":"2001 South Road","city":"Poughkeepsie","state":"NY","zip":"12601","distance":"12.340378761291504","lon":"-73.917000","lat":"41.626900","theaterChainName":"Regal Cinemas","ticketType":"STANDARD"},{"id":"1527","name":"South Hills 8","address":"1895 South Road","city":"Poughkeepsie","state":"NY","zip":"12601","distance":"12.566777229309082","lon":"-73.921555","lat":"41.617039","theaterChainName":"Independent Chains","ticketType":"STANDARD"},{"id":"4603","name":"Downing Film Center","address":"19 Front Street","city":"Newburgh","state":"NY","zip":"12550","distance":"18.757343292236328","lon":"-74.005577","lat":"41.502258","theaterChainName":"Independent Chains","ticketType":"STANDARD"},{"id":"1848","name":"Destinta New Windsor 12","address":"215 Quassaik Ave.","city":"New Windsor","state":"NY","zip":"12553","distance":"20.402263641357422","lon":"-74.022850","lat":"41.475563","theaterChainName":"Independent Chains","ticketType":"STANDARD"},{"id":"1828","name":"New Paltz Cinema","address":"2 New Paltz Plaza","city":"New Paltz","state":"NY","zip":"12561","distance":"21.92119598388672","lon":"-74.069427","lat":"41.743156","theaterChainName":"Independent Chains","ticketType":"STANDARD"},{"id":"3953","name":"Showtime Cinemas - Newburgh","address":"1420 Route 300","city":"Newburgh","state":"NY","zip":"12550","distance":"21.301992416381836","lon":"-74.070198","lat":"41.524101","theaterChainName":"Independent Chains","ticketType":"STANDARD"}]