[{"id":"2751","name":"Moviehouse","address":"48 Main St.","city":"Millerton","state":"NY","zip":"12546","distance":"21.407142639160156","lon":"-73.509979","lat":"41.953445","theaterChainName":"Independent Chains","ticketType":"STANDARD"},{"id":"2813","name":"Hudson Movieplex","address":"350 Fairview Ave","city":"Hudson","state":"NY","zip":"12534","distance":"16.54499053955078","lon":"-73.759132","lat":"42.272472","theaterChainName":"Independent Chains","ticketType":"STANDARD"},{"id":"5656","name":"Time & Space Limited\/TSL","address":"434 Columbia Street","city":"Hudson","state":"NY","zip":"12534","distance":"14.608786582946777","lon":"-73.786400","lat":"42.251011","theaterChainName":"Independent Chains","ticketType":"STANDARD"},{"id":"1823","name":"Lyceum Cinemas","address":"7270 South Broadway","city":"Red Hook","state":"NY","zip":"12571","distance":"5.340233325958252","lon":"-73.883659","lat":"41.981892","theaterChainName":"Independent Chains","ticketType":"STANDARD"},{"id":"2285","name":"Orpheum Theatre - Saugerties","address":"Main Street","city":"Saugerties","state":"NY","zip":"12477","distance":"2.885012626647949","lon":"-73.951881","lat":"42.077881","theaterChainName":"Independent Chains","ticketType":"STANDARD"},{"id":"1852","name":"Regal Hudson Valley Mall 12","address":"1300 Ulster Ave. #242","city":"Kingston","state":"NY","zip":"12401","distance":"7.577956199645996","lon":"-73.984962","lat":"41.966942","theaterChainName":"Regal Cinemas","ticketType":"STANDARD"},{"id":"1684","name":"Roosevelt Cinemas","address":"4060 Albany Post Road","city":"Hyde Park","state":"NY","zip":"12538","distance":"20.063167572021484","lon":"-73.928947","lat":"41.768208","theaterChainName":"Independent Chains","ticketType":"STANDARD"},{"id":"1828","name":"New Paltz Cinema","address":"2 New Paltz Plaza","city":"New Paltz","state":"NY","zip":"12561","distance":"23.381193161010742","lon":"-74.069427","lat":"41.743156","theaterChainName":"Independent Chains","ticketType":"STANDARD"},{"id":"4606","name":"Rosendale Theatre","address":"408 Main St.","city":"Rosendale","state":"NY","zip":"12472","distance":"17.407609939575195","lon":"-74.082161","lat":"41.844326","theaterChainName":"Independent Chains","ticketType":"STANDARD"},{"id":"5753","name":"Orpheum Theatre","address":"6050 Main Street","city":"Tannersville","state":"NY","zip":"12424","distance":"15.275769233703613","lon":"-74.135384","lat":"42.195889","theaterChainName":"Independent Chains","ticketType":"STANDARD"}]