[{"id":"2365","name":"Cinerom Digital Movieplex Torrington","address":"89 Farley Place","city":"Torrington","state":"CT","zip":"06790","distance":"22.328218460083008","lon":"-73.123871","lat":"41.813255","theaterChainName":"Carmike Cinemas","ticketType":"STANDARD"},{"id":"2751","name":"Moviehouse","address":"48 Main St.","city":"Millerton","state":"NY","zip":"12546","distance":"12.478952407836914","lon":"-73.509979","lat":"41.953445","theaterChainName":"Independent Chains","ticketType":"STANDARD"},{"id":"878","name":"Bantam Cinema","address":"115 Bantam Lake Road","city":"Bantam","state":"CT","zip":"06750","distance":"16.86598014831543","lon":"-73.235733","lat":"41.720627","theaterChainName":"Independent Chains","ticketType":"STANDARD"},{"id":"1246","name":"Bank Street Theatre","address":"46 Bank Street","city":"New Milford","state":"CT","zip":"06776","distance":"15.551301002502441","lon":"-73.412254","lat":"41.577454","theaterChainName":"Independent Chains","ticketType":"STANDARD"},{"id":"1823","name":"Lyceum Cinemas","address":"7270 South Broadway","city":"Red Hook","state":"NY","zip":"12571","distance":"22.125490188598633","lon":"-73.883659","lat":"41.981892","theaterChainName":"Independent Chains","ticketType":"STANDARD"},{"id":"1684","name":"Roosevelt Cinemas","address":"4060 Albany Post Road","city":"Hyde Park","state":"NY","zip":"12538","distance":"19.309001922607422","lon":"-73.928947","lat":"41.768208","theaterChainName":"Independent Chains","ticketType":"STANDARD"},{"id":"3549","name":"Empire Southeast Towne Center","address":"Route 22 ","city":"Brewster","state":"NY","zip":"10509","distance":"24.0331974029541","lon":"-73.577103","lat":"41.428501","theaterChainName":"Garden Homes Cinemas","ticketType":"STANDARD"},{"id":"3067","name":"Carmel Movieplex 8","address":"150 Route 52","city":"Carmel","state":"NY","zip":"10512","distance":"24.47547149658203","lon":"-73.679596","lat":"41.434280","theaterChainName":"Independent Chains","ticketType":"STANDARD"},{"id":"1523","name":"Regal Fishkill 10","address":"2400 Rt. 9","city":"Fishkill","state":"NY","zip":"12524","distance":"24.760009765625","lon":"-73.896057","lat":"41.524448","theaterChainName":"Regal Cinemas","ticketType":"STANDARD"},{"id":"1526","name":"Regal Galleria Mall Stadium 16","address":"2001 South Road","city":"Poughkeepsie","state":"NY","zip":"12601","distance":"21.35264778137207","lon":"-73.917000","lat":"41.626900","theaterChainName":"Regal Cinemas","ticketType":"STANDARD"},{"id":"1527","name":"South Hills 8","address":"1895 South Road","city":"Poughkeepsie","state":"NY","zip":"12601","distance":"21.89364242553711","lon":"-73.921555","lat":"41.617039","theaterChainName":"Independent Chains","ticketType":"STANDARD"}]