[{"id":"2845","name":"Elite Cinema 6","address":"78 Brookside Ave.","city":"Chester","state":"NY","zip":"10918","distance":"23.402851104736328","lon":"-74.283905","lat":"41.360188","theaterChainName":"Independent Chains","ticketType":"STANDARD"},{"id":"5100","name":"Majestic Cinemas - Matamoras","address":"111 Hulst Drive","city":"Matamoras","state":"PA","zip":"18336","distance":"6.323456764221191","lon":"-74.723251","lat":"41.352798","theaterChainName":"Spotlight Theatres","ticketType":"STANDARD"},{"id":"499","name":"Middletown Cinemas","address":"130 Dolson Ave.","city":"Middletown","state":"NY","zip":"10940","distance":"15.275310516357422","lon":"-74.426926","lat":"41.431259","theaterChainName":"Independent Chains","ticketType":"STANDARD"},{"id":"5320","name":"Paramount Theatre - Middletown","address":"17 S. St.","city":"Middletown","state":"NY","zip":"10940","distance":"15.585040092468262","lon":"-74.420403","lat":"41.444302","theaterChainName":"Independent Chains","ticketType":"STANDARD"},{"id":"156","name":"AMC Loews Galleria Metroplex 16","address":"1 N. Galleria Drive","city":"Middletown","state":"NY","zip":"10940","distance":"18.37696647644043","lon":"-74.366669","lat":"41.453075","theaterChainName":"AMC Theatres","ticketType":"STANDARD"}]