[{"id":"3577","tribuneTheaterId":"1302","providerTheaterId":"","name":"190 Grille & Cinema","address":"190 Glen Street","city":"Glens Falls","state":"NY","zip":"12801","distance":10.351292954384,"lon":"-73.644699","lat":"43.309898","theaterChainName":"Independent Chains","ticketType":"STANDARD"},{"id":"889","tribuneTheaterId":"4655","providerTheaterId":"","name":"Regal Aviation Mall 7","address":"Aviation Mall Road","city":"Queensbury","state":"NY","zip":"12804","distance":12.631201518436,"lon":"-73.6747","lat":"43.3377","theaterChainName":"Regal Cinemas","ticketType":"STANDARD"},{"id":"5421","tribuneTheaterId":"10858","providerTheaterId":"","name":"Wilton Mall Cinemas","address":"3065 Route 50","city":"Saratoga Springs","state":"NY","zip":"12866","distance":16.776772608033,"lon":"-73.739171","lat":"43.101312","theaterChainName":"Bow-Tie Cinemas","ticketType":"STANDARD"},{"id":"5422","tribuneTheaterId":"10859","providerTheaterId":"","name":"Criterion Cinemas Saratoga","address":"19 Railroad Place","city":"Saratoga Springs","state":"NY","zip":"12866","distance":19.519348432687,"lon":"-73.787671","lat":"43.082851","theaterChainName":"Bow-Tie Cinemas","ticketType":"STANDARD"},{"id":"3876","tribuneTheaterId":"6657","providerTheaterId":"","name":"Village Picture Shows","address":"263 Depot Street","city":"Manchester Center","state":"VT","zip":"05255","distance":21.147827366219,"lon":"-73.053031","lat":"43.175577","theaterChainName":"Independent Chains","ticketType":"STANDARD"}]