[{"id":"2810","tribuneTheaterId":"6197","providerTheaterId":"","name":"Bennington Cinemas","address":"319 Northside Drive","city":"Bennington","state":"VT","zip":"05201","distance":12.936239533954,"lon":"-73.216088","lat":"42.903682","theaterChainName":"Independent Chains","ticketType":"STANDARD"},{"id":"5421","tribuneTheaterId":"10858","providerTheaterId":"","name":"Wilton Mall Cinemas","address":"3065 Route 50","city":"Saratoga Springs","state":"NY","zip":"12866","distance":18.448417820649,"lon":"-73.739171","lat":"43.101312","theaterChainName":"Bow-Tie Cinemas","ticketType":"STANDARD"},{"id":"3876","tribuneTheaterId":"6657","providerTheaterId":"","name":"Village Picture Shows","address":"263 Depot Street","city":"Manchester Center","state":"VT","zip":"05255","distance":18.808132924413,"lon":"-73.053031","lat":"43.175577","theaterChainName":"Independent Chains","ticketType":"STANDARD"},{"id":"5422","tribuneTheaterId":"10859","providerTheaterId":"","name":"Criterion Cinemas Saratoga","address":"19 Railroad Place","city":"Saratoga Springs","state":"NY","zip":"12866","distance":20.660268003769,"lon":"-73.787671","lat":"43.082851","theaterChainName":"Bow-Tie Cinemas","ticketType":"STANDARD"},{"id":"3577","tribuneTheaterId":"1302","providerTheaterId":"","name":"190 Grille & Cinema","address":"190 Glen Street","city":"Glens Falls","state":"NY","zip":"12801","distance":22.515464226851,"lon":"-73.644699","lat":"43.309898","theaterChainName":"Independent Chains","ticketType":"STANDARD"},{"id":"889","tribuneTheaterId":"4655","providerTheaterId":"","name":"Regal Aviation Mall 7","address":"Aviation Mall Road","city":"Queensbury","state":"NY","zip":"12804","distance":24.956342794591,"lon":"-73.6747","lat":"43.3377","theaterChainName":"Regal Cinemas","ticketType":"STANDARD"},{"id":"891","tribuneTheaterId":"7898","providerTheaterId":"","name":"Clifton Park Stadium 10 and RPX","address":"22 Clifton Park Country Rd.","city":"Clifton Park","state":"NY","zip":"12065","distance":23.995819554515,"lon":"-73.779513","lat":"42.857635","theaterChainName":"Regal Cinemas","ticketType":"STANDARD"},{"id":"2809","tribuneTheaterId":"5161","providerTheaterId":"","name":"Images Cinema","address":"50 Spring St.","city":"Williamstown","state":"MA","zip":"01267","distance":24.879249908826,"lon":"-73.204229","lat":"42.710738","theaterChainName":"Independent Chains","ticketType":"STANDARD"}]