[{"id":"2810","name":"Bennington Cinemas","address":"319 Northside Drive","city":"Bennington","state":"VT","zip":"05201","distance":"22.081554412841797","lon":"-73.216087","lat":"42.903683","theaterChainName":"Independent Chains","ticketType":"STANDARD"},{"id":"3876","name":"Village Picture Shows","address":"263 Depot Street","city":"Manchester Center","state":"VT","zip":"05255","distance":"18.841501235961914","lon":"-73.053032","lat":"43.175575","theaterChainName":"Independent Chains","ticketType":"STANDARD"},{"id":"5421","name":"Wilton Mall Cinemas","address":"3065 Route 50","city":"Saratoga Springs","state":"NY","zip":"12866","distance":"16.746253967285156","lon":"-73.739174","lat":"43.101311","theaterChainName":"Bow-Tie Cinemas","ticketType":"STANDARD"},{"id":"5422","name":"Criterion Cinemas Saratoga","address":"19 Railroad Place","city":"Saratoga Springs","state":"NY","zip":"12866","distance":"19.48551368713379","lon":"-73.787674","lat":"43.082851","theaterChainName":"Bow-Tie Cinemas","ticketType":"STANDARD"},{"id":"3577","name":"190 Grille & Cinema","address":"190 Glen Street","city":"Glens Falls","state":"NY","zip":"12801","distance":"14.011136054992676","lon":"-73.644699","lat":"43.309898","theaterChainName":"Independent Chains","ticketType":"STANDARD"},{"id":"889","name":"Regal Aviation Mall 7","address":"Aviation Mall Road","city":"Queensbury","state":"NY","zip":"12804","distance":"16.39605712890625","lon":"-73.674698","lat":"43.337700","theaterChainName":"Regal Cinemas","ticketType":"STANDARD"}]