[{"id":"891","name":"Clifton Park Stadium 10 and RPX","address":"22 Clifton Park Country Rd.","city":"Clifton Park","state":"NY","zip":"12065","distance":"22.60846519470215","lon":"-73.779510","lat":"42.857635","theaterChainName":"Regal Cinemas","ticketType":"STANDARD"},{"id":"5421","name":"Wilton Mall Cinemas","address":"3065 Route 50","city":"Saratoga Springs","state":"NY","zip":"12866","distance":"5.719058990478516","lon":"-73.739174","lat":"43.101311","theaterChainName":"Bow-Tie Cinemas","ticketType":"STANDARD"},{"id":"5422","name":"Criterion Cinemas Saratoga","address":"19 Railroad Place","city":"Saratoga Springs","state":"NY","zip":"12866","distance":"7.911735534667969","lon":"-73.787674","lat":"43.082851","theaterChainName":"Bow-Tie Cinemas","ticketType":"STANDARD"},{"id":"3577","name":"190 Grille & Cinema","address":"190 Glen Street","city":"Glens Falls","state":"NY","zip":"12801","distance":"9.460040092468262","lon":"-73.644699","lat":"43.309898","theaterChainName":"Independent Chains","ticketType":"STANDARD"},{"id":"889","name":"Regal Aviation Mall 7","address":"Aviation Mall Road","city":"Queensbury","state":"NY","zip":"12804","distance":"10.984313011169434","lon":"-73.674698","lat":"43.337700","theaterChainName":"Regal Cinemas","ticketType":"STANDARD"}]