[{"id":"4458","name":"Merrill's Roxy Cinemas","address":"222 College Street","city":"Burlington","state":"VT","zip":"05401","distance":"18.415252685546875","lon":"-73.210785","lat":"44.477261","theaterChainName":"Independent Chains","ticketType":"STANDARD"},{"id":"1695","name":"Palace 9","address":"10 Fayette Road","city":"South Burlington","state":"VT","zip":"05403","distance":"18.617647171020508","lon":"-73.211098","lat":"44.437199","theaterChainName":"Independent Chains","ticketType":"STANDARD"},{"id":"3900","name":"Majestic 10","address":"190 Boxwood Street","city":"Williston","state":"VT","zip":"05495","distance":"23.495277404785156","lon":"-73.109962","lat":"44.445904","theaterChainName":"Independent Chains","ticketType":"STANDARD"},{"id":"3553","name":"Essex Outlets Cinema","address":"21 Essex Way, Bldg. 300","city":"Essex Junction","state":"VT","zip":"05452","distance":"24.95191764831543","lon":"-73.079681","lat":"44.506439","theaterChainName":"Independent Chains","ticketType":"STANDARD"},{"id":"4642","name":"Cumberland 12 Cinemas","address":"18 North Bowl Lane","city":"Plattsburgh","state":"NY","zip":"12901","distance":"19.170698165893555","lon":"-73.432190","lat":"44.733135","theaterChainName":"Independent Chains","ticketType":"STANDARD"},{"id":"1841","name":"Regal Champlain Centre 8","address":"60 Smithfield Boulevard","city":"Plattsburgh","state":"NY","zip":"12901","distance":"16.252803802490234","lon":"-73.491196","lat":"44.703377","theaterChainName":"Regal Cinemas","ticketType":"STANDARD"}]