[{"id":"4458","name":"Merrill's Roxy Cinemas","address":"222 College Street","city":"Burlington","state":"VT","zip":"05401","distance":"12.207673072814941","lon":"-73.210785","lat":"44.477261","theaterChainName":"Independent Chains","ticketType":"STANDARD"},{"id":"1695","name":"Palace 9","address":"10 Fayette Road","city":"South Burlington","state":"VT","zip":"05403","distance":"10.57168197631836","lon":"-73.211098","lat":"44.437199","theaterChainName":"Independent Chains","ticketType":"STANDARD"},{"id":"3900","name":"Majestic 10","address":"190 Boxwood Street","city":"Williston","state":"VT","zip":"05495","distance":"15.320292472839355","lon":"-73.109962","lat":"44.445904","theaterChainName":"Independent Chains","ticketType":"STANDARD"},{"id":"3553","name":"Essex Outlets Cinema","address":"21 Essex Way, Bldg. 300","city":"Essex Junction","state":"VT","zip":"05452","distance":"18.597684860229492","lon":"-73.079681","lat":"44.506439","theaterChainName":"Independent Chains","ticketType":"STANDARD"},{"id":"1841","name":"Regal Champlain Centre 8","address":"60 Smithfield Boulevard","city":"Plattsburgh","state":"NY","zip":"12901","distance":"24.15534019470215","lon":"-73.491196","lat":"44.703377","theaterChainName":"Regal Cinemas","ticketType":"STANDARD"}]