[{"id":"1695","tribuneTheaterId":"3122","providerTheaterId":"","name":"Palace 9","address":"10 Fayette Road","city":"South Burlington","state":"VT","zip":"05403","distance":10.570962145536,"lon":"-73.2111","lat":"44.4372","theaterChainName":"Independent Chains","ticketType":"STANDARD"},{"id":"4458","tribuneTheaterId":"9547","providerTheaterId":"","name":"Merrill's Roxy Cinemas","address":"222 College Street","city":"Burlington","state":"VT","zip":"05401","distance":12.206966588289,"lon":"-73.210783","lat":"44.47726","theaterChainName":"Independent Chains","ticketType":"STANDARD"},{"id":"3900","tribuneTheaterId":"2261","providerTheaterId":"","name":"Majestic 10","address":"190 Boxwood Street","city":"Williston","state":"VT","zip":"05495","distance":15.319244676438,"lon":"-73.109963","lat":"44.445902","theaterChainName":"Independent Chains","ticketType":"STANDARD"},{"id":"3553","tribuneTheaterId":"2128","providerTheaterId":"","name":"Essex Outlets Cinema","address":"21 Essex Way, Bldg. 300","city":"Essex Junction","state":"VT","zip":"05452","distance":18.596532344206,"lon":"-73.079681","lat":"44.506439","theaterChainName":"Independent Chains","ticketType":"STANDARD"},{"id":"1841","tribuneTheaterId":"4657","providerTheaterId":"","name":"Regal Champlain Centre 8","address":"60 Smithfield Boulevard","city":"Plattsburgh","state":"NY","zip":"12901","distance":24.153893587124,"lon":"-73.491197","lat":"44.703376","theaterChainName":"Regal Cinemas","ticketType":"STANDARD"}]