[{"id":"1533","name":"Regal Destiny USA Stadium 19","address":"9586 Destiny USA Dr.","city":"Syracuse","state":"NY","zip":"13204","distance":"22.032567977905273","lon":"-76.172623","lat":"43.069038","theaterChainName":"Regal Cinemas","ticketType":"STANDARD"},{"id":"1534","name":"Hollywood Theatre","address":"2221 Brewerton Rd.","city":"Mattydale","state":"NY","zip":"13211","distance":"24.17190933227539","lon":"-76.145401","lat":"43.098301","theaterChainName":"Zurich Cinemas","ticketType":"STANDARD"},{"id":"5925","name":"Movie Tavern Syracuse","address":"180 Township Blvd.","city":"Camillus","state":"NY","zip":"13031","distance":"17.17178726196289","lon":"-76.271103","lat":"43.055000","theaterChainName":"Movie Tavern","ticketType":"STANDARD"},{"id":"1583","name":"Regal Great Northern Mall 10","address":"4155 State Rt. 31","city":"Clay","state":"NY","zip":"13041","distance":"24.791738510131836","lon":"-76.224579","lat":"43.189518","theaterChainName":"Regal Cinemas","ticketType":"STANDARD"},{"id":"2548","name":"Geneva Movieplex 8","address":"371 Hamilton Street","city":"Geneva","state":"NY","zip":"14456","distance":"22.426118850708008","lon":"-76.997101","lat":"42.856628","theaterChainName":"Zurich Cinemas","ticketType":"STANDARD"},{"id":"6095","name":"Ohmann Theatre","address":"William Street","city":"Lyons","state":"NY","zip":"14489","distance":"23.419673919677734","lon":"-76.992592","lat":"43.064293","theaterChainName":"Independent Chains","ticketType":"STANDARD"}]