[{"id":"5925","tribuneTheaterId":"11356","providerTheaterId":"","name":"Movie Tavern Syracuse","address":"180 Township Blvd.","city":"Camillus","state":"NY","zip":"13031","distance":17.076782954064,"lon":"-76.2711","lat":"43.055","theaterChainName":"Movie Tavern","ticketType":"STANDARD"},{"id":"2548","tribuneTheaterId":"6344","providerTheaterId":"","name":"Geneva Movieplex 8","address":"371 Hamilton Street","city":"Geneva","state":"NY","zip":"14456","distance":22.570708541869,"lon":"-76.997099","lat":"42.856627","theaterChainName":"Zurich Cinemas","ticketType":"STANDARD"},{"id":"1533","tribuneTheaterId":"5668","providerTheaterId":"","name":"Regal Destiny USA Stadium 19","address":"9586 Destiny USA Dr.","city":"Syracuse","state":"NY","zip":"13204","distance":21.923172548113,"lon":"-76.172622","lat":"43.069037","theaterChainName":"Regal Cinemas","ticketType":"STANDARD"},{"id":"6095","tribuneTheaterId":"11509","providerTheaterId":"","name":"Ohmann Theatre","address":"William Street","city":"Lyons","state":"NY","zip":"14489","distance":23.627243576881,"lon":"-76.992589","lat":"43.064294","theaterChainName":"Independent Chains","ticketType":"STANDARD"},{"id":"1583","tribuneTheaterId":"7147","providerTheaterId":"","name":"Regal Great Northern Mall 10","address":"4155 State Rt. 31","city":"Clay","state":"NY","zip":"13041","distance":24.752756651806,"lon":"-76.224582","lat":"43.189519","theaterChainName":"Regal Cinemas","ticketType":"STANDARD"},{"id":"1534","tribuneTheaterId":"2500","providerTheaterId":"","name":"Hollywood Theatre","address":"2221 Brewerton Rd.","city":"Mattydale","state":"NY","zip":"13211","distance":24.071867241549,"lon":"-76.145401","lat":"43.098301","theaterChainName":"Zurich Cinemas","ticketType":"STANDARD"}]