[{"id":"1535","name":"Regal Shoppingtown Mall 10","address":"3649 Erie Blvd","city":"DeWitt","state":"NY","zip":"13214","distance":"9.621825218200684","lon":"-76.066101","lat":"43.039299","theaterChainName":"Regal Cinemas","ticketType":"STANDARD"},{"id":"1533","name":"Regal Destiny USA Stadium 19","address":"9586 Destiny USA Dr.","city":"Syracuse","state":"NY","zip":"13204","distance":"14.964760780334473","lon":"-76.172623","lat":"43.069038","theaterChainName":"Regal Cinemas","ticketType":"STANDARD"},{"id":"1534","name":"Hollywood Theatre","address":"2221 Brewerton Rd.","city":"Mattydale","state":"NY","zip":"13211","distance":"13.87998104095459","lon":"-76.145401","lat":"43.098301","theaterChainName":"Zurich Cinemas","ticketType":"STANDARD"},{"id":"5925","name":"Movie Tavern Syracuse","address":"180 Township Blvd.","city":"Camillus","state":"NY","zip":"13031","distance":"19.90808868408203","lon":"-76.271103","lat":"43.055000","theaterChainName":"Movie Tavern","ticketType":"STANDARD"},{"id":"1583","name":"Regal Great Northern Mall 10","address":"4155 State Rt. 31","city":"Clay","state":"NY","zip":"13041","distance":"19.844024658203125","lon":"-76.224579","lat":"43.189518","theaterChainName":"Regal Cinemas","ticketType":"STANDARD"},{"id":"1616","name":"Glenwood MoviePlex","address":"Route 5 ","city":"Oneida","state":"NY","zip":"13421","distance":"11.942853927612305","lon":"-75.642166","lat":"43.077347","theaterChainName":"Zurich Cinemas","ticketType":"STANDARD"},{"id":"3561","name":"Hamilton Theater","address":"7 Lebanon St.","city":"Hamilton","state":"NY","zip":"13346","distance":"23.053861618041992","lon":"-75.544868","lat":"42.826569","theaterChainName":"Independent Chains","ticketType":"STANDARD"},{"id":"1693","name":"Rome Cinemas - Rome, NY","address":"1122 Erie Blvd. W.","city":"Rome","state":"NY","zip":"13440","distance":"23.03665542602539","lon":"-75.483238","lat":"43.224552","theaterChainName":"Zurich Cinemas","ticketType":"STANDARD"},{"id":"5598","name":"Capitol Theatre","address":"220 W. Dominick St.","city":"Rome","state":"NY","zip":"13440","distance":"23.66013526916504","lon":"-75.459900","lat":"43.212326","theaterChainName":"Independent Chains","ticketType":"STANDARD"}]