[{"id":"1535","name":"Regal Shoppingtown Mall 10","address":"3649 Erie Blvd","city":"DeWitt","state":"NY","zip":"13214","distance":"21.534311294555664","lon":"-76.066101","lat":"43.039299","theaterChainName":"Regal Cinemas","ticketType":"STANDARD"},{"id":"1534","name":"Hollywood Theatre","address":"2221 Brewerton Rd.","city":"Mattydale","state":"NY","zip":"13211","distance":"24.25556755065918","lon":"-76.145401","lat":"43.098301","theaterChainName":"Zurich Cinemas","ticketType":"STANDARD"},{"id":"1616","name":"Glenwood MoviePlex","address":"Route 5 ","city":"Oneida","state":"NY","zip":"13421","distance":"5.758167266845703","lon":"-75.642166","lat":"43.077347","theaterChainName":"Zurich Cinemas","ticketType":"STANDARD"},{"id":"3561","name":"Hamilton Theater","address":"7 Lebanon St.","city":"Hamilton","state":"NY","zip":"13346","distance":"23.770727157592773","lon":"-75.544868","lat":"42.826569","theaterChainName":"Independent Chains","ticketType":"STANDARD"},{"id":"1693","name":"Rome Cinemas - Rome, NY","address":"1122 Erie Blvd. W.","city":"Rome","state":"NY","zip":"13440","distance":"10.538692474365234","lon":"-75.483238","lat":"43.224552","theaterChainName":"Zurich Cinemas","ticketType":"STANDARD"},{"id":"5598","name":"Capitol Theatre","address":"220 W. Dominick St.","city":"Rome","state":"NY","zip":"13440","distance":"11.300054550170898","lon":"-75.459900","lat":"43.212326","theaterChainName":"Independent Chains","ticketType":"STANDARD"},{"id":"3864","name":"Marquee Cinemas Orchard 14","address":"20 Ellinwood Dr.","city":"New Hartford","state":"NY","zip":"13413","distance":"18.54842758178711","lon":"-75.314667","lat":"43.092571","theaterChainName":"Marquee Cinemas","ticketType":"STANDARD"}]