[{"id":"1533","name":"Regal Destiny USA Stadium 19","address":"9586 Destiny USA Dr.","city":"Syracuse","state":"NY","zip":"13204","distance":"20.939977645874023","lon":"-76.172623","lat":"43.069038","theaterChainName":"Regal Cinemas","ticketType":"STANDARD"},{"id":"1534","name":"Hollywood Theatre","address":"2221 Brewerton Rd.","city":"Mattydale","state":"NY","zip":"13211","distance":"20.144977569580078","lon":"-76.145401","lat":"43.098301","theaterChainName":"Zurich Cinemas","ticketType":"STANDARD"},{"id":"5925","name":"Movie Tavern Syracuse","address":"180 Township Blvd.","city":"Camillus","state":"NY","zip":"13031","distance":"19.55742645263672","lon":"-76.271103","lat":"43.055000","theaterChainName":"Movie Tavern","ticketType":"STANDARD"},{"id":"1583","name":"Regal Great Northern Mall 10","address":"4155 State Rt. 31","city":"Clay","state":"NY","zip":"13041","distance":"12.792262077331543","lon":"-76.224579","lat":"43.189518","theaterChainName":"Regal Cinemas","ticketType":"STANDARD"},{"id":"1617","name":"Oswego Cinema 7","address":"138 W. 2nd St.","city":"Oswego","state":"NY","zip":"13126","distance":"10.797889709472656","lon":"-76.512589","lat":"43.455723","theaterChainName":"Zurich Cinemas","ticketType":"STANDARD"}]