[{"id":"5003","name":"Plaza 6 Cinemas","address":"255 Tompkins St","city":"Cortland","state":"NY","zip":"13045","distance":"22.136552810668945","lon":"-76.200027","lat":"42.583431","theaterChainName":"Independent Chains","ticketType":"STANDARD"},{"id":"4379","name":"Regal Ithaca Mall Stadium","address":"40 Catherwood Rd","city":"Ithaca","state":"NY","zip":"14850","distance":"14.05507755279541","lon":"-76.491707","lat":"42.483986","theaterChainName":"Regal Cinemas","ticketType":"STANDARD"},{"id":"3096","name":"Cinemapolis","address":"120 E. Green St.","city":"Ithaca","state":"NY","zip":"14850","distance":"16.758487701416016","lon":"-76.497269","lat":"42.438927","theaterChainName":"Independent Chains","ticketType":"STANDARD"},{"id":"2548","name":"Geneva Movieplex 8","address":"371 Hamilton Street","city":"Geneva","state":"NY","zip":"14456","distance":"23.25888442993164","lon":"-76.997101","lat":"42.856628","theaterChainName":"Zurich Cinemas","ticketType":"STANDARD"},{"id":"1842","name":"Lake St. Plaza Theatres-Penn Yan","address":"230A Lake Street Plaza","city":"Penn Yan","state":"NY","zip":"14527","distance":"22.1367244720459","lon":"-77.057060","lat":"42.654385","theaterChainName":"Independent Chains","ticketType":"STANDARD"}]