[{"id":"1583","tribuneTheaterId":"7147","providerTheaterId":"","name":"Regal Great Northern Mall 10","address":"4155 State Rt. 31","city":"Clay","state":"NY","zip":"13041","distance":12.229135963178,"lon":"-76.224582","lat":"43.189519","theaterChainName":"Regal Cinemas","ticketType":"STANDARD"},{"id":"1534","tribuneTheaterId":"2500","providerTheaterId":"","name":"Hollywood Theatre","address":"2221 Brewerton Rd.","city":"Mattydale","state":"NY","zip":"13211","distance":16.874220269762,"lon":"-76.145401","lat":"43.098301","theaterChainName":"Zurich Cinemas","ticketType":"STANDARD"},{"id":"1533","tribuneTheaterId":"5668","providerTheaterId":"","name":"Regal Destiny USA Stadium 19","address":"9586 Destiny USA Dr.","city":"Syracuse","state":"NY","zip":"13204","distance":19.104465385617,"lon":"-76.172622","lat":"43.069037","theaterChainName":"Regal Cinemas","ticketType":"STANDARD"},{"id":"1617","tribuneTheaterId":"3041","providerTheaterId":"","name":"Oswego Cinema 7","address":"138 W. 2nd St.","city":"Oswego","state":"NY","zip":"13126","distance":22.374022918999,"lon":"-76.512587","lat":"43.455723","theaterChainName":"Zurich Cinemas","ticketType":"STANDARD"},{"id":"5925","tribuneTheaterId":"11356","providerTheaterId":"","name":"Movie Tavern Syracuse","address":"180 Township Blvd.","city":"Camillus","state":"NY","zip":"13031","distance":21.561923103077,"lon":"-76.2711","lat":"43.055","theaterChainName":"Movie Tavern","ticketType":"STANDARD"},{"id":"1535","tribuneTheaterId":"5661","providerTheaterId":"","name":"Regal Shoppingtown Mall 10","address":"3649 Erie Blvd","city":"DeWitt","state":"NY","zip":"13214","distance":20.825458554352,"lon":"-76.0661","lat":"43.0393","theaterChainName":"Regal Cinemas","ticketType":"STANDARD"}]