[{"id":"1616","tribuneTheaterId":"6534","providerTheaterId":"","name":"Glenwood MoviePlex","address":"Route 5 ","city":"Oneida","state":"NY","zip":"13421","distance":12.918418976023,"lon":"-75.642166","lat":"43.077347","theaterChainName":"Zurich Cinemas","ticketType":"STANDARD"},{"id":"1693","tribuneTheaterId":"4140","providerTheaterId":"","name":"Rome Cinemas - Rome, NY","address":"1122 Erie Blvd. W.","city":"Rome","state":"NY","zip":"13440","distance":14.805933077688,"lon":"-75.483241","lat":"43.224551","theaterChainName":"Zurich Cinemas","ticketType":"STANDARD"},{"id":"5598","tribuneTheaterId":"11052","providerTheaterId":"","name":"Capitol Theatre","address":"220 W. Dominick St.","city":"Rome","state":"NY","zip":"13440","distance":16.046455857323,"lon":"-75.459898","lat":"43.212325","theaterChainName":"Independent Chains","ticketType":"STANDARD"},{"id":"1534","tribuneTheaterId":"2500","providerTheaterId":"","name":"Hollywood Theatre","address":"2221 Brewerton Rd.","city":"Mattydale","state":"NY","zip":"13211","distance":20.878078285235,"lon":"-76.145401","lat":"43.098301","theaterChainName":"Zurich Cinemas","ticketType":"STANDARD"},{"id":"1535","tribuneTheaterId":"5661","providerTheaterId":"","name":"Regal Shoppingtown Mall 10","address":"3649 Erie Blvd","city":"DeWitt","state":"NY","zip":"13214","distance":19.951444303074,"lon":"-76.0661","lat":"43.0393","theaterChainName":"Regal Cinemas","ticketType":"STANDARD"},{"id":"1583","tribuneTheaterId":"7147","providerTheaterId":"","name":"Regal Great Northern Mall 10","address":"4155 State Rt. 31","city":"Clay","state":"NY","zip":"13041","distance":22.775033707002,"lon":"-76.224582","lat":"43.189519","theaterChainName":"Regal Cinemas","ticketType":"STANDARD"},{"id":"1533","tribuneTheaterId":"5668","providerTheaterId":"","name":"Regal Destiny USA Stadium 19","address":"9586 Destiny USA Dr.","city":"Syracuse","state":"NY","zip":"13204","distance":23.056186347241,"lon":"-76.172622","lat":"43.069037","theaterChainName":"Regal Cinemas","ticketType":"STANDARD"}]