[{"id":"1535","name":"Regal Shoppingtown Mall 10","address":"3649 Erie Blvd","city":"DeWitt","state":"NY","zip":"13214","distance":"19.952749252319336","lon":"-76.066101","lat":"43.039299","theaterChainName":"Regal Cinemas","ticketType":"STANDARD"},{"id":"1533","name":"Regal Destiny USA Stadium 19","address":"9586 Destiny USA Dr.","city":"Syracuse","state":"NY","zip":"13204","distance":"23.05756378173828","lon":"-76.172623","lat":"43.069038","theaterChainName":"Regal Cinemas","ticketType":"STANDARD"},{"id":"1534","name":"Hollywood Theatre","address":"2221 Brewerton Rd.","city":"Mattydale","state":"NY","zip":"13211","distance":"20.879337310791016","lon":"-76.145401","lat":"43.098301","theaterChainName":"Zurich Cinemas","ticketType":"STANDARD"},{"id":"1583","name":"Regal Great Northern Mall 10","address":"4155 State Rt. 31","city":"Clay","state":"NY","zip":"13041","distance":"22.776243209838867","lon":"-76.224579","lat":"43.189518","theaterChainName":"Regal Cinemas","ticketType":"STANDARD"},{"id":"1616","name":"Glenwood MoviePlex","address":"Route 5 ","city":"Oneida","state":"NY","zip":"13421","distance":"12.919296264648438","lon":"-75.642166","lat":"43.077347","theaterChainName":"Zurich Cinemas","ticketType":"STANDARD"},{"id":"1693","name":"Rome Cinemas - Rome, NY","address":"1122 Erie Blvd. W.","city":"Rome","state":"NY","zip":"13440","distance":"14.807050704956055","lon":"-75.483238","lat":"43.224552","theaterChainName":"Zurich Cinemas","ticketType":"STANDARD"},{"id":"5598","name":"Capitol Theatre","address":"220 W. Dominick St.","city":"Rome","state":"NY","zip":"13440","distance":"16.047414779663086","lon":"-75.459900","lat":"43.212326","theaterChainName":"Independent Chains","ticketType":"STANDARD"}]