[{"id":"4379","tribuneTheaterId":"9421","providerTheaterId":"","name":"Regal Ithaca Mall Stadium","address":"40 Catherwood Rd","city":"Ithaca","state":"NY","zip":"14850","distance":19.142502670376,"lon":"-76.491709","lat":"42.483984","theaterChainName":"Regal Cinemas","ticketType":"STANDARD"},{"id":"2548","tribuneTheaterId":"6344","providerTheaterId":"","name":"Geneva Movieplex 8","address":"371 Hamilton Street","city":"Geneva","state":"NY","zip":"14456","distance":20.292983024652,"lon":"-76.997099","lat":"42.856627","theaterChainName":"Zurich Cinemas","ticketType":"STANDARD"},{"id":"1842","tribuneTheaterId":"2820","providerTheaterId":"","name":"Lake St. Plaza Theatres-Penn Yan","address":"230A Lake Street Plaza","city":"Penn Yan","state":"NY","zip":"14527","distance":22.59000199657,"lon":"-77.057059","lat":"42.654383","theaterChainName":"Independent Chains","ticketType":"STANDARD"},{"id":"3096","tribuneTheaterId":"1246","providerTheaterId":"","name":"Cinemapolis","address":"120 E. Green St.","city":"Ithaca","state":"NY","zip":"14850","distance":21.985116326461,"lon":"-76.49727","lat":"42.438927","theaterChainName":"Independent Chains","ticketType":"STANDARD"},{"id":"5003","tribuneTheaterId":"10374","providerTheaterId":"","name":"Plaza 6 Cinemas","address":"255 Tompkins St","city":"Cortland","state":"NY","zip":"13045","distance":24.374289678828,"lon":"-76.200031","lat":"42.58343","theaterChainName":"Independent Chains","ticketType":"STANDARD"}]