[{"id":"1583","tribuneTheaterId":"7147","providerTheaterId":"","name":"Regal Great Northern Mall 10","address":"4155 State Rt. 31","city":"Clay","state":"NY","zip":"13041","distance":16.810692031501,"lon":"-76.224582","lat":"43.189519","theaterChainName":"Regal Cinemas","ticketType":"STANDARD"},{"id":"1617","tribuneTheaterId":"3041","providerTheaterId":"","name":"Oswego Cinema 7","address":"138 W. 2nd St.","city":"Oswego","state":"NY","zip":"13126","distance":20.887864827167,"lon":"-76.512587","lat":"43.455723","theaterChainName":"Zurich Cinemas","ticketType":"STANDARD"},{"id":"1534","tribuneTheaterId":"2500","providerTheaterId":"","name":"Hollywood Theatre","address":"2221 Brewerton Rd.","city":"Mattydale","state":"NY","zip":"13211","distance":22.021332559558,"lon":"-76.145401","lat":"43.098301","theaterChainName":"Zurich Cinemas","ticketType":"STANDARD"},{"id":"1533","tribuneTheaterId":"5668","providerTheaterId":"","name":"Regal Destiny USA Stadium 19","address":"9586 Destiny USA Dr.","city":"Syracuse","state":"NY","zip":"13204","distance":24.202064824039,"lon":"-76.172622","lat":"43.069037","theaterChainName":"Regal Cinemas","ticketType":"STANDARD"}]