[{"id":"1616","tribuneTheaterId":"6534","providerTheaterId":"","name":"Glenwood MoviePlex","address":"Route 5 ","city":"Oneida","state":"NY","zip":"13421","distance":9.3601475021853,"lon":"-75.642166","lat":"43.077347","theaterChainName":"Zurich Cinemas","ticketType":"STANDARD"},{"id":"1693","tribuneTheaterId":"4140","providerTheaterId":"","name":"Rome Cinemas - Rome, NY","address":"1122 Erie Blvd. W.","city":"Rome","state":"NY","zip":"13440","distance":12.601440759167,"lon":"-75.483241","lat":"43.224551","theaterChainName":"Zurich Cinemas","ticketType":"STANDARD"},{"id":"5598","tribuneTheaterId":"11052","providerTheaterId":"","name":"Capitol Theatre","address":"220 W. Dominick St.","city":"Rome","state":"NY","zip":"13440","distance":13.672169872103,"lon":"-75.459898","lat":"43.212325","theaterChainName":"Independent Chains","ticketType":"STANDARD"},{"id":"1535","tribuneTheaterId":"5661","providerTheaterId":"","name":"Regal Shoppingtown Mall 10","address":"3649 Erie Blvd","city":"DeWitt","state":"NY","zip":"13214","distance":20.111055973324,"lon":"-76.0661","lat":"43.0393","theaterChainName":"Regal Cinemas","ticketType":"STANDARD"},{"id":"1534","tribuneTheaterId":"2500","providerTheaterId":"","name":"Hollywood Theatre","address":"2221 Brewerton Rd.","city":"Mattydale","state":"NY","zip":"13211","distance":21.98821774566,"lon":"-76.145401","lat":"43.098301","theaterChainName":"Zurich Cinemas","ticketType":"STANDARD"},{"id":"3864","tribuneTheaterId":"2348","providerTheaterId":"","name":"Marquee Cinemas Orchard 14","address":"20 Ellinwood Dr.","city":"New Hartford","state":"NY","zip":"13413","distance":22.158815369349,"lon":"-75.31467","lat":"43.092571","theaterChainName":"Marquee Cinemas","ticketType":"STANDARD"},{"id":"1583","tribuneTheaterId":"7147","providerTheaterId":"","name":"Regal Great Northern Mall 10","address":"4155 State Rt. 31","city":"Clay","state":"NY","zip":"13041","distance":24.892842341501,"lon":"-76.224582","lat":"43.189519","theaterChainName":"Regal Cinemas","ticketType":"STANDARD"},{"id":"1533","tribuneTheaterId":"5668","providerTheaterId":"","name":"Regal Destiny USA Stadium 19","address":"9586 Destiny USA Dr.","city":"Syracuse","state":"NY","zip":"13204","distance":23.969316130113,"lon":"-76.172622","lat":"43.069037","theaterChainName":"Regal Cinemas","ticketType":"STANDARD"}]