[{"id":"1616","tribuneTheaterId":"6534","providerTheaterId":"","name":"Glenwood MoviePlex","address":"Route 5 ","city":"Oneida","state":"NY","zip":"13421","distance":8.4613224240989,"lon":"-75.642166","lat":"43.077347","theaterChainName":"Zurich Cinemas","ticketType":"STANDARD"},{"id":"1693","tribuneTheaterId":"4140","providerTheaterId":"","name":"Rome Cinemas - Rome, NY","address":"1122 Erie Blvd. W.","city":"Rome","state":"NY","zip":"13440","distance":11.816371823085,"lon":"-75.483241","lat":"43.224551","theaterChainName":"Zurich Cinemas","ticketType":"STANDARD"},{"id":"5598","tribuneTheaterId":"11052","providerTheaterId":"","name":"Capitol Theatre","address":"220 W. Dominick St.","city":"Rome","state":"NY","zip":"13440","distance":12.833723905827,"lon":"-75.459898","lat":"43.212325","theaterChainName":"Independent Chains","ticketType":"STANDARD"},{"id":"3864","tribuneTheaterId":"2348","providerTheaterId":"","name":"Marquee Cinemas Orchard 14","address":"20 Ellinwood Dr.","city":"New Hartford","state":"NY","zip":"13413","distance":21.128510317005,"lon":"-75.31467","lat":"43.092571","theaterChainName":"Marquee Cinemas","ticketType":"STANDARD"},{"id":"1535","tribuneTheaterId":"5661","providerTheaterId":"","name":"Regal Shoppingtown Mall 10","address":"3649 Erie Blvd","city":"DeWitt","state":"NY","zip":"13214","distance":20.595385166206,"lon":"-76.0661","lat":"43.0393","theaterChainName":"Regal Cinemas","ticketType":"STANDARD"},{"id":"1534","tribuneTheaterId":"2500","providerTheaterId":"","name":"Hollywood Theatre","address":"2221 Brewerton Rd.","city":"Mattydale","state":"NY","zip":"13211","distance":22.691595108219,"lon":"-76.145401","lat":"43.098301","theaterChainName":"Zurich Cinemas","ticketType":"STANDARD"},{"id":"1533","tribuneTheaterId":"5668","providerTheaterId":"","name":"Regal Destiny USA Stadium 19","address":"9586 Destiny USA Dr.","city":"Syracuse","state":"NY","zip":"13204","distance":24.621611590049,"lon":"-76.172622","lat":"43.069037","theaterChainName":"Regal Cinemas","ticketType":"STANDARD"}]