[{"id":"1535","name":"Regal Shoppingtown Mall 10","address":"3649 Erie Blvd","city":"DeWitt","state":"NY","zip":"13214","distance":"3.8687405586242676","lon":"-76.066101","lat":"43.039299","theaterChainName":"Regal Cinemas","ticketType":"STANDARD"},{"id":"1533","name":"Regal Destiny USA Stadium 19","address":"9586 Destiny USA Dr.","city":"Syracuse","state":"NY","zip":"13204","distance":"1.893058180809021","lon":"-76.172623","lat":"43.069038","theaterChainName":"Regal Cinemas","ticketType":"STANDARD"},{"id":"1534","name":"Hollywood Theatre","address":"2221 Brewerton Rd.","city":"Mattydale","state":"NY","zip":"13211","distance":"2.6333413124084473","lon":"-76.145401","lat":"43.098301","theaterChainName":"Zurich Cinemas","ticketType":"STANDARD"},{"id":"5925","name":"Movie Tavern Syracuse","address":"180 Township Blvd.","city":"Camillus","state":"NY","zip":"13031","distance":"6.786864757537842","lon":"-76.271103","lat":"43.055000","theaterChainName":"Movie Tavern","ticketType":"STANDARD"},{"id":"1583","name":"Regal Great Northern Mall 10","address":"4155 State Rt. 31","city":"Clay","state":"NY","zip":"13041","distance":"9.938817977905273","lon":"-76.224579","lat":"43.189518","theaterChainName":"Regal Cinemas","ticketType":"STANDARD"},{"id":"1616","name":"Glenwood MoviePlex","address":"Route 5 ","city":"Oneida","state":"NY","zip":"13421","distance":"24.99969482421875","lon":"-75.642166","lat":"43.077347","theaterChainName":"Zurich Cinemas","ticketType":"STANDARD"}]