[{"id":"1693","tribuneTheaterId":"4140","providerTheaterId":"","name":"Rome Cinemas - Rome, NY","address":"1122 Erie Blvd. W.","city":"Rome","state":"NY","zip":"13440","distance":10.280861908048,"lon":"-75.483241","lat":"43.224551","theaterChainName":"Zurich Cinemas","ticketType":"STANDARD"},{"id":"5598","tribuneTheaterId":"11052","providerTheaterId":"","name":"Capitol Theatre","address":"220 W. Dominick St.","city":"Rome","state":"NY","zip":"13440","distance":11.51667870689,"lon":"-75.459898","lat":"43.212325","theaterChainName":"Independent Chains","ticketType":"STANDARD"},{"id":"1616","tribuneTheaterId":"6534","providerTheaterId":"","name":"Glenwood MoviePlex","address":"Route 5 ","city":"Oneida","state":"NY","zip":"13421","distance":10.810121372491,"lon":"-75.642166","lat":"43.077347","theaterChainName":"Zurich Cinemas","ticketType":"STANDARD"},{"id":"3864","tribuneTheaterId":"2348","providerTheaterId":"","name":"Marquee Cinemas Orchard 14","address":"20 Ellinwood Dr.","city":"New Hartford","state":"NY","zip":"13413","distance":21.053420363152,"lon":"-75.31467","lat":"43.092571","theaterChainName":"Marquee Cinemas","ticketType":"STANDARD"},{"id":"1535","tribuneTheaterId":"5661","providerTheaterId":"","name":"Regal Shoppingtown Mall 10","address":"3649 Erie Blvd","city":"DeWitt","state":"NY","zip":"13214","distance":23.215058906111,"lon":"-76.0661","lat":"43.0393","theaterChainName":"Regal Cinemas","ticketType":"STANDARD"},{"id":"1534","tribuneTheaterId":"2500","providerTheaterId":"","name":"Hollywood Theatre","address":"2221 Brewerton Rd.","city":"Mattydale","state":"NY","zip":"13211","distance":24.822727906869,"lon":"-76.145401","lat":"43.098301","theaterChainName":"Zurich Cinemas","ticketType":"STANDARD"}]