[{"id":"3561","tribuneTheaterId":"1574","providerTheaterId":"","name":"Hamilton Theater","address":"7 Lebanon St.","city":"Hamilton","state":"NY","zip":"13346","distance":19.749586947225,"lon":"-75.544867","lat":"42.826568","theaterChainName":"Independent Chains","ticketType":"STANDARD"},{"id":"1934","tribuneTheaterId":"4086","providerTheaterId":"","name":"Southside Mall Cinema","address":"Route 23","city":"Oneonta","state":"NY","zip":"13820","distance":21.942510435241,"lon":"-75.046384","lat":"42.447118","theaterChainName":"Zurich Cinemas","ticketType":"STANDARD"},{"id":"1733","tribuneTheaterId":"1474","providerTheaterId":"","name":"Colonia Theater","address":"35 S. Broad St.","city":"Norwich","state":"NY","zip":"13815","distance":23.644553044232,"lon":"-75.523436","lat":"42.529947","theaterChainName":"Independent Chains","ticketType":"STANDARD"},{"id":"3864","tribuneTheaterId":"2348","providerTheaterId":"","name":"Marquee Cinemas Orchard 14","address":"20 Ellinwood Dr.","city":"New Hartford","state":"NY","zip":"13413","distance":24.684771966898,"lon":"-75.31467","lat":"43.092571","theaterChainName":"Marquee Cinemas","ticketType":"STANDARD"}]