[{"id":"1535","name":"Regal Shoppingtown Mall 10","address":"3649 Erie Blvd","city":"DeWitt","state":"NY","zip":"13214","distance":"24.357648849487305","lon":"-76.066101","lat":"43.039299","theaterChainName":"Regal Cinemas","ticketType":"STANDARD"},{"id":"1616","name":"Glenwood MoviePlex","address":"Route 5 ","city":"Oneida","state":"NY","zip":"13421","distance":"15.414063453674316","lon":"-75.642166","lat":"43.077347","theaterChainName":"Zurich Cinemas","ticketType":"STANDARD"},{"id":"3561","name":"Hamilton Theater","address":"7 Lebanon St.","city":"Hamilton","state":"NY","zip":"13346","distance":"5.952060222625732","lon":"-75.544868","lat":"42.826569","theaterChainName":"Independent Chains","ticketType":"STANDARD"},{"id":"1733","name":"Colonia Theater","address":"35 S. Broad St.","city":"Norwich","state":"NY","zip":"13815","distance":"23.414670944213867","lon":"-75.523438","lat":"42.529945","theaterChainName":"Independent Chains","ticketType":"STANDARD"},{"id":"3864","name":"Marquee Cinemas Orchard 14","address":"20 Ellinwood Dr.","city":"New Hartford","state":"NY","zip":"13413","distance":"23.841012954711914","lon":"-75.314667","lat":"43.092571","theaterChainName":"Marquee Cinemas","ticketType":"STANDARD"}]