[{"id":"2817","tribuneTheaterId":"8201","providerTheaterId":"","name":"Regal Binghamton Stadium 12","address":"900 Front St","city":"Binghamton","state":"NY","zip":"13905","distance":10.441606987251,"lon":"-75.904922","lat":"42.133072","theaterChainName":"Regal Cinemas","ticketType":"STANDARD"},{"id":"4881","tribuneTheaterId":"10189","providerTheaterId":"","name":"ART Mission and Theater","address":"61 Prospect Ave.","city":"Binghamton","state":"NY","zip":"13901","distance":12.486745817472,"lon":"-75.909962","lat":"42.103361","theaterChainName":"Independent Chains","ticketType":"STANDARD"},{"id":"5259","tribuneTheaterId":"7953","providerTheaterId":"2708","name":"AMC Loews Vestal Towne Square 9","address":"2425 Vestal Pkwy","city":"Vestal","state":"NY","zip":"13850","distance":15.040100073293,"lon":"-76.010628","lat":"42.09741","theaterChainName":"AMC Theatres","ticketType":"STANDARD"},{"id":"4620","tribuneTheaterId":"9797","providerTheaterId":"","name":"Tioga Theater","address":"208 Main Street","city":"Owego","state":"NY","zip":"13827","distance":24.41486761903,"lon":"-76.26148","lat":"42.104036","theaterChainName":"Independent Chains","ticketType":"STANDARD"},{"id":"1733","tribuneTheaterId":"1474","providerTheaterId":"","name":"Colonia Theater","address":"35 S. Broad St.","city":"Norwich","state":"NY","zip":"13815","distance":23.972479058823,"lon":"-75.523436","lat":"42.529947","theaterChainName":"Independent Chains","ticketType":"STANDARD"}]