[{"id":"2817","name":"Regal Binghamton Stadium 12","address":"900 Front St","city":"Binghamton","state":"NY","zip":"13905","distance":"6.1102824211120605","lon":"-75.904922","lat":"42.133072","theaterChainName":"Regal Cinemas","ticketType":"STANDARD"},{"id":"4881","name":"ART Mission and Theater","address":"61 Prospect Ave.","city":"Binghamton","state":"NY","zip":"13901","distance":"5.730105876922607","lon":"-75.909966","lat":"42.103359","theaterChainName":"Independent Chains","ticketType":"STANDARD"},{"id":"5259","name":"AMC Loews Vestal Towne Square 9","address":"2425 Vestal Pkwy","city":"Vestal","state":"NY","zip":"13850","distance":"1.1953020095825195","lon":"-76.010628","lat":"42.097408","theaterChainName":"AMC Theatres","ticketType":"STANDARD"},{"id":"4620","name":"Tioga Theater","address":"208 Main Street","city":"Owego","state":"NY","zip":"13827","distance":"12.34259033203125","lon":"-76.261482","lat":"42.104034","theaterChainName":"Independent Chains","ticketType":"STANDARD"},{"id":"3306","name":"Montrose Theatre","address":"38 Public Ave","city":"Montrose","state":"PA","zip":"18801","distance":"20.670948028564453","lon":"-75.877968","lat":"41.833282","theaterChainName":"Independent Chains","ticketType":"STANDARD"}]