[{"id":"2817","tribuneTheaterId":"8201","providerTheaterId":"","name":"Regal Binghamton Stadium 12","address":"900 Front St","city":"Binghamton","state":"NY","zip":"13905","distance":15.724671763551,"lon":"-75.904922","lat":"42.133072","theaterChainName":"Regal Cinemas","ticketType":"STANDARD"},{"id":"5259","tribuneTheaterId":"7953","providerTheaterId":"2708","name":"AMC Loews Vestal Towne Square 9","address":"2425 Vestal Pkwy","city":"Vestal","state":"NY","zip":"13850","distance":16.853310209115,"lon":"-76.010628","lat":"42.09741","theaterChainName":"AMC Theatres","ticketType":"STANDARD"},{"id":"4881","tribuneTheaterId":"10189","providerTheaterId":"","name":"ART Mission and Theater","address":"61 Prospect Ave.","city":"Binghamton","state":"NY","zip":"13901","distance":17.527536027184,"lon":"-75.909962","lat":"42.103361","theaterChainName":"Independent Chains","ticketType":"STANDARD"},{"id":"5003","tribuneTheaterId":"10374","providerTheaterId":"","name":"Plaza 6 Cinemas","address":"255 Tompkins St","city":"Cortland","state":"NY","zip":"13045","distance":18.861062888262,"lon":"-76.200031","lat":"42.58343","theaterChainName":"Independent Chains","ticketType":"STANDARD"},{"id":"4620","tribuneTheaterId":"9797","providerTheaterId":"","name":"Tioga Theater","address":"208 Main Street","city":"Owego","state":"NY","zip":"13827","distance":20.195892064877,"lon":"-76.26148","lat":"42.104036","theaterChainName":"Independent Chains","ticketType":"STANDARD"},{"id":"3096","tribuneTheaterId":"1246","providerTheaterId":"","name":"Cinemapolis","address":"120 E. Green St.","city":"Ithaca","state":"NY","zip":"14850","distance":24.778430286591,"lon":"-76.49727","lat":"42.438927","theaterChainName":"Independent Chains","ticketType":"STANDARD"}]