[{"id":"5003","name":"Plaza 6 Cinemas","address":"255 Tompkins St","city":"Cortland","state":"NY","zip":"13045","distance":"18.862266540527344","lon":"-76.200027","lat":"42.583431","theaterChainName":"Independent Chains","ticketType":"STANDARD"},{"id":"3096","name":"Cinemapolis","address":"120 E. Green St.","city":"Ithaca","state":"NY","zip":"14850","distance":"24.780027389526367","lon":"-76.497269","lat":"42.438927","theaterChainName":"Independent Chains","ticketType":"STANDARD"},{"id":"2817","name":"Regal Binghamton Stadium 12","address":"900 Front St","city":"Binghamton","state":"NY","zip":"13905","distance":"15.72560977935791","lon":"-75.904922","lat":"42.133072","theaterChainName":"Regal Cinemas","ticketType":"STANDARD"},{"id":"4881","name":"ART Mission and Theater","address":"61 Prospect Ave.","city":"Binghamton","state":"NY","zip":"13901","distance":"17.528650283813477","lon":"-75.909966","lat":"42.103359","theaterChainName":"Independent Chains","ticketType":"STANDARD"},{"id":"5259","name":"AMC Loews Vestal Towne Square 9","address":"2425 Vestal Pkwy","city":"Vestal","state":"NY","zip":"13850","distance":"16.854494094848633","lon":"-76.010628","lat":"42.097408","theaterChainName":"AMC Theatres","ticketType":"STANDARD"},{"id":"4620","name":"Tioga Theater","address":"208 Main Street","city":"Owego","state":"NY","zip":"13827","distance":"20.19740867614746","lon":"-76.261482","lat":"42.104034","theaterChainName":"Independent Chains","ticketType":"STANDARD"}]