[{"id":"4620","tribuneTheaterId":"9797","providerTheaterId":"","name":"Tioga Theater","address":"208 Main Street","city":"Owego","state":"NY","zip":"13827","distance":5.5326266237722,"lon":"-76.26148","lat":"42.104036","theaterChainName":"Independent Chains","ticketType":"STANDARD"},{"id":"3022","tribuneTheaterId":"1536","providerTheaterId":"","name":"Sayre Theatre","address":"205 S. Elmer Ave.","city":"Sayre","state":"PA","zip":"18840","distance":10.124773772618,"lon":"-76.51695","lat":"41.980579","theaterChainName":"Independent Chains","ticketType":"STANDARD"},{"id":"5259","tribuneTheaterId":"7953","providerTheaterId":"2708","name":"AMC Loews Vestal Towne Square 9","address":"2425 Vestal Pkwy","city":"Vestal","state":"NY","zip":"13850","distance":17.534602535037,"lon":"-76.010628","lat":"42.09741","theaterChainName":"AMC Theatres","ticketType":"STANDARD"},{"id":"1846","tribuneTheaterId":"1118","providerTheaterId":"","name":"Keystone Theatre","address":"601 Main Street","city":"Towanda","state":"PA","zip":"18848","distance":20.754420041378,"lon":"-76.442957","lat":"41.764248","theaterChainName":"Independent Chains","ticketType":"STANDARD"},{"id":"2817","tribuneTheaterId":"8201","providerTheaterId":"","name":"Regal Binghamton Stadium 12","address":"900 Front St","city":"Binghamton","state":"NY","zip":"13905","distance":23.329191682598,"lon":"-75.904922","lat":"42.133072","theaterChainName":"Regal Cinemas","ticketType":"STANDARD"},{"id":"4881","tribuneTheaterId":"10189","providerTheaterId":"","name":"ART Mission and Theater","address":"61 Prospect Ave.","city":"Binghamton","state":"NY","zip":"13901","distance":22.698503480768,"lon":"-75.909962","lat":"42.103361","theaterChainName":"Independent Chains","ticketType":"STANDARD"},{"id":"2172","tribuneTheaterId":"349","providerTheaterId":"","name":"The Heights Theater","address":"210 E. 14th St.","city":"Elmira Heights","state":"NY","zip":"14903","distance":24.853038448112,"lon":"-76.822645","lat":"42.12921","theaterChainName":"Independent Chains","ticketType":"STANDARD"}]