[{"id":"3544","tribuneTheaterId":"6319","providerTheaterId":"","name":"New Angola Theatre","address":"72 N Main St.","city":"Angola","state":"NY","zip":"14006","distance":4.7695311474242,"lon":"-79.027844","lat":"42.639696","theaterChainName":"Independent Chains","ticketType":"STANDARD"},{"id":"1224","tribuneTheaterId":"2474","providerTheaterId":"","name":"Hamburg Palace Theatre","address":"31 Buffalo St.","city":"Hamburg","state":"NY","zip":"14075","distance":14.379184112877,"lon":"-78.829275","lat":"42.71677","theaterChainName":"Independent Chains","ticketType":"STANDARD"},{"id":"1701","tribuneTheaterId":"2098","providerTheaterId":"","name":"Dunkirk Cinemas","address":"10520 Bennett Rd.","city":"Dunkirk","state":"NY","zip":"14048","distance":16.235503447459,"lon":"-79.310763","lat":"42.458317","theaterChainName":"Independent Chains","ticketType":"STANDARD"},{"id":"314","tribuneTheaterId":"2971","providerTheaterId":"","name":"Dipson McKinley Mall 6","address":"3701 McKinley Pkwy.","city":"Hamburg","state":"NY","zip":"14219","distance":18.562532490952,"lon":"-78.80712","lat":"42.78315","theaterChainName":"Dipson Theatres","ticketType":"STANDARD"},{"id":"801","tribuneTheaterId":"7574","providerTheaterId":"","name":"Regal Quaker Crossing Stadium 18","address":"3450 Amelia Drive","city":"Orchard Park","state":"NY","zip":"14127","distance":19.620215376356,"lon":"-78.787599","lat":"42.791319","theaterChainName":"Regal Cinemas","ticketType":"STANDARD"}]