[{"id":"1209","tribuneTheaterId":"2472","providerTheaterId":"","name":"Aurora Theatre","address":"673 Main Street","city":"East Aurora","state":"NY","zip":"14052","distance":8.838524260386,"lon":"-78.609705","lat":"42.767788","theaterChainName":"Independent Chains","ticketType":"STANDARD"},{"id":"1224","tribuneTheaterId":"2474","providerTheaterId":"","name":"Hamburg Palace Theatre","address":"31 Buffalo St.","city":"Hamburg","state":"NY","zip":"14075","distance":8.1667081239551,"lon":"-78.829275","lat":"42.71677","theaterChainName":"Independent Chains","ticketType":"STANDARD"},{"id":"314","tribuneTheaterId":"2971","providerTheaterId":"","name":"Dipson McKinley Mall 6","address":"3701 McKinley Pkwy.","city":"Hamburg","state":"NY","zip":"14219","distance":10.600292849196,"lon":"-78.80712","lat":"42.78315","theaterChainName":"Dipson Theatres","ticketType":"STANDARD"},{"id":"801","tribuneTheaterId":"7574","providerTheaterId":"","name":"Regal Quaker Crossing Stadium 18","address":"3450 Amelia Drive","city":"Orchard Park","state":"NY","zip":"14127","distance":10.586767865052,"lon":"-78.787599","lat":"42.791319","theaterChainName":"Regal Cinemas","ticketType":"STANDARD"},{"id":"1122","tribuneTheaterId":"3140","providerTheaterId":"","name":"Flix Stadium 10","address":"4901 Transit Road","city":"Lancaster","state":"NY","zip":"14043","distance":15.417019194157,"lon":"-78.693995","lat":"42.878229","theaterChainName":"Dipson Theatres","ticketType":"STANDARD"},{"id":"3544","tribuneTheaterId":"6319","providerTheaterId":"","name":"New Angola Theatre","address":"72 N Main St.","city":"Angola","state":"NY","zip":"14006","distance":17.095886482221,"lon":"-79.027844","lat":"42.639696","theaterChainName":"Independent Chains","ticketType":"STANDARD"},{"id":"4498","tribuneTheaterId":"9600","providerTheaterId":"","name":"Regal Walden Galleria Stadium","address":"1 Walden Galleria Drive","city":"Buffalo","state":"NY","zip":"14225","distance":18.300527993998,"lon":"-78.762553","lat":"42.914871","theaterChainName":"Regal Cinemas","ticketType":"STANDARD"},{"id":"701","tribuneTheaterId":"7418","providerTheaterId":"","name":"Regal Transit Center Stadium 18","address":"6707 Transit RD.","city":"Williamsville","state":"NY","zip":"14221","distance":20.618877308625,"lon":"-78.6969","lat":"42.9535","theaterChainName":"Regal Cinemas","ticketType":"STANDARD"},{"id":"1124","tribuneTheaterId":"2462","providerTheaterId":"","name":"Dipson North Park Art Cinema","address":"1428 Hertel Avenue","city":"Buffalo","state":"NY","zip":"14216","distance":21.841593034967,"lon":"-78.855138","lat":"42.94771","theaterChainName":"Independent Chains","ticketType":"STANDARD"},{"id":"1120","tribuneTheaterId":"2808","providerTheaterId":"","name":"Dipson Amherst Theatre","address":"3500 Main Street","city":"Buffalo","state":"NY","zip":"14226","distance":21.906928418414,"lon":"-78.816626","lat":"42.958716","theaterChainName":"Dipson Theatres","ticketType":"STANDARD"},{"id":"702","tribuneTheaterId":"7573","providerTheaterId":"","name":"Regal Elmwood Center 16","address":"2001 Elmwood Ave.","city":"Buffalo","state":"NY","zip":"14207","distance":22.576850358584,"lon":"-78.876815","lat":"42.95243","theaterChainName":"Regal Cinemas","ticketType":"STANDARD"},{"id":"1121","tribuneTheaterId":"2809","providerTheaterId":"","name":"Dipson Eastern Hills Cinema 3","address":"4545 Transit Road","city":"Williamsville","state":"NY","zip":"14221","distance":21.934153376605,"lon":"-78.692214","lat":"42.972557","theaterChainName":"Dipson Theatres","ticketType":"STANDARD"},{"id":"362","tribuneTheaterId":"5325","providerTheaterId":"554","name":"AMC Maple Ridge 8","address":"4276 Maple Rd","city":"Amherst","state":"NY","zip":"14226","distance":24.036099692665,"lon":"-78.804454","lat":"42.993078","theaterChainName":"AMC Theatres","ticketType":"STANDARD"},{"id":"1227","tribuneTheaterId":"7781","providerTheaterId":"","name":"Screening Room Cinema Cafe","address":"3131 Sheridan Dr","city":"Amherst","state":"NY","zip":"14226","distance":23.923035526856,"lon":"-78.819504","lat":"42.988494","theaterChainName":"Independent Chains","ticketType":"STANDARD"}]