[{"id":"1209","name":"Aurora Theatre","address":"673 Main Street","city":"East Aurora","state":"NY","zip":"14052","distance":"14.263856887817383","lon":"-78.609703","lat":"42.767788","theaterChainName":"Independent Chains","ticketType":"STANDARD"},{"id":"1122","name":"Flix Stadium 10","address":"4901 Transit Road","city":"Lancaster","state":"NY","zip":"14043","distance":"15.544038772583008","lon":"-78.693993","lat":"42.878227","theaterChainName":"Dipson Theatres","ticketType":"STANDARD"},{"id":"701","name":"Regal Transit Center Stadium 18","address":"6707 Transit RD.","city":"Williamsville","state":"NY","zip":"14221","distance":"16.156829833984375","lon":"-78.696899","lat":"42.953499","theaterChainName":"Regal Cinemas","ticketType":"STANDARD"},{"id":"1121","name":"Dipson Eastern Hills Cinema 3","address":"4545 Transit Road","city":"Williamsville","state":"NY","zip":"14221","distance":"16.310396194458008","lon":"-78.692215","lat":"42.972557","theaterChainName":"Dipson Theatres","ticketType":"STANDARD"},{"id":"4498","name":"Regal Walden Galleria Stadium","address":"1 Walden Galleria Drive","city":"Buffalo","state":"NY","zip":"14225","distance":"19.017751693725586","lon":"-78.762550","lat":"42.914871","theaterChainName":"Regal Cinemas","ticketType":"STANDARD"},{"id":"801","name":"Regal Quaker Crossing Stadium 18","address":"3450 Amelia Drive","city":"Orchard Park","state":"NY","zip":"14127","distance":"21.48002052307129","lon":"-78.787598","lat":"42.791321","theaterChainName":"Regal Cinemas","ticketType":"STANDARD"},{"id":"1210","name":"Dipson Batavia Mall Cinema","address":"6 Alva PL W","city":"Batavia","state":"NY","zip":"14020","distance":"12.594144821166992","lon":"-78.183723","lat":"42.999229","theaterChainName":"Independent Chains","ticketType":"STANDARD"},{"id":"362","name":"AMC Maple Ridge 8","address":"4276 Maple Rd","city":"Amherst","state":"NY","zip":"14226","distance":"22.141502380371094","lon":"-78.804451","lat":"42.993076","theaterChainName":"AMC Theatres","ticketType":"STANDARD"},{"id":"1120","name":"Dipson Amherst Theatre","address":"3500 Main Street","city":"Buffalo","state":"NY","zip":"14226","distance":"22.141359329223633","lon":"-78.816628","lat":"42.958717","theaterChainName":"Dipson Theatres","ticketType":"STANDARD"},{"id":"314","name":"Dipson McKinley Mall 6","address":"3701 McKinley Pkwy.","city":"Hamburg","state":"NY","zip":"14219","distance":"22.60291862487793","lon":"-78.807121","lat":"42.783150","theaterChainName":"Dipson Theatres","ticketType":"STANDARD"},{"id":"2640","name":"Palace Theatre Lockport","address":"2 East Avenue","city":"Lockport","state":"NY","zip":"14094","distance":"24.366804122924805","lon":"-78.688271","lat":"43.170696","theaterChainName":"Independent Chains","ticketType":"STANDARD"},{"id":"1227","name":"Screening Room Cinema Cafe","address":"3131 Sheridan Dr","city":"Amherst","state":"NY","zip":"14226","distance":"22.776159286499023","lon":"-78.819504","lat":"42.988495","theaterChainName":"Independent Chains","ticketType":"STANDARD"},{"id":"1124","name":"Dipson North Park Art Cinema","address":"1428 Hertel Avenue","city":"Buffalo","state":"NY","zip":"14216","distance":"23.92800521850586","lon":"-78.855141","lat":"42.947708","theaterChainName":"Independent Chains","ticketType":"STANDARD"},{"id":"5073","name":"The Stage","address":"23 S Main St.","city":"Warsaw","state":"NY","zip":"14569","distance":"16.775667190551758","lon":"-78.133026","lat":"42.739822","theaterChainName":"Independent Chains","ticketType":"STANDARD"}]