[{"id":"1209","name":"Aurora Theatre","address":"673 Main Street","city":"East Aurora","state":"NY","zip":"14052","distance":"19.537111282348633","lon":"-78.609703","lat":"42.767788","theaterChainName":"Independent Chains","ticketType":"STANDARD"},{"id":"1122","name":"Flix Stadium 10","address":"4901 Transit Road","city":"Lancaster","state":"NY","zip":"14043","distance":"11.381092071533203","lon":"-78.693993","lat":"42.878227","theaterChainName":"Dipson Theatres","ticketType":"STANDARD"},{"id":"701","name":"Regal Transit Center Stadium 18","address":"6707 Transit RD.","city":"Williamsville","state":"NY","zip":"14221","distance":"6.178155899047852","lon":"-78.696899","lat":"42.953499","theaterChainName":"Regal Cinemas","ticketType":"STANDARD"},{"id":"1121","name":"Dipson Eastern Hills Cinema 3","address":"4545 Transit Road","city":"Williamsville","state":"NY","zip":"14221","distance":"4.8719048500061035","lon":"-78.692215","lat":"42.972557","theaterChainName":"Dipson Theatres","ticketType":"STANDARD"},{"id":"4498","name":"Regal Walden Galleria Stadium","address":"1 Walden Galleria Drive","city":"Buffalo","state":"NY","zip":"14225","distance":"9.415225982666016","lon":"-78.762550","lat":"42.914871","theaterChainName":"Regal Cinemas","ticketType":"STANDARD"},{"id":"801","name":"Regal Quaker Crossing Stadium 18","address":"3450 Amelia Drive","city":"Orchard Park","state":"NY","zip":"14127","distance":"17.954885482788086","lon":"-78.787598","lat":"42.791321","theaterChainName":"Regal Cinemas","ticketType":"STANDARD"},{"id":"362","name":"AMC Maple Ridge 8","address":"4276 Maple Rd","city":"Amherst","state":"NY","zip":"14226","distance":"6.35148811340332","lon":"-78.804451","lat":"42.993076","theaterChainName":"AMC Theatres","ticketType":"STANDARD"},{"id":"1120","name":"Dipson Amherst Theatre","address":"3500 Main Street","city":"Buffalo","state":"NY","zip":"14226","distance":"8.324044227600098","lon":"-78.816628","lat":"42.958717","theaterChainName":"Dipson Theatres","ticketType":"STANDARD"},{"id":"314","name":"Dipson McKinley Mall 6","address":"3701 McKinley Pkwy.","city":"Hamburg","state":"NY","zip":"14219","distance":"18.76658821105957","lon":"-78.807121","lat":"42.783150","theaterChainName":"Dipson Theatres","ticketType":"STANDARD"},{"id":"2640","name":"Palace Theatre Lockport","address":"2 East Avenue","city":"Lockport","state":"NY","zip":"14094","distance":"8.846365928649902","lon":"-78.688271","lat":"43.170696","theaterChainName":"Independent Chains","ticketType":"STANDARD"},{"id":"1227","name":"Screening Room Cinema Cafe","address":"3131 Sheridan Dr","city":"Amherst","state":"NY","zip":"14226","distance":"7.163826942443848","lon":"-78.819504","lat":"42.988495","theaterChainName":"Independent Chains","ticketType":"STANDARD"},{"id":"1124","name":"Dipson North Park Art Cinema","address":"1428 Hertel Avenue","city":"Buffalo","state":"NY","zip":"14216","distance":"10.280771255493164","lon":"-78.855141","lat":"42.947708","theaterChainName":"Independent Chains","ticketType":"STANDARD"},{"id":"1224","name":"Hamburg Palace Theatre","address":"31 Buffalo St.","city":"Hamburg","state":"NY","zip":"14075","distance":"23.483245849609375","lon":"-78.829277","lat":"42.716770","theaterChainName":"Independent Chains","ticketType":"STANDARD"},{"id":"702","name":"Regal Elmwood Center 16","address":"2001 Elmwood Ave.","city":"Buffalo","state":"NY","zip":"14207","distance":"10.9550142288208","lon":"-78.876816","lat":"42.952431","theaterChainName":"Regal Cinemas","ticketType":"STANDARD"},{"id":"5891","name":"Riviera Theatre","address":"67 Webster St.","city":"North Tonawanda","state":"NY","zip":"14120","distance":"9.104005813598633","lon":"-78.877136","lat":"43.023750","theaterChainName":"Independent Chains","ticketType":"STANDARD"},{"id":"2658","name":"Regal Niagara Falls Stadium 12","address":"720 Builders Way","city":"Niagara Falls","state":"NY","zip":"14304","distance":"15.073729515075684","lon":"-78.991402","lat":"43.086399","theaterChainName":"Regal Cinemas","ticketType":"STANDARD"}]