[{"id":"801","name":"Regal Quaker Crossing Stadium 18","address":"3450 Amelia Drive","city":"Orchard Park","state":"NY","zip":"14127","distance":"23.336551666259766","lon":"-78.787598","lat":"42.791321","theaterChainName":"Regal Cinemas","ticketType":"STANDARD"},{"id":"314","name":"Dipson McKinley Mall 6","address":"3701 McKinley Pkwy.","city":"Hamburg","state":"NY","zip":"14219","distance":"22.498062133789062","lon":"-78.807121","lat":"42.783150","theaterChainName":"Dipson Theatres","ticketType":"STANDARD"},{"id":"1224","name":"Hamburg Palace Theatre","address":"31 Buffalo St.","city":"Hamburg","state":"NY","zip":"14075","distance":"17.78335189819336","lon":"-78.829277","lat":"42.716770","theaterChainName":"Independent Chains","ticketType":"STANDARD"},{"id":"3544","name":"New Angola Theatre","address":"72 N Main St.","city":"Angola","state":"NY","zip":"14006","distance":"12.586363792419434","lon":"-79.027847","lat":"42.639694","theaterChainName":"Independent Chains","ticketType":"STANDARD"},{"id":"1701","name":"Dunkirk Cinemas","address":"10520 Bennett Rd.","city":"Dunkirk","state":"NY","zip":"14048","distance":"19.230281829833984","lon":"-79.310760","lat":"42.458317","theaterChainName":"Independent Chains","ticketType":"STANDARD"}]