[{"id":"1209","name":"Aurora Theatre","address":"673 Main Street","city":"East Aurora","state":"NY","zip":"14052","distance":"22.303544998168945","lon":"-78.609703","lat":"42.767788","theaterChainName":"Independent Chains","ticketType":"STANDARD"},{"id":"801","name":"Regal Quaker Crossing Stadium 18","address":"3450 Amelia Drive","city":"Orchard Park","state":"NY","zip":"14127","distance":"18.619476318359375","lon":"-78.787598","lat":"42.791321","theaterChainName":"Regal Cinemas","ticketType":"STANDARD"},{"id":"314","name":"Dipson McKinley Mall 6","address":"3701 McKinley Pkwy.","city":"Hamburg","state":"NY","zip":"14219","distance":"17.74673080444336","lon":"-78.807121","lat":"42.783150","theaterChainName":"Dipson Theatres","ticketType":"STANDARD"},{"id":"1224","name":"Hamburg Palace Theatre","address":"31 Buffalo St.","city":"Hamburg","state":"NY","zip":"14075","distance":"13.052041053771973","lon":"-78.829277","lat":"42.716770","theaterChainName":"Independent Chains","ticketType":"STANDARD"},{"id":"3544","name":"New Angola Theatre","address":"72 N Main St.","city":"Angola","state":"NY","zip":"14006","distance":"8.746585845947266","lon":"-79.027847","lat":"42.639694","theaterChainName":"Independent Chains","ticketType":"STANDARD"},{"id":"1701","name":"Dunkirk Cinemas","address":"10520 Bennett Rd.","city":"Dunkirk","state":"NY","zip":"14048","distance":"20.64038848876953","lon":"-79.310760","lat":"42.458317","theaterChainName":"Independent Chains","ticketType":"STANDARD"}]