[{"id":"2640","tribuneTheaterId":"444","providerTheaterId":"","name":"Palace Theatre Lockport","address":"2 East Avenue","city":"Lockport","state":"NY","zip":"14094","distance":11.202575512093,"lon":"-78.688274","lat":"43.170697","theaterChainName":"Independent Chains","ticketType":"STANDARD"},{"id":"2658","tribuneTheaterId":"8510","providerTheaterId":"","name":"Regal Niagara Falls Stadium 12","address":"720 Builders Way","city":"Niagara Falls","state":"NY","zip":"14304","distance":21.492160119841,"lon":"-78.9914","lat":"43.0864","theaterChainName":"Regal Cinemas","ticketType":"STANDARD"},{"id":"5891","tribuneTheaterId":"11310","providerTheaterId":"","name":"Riviera Theatre","address":"67 Webster St.","city":"North Tonawanda","state":"NY","zip":"14120","distance":22.502423853591,"lon":"-78.87714","lat":"43.023752","theaterChainName":"Independent Chains","ticketType":"STANDARD"},{"id":"1227","tribuneTheaterId":"7781","providerTheaterId":"","name":"Screening Room Cinema Cafe","address":"3131 Sheridan Dr","city":"Amherst","state":"NY","zip":"14226","distance":24.082007746242,"lon":"-78.819504","lat":"42.988494","theaterChainName":"Independent Chains","ticketType":"STANDARD"},{"id":"362","tribuneTheaterId":"5325","providerTheaterId":"554","name":"AMC Maple Ridge 8","address":"4276 Maple Rd","city":"Amherst","state":"NY","zip":"14226","distance":23.633826002319,"lon":"-78.804454","lat":"42.993078","theaterChainName":"AMC Theatres","ticketType":"STANDARD"},{"id":"1121","tribuneTheaterId":"2809","providerTheaterId":"","name":"Dipson Eastern Hills Cinema 3","address":"4545 Transit Road","city":"Williamsville","state":"NY","zip":"14221","distance":24.785587931837,"lon":"-78.692214","lat":"42.972557","theaterChainName":"Dipson Theatres","ticketType":"STANDARD"}]