[{"id":"2640","tribuneTheaterId":"444","providerTheaterId":"","name":"Palace Theatre Lockport","address":"2 East Avenue","city":"Lockport","state":"NY","zip":"14094","distance":11.30494514427,"lon":"-78.688274","lat":"43.170697","theaterChainName":"Independent Chains","ticketType":"STANDARD"},{"id":"2658","tribuneTheaterId":"8510","providerTheaterId":"","name":"Regal Niagara Falls Stadium 12","address":"720 Builders Way","city":"Niagara Falls","state":"NY","zip":"14304","distance":10.890272328247,"lon":"-78.9914","lat":"43.0864","theaterChainName":"Regal Cinemas","ticketType":"STANDARD"},{"id":"5891","tribuneTheaterId":"11310","providerTheaterId":"","name":"Riviera Theatre","address":"67 Webster St.","city":"North Tonawanda","state":"NY","zip":"14120","distance":14.193412375971,"lon":"-78.87714","lat":"43.023752","theaterChainName":"Independent Chains","ticketType":"STANDARD"},{"id":"362","tribuneTheaterId":"5325","providerTheaterId":"554","name":"AMC Maple Ridge 8","address":"4276 Maple Rd","city":"Amherst","state":"NY","zip":"14226","distance":16.946082003954,"lon":"-78.804454","lat":"42.993078","theaterChainName":"AMC Theatres","ticketType":"STANDARD"},{"id":"1227","tribuneTheaterId":"7781","providerTheaterId":"","name":"Screening Room Cinema Cafe","address":"3131 Sheridan Dr","city":"Amherst","state":"NY","zip":"14226","distance":17.058029775006,"lon":"-78.819504","lat":"42.988494","theaterChainName":"Independent Chains","ticketType":"STANDARD"},{"id":"702","tribuneTheaterId":"7573","providerTheaterId":"","name":"Regal Elmwood Center 16","address":"2001 Elmwood Ave.","city":"Buffalo","state":"NY","zip":"14207","distance":19.111981390075,"lon":"-78.876815","lat":"42.95243","theaterChainName":"Regal Cinemas","ticketType":"STANDARD"},{"id":"1121","tribuneTheaterId":"2809","providerTheaterId":"","name":"Dipson Eastern Hills Cinema 3","address":"4545 Transit Road","city":"Williamsville","state":"NY","zip":"14221","distance":20.51717069503,"lon":"-78.692214","lat":"42.972557","theaterChainName":"Dipson Theatres","ticketType":"STANDARD"},{"id":"1124","tribuneTheaterId":"2462","providerTheaterId":"","name":"Dipson North Park Art Cinema","address":"1428 Hertel Avenue","city":"Buffalo","state":"NY","zip":"14216","distance":19.528874889674,"lon":"-78.855138","lat":"42.94771","theaterChainName":"Independent Chains","ticketType":"STANDARD"},{"id":"1120","tribuneTheaterId":"2808","providerTheaterId":"","name":"Dipson Amherst Theatre","address":"3500 Main Street","city":"Buffalo","state":"NY","zip":"14226","distance":19.095987324094,"lon":"-78.816626","lat":"42.958716","theaterChainName":"Dipson Theatres","ticketType":"STANDARD"},{"id":"701","tribuneTheaterId":"7418","providerTheaterId":"","name":"Regal Transit Center Stadium 18","address":"6707 Transit RD.","city":"Williamsville","state":"NY","zip":"14221","distance":21.55110549849,"lon":"-78.6969","lat":"42.9535","theaterChainName":"Regal Cinemas","ticketType":"STANDARD"},{"id":"4498","tribuneTheaterId":"9600","providerTheaterId":"","name":"Regal Walden Galleria Stadium","address":"1 Walden Galleria Drive","city":"Buffalo","state":"NY","zip":"14225","distance":22.73207766021,"lon":"-78.762553","lat":"42.914871","theaterChainName":"Regal Cinemas","ticketType":"STANDARD"}]