[{"id":"1209","tribuneTheaterId":"2472","providerTheaterId":"","name":"Aurora Theatre","address":"673 Main Street","city":"East Aurora","state":"NY","zip":"14052","distance":9.3611019073541,"lon":"-78.609705","lat":"42.767788","theaterChainName":"Independent Chains","ticketType":"STANDARD"},{"id":"5073","tribuneTheaterId":"10458","providerTheaterId":"","name":"The Stage","address":"23 S Main St.","city":"Warsaw","state":"NY","zip":"14569","distance":15.344838291542,"lon":"-78.133029","lat":"42.739823","theaterChainName":"Independent Chains","ticketType":"STANDARD"},{"id":"1122","tribuneTheaterId":"3140","providerTheaterId":"","name":"Flix Stadium 10","address":"4901 Transit Road","city":"Lancaster","state":"NY","zip":"14043","distance":16.882514725779,"lon":"-78.693995","lat":"42.878229","theaterChainName":"Dipson Theatres","ticketType":"STANDARD"},{"id":"801","tribuneTheaterId":"7574","providerTheaterId":"","name":"Regal Quaker Crossing Stadium 18","address":"3450 Amelia Drive","city":"Orchard Park","state":"NY","zip":"14127","distance":18.48141834772,"lon":"-78.787599","lat":"42.791319","theaterChainName":"Regal Cinemas","ticketType":"STANDARD"},{"id":"314","tribuneTheaterId":"2971","providerTheaterId":"","name":"Dipson McKinley Mall 6","address":"3701 McKinley Pkwy.","city":"Hamburg","state":"NY","zip":"14219","distance":19.318040187514,"lon":"-78.80712","lat":"42.78315","theaterChainName":"Dipson Theatres","ticketType":"STANDARD"},{"id":"1224","tribuneTheaterId":"2474","providerTheaterId":"","name":"Hamburg Palace Theatre","address":"31 Buffalo St.","city":"Hamburg","state":"NY","zip":"14075","distance":20.036734633143,"lon":"-78.829275","lat":"42.71677","theaterChainName":"Independent Chains","ticketType":"STANDARD"},{"id":"4498","tribuneTheaterId":"9600","providerTheaterId":"","name":"Regal Walden Galleria Stadium","address":"1 Walden Galleria Drive","city":"Buffalo","state":"NY","zip":"14225","distance":21.174418890251,"lon":"-78.762553","lat":"42.914871","theaterChainName":"Regal Cinemas","ticketType":"STANDARD"},{"id":"701","tribuneTheaterId":"7418","providerTheaterId":"","name":"Regal Transit Center Stadium 18","address":"6707 Transit RD.","city":"Williamsville","state":"NY","zip":"14221","distance":20.638257097534,"lon":"-78.6969","lat":"42.9535","theaterChainName":"Regal Cinemas","ticketType":"STANDARD"},{"id":"1121","tribuneTheaterId":"2809","providerTheaterId":"","name":"Dipson Eastern Hills Cinema 3","address":"4545 Transit Road","city":"Williamsville","state":"NY","zip":"14221","distance":21.516547542133,"lon":"-78.692214","lat":"42.972557","theaterChainName":"Dipson Theatres","ticketType":"STANDARD"},{"id":"1210","tribuneTheaterId":"6246","providerTheaterId":"","name":"Dipson Batavia Mall Cinema","address":"6 Alva PL W","city":"Batavia","state":"NY","zip":"14020","distance":22.821565850654,"lon":"-78.183727","lat":"42.99923","theaterChainName":"Independent Chains","ticketType":"STANDARD"}]