[{"id":"1209","name":"Aurora Theatre","address":"673 Main Street","city":"East Aurora","state":"NY","zip":"14052","distance":"9.361602783203125","lon":"-78.609703","lat":"42.767788","theaterChainName":"Independent Chains","ticketType":"STANDARD"},{"id":"1122","name":"Flix Stadium 10","address":"4901 Transit Road","city":"Lancaster","state":"NY","zip":"14043","distance":"16.883420944213867","lon":"-78.693993","lat":"42.878227","theaterChainName":"Dipson Theatres","ticketType":"STANDARD"},{"id":"701","name":"Regal Transit Center Stadium 18","address":"6707 Transit RD.","city":"Williamsville","state":"NY","zip":"14221","distance":"20.63949203491211","lon":"-78.696899","lat":"42.953499","theaterChainName":"Regal Cinemas","ticketType":"STANDARD"},{"id":"1121","name":"Dipson Eastern Hills Cinema 3","address":"4545 Transit Road","city":"Williamsville","state":"NY","zip":"14221","distance":"21.517953872680664","lon":"-78.692215","lat":"42.972557","theaterChainName":"Dipson Theatres","ticketType":"STANDARD"},{"id":"4498","name":"Regal Walden Galleria Stadium","address":"1 Walden Galleria Drive","city":"Buffalo","state":"NY","zip":"14225","distance":"21.1756649017334","lon":"-78.762550","lat":"42.914871","theaterChainName":"Regal Cinemas","ticketType":"STANDARD"},{"id":"801","name":"Regal Quaker Crossing Stadium 18","address":"3450 Amelia Drive","city":"Orchard Park","state":"NY","zip":"14127","distance":"18.482540130615234","lon":"-78.787598","lat":"42.791321","theaterChainName":"Regal Cinemas","ticketType":"STANDARD"},{"id":"1210","name":"Dipson Batavia Mall Cinema","address":"6 Alva PL W","city":"Batavia","state":"NY","zip":"14020","distance":"22.823089599609375","lon":"-78.183723","lat":"42.999229","theaterChainName":"Independent Chains","ticketType":"STANDARD"},{"id":"314","name":"Dipson McKinley Mall 6","address":"3701 McKinley Pkwy.","city":"Hamburg","state":"NY","zip":"14219","distance":"19.319307327270508","lon":"-78.807121","lat":"42.783150","theaterChainName":"Dipson Theatres","ticketType":"STANDARD"},{"id":"1224","name":"Hamburg Palace Theatre","address":"31 Buffalo St.","city":"Hamburg","state":"NY","zip":"14075","distance":"20.03807830810547","lon":"-78.829277","lat":"42.716770","theaterChainName":"Independent Chains","ticketType":"STANDARD"},{"id":"5073","name":"The Stage","address":"23 S Main St.","city":"Warsaw","state":"NY","zip":"14569","distance":"15.345935821533203","lon":"-78.133026","lat":"42.739822","theaterChainName":"Independent Chains","ticketType":"STANDARD"}]