[{"id":"801","name":"Regal Quaker Crossing Stadium 18","address":"3450 Amelia Drive","city":"Orchard Park","state":"NY","zip":"14127","distance":"22.264575958251953","lon":"-78.787598","lat":"42.791321","theaterChainName":"Regal Cinemas","ticketType":"STANDARD"},{"id":"314","name":"Dipson McKinley Mall 6","address":"3701 McKinley Pkwy.","city":"Hamburg","state":"NY","zip":"14219","distance":"21.299114227294922","lon":"-78.807121","lat":"42.783150","theaterChainName":"Dipson Theatres","ticketType":"STANDARD"},{"id":"1224","name":"Hamburg Palace Theatre","address":"31 Buffalo St.","city":"Hamburg","state":"NY","zip":"14075","distance":"16.746257781982422","lon":"-78.829277","lat":"42.716770","theaterChainName":"Independent Chains","ticketType":"STANDARD"},{"id":"3544","name":"New Angola Theatre","address":"72 N Main St.","city":"Angola","state":"NY","zip":"14006","distance":"9.124665260314941","lon":"-79.027847","lat":"42.639694","theaterChainName":"Independent Chains","ticketType":"STANDARD"},{"id":"1701","name":"Dunkirk Cinemas","address":"10520 Bennett Rd.","city":"Dunkirk","state":"NY","zip":"14048","distance":"16.247665405273438","lon":"-79.310760","lat":"42.458317","theaterChainName":"Independent Chains","ticketType":"STANDARD"}]