[{"id":"1209","tribuneTheaterId":"2472","providerTheaterId":"","name":"Aurora Theatre","address":"673 Main Street","city":"East Aurora","state":"NY","zip":"14052","distance":18.127781950819,"lon":"-78.609705","lat":"42.767788","theaterChainName":"Independent Chains","ticketType":"STANDARD"},{"id":"5073","tribuneTheaterId":"10458","providerTheaterId":"","name":"The Stage","address":"23 S Main St.","city":"Warsaw","state":"NY","zip":"14569","distance":22.890859507004,"lon":"-78.133029","lat":"42.739823","theaterChainName":"Independent Chains","ticketType":"STANDARD"},{"id":"1224","tribuneTheaterId":"2474","providerTheaterId":"","name":"Hamburg Palace Theatre","address":"31 Buffalo St.","city":"Hamburg","state":"NY","zip":"14075","distance":22.352535004445,"lon":"-78.829275","lat":"42.71677","theaterChainName":"Independent Chains","ticketType":"STANDARD"},{"id":"314","tribuneTheaterId":"2971","providerTheaterId":"","name":"Dipson McKinley Mall 6","address":"3701 McKinley Pkwy.","city":"Hamburg","state":"NY","zip":"14219","distance":24.552909215461,"lon":"-78.80712","lat":"42.78315","theaterChainName":"Dipson Theatres","ticketType":"STANDARD"},{"id":"801","tribuneTheaterId":"7574","providerTheaterId":"","name":"Regal Quaker Crossing Stadium 18","address":"3450 Amelia Drive","city":"Orchard Park","state":"NY","zip":"14127","distance":24.307222132086,"lon":"-78.787599","lat":"42.791319","theaterChainName":"Regal Cinemas","ticketType":"STANDARD"}]