[{"id":"1124","tribuneTheaterId":"2462","providerTheaterId":"","name":"Dipson North Park Art Cinema","address":"1428 Hertel Avenue","city":"Buffalo","state":"NY","zip":"14216","distance":4.4079828957552,"lon":"-78.855138","lat":"42.94771","theaterChainName":"Independent Chains","ticketType":"STANDARD"},{"id":"702","tribuneTheaterId":"7573","providerTheaterId":"","name":"Regal Elmwood Center 16","address":"2001 Elmwood Ave.","city":"Buffalo","state":"NY","zip":"14207","distance":4.8067094687329,"lon":"-78.876815","lat":"42.95243","theaterChainName":"Regal Cinemas","ticketType":"STANDARD"},{"id":"4498","tribuneTheaterId":"9600","providerTheaterId":"","name":"Regal Walden Galleria Stadium","address":"1 Walden Galleria Drive","city":"Buffalo","state":"NY","zip":"14225","distance":5.3597320399681,"lon":"-78.762553","lat":"42.914871","theaterChainName":"Regal Cinemas","ticketType":"STANDARD"},{"id":"1120","tribuneTheaterId":"2808","providerTheaterId":"","name":"Dipson Amherst Theatre","address":"3500 Main Street","city":"Buffalo","state":"NY","zip":"14226","distance":5.6035550477261,"lon":"-78.816626","lat":"42.958716","theaterChainName":"Dipson Theatres","ticketType":"STANDARD"},{"id":"801","tribuneTheaterId":"7574","providerTheaterId":"","name":"Regal Quaker Crossing Stadium 18","address":"3450 Amelia Drive","city":"Orchard Park","state":"NY","zip":"14127","distance":7.3723070479479,"lon":"-78.787599","lat":"42.791319","theaterChainName":"Regal Cinemas","ticketType":"STANDARD"},{"id":"314","tribuneTheaterId":"2971","providerTheaterId":"","name":"Dipson McKinley Mall 6","address":"3701 McKinley Pkwy.","city":"Hamburg","state":"NY","zip":"14219","distance":7.4599923434312,"lon":"-78.80712","lat":"42.78315","theaterChainName":"Dipson Theatres","ticketType":"STANDARD"},{"id":"1227","tribuneTheaterId":"7781","providerTheaterId":"","name":"Screening Room Cinema Cafe","address":"3131 Sheridan Dr","city":"Amherst","state":"NY","zip":"14226","distance":7.5006822190497,"lon":"-78.819504","lat":"42.988494","theaterChainName":"Independent Chains","ticketType":"STANDARD"},{"id":"1122","tribuneTheaterId":"3140","providerTheaterId":"","name":"Flix Stadium 10","address":"4901 Transit Road","city":"Lancaster","state":"NY","zip":"14043","distance":8.39899842742,"lon":"-78.693995","lat":"42.878229","theaterChainName":"Dipson Theatres","ticketType":"STANDARD"},{"id":"362","tribuneTheaterId":"5325","providerTheaterId":"554","name":"AMC Maple Ridge 8","address":"4276 Maple Rd","city":"Amherst","state":"NY","zip":"14226","distance":8.0379559070977,"lon":"-78.804454","lat":"42.993078","theaterChainName":"AMC Theatres","ticketType":"STANDARD"},{"id":"701","tribuneTheaterId":"7418","providerTheaterId":"","name":"Regal Transit Center Stadium 18","address":"6707 Transit RD.","city":"Williamsville","state":"NY","zip":"14221","distance":9.5348897390547,"lon":"-78.6969","lat":"42.9535","theaterChainName":"Regal Cinemas","ticketType":"STANDARD"},{"id":"1121","tribuneTheaterId":"2809","providerTheaterId":"","name":"Dipson Eastern Hills Cinema 3","address":"4545 Transit Road","city":"Williamsville","state":"NY","zip":"14221","distance":10.451494589848,"lon":"-78.692214","lat":"42.972557","theaterChainName":"Dipson Theatres","ticketType":"STANDARD"},{"id":"5891","tribuneTheaterId":"11310","providerTheaterId":"","name":"Riviera Theatre","address":"67 Webster St.","city":"North Tonawanda","state":"NY","zip":"14120","distance":9.6961196188028,"lon":"-78.87714","lat":"43.023752","theaterChainName":"Independent Chains","ticketType":"STANDARD"},{"id":"1224","tribuneTheaterId":"2474","providerTheaterId":"","name":"Hamburg Palace Theatre","address":"31 Buffalo St.","city":"Hamburg","state":"NY","zip":"14075","distance":11.656966653298,"lon":"-78.829275","lat":"42.71677","theaterChainName":"Independent Chains","ticketType":"STANDARD"},{"id":"2658","tribuneTheaterId":"8510","providerTheaterId":"","name":"Regal Niagara Falls Stadium 12","address":"720 Builders Way","city":"Niagara Falls","state":"NY","zip":"14304","distance":15.487937982402,"lon":"-78.9914","lat":"43.0864","theaterChainName":"Regal Cinemas","ticketType":"STANDARD"},{"id":"1209","tribuneTheaterId":"2472","providerTheaterId":"","name":"Aurora Theatre","address":"673 Main Street","city":"East Aurora","state":"NY","zip":"14052","distance":14.998678334735,"lon":"-78.609705","lat":"42.767788","theaterChainName":"Independent Chains","ticketType":"STANDARD"},{"id":"3544","tribuneTheaterId":"6319","providerTheaterId":"","name":"New Angola Theatre","address":"72 N Main St.","city":"Angola","state":"NY","zip":"14006","distance":18.912371073911,"lon":"-79.027844","lat":"42.639696","theaterChainName":"Independent Chains","ticketType":"STANDARD"},{"id":"2640","tribuneTheaterId":"444","providerTheaterId":"","name":"Palace Theatre Lockport","address":"2 East Avenue","city":"Lockport","state":"NY","zip":"14094","distance":21.618526173323,"lon":"-78.688274","lat":"43.170697","theaterChainName":"Independent Chains","ticketType":"STANDARD"}]