[{"id":"1209","name":"Aurora Theatre","address":"673 Main Street","city":"East Aurora","state":"NY","zip":"14052","distance":"14.071054458618164","lon":"-78.609703","lat":"42.767788","theaterChainName":"Independent Chains","ticketType":"STANDARD"},{"id":"1122","name":"Flix Stadium 10","address":"4901 Transit Road","city":"Lancaster","state":"NY","zip":"14043","distance":"12.384276390075684","lon":"-78.693993","lat":"42.878227","theaterChainName":"Dipson Theatres","ticketType":"STANDARD"},{"id":"701","name":"Regal Transit Center Stadium 18","address":"6707 Transit RD.","city":"Williamsville","state":"NY","zip":"14221","distance":"16.01211166381836","lon":"-78.696899","lat":"42.953499","theaterChainName":"Regal Cinemas","ticketType":"STANDARD"},{"id":"1121","name":"Dipson Eastern Hills Cinema 3","address":"4545 Transit Road","city":"Williamsville","state":"NY","zip":"14221","distance":"17.216419219970703","lon":"-78.692215","lat":"42.972557","theaterChainName":"Dipson Theatres","ticketType":"STANDARD"},{"id":"4498","name":"Regal Walden Galleria Stadium","address":"1 Walden Galleria Drive","city":"Buffalo","state":"NY","zip":"14225","distance":"11.926982879638672","lon":"-78.762550","lat":"42.914871","theaterChainName":"Regal Cinemas","ticketType":"STANDARD"},{"id":"801","name":"Regal Quaker Crossing Stadium 18","address":"3450 Amelia Drive","city":"Orchard Park","state":"NY","zip":"14127","distance":"5.289048671722412","lon":"-78.787598","lat":"42.791321","theaterChainName":"Regal Cinemas","ticketType":"STANDARD"},{"id":"362","name":"AMC Maple Ridge 8","address":"4276 Maple Rd","city":"Amherst","state":"NY","zip":"14226","distance":"16.078828811645508","lon":"-78.804451","lat":"42.993076","theaterChainName":"AMC Theatres","ticketType":"STANDARD"},{"id":"1120","name":"Dipson Amherst Theatre","address":"3500 Main Street","city":"Buffalo","state":"NY","zip":"14226","distance":"13.626343727111816","lon":"-78.816628","lat":"42.958717","theaterChainName":"Dipson Theatres","ticketType":"STANDARD"},{"id":"314","name":"Dipson McKinley Mall 6","address":"3701 McKinley Pkwy.","city":"Hamburg","state":"NY","zip":"14219","distance":"4.182538032531738","lon":"-78.807121","lat":"42.783150","theaterChainName":"Dipson Theatres","ticketType":"STANDARD"},{"id":"1227","name":"Screening Room Cinema Cafe","address":"3131 Sheridan Dr","city":"Amherst","state":"NY","zip":"14226","distance":"15.588540077209473","lon":"-78.819504","lat":"42.988495","theaterChainName":"Independent Chains","ticketType":"STANDARD"},{"id":"1124","name":"Dipson North Park Art Cinema","address":"1428 Hertel Avenue","city":"Buffalo","state":"NY","zip":"14216","distance":"12.4951810836792","lon":"-78.855141","lat":"42.947708","theaterChainName":"Independent Chains","ticketType":"STANDARD"},{"id":"1224","name":"Hamburg Palace Theatre","address":"31 Buffalo St.","city":"Hamburg","state":"NY","zip":"14075","distance":"4.619119644165039","lon":"-78.829277","lat":"42.716770","theaterChainName":"Independent Chains","ticketType":"STANDARD"},{"id":"702","name":"Regal Elmwood Center 16","address":"2001 Elmwood Ave.","city":"Buffalo","state":"NY","zip":"14207","distance":"12.726861953735352","lon":"-78.876816","lat":"42.952431","theaterChainName":"Regal Cinemas","ticketType":"STANDARD"},{"id":"5891","name":"Riviera Theatre","address":"67 Webster St.","city":"North Tonawanda","state":"NY","zip":"14120","distance":"17.65141487121582","lon":"-78.877136","lat":"43.023750","theaterChainName":"Independent Chains","ticketType":"STANDARD"},{"id":"2658","name":"Regal Niagara Falls Stadium 12","address":"720 Builders Way","city":"Niagara Falls","state":"NY","zip":"14304","distance":"22.597871780395508","lon":"-78.991402","lat":"43.086399","theaterChainName":"Regal Cinemas","ticketType":"STANDARD"},{"id":"3544","name":"New Angola Theatre","address":"72 N Main St.","city":"Angola","state":"NY","zip":"14006","distance":"11.40896224975586","lon":"-79.027847","lat":"42.639694","theaterChainName":"Independent Chains","ticketType":"STANDARD"}]