[{"id":"1806","tribuneTheaterId":"7045","providerTheaterId":"","name":"Strand Theatre - Brockport","address":"93 Main Street","city":"Brockport","state":"NY","zip":"14420","distance":6.514052977307,"lon":"-77.938656","lat":"43.21455","theaterChainName":"Independent Chains","ticketType":"STANDARD"},{"id":"1210","tribuneTheaterId":"6246","providerTheaterId":"","name":"Dipson Batavia Mall Cinema","address":"6 Alva PL W","city":"Batavia","state":"NY","zip":"14020","distance":14.698542497157,"lon":"-78.183727","lat":"42.99923","theaterChainName":"Independent Chains","ticketType":"STANDARD"},{"id":"1361","tribuneTheaterId":"5234","providerTheaterId":"","name":"Cinemark Tinseltown USA and IMAX Rochester","address":"2291 Buffalo Rd.","city":"Rochester","state":"NY","zip":"14624","distance":18.026355436962,"lon":"-77.713678","lat":"43.143165","theaterChainName":"Cinemark","ticketType":"STANDARD"},{"id":"1843","tribuneTheaterId":"7571","providerTheaterId":"","name":"Regal Greece Ridge Center 12","address":"176 Greece Ridge Center Dr","city":"Rochester","state":"NY","zip":"14626","distance":18.959278958342,"lon":"-77.688628","lat":"43.205192","theaterChainName":"Regal Cinemas","ticketType":"STANDARD"},{"id":"2543","tribuneTheaterId":"2953","providerTheaterId":"","name":"Little Theatres","address":"240 East Ave.","city":"Rochester","state":"NY","zip":"14604","distance":23.661382761732,"lon":"-77.597891","lat":"43.156201","theaterChainName":"Independent Chains","ticketType":"STANDARD"},{"id":"1360","tribuneTheaterId":"7799","providerTheaterId":"","name":"Cinemark Movies 10 Rochester","address":"2609 W Henrietta Rd","city":"Rochester","state":"NY","zip":"14623","distance":22.786261470225,"lon":"-77.631036","lat":"43.100389","theaterChainName":"Cinemark","ticketType":"STANDARD"},{"id":"598","tribuneTheaterId":"8590","providerTheaterId":"","name":"Regal Henrietta Cinema Stadium 18","address":"525 Marketplace Drive","city":"Rochester","state":"NY","zip":"14623","distance":23.411042526126,"lon":"-77.625578","lat":"43.083252","theaterChainName":"Regal Cinemas","ticketType":"STANDARD"},{"id":"4577","tribuneTheaterId":"9723","providerTheaterId":"","name":"Dryden Theatre","address":"900 East Ave","city":"Rochester","state":"NY","zip":"14607","distance":24.571274714486,"lon":"-77.580296","lat":"43.152555","theaterChainName":"Independent Chains","ticketType":"STANDARD"}]