[{"id":"1210","name":"Dipson Batavia Mall Cinema","address":"6 Alva PL W","city":"Batavia","state":"NY","zip":"14020","distance":"7.986704349517822","lon":"-78.183723","lat":"42.999229","theaterChainName":"Independent Chains","ticketType":"STANDARD"},{"id":"5073","name":"The Stage","address":"23 S Main St.","city":"Warsaw","state":"NY","zip":"14569","distance":"23.34834098815918","lon":"-78.133026","lat":"42.739822","theaterChainName":"Independent Chains","ticketType":"STANDARD"},{"id":"1806","name":"Strand Theatre - Brockport","address":"93 Main Street","city":"Brockport","state":"NY","zip":"14420","distance":"11.567977905273438","lon":"-77.938660","lat":"43.214550","theaterChainName":"Independent Chains","ticketType":"STANDARD"},{"id":"1361","name":"Cinemark Tinseltown USA and IMAX Rochester","address":"2291 Buffalo Rd.","city":"Rochester","state":"NY","zip":"14624","distance":"18.256959915161133","lon":"-77.713676","lat":"43.143166","theaterChainName":"Cinemark","ticketType":"STANDARD"},{"id":"1360","name":"Cinemark Movies 10 Rochester","address":"2609 W Henrietta Rd","city":"Rochester","state":"NY","zip":"14623","distance":"21.870359420776367","lon":"-77.631035","lat":"43.100388","theaterChainName":"Cinemark","ticketType":"STANDARD"},{"id":"598","name":"Regal Henrietta Cinema Stadium 18","address":"525 Marketplace Drive","city":"Rochester","state":"NY","zip":"14623","distance":"22.081083297729492","lon":"-77.625580","lat":"43.083252","theaterChainName":"Regal Cinemas","ticketType":"STANDARD"},{"id":"1843","name":"Regal Greece Ridge Center 12","address":"176 Greece Ridge Center Dr","city":"Rochester","state":"NY","zip":"14626","distance":"20.94095230102539","lon":"-77.688629","lat":"43.205193","theaterChainName":"Regal Cinemas","ticketType":"STANDARD"},{"id":"2543","name":"Little Theatres","address":"240 East Ave.","city":"Rochester","state":"NY","zip":"14604","distance":"24.135997772216797","lon":"-77.597893","lat":"43.156200","theaterChainName":"Independent Chains","ticketType":"STANDARD"},{"id":"4577","name":"Dryden Theatre","address":"900 East Ave","city":"Rochester","state":"NY","zip":"14607","distance":"24.94375991821289","lon":"-77.580299","lat":"43.152554","theaterChainName":"Independent Chains","ticketType":"STANDARD"}]