[{"id":"2548","name":"Geneva Movieplex 8","address":"371 Hamilton Street","city":"Geneva","state":"NY","zip":"14456","distance":"10.4639253616333","lon":"-76.997101","lat":"42.856628","theaterChainName":"Zurich Cinemas","ticketType":"STANDARD"},{"id":"6095","name":"Ohmann Theatre","address":"William Street","city":"Lyons","state":"NY","zip":"14489","distance":"10.359033584594727","lon":"-76.992592","lat":"43.064293","theaterChainName":"Independent Chains","ticketType":"STANDARD"},{"id":"1842","name":"Lake St. Plaza Theatres-Penn Yan","address":"230A Lake Street Plaza","city":"Penn Yan","state":"NY","zip":"14527","distance":"21.788700103759766","lon":"-77.057060","lat":"42.654385","theaterChainName":"Independent Chains","ticketType":"STANDARD"},{"id":"4955","name":"Canaltown Cinema","address":"1900 State Route 31","city":"Macedon","state":"NY","zip":"14502","distance":"10.308646202087402","lon":"-77.287704","lat":"43.069111","theaterChainName":"Independent Chains","ticketType":"STANDARD"},{"id":"157","name":"AMC Loews Webster 12","address":"2190 Empire Blvd.","city":"Webster","state":"NY","zip":"14580","distance":"24.198057174682617","lon":"-77.494446","lat":"43.202213","theaterChainName":"AMC Theatres","ticketType":"STANDARD"},{"id":"674","name":"Regal Eastview Mall 13","address":"70 Eastview Mall Drive","city":"Victor","state":"NY","zip":"14564","distance":"15.813726425170898","lon":"-77.445221","lat":"43.025131","theaterChainName":"Regal Cinemas","ticketType":"STANDARD"},{"id":"703","name":"Pittsford Cinemas","address":"3349 Monroe Ave.","city":"Rochester","state":"NY","zip":"14618","distance":"22.29024887084961","lon":"-77.541710","lat":"43.103027","theaterChainName":"Zurich Cinemas","ticketType":"STANDARD"}]