[{"id":"1806","tribuneTheaterId":"7045","providerTheaterId":"","name":"Strand Theatre - Brockport","address":"93 Main Street","city":"Brockport","state":"NY","zip":"14420","distance":9.1203343133614,"lon":"-77.938656","lat":"43.21455","theaterChainName":"Independent Chains","ticketType":"STANDARD"},{"id":"1843","tribuneTheaterId":"7571","providerTheaterId":"","name":"Regal Greece Ridge Center 12","address":"176 Greece Ridge Center Dr","city":"Rochester","state":"NY","zip":"14626","distance":19.186973950845,"lon":"-77.688628","lat":"43.205192","theaterChainName":"Regal Cinemas","ticketType":"STANDARD"},{"id":"1361","tribuneTheaterId":"5234","providerTheaterId":"","name":"Cinemark Tinseltown USA and IMAX Rochester","address":"2291 Buffalo Rd.","city":"Rochester","state":"NY","zip":"14624","distance":20.444497627916,"lon":"-77.713678","lat":"43.143165","theaterChainName":"Cinemark","ticketType":"STANDARD"},{"id":"2543","tribuneTheaterId":"2953","providerTheaterId":"","name":"Little Theatres","address":"240 East Ave.","city":"Rochester","state":"NY","zip":"14604","distance":24.808162069043,"lon":"-77.597891","lat":"43.156201","theaterChainName":"Independent Chains","ticketType":"STANDARD"},{"id":"1210","tribuneTheaterId":"6246","providerTheaterId":"","name":"Dipson Batavia Mall Cinema","address":"6 Alva PL W","city":"Batavia","state":"NY","zip":"14020","distance":24.020258476105,"lon":"-78.183727","lat":"42.99923","theaterChainName":"Independent Chains","ticketType":"STANDARD"}]