[{"id":"1210","name":"Dipson Batavia Mall Cinema","address":"6 Alva PL W","city":"Batavia","state":"NY","zip":"14020","distance":"24.02165412902832","lon":"-78.183723","lat":"42.999229","theaterChainName":"Independent Chains","ticketType":"STANDARD"},{"id":"1806","name":"Strand Theatre - Brockport","address":"93 Main Street","city":"Brockport","state":"NY","zip":"14420","distance":"9.120864868164062","lon":"-77.938660","lat":"43.214550","theaterChainName":"Independent Chains","ticketType":"STANDARD"},{"id":"1361","name":"Cinemark Tinseltown USA and IMAX Rochester","address":"2291 Buffalo Rd.","city":"Rochester","state":"NY","zip":"14624","distance":"20.445907592773438","lon":"-77.713676","lat":"43.143166","theaterChainName":"Cinemark","ticketType":"STANDARD"},{"id":"1843","name":"Regal Greece Ridge Center 12","address":"176 Greece Ridge Center Dr","city":"Rochester","state":"NY","zip":"14626","distance":"19.18822479248047","lon":"-77.688629","lat":"43.205193","theaterChainName":"Regal Cinemas","ticketType":"STANDARD"},{"id":"2543","name":"Little Theatres","address":"240 East Ave.","city":"Rochester","state":"NY","zip":"14604","distance":"24.809768676757812","lon":"-77.597893","lat":"43.156200","theaterChainName":"Independent Chains","ticketType":"STANDARD"}]