[{"id":"4955","name":"Canaltown Cinema","address":"1900 State Route 31","city":"Macedon","state":"NY","zip":"14502","distance":"22.497438430786133","lon":"-77.287704","lat":"43.069111","theaterChainName":"Independent Chains","ticketType":"STANDARD"},{"id":"674","name":"Regal Eastview Mall 13","address":"70 Eastview Mall Drive","city":"Victor","state":"NY","zip":"14564","distance":"16.640321731567383","lon":"-77.445221","lat":"43.025131","theaterChainName":"Regal Cinemas","ticketType":"STANDARD"},{"id":"1360","name":"Cinemark Movies 10 Rochester","address":"2609 W Henrietta Rd","city":"Rochester","state":"NY","zip":"14623","distance":"22.203723907470703","lon":"-77.631035","lat":"43.100388","theaterChainName":"Cinemark","ticketType":"STANDARD"},{"id":"598","name":"Regal Henrietta Cinema Stadium 18","address":"525 Marketplace Drive","city":"Rochester","state":"NY","zip":"14623","distance":"20.98891830444336","lon":"-77.625580","lat":"43.083252","theaterChainName":"Regal Cinemas","ticketType":"STANDARD"},{"id":"703","name":"Pittsford Cinemas","address":"3349 Monroe Ave.","city":"Rochester","state":"NY","zip":"14618","distance":"21.65890121459961","lon":"-77.541710","lat":"43.103027","theaterChainName":"Zurich Cinemas","ticketType":"STANDARD"}]