[{"id":"4955","tribuneTheaterId":"10311","providerTheaterId":"","name":"Canaltown Cinema","address":"1900 State Route 31","city":"Macedon","state":"NY","zip":"14502","distance":7.4511148698021,"lon":"-77.287703","lat":"43.069109","theaterChainName":"Independent Chains","ticketType":"STANDARD"},{"id":"674","tribuneTheaterId":"8307","providerTheaterId":"","name":"Regal Eastview Mall 13","address":"70 Eastview Mall Drive","city":"Victor","state":"NY","zip":"14564","distance":11.397073282462,"lon":"-77.445223","lat":"43.025132","theaterChainName":"Regal Cinemas","ticketType":"STANDARD"},{"id":"2548","tribuneTheaterId":"6344","providerTheaterId":"","name":"Geneva Movieplex 8","address":"371 Hamilton Street","city":"Geneva","state":"NY","zip":"14456","distance":14.244940012209,"lon":"-76.997099","lat":"42.856627","theaterChainName":"Zurich Cinemas","ticketType":"STANDARD"},{"id":"6095","tribuneTheaterId":"11509","providerTheaterId":"","name":"Ohmann Theatre","address":"William Street","city":"Lyons","state":"NY","zip":"14489","distance":13.82717260734,"lon":"-76.992589","lat":"43.064294","theaterChainName":"Independent Chains","ticketType":"STANDARD"},{"id":"703","tribuneTheaterId":"6065","providerTheaterId":"","name":"Pittsford Cinemas","address":"3349 Monroe Ave.","city":"Rochester","state":"NY","zip":"14618","distance":18.128319919757,"lon":"-77.541712","lat":"43.103029","theaterChainName":"Zurich Cinemas","ticketType":"STANDARD"},{"id":"4577","tribuneTheaterId":"9723","providerTheaterId":"","name":"Dryden Theatre","address":"900 East Ave","city":"Rochester","state":"NY","zip":"14607","distance":21.634179203948,"lon":"-77.580296","lat":"43.152555","theaterChainName":"Independent Chains","ticketType":"STANDARD"},{"id":"598","tribuneTheaterId":"8590","providerTheaterId":"","name":"Regal Henrietta Cinema Stadium 18","address":"525 Marketplace Drive","city":"Rochester","state":"NY","zip":"14623","distance":21.33588980961,"lon":"-77.625578","lat":"43.083252","theaterChainName":"Regal Cinemas","ticketType":"STANDARD"},{"id":"157","tribuneTheaterId":"7317","providerTheaterId":"2495","name":"AMC Loews Webster 12","address":"2190 Empire Blvd.","city":"Webster","state":"NY","zip":"14580","distance":20.824112320321,"lon":"-77.494442","lat":"43.202212","theaterChainName":"AMC Theatres","ticketType":"STANDARD"},{"id":"673","tribuneTheaterId":"8054","providerTheaterId":"","name":"Regal Culver Ridge Plaza 16","address":"2255 Ridge Road East","city":"Irondequoit","state":"NY","zip":"14622","distance":22.99802910313,"lon":"-77.557136","lat":"43.203042","theaterChainName":"Regal Cinemas","ticketType":"STANDARD"},{"id":"1360","tribuneTheaterId":"7799","providerTheaterId":"","name":"Cinemark Movies 10 Rochester","address":"2609 W Henrietta Rd","city":"Rochester","state":"NY","zip":"14623","distance":22.050468466576,"lon":"-77.631036","lat":"43.100389","theaterChainName":"Cinemark","ticketType":"STANDARD"},{"id":"2543","tribuneTheaterId":"2953","providerTheaterId":"","name":"Little Theatres","address":"240 East Ave.","city":"Rochester","state":"NY","zip":"14604","distance":22.503108635255,"lon":"-77.597891","lat":"43.156201","theaterChainName":"Independent Chains","ticketType":"STANDARD"},{"id":"1842","tribuneTheaterId":"2820","providerTheaterId":"","name":"Lake St. Plaza Theatres-Penn Yan","address":"230A Lake Street Plaza","city":"Penn Yan","state":"NY","zip":"14527","distance":23.493496622495,"lon":"-77.057059","lat":"42.654383","theaterChainName":"Independent Chains","ticketType":"STANDARD"}]