[{"id":"703","tribuneTheaterId":"6065","providerTheaterId":"","name":"Pittsford Cinemas","address":"3349 Monroe Ave.","city":"Rochester","state":"NY","zip":"14618","distance":5.006965172016,"lon":"-77.541712","lat":"43.103029","theaterChainName":"Zurich Cinemas","ticketType":"STANDARD"},{"id":"157","tribuneTheaterId":"7317","providerTheaterId":"2495","name":"AMC Loews Webster 12","address":"2190 Empire Blvd.","city":"Webster","state":"NY","zip":"14580","distance":4.7399719605608,"lon":"-77.494442","lat":"43.202212","theaterChainName":"AMC Theatres","ticketType":"STANDARD"},{"id":"2543","tribuneTheaterId":"2953","providerTheaterId":"","name":"Little Theatres","address":"240 East Ave.","city":"Rochester","state":"NY","zip":"14604","distance":7.2440862627647,"lon":"-77.597891","lat":"43.156201","theaterChainName":"Independent Chains","ticketType":"STANDARD"},{"id":"4577","tribuneTheaterId":"9723","providerTheaterId":"","name":"Dryden Theatre","address":"900 East Ave","city":"Rochester","state":"NY","zip":"14607","distance":6.3295384282276,"lon":"-77.580296","lat":"43.152555","theaterChainName":"Independent Chains","ticketType":"STANDARD"},{"id":"673","tribuneTheaterId":"8054","providerTheaterId":"","name":"Regal Culver Ridge Plaza 16","address":"2255 Ridge Road East","city":"Irondequoit","state":"NY","zip":"14622","distance":6.7220950525152,"lon":"-77.557136","lat":"43.203042","theaterChainName":"Regal Cinemas","ticketType":"STANDARD"},{"id":"674","tribuneTheaterId":"8307","providerTheaterId":"","name":"Regal Eastview Mall 13","address":"70 Eastview Mall Drive","city":"Victor","state":"NY","zip":"14564","distance":7.9276485949862,"lon":"-77.445223","lat":"43.025132","theaterChainName":"Regal Cinemas","ticketType":"STANDARD"},{"id":"598","tribuneTheaterId":"8590","providerTheaterId":"","name":"Regal Henrietta Cinema Stadium 18","address":"525 Marketplace Drive","city":"Rochester","state":"NY","zip":"14623","distance":9.3978635728012,"lon":"-77.625578","lat":"43.083252","theaterChainName":"Regal Cinemas","ticketType":"STANDARD"},{"id":"1360","tribuneTheaterId":"7799","providerTheaterId":"","name":"Cinemark Movies 10 Rochester","address":"2609 W Henrietta Rd","city":"Rochester","state":"NY","zip":"14623","distance":9.2339427118267,"lon":"-77.631036","lat":"43.100389","theaterChainName":"Cinemark","ticketType":"STANDARD"},{"id":"4955","tribuneTheaterId":"10311","providerTheaterId":"","name":"Canaltown Cinema","address":"1900 State Route 31","city":"Macedon","state":"NY","zip":"14502","distance":9.78770184064,"lon":"-77.287703","lat":"43.069109","theaterChainName":"Independent Chains","ticketType":"STANDARD"},{"id":"1843","tribuneTheaterId":"7571","providerTheaterId":"","name":"Regal Greece Ridge Center 12","address":"176 Greece Ridge Center Dr","city":"Rochester","state":"NY","zip":"14626","distance":12.567608845756,"lon":"-77.688628","lat":"43.205192","theaterChainName":"Regal Cinemas","ticketType":"STANDARD"},{"id":"1361","tribuneTheaterId":"5234","providerTheaterId":"","name":"Cinemark Tinseltown USA and IMAX Rochester","address":"2291 Buffalo Rd.","city":"Rochester","state":"NY","zip":"14624","distance":12.993220957335,"lon":"-77.713678","lat":"43.143165","theaterChainName":"Cinemark","ticketType":"STANDARD"},{"id":"6095","tribuneTheaterId":"11509","providerTheaterId":"","name":"Ohmann Theatre","address":"William Street","city":"Lyons","state":"NY","zip":"14489","distance":23.950014199247,"lon":"-76.992589","lat":"43.064294","theaterChainName":"Independent Chains","ticketType":"STANDARD"},{"id":"1806","tribuneTheaterId":"7045","providerTheaterId":"","name":"Strand Theatre - Brockport","address":"93 Main Street","city":"Brockport","state":"NY","zip":"14420","distance":24.86420835456,"lon":"-77.938656","lat":"43.21455","theaterChainName":"Independent Chains","ticketType":"STANDARD"}]