[{"id":"1210","tribuneTheaterId":"6246","providerTheaterId":"","name":"Dipson Batavia Mall Cinema","address":"6 Alva PL W","city":"Batavia","state":"NY","zip":"14020","distance":10.036594115036,"lon":"-78.183727","lat":"42.99923","theaterChainName":"Independent Chains","ticketType":"STANDARD"},{"id":"5073","tribuneTheaterId":"10458","providerTheaterId":"","name":"The Stage","address":"23 S Main St.","city":"Warsaw","state":"NY","zip":"14569","distance":12.942255006269,"lon":"-78.133029","lat":"42.739823","theaterChainName":"Independent Chains","ticketType":"STANDARD"},{"id":"1806","tribuneTheaterId":"7045","providerTheaterId":"","name":"Strand Theatre - Brockport","address":"93 Main Street","city":"Brockport","state":"NY","zip":"14420","distance":21.495183911956,"lon":"-77.938656","lat":"43.21455","theaterChainName":"Independent Chains","ticketType":"STANDARD"},{"id":"1361","tribuneTheaterId":"5234","providerTheaterId":"","name":"Cinemark Tinseltown USA and IMAX Rochester","address":"2291 Buffalo Rd.","city":"Rochester","state":"NY","zip":"14624","distance":22.569582600735,"lon":"-77.713678","lat":"43.143165","theaterChainName":"Cinemark","ticketType":"STANDARD"},{"id":"598","tribuneTheaterId":"8590","providerTheaterId":"","name":"Regal Henrietta Cinema Stadium 18","address":"525 Marketplace Drive","city":"Rochester","state":"NY","zip":"14623","distance":23.542767599023,"lon":"-77.625578","lat":"43.083252","theaterChainName":"Regal Cinemas","ticketType":"STANDARD"},{"id":"1360","tribuneTheaterId":"7799","providerTheaterId":"","name":"Cinemark Movies 10 Rochester","address":"2609 W Henrietta Rd","city":"Rochester","state":"NY","zip":"14623","distance":23.93231235347,"lon":"-77.631036","lat":"43.100389","theaterChainName":"Cinemark","ticketType":"STANDARD"}]