[{"id":"2548","name":"Geneva Movieplex 8","address":"371 Hamilton Street","city":"Geneva","state":"NY","zip":"14456","distance":"13.994548797607422","lon":"-76.997101","lat":"42.856628","theaterChainName":"Zurich Cinemas","ticketType":"STANDARD"},{"id":"6095","name":"Ohmann Theatre","address":"William Street","city":"Lyons","state":"NY","zip":"14489","distance":"24.476360321044922","lon":"-76.992592","lat":"43.064293","theaterChainName":"Independent Chains","ticketType":"STANDARD"},{"id":"1842","name":"Lake St. Plaza Theatres-Penn Yan","address":"230A Lake Street Plaza","city":"Penn Yan","state":"NY","zip":"14527","distance":"11.779991149902344","lon":"-77.057060","lat":"42.654385","theaterChainName":"Independent Chains","ticketType":"STANDARD"},{"id":"4955","name":"Canaltown Cinema","address":"1900 State Route 31","city":"Macedon","state":"NY","zip":"14502","distance":"21.5181941986084","lon":"-77.287704","lat":"43.069111","theaterChainName":"Independent Chains","ticketType":"STANDARD"},{"id":"674","name":"Regal Eastview Mall 13","address":"70 Eastview Mall Drive","city":"Victor","state":"NY","zip":"14564","distance":"21.091028213500977","lon":"-77.445221","lat":"43.025131","theaterChainName":"Regal Cinemas","ticketType":"STANDARD"}]