[{"id":"674","tribuneTheaterId":"8307","providerTheaterId":"","name":"Regal Eastview Mall 13","address":"70 Eastview Mall Drive","city":"Victor","state":"NY","zip":"14564","distance":16.965497623269,"lon":"-77.445223","lat":"43.025132","theaterChainName":"Regal Cinemas","ticketType":"STANDARD"},{"id":"598","tribuneTheaterId":"8590","providerTheaterId":"","name":"Regal Henrietta Cinema Stadium 18","address":"525 Marketplace Drive","city":"Rochester","state":"NY","zip":"14623","distance":16.052280606131,"lon":"-77.625578","lat":"43.083252","theaterChainName":"Regal Cinemas","ticketType":"STANDARD"},{"id":"1360","tribuneTheaterId":"7799","providerTheaterId":"","name":"Cinemark Movies 10 Rochester","address":"2609 W Henrietta Rd","city":"Rochester","state":"NY","zip":"14623","distance":17.166893625777,"lon":"-77.631036","lat":"43.100389","theaterChainName":"Cinemark","ticketType":"STANDARD"},{"id":"703","tribuneTheaterId":"6065","providerTheaterId":"","name":"Pittsford Cinemas","address":"3349 Monroe Ave.","city":"Rochester","state":"NY","zip":"14618","distance":18.631087620796,"lon":"-77.541712","lat":"43.103029","theaterChainName":"Zurich Cinemas","ticketType":"STANDARD"},{"id":"1361","tribuneTheaterId":"5234","providerTheaterId":"","name":"Cinemark Tinseltown USA and IMAX Rochester","address":"2291 Buffalo Rd.","city":"Rochester","state":"NY","zip":"14624","distance":19.926255928104,"lon":"-77.713678","lat":"43.143165","theaterChainName":"Cinemark","ticketType":"STANDARD"},{"id":"2543","tribuneTheaterId":"2953","providerTheaterId":"","name":"Little Theatres","address":"240 East Ave.","city":"Rochester","state":"NY","zip":"14604","distance":21.271867103043,"lon":"-77.597891","lat":"43.156201","theaterChainName":"Independent Chains","ticketType":"STANDARD"},{"id":"4577","tribuneTheaterId":"9723","providerTheaterId":"","name":"Dryden Theatre","address":"900 East Ave","city":"Rochester","state":"NY","zip":"14607","distance":21.235252324959,"lon":"-77.580296","lat":"43.152555","theaterChainName":"Independent Chains","ticketType":"STANDARD"},{"id":"673","tribuneTheaterId":"8054","providerTheaterId":"","name":"Regal Culver Ridge Plaza 16","address":"2255 Ridge Road East","city":"Irondequoit","state":"NY","zip":"14622","distance":24.907180464982,"lon":"-77.557136","lat":"43.203042","theaterChainName":"Regal Cinemas","ticketType":"STANDARD"},{"id":"1843","tribuneTheaterId":"7571","providerTheaterId":"","name":"Regal Greece Ridge Center 12","address":"176 Greece Ridge Center Dr","city":"Rochester","state":"NY","zip":"14626","distance":24.168340330792,"lon":"-77.688628","lat":"43.205192","theaterChainName":"Regal Cinemas","ticketType":"STANDARD"},{"id":"5073","tribuneTheaterId":"10458","providerTheaterId":"","name":"The Stage","address":"23 S Main St.","city":"Warsaw","state":"NY","zip":"14569","distance":23.952586810829,"lon":"-78.133029","lat":"42.739823","theaterChainName":"Independent Chains","ticketType":"STANDARD"}]