[{"id":"674","name":"Regal Eastview Mall 13","address":"70 Eastview Mall Drive","city":"Victor","state":"NY","zip":"14564","distance":"16.966552734375","lon":"-77.445221","lat":"43.025131","theaterChainName":"Regal Cinemas","ticketType":"STANDARD"},{"id":"5073","name":"The Stage","address":"23 S Main St.","city":"Warsaw","state":"NY","zip":"14569","distance":"23.953989028930664","lon":"-78.133026","lat":"42.739822","theaterChainName":"Independent Chains","ticketType":"STANDARD"},{"id":"1361","name":"Cinemark Tinseltown USA and IMAX Rochester","address":"2291 Buffalo Rd.","city":"Rochester","state":"NY","zip":"14624","distance":"19.927522659301758","lon":"-77.713676","lat":"43.143166","theaterChainName":"Cinemark","ticketType":"STANDARD"},{"id":"1360","name":"Cinemark Movies 10 Rochester","address":"2609 W Henrietta Rd","city":"Rochester","state":"NY","zip":"14623","distance":"17.167858123779297","lon":"-77.631035","lat":"43.100388","theaterChainName":"Cinemark","ticketType":"STANDARD"},{"id":"598","name":"Regal Henrietta Cinema Stadium 18","address":"525 Marketplace Drive","city":"Rochester","state":"NY","zip":"14623","distance":"16.053239822387695","lon":"-77.625580","lat":"43.083252","theaterChainName":"Regal Cinemas","ticketType":"STANDARD"},{"id":"1843","name":"Regal Greece Ridge Center 12","address":"176 Greece Ridge Center Dr","city":"Rochester","state":"NY","zip":"14626","distance":"24.169872283935547","lon":"-77.688629","lat":"43.205193","theaterChainName":"Regal Cinemas","ticketType":"STANDARD"},{"id":"2543","name":"Little Theatres","address":"240 East Ave.","city":"Rochester","state":"NY","zip":"14604","distance":"21.27311134338379","lon":"-77.597893","lat":"43.156200","theaterChainName":"Independent Chains","ticketType":"STANDARD"},{"id":"4577","name":"Dryden Theatre","address":"900 East Ave","city":"Rochester","state":"NY","zip":"14607","distance":"21.236412048339844","lon":"-77.580299","lat":"43.152554","theaterChainName":"Independent Chains","ticketType":"STANDARD"},{"id":"703","name":"Pittsford Cinemas","address":"3349 Monroe Ave.","city":"Rochester","state":"NY","zip":"14618","distance":"18.632158279418945","lon":"-77.541710","lat":"43.103027","theaterChainName":"Zurich Cinemas","ticketType":"STANDARD"},{"id":"673","name":"Regal Culver Ridge Plaza 16","address":"2255 Ridge Road East","city":"Irondequoit","state":"NY","zip":"14622","distance":"24.90863800048828","lon":"-77.557137","lat":"43.203041","theaterChainName":"Regal Cinemas","ticketType":"STANDARD"}]