[{"id":"4955","name":"Canaltown Cinema","address":"1900 State Route 31","city":"Macedon","state":"NY","zip":"14502","distance":"12.40495491027832","lon":"-77.287704","lat":"43.069111","theaterChainName":"Independent Chains","ticketType":"STANDARD"},{"id":"157","name":"AMC Loews Webster 12","address":"2190 Empire Blvd.","city":"Webster","state":"NY","zip":"14580","distance":"3.5020923614501953","lon":"-77.494446","lat":"43.202213","theaterChainName":"AMC Theatres","ticketType":"STANDARD"},{"id":"674","name":"Regal Eastview Mall 13","address":"70 Eastview Mall Drive","city":"Victor","state":"NY","zip":"14564","distance":"9.295331954956055","lon":"-77.445221","lat":"43.025131","theaterChainName":"Regal Cinemas","ticketType":"STANDARD"},{"id":"1806","name":"Strand Theatre - Brockport","address":"93 Main Street","city":"Brockport","state":"NY","zip":"14420","distance":"22.235502243041992","lon":"-77.938660","lat":"43.214550","theaterChainName":"Independent Chains","ticketType":"STANDARD"},{"id":"1361","name":"Cinemark Tinseltown USA and IMAX Rochester","address":"2291 Buffalo Rd.","city":"Rochester","state":"NY","zip":"14624","distance":"10.503348350524902","lon":"-77.713676","lat":"43.143166","theaterChainName":"Cinemark","ticketType":"STANDARD"},{"id":"1360","name":"Cinemark Movies 10 Rochester","address":"2609 W Henrietta Rd","city":"Rochester","state":"NY","zip":"14623","distance":"7.264214515686035","lon":"-77.631035","lat":"43.100388","theaterChainName":"Cinemark","ticketType":"STANDARD"},{"id":"598","name":"Regal Henrietta Cinema Stadium 18","address":"525 Marketplace Drive","city":"Rochester","state":"NY","zip":"14623","distance":"7.697835922241211","lon":"-77.625580","lat":"43.083252","theaterChainName":"Regal Cinemas","ticketType":"STANDARD"},{"id":"1843","name":"Regal Greece Ridge Center 12","address":"176 Greece Ridge Center Dr","city":"Rochester","state":"NY","zip":"14626","distance":"9.918098449707031","lon":"-77.688629","lat":"43.205193","theaterChainName":"Regal Cinemas","ticketType":"STANDARD"},{"id":"2543","name":"Little Theatres","address":"240 East Ave.","city":"Rochester","state":"NY","zip":"14604","distance":"4.655491828918457","lon":"-77.597893","lat":"43.156200","theaterChainName":"Independent Chains","ticketType":"STANDARD"},{"id":"4577","name":"Dryden Theatre","address":"900 East Ave","city":"Rochester","state":"NY","zip":"14607","distance":"3.760622501373291","lon":"-77.580299","lat":"43.152554","theaterChainName":"Independent Chains","ticketType":"STANDARD"},{"id":"703","name":"Pittsford Cinemas","address":"3349 Monroe Ave.","city":"Rochester","state":"NY","zip":"14618","distance":"3.8525021076202393","lon":"-77.541710","lat":"43.103027","theaterChainName":"Zurich Cinemas","ticketType":"STANDARD"},{"id":"673","name":"Regal Culver Ridge Plaza 16","address":"2255 Ridge Road East","city":"Irondequoit","state":"NY","zip":"14622","distance":"4.365707874298096","lon":"-77.557137","lat":"43.203041","theaterChainName":"Regal Cinemas","ticketType":"STANDARD"}]