[{"id":"2176","tribuneTheaterId":"1165","providerTheaterId":"","name":"Bradford's Main Street Movie House","address":"123 Main Street","city":"Bradford","state":"PA","zip":"16701","distance":16.400908405203,"lon":"-78.647","lat":"41.9559","theaterChainName":"Independent Chains","ticketType":"STANDARD"},{"id":"3181","tribuneTheaterId":"2852","providerTheaterId":"","name":"Warren Mall Cinemas","address":"1666 Market Street","city":"Warren","state":"PA","zip":"16365","distance":17.420193761957,"lon":"-79.147718","lat":"41.896694","theaterChainName":"Dipson Theatres","ticketType":"STANDARD"},{"id":"2175","tribuneTheaterId":"2726","providerTheaterId":"","name":"Chautauqua 2","address":"500 Chautauqua Mall","city":"Lakewood","state":"NY","zip":"14750","distance":19.558161495794,"lon":"-79.2985","lat":"42.098499","theaterChainName":"Dipson Theatres","ticketType":"STANDARD"},{"id":"2174","tribuneTheaterId":"2994","providerTheaterId":"","name":"Lakewood Cinema 8","address":"171-3 Fairmount Ave West","city":"Lakewood","state":"NY","zip":"14750","distance":21.860648508083,"lon":"-79.343541","lat":"42.097474","theaterChainName":"Dipson Theatres","ticketType":"STANDARD"},{"id":"1902","tribuneTheaterId":"4770","providerTheaterId":"","name":"Carmike 8 Allegany","address":"1875 Cinema Dr","city":"Allegany","state":"NY","zip":"14706","distance":23.169939764277,"lon":"-78.465879","lat":"42.08044","theaterChainName":"Carmike Cinemas","ticketType":"STANDARD"}]