[{"id":"1842","name":"Lake St. Plaza Theatres-Penn Yan","address":"230A Lake Street Plaza","city":"Penn Yan","state":"NY","zip":"14527","distance":"17.002674102783203","lon":"-77.057060","lat":"42.654385","theaterChainName":"Independent Chains","ticketType":"STANDARD"},{"id":"1702","name":"Regal Arnot Mall 10","address":"3300 Chambers Road","city":"Horseheads","state":"NY","zip":"14845","distance":"24.995616912841797","lon":"-76.874153","lat":"42.159935","theaterChainName":"Regal Cinemas","ticketType":"STANDARD"},{"id":"5632","name":"Spotlight of Hornell","address":"191 Main Street","city":"Hornell","state":"NY","zip":"14843","distance":"24.605064392089844","lon":"-77.658401","lat":"42.326401","theaterChainName":"Independent Chains","ticketType":"STANDARD"},{"id":"1832","name":"Crystal Cinemas","address":"88 Victory Highway","city":"Painted Post","state":"NY","zip":"14870","distance":"18.665842056274414","lon":"-77.101891","lat":"42.170521","theaterChainName":"Independent Chains","ticketType":"STANDARD"}]