[{"id":"4379","name":"Regal Ithaca Mall Stadium","address":"40 Catherwood Rd","city":"Ithaca","state":"NY","zip":"14850","distance":"9.85408878326416","lon":"-76.491707","lat":"42.483986","theaterChainName":"Regal Cinemas","ticketType":"STANDARD"},{"id":"3096","name":"Cinemapolis","address":"120 E. Green St.","city":"Ithaca","state":"NY","zip":"14850","distance":"7.179646968841553","lon":"-76.497269","lat":"42.438927","theaterChainName":"Independent Chains","ticketType":"STANDARD"},{"id":"4620","name":"Tioga Theater","address":"208 Main Street","city":"Owego","state":"NY","zip":"13827","distance":"24.57447624206543","lon":"-76.261482","lat":"42.104034","theaterChainName":"Independent Chains","ticketType":"STANDARD"},{"id":"2172","name":"The Heights Theater","address":"210 E. 14th St.","city":"Elmira Heights","state":"NY","zip":"14903","distance":"19.95330238342285","lon":"-76.822647","lat":"42.129211","theaterChainName":"Independent Chains","ticketType":"STANDARD"},{"id":"1702","name":"Regal Arnot Mall 10","address":"3300 Chambers Road","city":"Horseheads","state":"NY","zip":"14845","distance":"20.082828521728516","lon":"-76.874153","lat":"42.159935","theaterChainName":"Regal Cinemas","ticketType":"STANDARD"}]