[{"id":"3096","tribuneTheaterId":"1246","providerTheaterId":"","name":"Cinemapolis","address":"120 E. Green St.","city":"Ithaca","state":"NY","zip":"14850","distance":7.1790067228429,"lon":"-76.49727","lat":"42.438927","theaterChainName":"Independent Chains","ticketType":"STANDARD"},{"id":"4379","tribuneTheaterId":"9421","providerTheaterId":"","name":"Regal Ithaca Mall Stadium","address":"40 Catherwood Rd","city":"Ithaca","state":"NY","zip":"14850","distance":9.853155459482,"lon":"-76.491709","lat":"42.483984","theaterChainName":"Regal Cinemas","ticketType":"STANDARD"},{"id":"2172","tribuneTheaterId":"349","providerTheaterId":"","name":"The Heights Theater","address":"210 E. 14th St.","city":"Elmira Heights","state":"NY","zip":"14903","distance":19.952242242636,"lon":"-76.822645","lat":"42.12921","theaterChainName":"Independent Chains","ticketType":"STANDARD"},{"id":"1702","tribuneTheaterId":"4658","providerTheaterId":"","name":"Regal Arnot Mall 10","address":"3300 Chambers Road","city":"Horseheads","state":"NY","zip":"14845","distance":20.0817476481,"lon":"-76.874153","lat":"42.159935","theaterChainName":"Regal Cinemas","ticketType":"STANDARD"},{"id":"4620","tribuneTheaterId":"9797","providerTheaterId":"","name":"Tioga Theater","address":"208 Main Street","city":"Owego","state":"NY","zip":"13827","distance":24.572917488323,"lon":"-76.26148","lat":"42.104036","theaterChainName":"Independent Chains","ticketType":"STANDARD"}]