[{"id":"2172","name":"The Heights Theater","address":"210 E. 14th St.","city":"Elmira Heights","state":"NY","zip":"14903","distance":"23.141237258911133","lon":"-76.822647","lat":"42.129211","theaterChainName":"Independent Chains","ticketType":"STANDARD"},{"id":"1702","name":"Regal Arnot Mall 10","address":"3300 Chambers Road","city":"Horseheads","state":"NY","zip":"14845","distance":"19.785966873168945","lon":"-76.874153","lat":"42.159935","theaterChainName":"Regal Cinemas","ticketType":"STANDARD"},{"id":"5632","name":"Spotlight of Hornell","address":"191 Main Street","city":"Hornell","state":"NY","zip":"14843","distance":"23.049293518066406","lon":"-77.658401","lat":"42.326401","theaterChainName":"Independent Chains","ticketType":"STANDARD"},{"id":"1832","name":"Crystal Cinemas","address":"88 Victory Highway","city":"Painted Post","state":"NY","zip":"14870","distance":"10.715641021728516","lon":"-77.101891","lat":"42.170521","theaterChainName":"Independent Chains","ticketType":"STANDARD"}]