[{"id":"1842","tribuneTheaterId":"2820","providerTheaterId":"","name":"Lake St. Plaza Theatres-Penn Yan","address":"230A Lake Street Plaza","city":"Penn Yan","state":"NY","zip":"14527","distance":16.901057132374,"lon":"-77.057059","lat":"42.654383","theaterChainName":"Independent Chains","ticketType":"STANDARD"},{"id":"1702","tribuneTheaterId":"4658","providerTheaterId":"","name":"Regal Arnot Mall 10","address":"3300 Chambers Road","city":"Horseheads","state":"NY","zip":"14845","distance":18.824927147681,"lon":"-76.874153","lat":"42.159935","theaterChainName":"Regal Cinemas","ticketType":"STANDARD"},{"id":"1832","tribuneTheaterId":"2105","providerTheaterId":"","name":"Crystal Cinemas","address":"88 Victory Highway","city":"Painted Post","state":"NY","zip":"14870","distance":20.041502741489,"lon":"-77.101889","lat":"42.170519","theaterChainName":"Independent Chains","ticketType":"STANDARD"},{"id":"2172","tribuneTheaterId":"349","providerTheaterId":"","name":"The Heights Theater","address":"210 E. 14th St.","city":"Elmira Heights","state":"NY","zip":"14903","distance":21.421060025931,"lon":"-76.822645","lat":"42.12921","theaterChainName":"Independent Chains","ticketType":"STANDARD"},{"id":"4379","tribuneTheaterId":"9421","providerTheaterId":"","name":"Regal Ithaca Mall Stadium","address":"40 Catherwood Rd","city":"Ithaca","state":"NY","zip":"14850","distance":22.443838784751,"lon":"-76.491709","lat":"42.483984","theaterChainName":"Regal Cinemas","ticketType":"STANDARD"},{"id":"3096","tribuneTheaterId":"1246","providerTheaterId":"","name":"Cinemapolis","address":"120 E. Green St.","city":"Ithaca","state":"NY","zip":"14850","distance":21.861907665332,"lon":"-76.49727","lat":"42.438927","theaterChainName":"Independent Chains","ticketType":"STANDARD"}]