[{"id":"2172","tribuneTheaterId":"349","providerTheaterId":"","name":"The Heights Theater","address":"210 E. 14th St.","city":"Elmira Heights","state":"NY","zip":"14903","distance":3.0512569246266,"lon":"-76.822645","lat":"42.12921","theaterChainName":"Independent Chains","ticketType":"STANDARD"},{"id":"1702","tribuneTheaterId":"4658","providerTheaterId":"","name":"Regal Arnot Mall 10","address":"3300 Chambers Road","city":"Horseheads","state":"NY","zip":"14845","distance":5.3461923420303,"lon":"-76.874153","lat":"42.159935","theaterChainName":"Regal Cinemas","ticketType":"STANDARD"},{"id":"1832","tribuneTheaterId":"2105","providerTheaterId":"","name":"Crystal Cinemas","address":"88 Victory Highway","city":"Painted Post","state":"NY","zip":"14870","distance":14.624754251912,"lon":"-77.101889","lat":"42.170519","theaterChainName":"Independent Chains","ticketType":"STANDARD"},{"id":"3022","tribuneTheaterId":"1536","providerTheaterId":"","name":"Sayre Theatre","address":"205 S. Elmer Ave.","city":"Sayre","state":"PA","zip":"18840","distance":18.119188841587,"lon":"-76.51695","lat":"41.980579","theaterChainName":"Independent Chains","ticketType":"STANDARD"}]