[{"id":"1180","tribuneTheaterId":"2466","providerTheaterId":"","name":"Ambridge Family Theatre","address":"645 Merchant Street","city":"Ambridge","state":"PA","zip":"15003","distance":4.8131985963322,"lon":"-80.22819","lat":"40.587227","theaterChainName":"Independent Chains","ticketType":"STANDARD"},{"id":"3879","tribuneTheaterId":"4203","providerTheaterId":"","name":"Cinemark Center Township Marketplace","address":"99 Wagner Road","city":"Monaca","state":"PA","zip":"15061","distance":6.2229428196915,"lon":"-80.307827","lat":"40.681714","theaterChainName":"Cinemark","ticketType":"STANDARD"},{"id":"6085","tribuneTheaterId":"11497","providerTheaterId":"","name":"The Tull Family Theater","address":"418 Walnut Street","city":"Sewickley","state":"PA","zip":"15143","distance":8.0522914172557,"lon":"-80.182237","lat":"40.540354","theaterChainName":"Independent Chains","ticketType":"STANDARD"},{"id":"1589","tribuneTheaterId":"5735","providerTheaterId":"","name":"Carmike Plaza 6 Beaver Falls","address":"6800 Big Beaver Blvd.","city":"Beaver Falls","state":"PA","zip":"15010","distance":13.78907515235,"lon":"-80.333533","lat":"40.791396","theaterChainName":"Carmike Cinemas","ticketType":"STANDARD"},{"id":"5126","tribuneTheaterId":"10532","providerTheaterId":"","name":"Cranberry Cinemas","address":"20111 Route 19","city":"Cranberry Township","state":"PA","zip":"16066","distance":12.869785328717,"lon":"-80.105331","lat":"40.682835","theaterChainName":"WPA\/Pittsburgh Theatres","ticketType":"STANDARD"},{"id":"4803","tribuneTheaterId":"10060","providerTheaterId":"","name":"Cinemark Robinson Township","address":"2100 Settlers Ridge Center Drive","city":"Pittsburgh","state":"PA","zip":"15205","distance":13.949551265873,"lon":"-80.14675","lat":"40.438888","theaterChainName":"Cinemark","ticketType":"STANDARD"},{"id":"5560","tribuneTheaterId":"11007","providerTheaterId":"","name":"Cinemark North Hills and XD","address":"851 Providence Blvd","city":"Pittsburgh","state":"PA","zip":"15237","distance":15.860929428211,"lon":"-80.018865","lat":"40.56988","theaterChainName":"Cinemark","ticketType":"STANDARD"},{"id":"272","tribuneTheaterId":"8535","providerTheaterId":"","name":"Rave Motion Pictures Pittsburgh North 11","address":"9700 Mcknight Road","city":"Pittsburgh","state":"PA","zip":"15237","distance":15.065507874675,"lon":"-80.032665","lat":"40.586438","theaterChainName":"Cinemark","ticketType":"STANDARD"},{"id":"2295","tribuneTheaterId":"2522","providerTheaterId":"","name":"Pittsburgh Harris Theater","address":"803 Liberty Aveue","city":"Pittsburgh","state":"PA","zip":"15222","distance":19.774183923253,"lon":"-79.998477","lat":"40.442848","theaterChainName":"Independent Chains","ticketType":"STANDARD"},{"id":"2637","tribuneTheaterId":"3247","providerTheaterId":"","name":"Chartiers Valley Stadium 18","address":"1025 Washington Pike","city":"Bridgeville","state":"PA","zip":"15017","distance":19.065991814159,"lon":"-80.109419","lat":"40.367238","theaterChainName":"Phoenix Theatres","ticketType":"STANDARD"},{"id":"5525","tribuneTheaterId":"10954","providerTheaterId":"","name":"Row House Cinema","address":"4115 Butler Street","city":"Pittsburgh","state":"PA","zip":"15201","distance":20.628708019371,"lon":"-79.961225","lat":"40.470012","theaterChainName":"Independent Chains","ticketType":"STANDARD"},{"id":"2128","tribuneTheaterId":"5738","providerTheaterId":"","name":"Carmike 10 Pittsburgh","address":"700 Ft. Couch Rd.","city":"Pittsburgh","state":"PA","zip":"15241","distance":22.141825197384,"lon":"-80.054107","lat":"40.343363","theaterChainName":"Carmike Cinemas","ticketType":"STANDARD"},{"id":"3901","tribuneTheaterId":"2262","providerTheaterId":"","name":"SouthSide Works Cinema","address":"425 Cinema Drive","city":"Pittsburgh","state":"PA","zip":"15203","distance":21.803747952247,"lon":"-79.965255","lat":"40.427893","theaterChainName":"Independent Chains","ticketType":"STANDARD"},{"id":"528","tribuneTheaterId":"7906","providerTheaterId":"","name":"Carmike Galleria 6","address":"1500 Washington Rd.","city":"Mount Lebanon","state":"PA","zip":"15228","distance":21.498430773746,"lon":"-80.051644","lat":"40.357076","theaterChainName":"Carmike Cinemas","ticketType":"STANDARD"},{"id":"2235","tribuneTheaterId":"5752","providerTheaterId":"","name":"Carmike 6 Steubenville","address":"100 Mall Dr","city":"Steubenville","state":"OH","zip":"43952","distance":23.874037648009,"lon":"-80.667702","lat":"40.369999","theaterChainName":"Carmike Cinemas","ticketType":"STANDARD"},{"id":"526","tribuneTheaterId":"6067","providerTheaterId":"","name":"Waterworks Cinema 10","address":"930 Freeport Rd.","city":"Pittsburgh","state":"PA","zip":"15238","distance":23.68629995655,"lon":"-79.889728","lat":"40.488403","theaterChainName":"WPA\/Pittsburgh Theatres","ticketType":"STANDARD"},{"id":"527","tribuneTheaterId":"6048","providerTheaterId":"","name":"Manor Theatre","address":"1729 Murray Ave.","city":"Pittsburgh","state":"PA","zip":"15217","distance":23.438596191161,"lon":"-79.922761","lat":"40.437137","theaterChainName":"Independent Chains","ticketType":"STANDARD"},{"id":"1183","tribuneTheaterId":"2468","providerTheaterId":"","name":"Regent Square Theatre","address":"1035 S. BRADDOCK AVENUE","city":"Pittsburgh","state":"PA","zip":"15218","distance":24.863075518916,"lon":"-79.8947","lat":"40.4337","theaterChainName":"Independent Chains","ticketType":"STANDARD"},{"id":"2996","tribuneTheaterId":"5191","providerTheaterId":"2587","name":"AMC Loews Waterfront 22","address":"300 Waterfront Dr.","city":"West Homestead","state":"PA","zip":"15120","distance":24.676532053622,"lon":"-79.918381","lat":"40.406554","theaterChainName":"AMC Theatres","ticketType":"STANDARD"}]