[{"id":"1183","name":"Regent Square Theatre","address":"1035 S. BRADDOCK AVENUE","city":"Pittsburgh","state":"PA","zip":"15218","distance":"17.835161209106445","lon":"-79.894699","lat":"40.433701","theaterChainName":"Independent Chains","ticketType":"STANDARD"},{"id":"4803","name":"Cinemark Robinson Township","address":"2100 Settlers Ridge Center Drive","city":"Pittsburgh","state":"PA","zip":"15205","distance":"23.521154403686523","lon":"-80.146751","lat":"40.438889","theaterChainName":"Cinemark","ticketType":"STANDARD"},{"id":"2637","name":"Chartiers Valley Stadium 18","address":"1025 Washington Pike","city":"Bridgeville","state":"PA","zip":"15017","distance":"18.532089233398438","lon":"-80.109421","lat":"40.367237","theaterChainName":"Phoenix Theatres","ticketType":"STANDARD"},{"id":"2295","name":"Pittsburgh Harris Theater","address":"803 Liberty Aveue","city":"Pittsburgh","state":"PA","zip":"15222","distance":"19.741600036621094","lon":"-79.998474","lat":"40.442848","theaterChainName":"Independent Chains","ticketType":"STANDARD"},{"id":"5525","name":"Row House Cinema","address":"4115 Butler Street","city":"Pittsburgh","state":"PA","zip":"15201","distance":"20.925094604492188","lon":"-79.961227","lat":"40.470013","theaterChainName":"Independent Chains","ticketType":"STANDARD"},{"id":"528","name":"Carmike Galleria 6","address":"1500 Washington Rd.","city":"Mount Lebanon","state":"PA","zip":"15228","distance":"15.976456642150879","lon":"-80.051643","lat":"40.357075","theaterChainName":"Carmike Cinemas","ticketType":"STANDARD"},{"id":"2128","name":"Carmike 10 Pittsburgh","address":"700 Ft. Couch Rd.","city":"Pittsburgh","state":"PA","zip":"15241","distance":"15.335613250732422","lon":"-80.054108","lat":"40.343365","theaterChainName":"Carmike Cinemas","ticketType":"STANDARD"},{"id":"3901","name":"SouthSide Works Cinema","address":"425 Cinema Drive","city":"Pittsburgh","state":"PA","zip":"15203","distance":"18.184833526611328","lon":"-79.965256","lat":"40.427895","theaterChainName":"Independent Chains","ticketType":"STANDARD"},{"id":"527","name":"Manor Theatre","address":"1729 Murray Ave.","city":"Pittsburgh","state":"PA","zip":"15217","distance":"18.272327423095703","lon":"-79.922760","lat":"40.437138","theaterChainName":"Independent Chains","ticketType":"STANDARD"},{"id":"526","name":"Waterworks Cinema 10","address":"930 Freeport Rd.","city":"Pittsburgh","state":"PA","zip":"15238","distance":"21.580875396728516","lon":"-79.889725","lat":"40.488403","theaterChainName":"WPA\/Pittsburgh Theatres","ticketType":"STANDARD"},{"id":"2996","name":"AMC Loews Waterfront 22","address":"300 Waterfront Dr.","city":"West Homestead","state":"PA","zip":"15120","distance":"16.152219772338867","lon":"-79.918381","lat":"40.406555","theaterChainName":"AMC Theatres","ticketType":"STANDARD"},{"id":"5904","name":"Century Square Luxury Cinemas","address":"2001 Mountain View Dr.","city":"West Mifflin","state":"PA","zip":"15122","distance":"12.571236610412598","lon":"-79.946190","lat":"40.346985","theaterChainName":"Golden Star Theaters","ticketType":"STANDARD"},{"id":"525","name":"Carmike Southland 9","address":"629 Clairton Blvd.","city":"Pleasant Hills","state":"PA","zip":"15236","distance":"11.523332595825195","lon":"-79.942070","lat":"40.331940","theaterChainName":"Carmike Cinemas","ticketType":"STANDARD"},{"id":"1182","name":"Oaks Theatre","address":"310 Allegheny River Blvd.","city":"Oakmont","state":"PA","zip":"15139","distance":"23.435161590576172","lon":"-79.842926","lat":"40.515652","theaterChainName":"Independent Chains","ticketType":"STANDARD"},{"id":"524","name":"Penn Hills Cinemas","address":"76 Federal Dr.","city":"Pittsburgh","state":"PA","zip":"15235","distance":"19.797216415405273","lon":"-79.826920","lat":"40.462067","theaterChainName":"Independent Chains","ticketType":"STANDARD"},{"id":"3063","name":"Regal Crown Center Stadium 14 ","address":"1500 West Chestnut St.","city":"Washington","state":"PA","zip":"15301","distance":"21.89487648010254","lon":"-80.275810","lat":"40.157738","theaterChainName":"Regal Cinemas","ticketType":"STANDARD"},{"id":"5409","name":"Cinemark Monroeville Mall","address":"200 Mall Circle Drive","city":"Monroeville","state":"PA","zip":"15146","distance":"17.736095428466797","lon":"-79.795273","lat":"40.428402","theaterChainName":"Cinemark","ticketType":"STANDARD"},{"id":"2574","name":"North Versailles Stadium 18","address":"1701 Lincoln Highway","city":"North Versailles","state":"PA","zip":"15137","distance":"14.090911865234375","lon":"-79.785065","lat":"40.372120","theaterChainName":"Phoenix Theatres","ticketType":"STANDARD"},{"id":"2832","name":"Carmike Wynnsong 12 Delmont","address":"401 Vine St","city":"Delmont","state":"PA","zip":"15626","distance":"21.14571189880371","lon":"-79.585548","lat":"40.398643","theaterChainName":"Carmike Cinemas","ticketType":"STANDARD"},{"id":"2664","name":"Carmike 15 Greensburg","address":"Westmoreland Mall, Rt. 30","city":"Greensburg","state":"PA","zip":"15601","distance":"20.57566261291504","lon":"-79.505295","lat":"40.297485","theaterChainName":"Carmike Cinemas","ticketType":"STANDARD"},{"id":"1663","name":"Carmike 6 Uniontown","address":"1372 W Main St","city":"Uniontown","state":"PA","zip":"15401","distance":"19.561107635498047","lon":"-79.746696","lat":"39.907795","theaterChainName":"Carmike Cinemas","ticketType":"STANDARD"},{"id":"2244","name":"Carmike Laurel Mall 4","address":"1952 University Dr","city":"Connellsville","state":"PA","zip":"15425","distance":"18.098817825317383","lon":"-79.579903","lat":"40.028198","theaterChainName":"Carmike Cinemas","ticketType":"STANDARD"}]