[{"id":"1183","name":"Regent Square Theatre","address":"1035 S. BRADDOCK AVENUE","city":"Pittsburgh","state":"PA","zip":"15218","distance":"8.301492691040039","lon":"-79.894699","lat":"40.433701","theaterChainName":"Independent Chains","ticketType":"STANDARD"},{"id":"1180","name":"Ambridge Family Theatre","address":"645 Merchant Street","city":"Ambridge","state":"PA","zip":"15003","distance":"16.08197021484375","lon":"-80.228188","lat":"40.587227","theaterChainName":"Independent Chains","ticketType":"STANDARD"},{"id":"3879","name":"Cinemark Center Township Marketplace","address":"99 Wagner Road","city":"Monaca","state":"PA","zip":"15061","distance":"23.819658279418945","lon":"-80.307831","lat":"40.681713","theaterChainName":"Cinemark","ticketType":"STANDARD"},{"id":"6085","name":"The Tull Family Theater","address":"418 Walnut Street","city":"Sewickley","state":"PA","zip":"15143","distance":"12.04374885559082","lon":"-80.182236","lat":"40.540356","theaterChainName":"Independent Chains","ticketType":"STANDARD"},{"id":"5126","name":"Cranberry Cinemas","address":"20111 Route 19","city":"Cranberry Township","state":"PA","zip":"16066","distance":"19.781404495239258","lon":"-80.105331","lat":"40.682835","theaterChainName":"WPA\/Pittsburgh Theatres","ticketType":"STANDARD"},{"id":"4803","name":"Cinemark Robinson Township","address":"2100 Settlers Ridge Center Drive","city":"Pittsburgh","state":"PA","zip":"15205","distance":"5.929610252380371","lon":"-80.146751","lat":"40.438889","theaterChainName":"Cinemark","ticketType":"STANDARD"},{"id":"272","name":"Rave Motion Pictures Pittsburgh North 11","address":"9700 Mcknight Road","city":"Pittsburgh","state":"PA","zip":"15237","distance":"12.895052909851074","lon":"-80.032661","lat":"40.586437","theaterChainName":"Cinemark","ticketType":"STANDARD"},{"id":"5560","name":"Cinemark North Hills and XD","address":"851 Providence Blvd","city":"Pittsburgh","state":"PA","zip":"15237","distance":"11.819074630737305","lon":"-80.018867","lat":"40.569881","theaterChainName":"Cinemark","ticketType":"STANDARD"},{"id":"2637","name":"Chartiers Valley Stadium 18","address":"1025 Washington Pike","city":"Bridgeville","state":"PA","zip":"15017","distance":"4.028348922729492","lon":"-80.109421","lat":"40.367237","theaterChainName":"Phoenix Theatres","ticketType":"STANDARD"},{"id":"2295","name":"Pittsburgh Harris Theater","address":"803 Liberty Aveue","city":"Pittsburgh","state":"PA","zip":"15222","distance":"3.8766582012176514","lon":"-79.998474","lat":"40.442848","theaterChainName":"Independent Chains","ticketType":"STANDARD"},{"id":"5525","name":"Row House Cinema","address":"4115 Butler Street","city":"Pittsburgh","state":"PA","zip":"15201","distance":"6.58099365234375","lon":"-79.961227","lat":"40.470013","theaterChainName":"Independent Chains","ticketType":"STANDARD"},{"id":"528","name":"Carmike Galleria 6","address":"1500 Washington Rd.","city":"Mount Lebanon","state":"PA","zip":"15228","distance":"2.9867475032806396","lon":"-80.051643","lat":"40.357075","theaterChainName":"Carmike Cinemas","ticketType":"STANDARD"},{"id":"2128","name":"Carmike 10 Pittsburgh","address":"700 Ft. Couch Rd.","city":"Pittsburgh","state":"PA","zip":"15241","distance":"3.9423394203186035","lon":"-80.054108","lat":"40.343365","theaterChainName":"Carmike Cinemas","ticketType":"STANDARD"},{"id":"3901","name":"SouthSide Works Cinema","address":"425 Cinema Drive","city":"Pittsburgh","state":"PA","zip":"15203","distance":"4.671637535095215","lon":"-79.965256","lat":"40.427895","theaterChainName":"Independent Chains","ticketType":"STANDARD"},{"id":"527","name":"Manor Theatre","address":"1729 Murray Ave.","city":"Pittsburgh","state":"PA","zip":"15217","distance":"6.97993803024292","lon":"-79.922760","lat":"40.437138","theaterChainName":"Independent Chains","ticketType":"STANDARD"},{"id":"526","name":"Waterworks Cinema 10","address":"930 Freeport Rd.","city":"Pittsburgh","state":"PA","zip":"15238","distance":"10.243908882141113","lon":"-79.889725","lat":"40.488403","theaterChainName":"WPA\/Pittsburgh Theatres","ticketType":"STANDARD"},{"id":"2996","name":"AMC Loews Waterfront 22","address":"300 Waterfront Dr.","city":"West Homestead","state":"PA","zip":"15120","distance":"6.740535736083984","lon":"-79.918381","lat":"40.406555","theaterChainName":"AMC Theatres","ticketType":"STANDARD"},{"id":"5904","name":"Century Square Luxury Cinemas","address":"2001 Mountain View Dr.","city":"West Mifflin","state":"PA","zip":"15122","distance":"6.41784143447876","lon":"-79.946190","lat":"40.346985","theaterChainName":"Golden Star Theaters","ticketType":"STANDARD"},{"id":"525","name":"Carmike Southland 9","address":"629 Clairton Blvd.","city":"Pleasant Hills","state":"PA","zip":"15236","distance":"7.227565288543701","lon":"-79.942070","lat":"40.331940","theaterChainName":"Carmike Cinemas","ticketType":"STANDARD"},{"id":"1182","name":"Oaks Theatre","address":"310 Allegheny River Blvd.","city":"Oakmont","state":"PA","zip":"15139","distance":"13.34048080444336","lon":"-79.842926","lat":"40.515652","theaterChainName":"Independent Chains","ticketType":"STANDARD"},{"id":"524","name":"Penn Hills Cinemas","address":"76 Federal Dr.","city":"Pittsburgh","state":"PA","zip":"15235","distance":"12.302618026733398","lon":"-79.826920","lat":"40.462067","theaterChainName":"Independent Chains","ticketType":"STANDARD"},{"id":"3063","name":"Regal Crown Center Stadium 14 ","address":"1500 West Chestnut St.","city":"Washington","state":"PA","zip":"15301","distance":"20.66278839111328","lon":"-80.275810","lat":"40.157738","theaterChainName":"Regal Cinemas","ticketType":"STANDARD"},{"id":"4067","name":"Cinemark Galleria at Pittsburgh Mills and IMAX","address":"425 Pittsburgh Mills Circle","city":"Tarentum","state":"PA","zip":"15084","distance":"17.840065002441406","lon":"-79.795654","lat":"40.574310","theaterChainName":"Cinemark","ticketType":"STANDARD"},{"id":"5409","name":"Cinemark Monroeville Mall","address":"200 Mall Circle Drive","city":"Monroeville","state":"PA","zip":"15146","distance":"13.34534740447998","lon":"-79.795273","lat":"40.428402","theaterChainName":"Cinemark","ticketType":"STANDARD"},{"id":"2574","name":"North Versailles Stadium 18","address":"1701 Lincoln Highway","city":"North Versailles","state":"PA","zip":"15137","distance":"13.879400253295898","lon":"-79.785065","lat":"40.372120","theaterChainName":"Phoenix Theatres","ticketType":"STANDARD"},{"id":"2832","name":"Carmike Wynnsong 12 Delmont","address":"401 Vine St","city":"Delmont","state":"PA","zip":"15626","distance":"24.24029541015625","lon":"-79.585548","lat":"40.398643","theaterChainName":"Carmike Cinemas","ticketType":"STANDARD"}]