[{"id":"1183","name":"Regent Square Theatre","address":"1035 S. BRADDOCK AVENUE","city":"Pittsburgh","state":"PA","zip":"15218","distance":"12.611740112304688","lon":"-79.894699","lat":"40.433701","theaterChainName":"Independent Chains","ticketType":"STANDARD"},{"id":"1180","name":"Ambridge Family Theatre","address":"645 Merchant Street","city":"Ambridge","state":"PA","zip":"15003","distance":"8.198180198669434","lon":"-80.228188","lat":"40.587227","theaterChainName":"Independent Chains","ticketType":"STANDARD"},{"id":"3879","name":"Cinemark Center Township Marketplace","address":"99 Wagner Road","city":"Monaca","state":"PA","zip":"15061","distance":"15.835421562194824","lon":"-80.307831","lat":"40.681713","theaterChainName":"Cinemark","ticketType":"STANDARD"},{"id":"6085","name":"The Tull Family Theater","address":"418 Walnut Street","city":"Sewickley","state":"PA","zip":"15143","distance":"4.268571376800537","lon":"-80.182236","lat":"40.540356","theaterChainName":"Independent Chains","ticketType":"STANDARD"},{"id":"5126","name":"Cranberry Cinemas","address":"20111 Route 19","city":"Cranberry Township","state":"PA","zip":"16066","distance":"12.292603492736816","lon":"-80.105331","lat":"40.682835","theaterChainName":"WPA\/Pittsburgh Theatres","ticketType":"STANDARD"},{"id":"1589","name":"Carmike Plaza 6 Beaver Falls","address":"6800 Big Beaver Blvd.","city":"Beaver Falls","state":"PA","zip":"15010","distance":"22.847347259521484","lon":"-80.333534","lat":"40.791397","theaterChainName":"Carmike Cinemas","ticketType":"STANDARD"},{"id":"4803","name":"Cinemark Robinson Township","address":"2100 Settlers Ridge Center Drive","city":"Pittsburgh","state":"PA","zip":"15205","distance":"4.861016750335693","lon":"-80.146751","lat":"40.438889","theaterChainName":"Cinemark","ticketType":"STANDARD"},{"id":"272","name":"Rave Motion Pictures Pittsburgh North 11","address":"9700 Mcknight Road","city":"Pittsburgh","state":"PA","zip":"15237","distance":"7.106739044189453","lon":"-80.032661","lat":"40.586437","theaterChainName":"Cinemark","ticketType":"STANDARD"},{"id":"5560","name":"Cinemark North Hills and XD","address":"851 Providence Blvd","city":"Pittsburgh","state":"PA","zip":"15237","distance":"6.766633987426758","lon":"-80.018867","lat":"40.569881","theaterChainName":"Cinemark","ticketType":"STANDARD"},{"id":"2637","name":"Chartiers Valley Stadium 18","address":"1025 Washington Pike","city":"Bridgeville","state":"PA","zip":"15017","distance":"9.531377792358398","lon":"-80.109421","lat":"40.367237","theaterChainName":"Phoenix Theatres","ticketType":"STANDARD"},{"id":"2295","name":"Pittsburgh Harris Theater","address":"803 Liberty Aveue","city":"Pittsburgh","state":"PA","zip":"15222","distance":"7.506034851074219","lon":"-79.998474","lat":"40.442848","theaterChainName":"Independent Chains","ticketType":"STANDARD"},{"id":"5525","name":"Row House Cinema","address":"4115 Butler Street","city":"Pittsburgh","state":"PA","zip":"15201","distance":"8.462148666381836","lon":"-79.961227","lat":"40.470013","theaterChainName":"Independent Chains","ticketType":"STANDARD"},{"id":"528","name":"Carmike Galleria 6","address":"1500 Washington Rd.","city":"Mount Lebanon","state":"PA","zip":"15228","distance":"10.765543937683105","lon":"-80.051643","lat":"40.357075","theaterChainName":"Carmike Cinemas","ticketType":"STANDARD"},{"id":"2128","name":"Carmike 10 Pittsburgh","address":"700 Ft. Couch Rd.","city":"Pittsburgh","state":"PA","zip":"15241","distance":"11.632781028747559","lon":"-80.054108","lat":"40.343365","theaterChainName":"Carmike Cinemas","ticketType":"STANDARD"},{"id":"3901","name":"SouthSide Works Cinema","address":"425 Cinema Drive","city":"Pittsburgh","state":"PA","zip":"15203","distance":"9.531028747558594","lon":"-79.965256","lat":"40.427895","theaterChainName":"Independent Chains","ticketType":"STANDARD"},{"id":"527","name":"Manor Theatre","address":"1729 Murray Ave.","city":"Pittsburgh","state":"PA","zip":"15217","distance":"11.166848182678223","lon":"-79.922760","lat":"40.437138","theaterChainName":"Independent Chains","ticketType":"STANDARD"},{"id":"526","name":"Waterworks Cinema 10","address":"930 Freeport Rd.","city":"Pittsburgh","state":"PA","zip":"15238","distance":"11.919344902038574","lon":"-79.889725","lat":"40.488403","theaterChainName":"WPA\/Pittsburgh Theatres","ticketType":"STANDARD"},{"id":"2996","name":"AMC Loews Waterfront 22","address":"300 Waterfront Dr.","city":"West Homestead","state":"PA","zip":"15120","distance":"12.400700569152832","lon":"-79.918381","lat":"40.406555","theaterChainName":"AMC Theatres","ticketType":"STANDARD"},{"id":"5904","name":"Century Square Luxury Cinemas","address":"2001 Mountain View Dr.","city":"West Mifflin","state":"PA","zip":"15122","distance":"14.095293998718262","lon":"-79.946190","lat":"40.346985","theaterChainName":"Golden Star Theaters","ticketType":"STANDARD"},{"id":"525","name":"Carmike Southland 9","address":"629 Clairton Blvd.","city":"Pleasant Hills","state":"PA","zip":"15236","distance":"15.046567916870117","lon":"-79.942070","lat":"40.331940","theaterChainName":"Carmike Cinemas","ticketType":"STANDARD"},{"id":"1182","name":"Oaks Theatre","address":"310 Allegheny River Blvd.","city":"Oakmont","state":"PA","zip":"15139","distance":"14.338042259216309","lon":"-79.842926","lat":"40.515652","theaterChainName":"Independent Chains","ticketType":"STANDARD"},{"id":"524","name":"Penn Hills Cinemas","address":"76 Federal Dr.","city":"Pittsburgh","state":"PA","zip":"15235","distance":"15.455175399780273","lon":"-79.826920","lat":"40.462067","theaterChainName":"Independent Chains","ticketType":"STANDARD"},{"id":"4067","name":"Cinemark Galleria at Pittsburgh Mills and IMAX","address":"425 Pittsburgh Mills Circle","city":"Tarentum","state":"PA","zip":"15084","distance":"17.46307945251465","lon":"-79.795654","lat":"40.574310","theaterChainName":"Cinemark","ticketType":"STANDARD"},{"id":"5409","name":"Cinemark Monroeville Mall","address":"200 Mall Circle Drive","city":"Monroeville","state":"PA","zip":"15146","distance":"17.64836311340332","lon":"-79.795273","lat":"40.428402","theaterChainName":"Cinemark","ticketType":"STANDARD"},{"id":"2574","name":"North Versailles Stadium 18","address":"1701 Lincoln Highway","city":"North Versailles","state":"PA","zip":"15137","distance":"19.657474517822266","lon":"-79.785065","lat":"40.372120","theaterChainName":"Phoenix Theatres","ticketType":"STANDARD"},{"id":"3557","name":"South Pike Cinemas","address":"718 South Pike Road","city":"Sarver","state":"PA","zip":"16055","distance":"24.55251121520996","lon":"-79.724052","lat":"40.699856","theaterChainName":"Carmike Cinemas","ticketType":"STANDARD"}]