[{"id":"1183","name":"Regent Square Theatre","address":"1035 S. BRADDOCK AVENUE","city":"Pittsburgh","state":"PA","zip":"15218","distance":"10.231080055236816","lon":"-79.894699","lat":"40.433701","theaterChainName":"Independent Chains","ticketType":"STANDARD"},{"id":"1180","name":"Ambridge Family Theatre","address":"645 Merchant Street","city":"Ambridge","state":"PA","zip":"15003","distance":"16.789457321166992","lon":"-80.228188","lat":"40.587227","theaterChainName":"Independent Chains","ticketType":"STANDARD"},{"id":"3879","name":"Cinemark Center Township Marketplace","address":"99 Wagner Road","city":"Monaca","state":"PA","zip":"15061","distance":"24.52985954284668","lon":"-80.307831","lat":"40.681713","theaterChainName":"Cinemark","ticketType":"STANDARD"},{"id":"6085","name":"The Tull Family Theater","address":"418 Walnut Street","city":"Sewickley","state":"PA","zip":"15143","distance":"12.79781723022461","lon":"-80.182236","lat":"40.540356","theaterChainName":"Independent Chains","ticketType":"STANDARD"},{"id":"5126","name":"Cranberry Cinemas","address":"20111 Route 19","city":"Cranberry Township","state":"PA","zip":"16066","distance":"21.35155487060547","lon":"-80.105331","lat":"40.682835","theaterChainName":"WPA\/Pittsburgh Theatres","ticketType":"STANDARD"},{"id":"4803","name":"Cinemark Robinson Township","address":"2100 Settlers Ridge Center Drive","city":"Pittsburgh","state":"PA","zip":"15205","distance":"5.884515762329102","lon":"-80.146751","lat":"40.438889","theaterChainName":"Cinemark","ticketType":"STANDARD"},{"id":"272","name":"Rave Motion Pictures Pittsburgh North 11","address":"9700 Mcknight Road","city":"Pittsburgh","state":"PA","zip":"15237","distance":"14.77712631225586","lon":"-80.032661","lat":"40.586437","theaterChainName":"Cinemark","ticketType":"STANDARD"},{"id":"5560","name":"Cinemark North Hills and XD","address":"851 Providence Blvd","city":"Pittsburgh","state":"PA","zip":"15237","distance":"13.777647018432617","lon":"-80.018867","lat":"40.569881","theaterChainName":"Cinemark","ticketType":"STANDARD"},{"id":"2637","name":"Chartiers Valley Stadium 18","address":"1025 Washington Pike","city":"Bridgeville","state":"PA","zip":"15017","distance":"1.9823358058929443","lon":"-80.109421","lat":"40.367237","theaterChainName":"Phoenix Theatres","ticketType":"STANDARD"},{"id":"2295","name":"Pittsburgh Harris Theater","address":"803 Liberty Aveue","city":"Pittsburgh","state":"PA","zip":"15222","distance":"6.125550270080566","lon":"-79.998474","lat":"40.442848","theaterChainName":"Independent Chains","ticketType":"STANDARD"},{"id":"5525","name":"Row House Cinema","address":"4115 Butler Street","city":"Pittsburgh","state":"PA","zip":"15201","distance":"8.826705932617188","lon":"-79.961227","lat":"40.470013","theaterChainName":"Independent Chains","ticketType":"STANDARD"},{"id":"528","name":"Carmike Galleria 6","address":"1500 Washington Rd.","city":"Mount Lebanon","state":"PA","zip":"15228","distance":"1.66615629196167","lon":"-80.051643","lat":"40.357075","theaterChainName":"Carmike Cinemas","ticketType":"STANDARD"},{"id":"2128","name":"Carmike 10 Pittsburgh","address":"700 Ft. Couch Rd.","city":"Pittsburgh","state":"PA","zip":"15241","distance":"2.3912782669067383","lon":"-80.054108","lat":"40.343365","theaterChainName":"Carmike Cinemas","ticketType":"STANDARD"},{"id":"3901","name":"SouthSide Works Cinema","address":"425 Cinema Drive","city":"Pittsburgh","state":"PA","zip":"15203","distance":"6.757155895233154","lon":"-79.965256","lat":"40.427895","theaterChainName":"Independent Chains","ticketType":"STANDARD"},{"id":"527","name":"Manor Theatre","address":"1729 Murray Ave.","city":"Pittsburgh","state":"PA","zip":"15217","distance":"9.006795883178711","lon":"-79.922760","lat":"40.437138","theaterChainName":"Independent Chains","ticketType":"STANDARD"},{"id":"526","name":"Waterworks Cinema 10","address":"930 Freeport Rd.","city":"Pittsburgh","state":"PA","zip":"15238","distance":"12.435219764709473","lon":"-79.889725","lat":"40.488403","theaterChainName":"WPA\/Pittsburgh Theatres","ticketType":"STANDARD"},{"id":"2996","name":"AMC Loews Waterfront 22","address":"300 Waterfront Dr.","city":"West Homestead","state":"PA","zip":"15120","distance":"8.432815551757812","lon":"-79.918381","lat":"40.406555","theaterChainName":"AMC Theatres","ticketType":"STANDARD"},{"id":"5904","name":"Century Square Luxury Cinemas","address":"2001 Mountain View Dr.","city":"West Mifflin","state":"PA","zip":"15122","distance":"6.952755451202393","lon":"-79.946190","lat":"40.346985","theaterChainName":"Golden Star Theaters","ticketType":"STANDARD"},{"id":"525","name":"Carmike Southland 9","address":"629 Clairton Blvd.","city":"Pleasant Hills","state":"PA","zip":"15236","distance":"7.508281707763672","lon":"-79.942070","lat":"40.331940","theaterChainName":"Carmike Cinemas","ticketType":"STANDARD"},{"id":"1182","name":"Oaks Theatre","address":"310 Allegheny River Blvd.","city":"Oakmont","state":"PA","zip":"15139","distance":"15.531123161315918","lon":"-79.842926","lat":"40.515652","theaterChainName":"Independent Chains","ticketType":"STANDARD"},{"id":"524","name":"Penn Hills Cinemas","address":"76 Federal Dr.","city":"Pittsburgh","state":"PA","zip":"15235","distance":"14.285378456115723","lon":"-79.826920","lat":"40.462067","theaterChainName":"Independent Chains","ticketType":"STANDARD"},{"id":"3063","name":"Regal Crown Center Stadium 14 ","address":"1500 West Chestnut St.","city":"Washington","state":"PA","zip":"15301","distance":"18.41713523864746","lon":"-80.275810","lat":"40.157738","theaterChainName":"Regal Cinemas","ticketType":"STANDARD"},{"id":"4067","name":"Cinemark Galleria at Pittsburgh Mills and IMAX","address":"425 Pittsburgh Mills Circle","city":"Tarentum","state":"PA","zip":"15084","distance":"20.0675048828125","lon":"-79.795654","lat":"40.574310","theaterChainName":"Cinemark","ticketType":"STANDARD"},{"id":"5409","name":"Cinemark Monroeville Mall","address":"200 Mall Circle Drive","city":"Monroeville","state":"PA","zip":"15146","distance":"15.080750465393066","lon":"-79.795273","lat":"40.428402","theaterChainName":"Cinemark","ticketType":"STANDARD"},{"id":"2574","name":"North Versailles Stadium 18","address":"1701 Lincoln Highway","city":"North Versailles","state":"PA","zip":"15137","distance":"15.16350269317627","lon":"-79.785065","lat":"40.372120","theaterChainName":"Phoenix Theatres","ticketType":"STANDARD"}]