[{"id":"2295","tribuneTheaterId":"2522","providerTheaterId":"","name":"Pittsburgh Harris Theater","address":"803 Liberty Aveue","city":"Pittsburgh","state":"PA","zip":"15222","distance":1.5357255502358,"lon":"-79.998477","lat":"40.442848","theaterChainName":"Independent Chains","ticketType":"STANDARD"},{"id":"3901","tribuneTheaterId":"2262","providerTheaterId":"","name":"SouthSide Works Cinema","address":"425 Cinema Drive","city":"Pittsburgh","state":"PA","zip":"15203","distance":3.4086709840633,"lon":"-79.965255","lat":"40.427893","theaterChainName":"Independent Chains","ticketType":"STANDARD"},{"id":"5525","tribuneTheaterId":"10954","providerTheaterId":"","name":"Row House Cinema","address":"4115 Butler Street","city":"Pittsburgh","state":"PA","zip":"15201","distance":2.6505728048044,"lon":"-79.961225","lat":"40.470012","theaterChainName":"Independent Chains","ticketType":"STANDARD"},{"id":"527","tribuneTheaterId":"6048","providerTheaterId":"","name":"Manor Theatre","address":"1729 Murray Ave.","city":"Pittsburgh","state":"PA","zip":"15217","distance":4.9618655425402,"lon":"-79.922761","lat":"40.437137","theaterChainName":"Independent Chains","ticketType":"STANDARD"},{"id":"2996","tribuneTheaterId":"5191","providerTheaterId":"2587","name":"AMC Loews Waterfront 22","address":"300 Waterfront Dr.","city":"West Homestead","state":"PA","zip":"15120","distance":6.2316111830995,"lon":"-79.918381","lat":"40.406554","theaterChainName":"AMC Theatres","ticketType":"STANDARD"},{"id":"5560","tribuneTheaterId":"11007","providerTheaterId":"","name":"Cinemark North Hills and XD","address":"851 Providence Blvd","city":"Pittsburgh","state":"PA","zip":"15237","distance":7.396832770499,"lon":"-80.018865","lat":"40.56988","theaterChainName":"Cinemark","ticketType":"STANDARD"},{"id":"4803","tribuneTheaterId":"10060","providerTheaterId":"","name":"Cinemark Robinson Township","address":"2100 Settlers Ridge Center Drive","city":"Pittsburgh","state":"PA","zip":"15205","distance":7.3394706893563,"lon":"-80.14675","lat":"40.438888","theaterChainName":"Cinemark","ticketType":"STANDARD"},{"id":"1183","tribuneTheaterId":"2468","providerTheaterId":"","name":"Regent Square Theatre","address":"1035 S. BRADDOCK AVENUE","city":"Pittsburgh","state":"PA","zip":"15218","distance":6.4313950636133,"lon":"-79.8947","lat":"40.4337","theaterChainName":"Independent Chains","ticketType":"STANDARD"},{"id":"526","tribuneTheaterId":"6067","providerTheaterId":"","name":"Waterworks Cinema 10","address":"930 Freeport Rd.","city":"Pittsburgh","state":"PA","zip":"15238","distance":6.6009264209964,"lon":"-79.889728","lat":"40.488403","theaterChainName":"WPA\/Pittsburgh Theatres","ticketType":"STANDARD"},{"id":"1182","tribuneTheaterId":"2467","providerTheaterId":"","name":"Oaks Theatre","address":"310 Allegheny River Blvd.","city":"Oakmont","state":"PA","zip":"15139","distance":9.5420407612802,"lon":"-79.842925","lat":"40.515651","theaterChainName":"Independent Chains","ticketType":"STANDARD"},{"id":"5904","tribuneTheaterId":"11328","providerTheaterId":"","name":"Century Square Luxury Cinemas","address":"2001 Mountain View Dr.","city":"West Mifflin","state":"PA","zip":"15122","distance":8.7069308525877,"lon":"-79.94619","lat":"40.346984","theaterChainName":"Golden Star Theaters","ticketType":"STANDARD"},{"id":"2128","tribuneTheaterId":"5738","providerTheaterId":"","name":"Carmike 10 Pittsburgh","address":"700 Ft. Couch Rd.","city":"Pittsburgh","state":"PA","zip":"15241","distance":8.5744159868856,"lon":"-80.054107","lat":"40.343363","theaterChainName":"Carmike Cinemas","ticketType":"STANDARD"},{"id":"272","tribuneTheaterId":"8535","providerTheaterId":"","name":"Rave Motion Pictures Pittsburgh North 11","address":"9700 Mcknight Road","city":"Pittsburgh","state":"PA","zip":"15237","distance":8.60570020752,"lon":"-80.032665","lat":"40.586438","theaterChainName":"Cinemark","ticketType":"STANDARD"},{"id":"2637","tribuneTheaterId":"3247","providerTheaterId":"","name":"Chartiers Valley Stadium 18","address":"1025 Washington Pike","city":"Bridgeville","state":"PA","zip":"15017","distance":8.407878476518,"lon":"-80.109419","lat":"40.367238","theaterChainName":"Phoenix Theatres","ticketType":"STANDARD"},{"id":"528","tribuneTheaterId":"7906","providerTheaterId":"","name":"Carmike Galleria 6","address":"1500 Washington Rd.","city":"Mount Lebanon","state":"PA","zip":"15228","distance":7.6275626674011,"lon":"-80.051644","lat":"40.357076","theaterChainName":"Carmike Cinemas","ticketType":"STANDARD"},{"id":"524","tribuneTheaterId":"1653","providerTheaterId":"","name":"Penn Hills Cinemas","address":"76 Federal Dr.","city":"Pittsburgh","state":"PA","zip":"15235","distance":9.6665751783738,"lon":"-79.826918","lat":"40.462068","theaterChainName":"Independent Chains","ticketType":"STANDARD"},{"id":"525","tribuneTheaterId":"8595","providerTheaterId":"","name":"Carmike Southland 9","address":"629 Clairton Blvd.","city":"Pleasant Hills","state":"PA","zip":"15236","distance":9.7509032368585,"lon":"-79.94207","lat":"40.331939","theaterChainName":"Carmike Cinemas","ticketType":"STANDARD"},{"id":"6085","tribuneTheaterId":"11497","providerTheaterId":"","name":"The Tull Family Theater","address":"418 Walnut Street","city":"Sewickley","state":"PA","zip":"15143","distance":10.473267461748,"lon":"-80.182237","lat":"40.540354","theaterChainName":"Independent Chains","ticketType":"STANDARD"},{"id":"5409","tribuneTheaterId":"10846","providerTheaterId":"","name":"Cinemark Monroeville Mall","address":"200 Mall Circle Drive","city":"Monroeville","state":"PA","zip":"15146","distance":11.582061791316,"lon":"-79.795274","lat":"40.428401","theaterChainName":"Cinemark","ticketType":"STANDARD"},{"id":"2574","tribuneTheaterId":"3249","providerTheaterId":"","name":"North Versailles Stadium 18","address":"1701 Lincoln Highway","city":"North Versailles","state":"PA","zip":"15137","distance":13.432557099628,"lon":"-79.785064","lat":"40.372118","theaterChainName":"Phoenix Theatres","ticketType":"STANDARD"},{"id":"4067","tribuneTheaterId":"4205","providerTheaterId":"","name":"Cinemark Galleria at Pittsburgh Mills and IMAX","address":"425 Pittsburgh Mills Circle","city":"Tarentum","state":"PA","zip":"15084","distance":13.669274623348,"lon":"-79.795654","lat":"40.574312","theaterChainName":"Cinemark","ticketType":"STANDARD"},{"id":"1180","tribuneTheaterId":"2466","providerTheaterId":"","name":"Ambridge Family Theatre","address":"645 Merchant Street","city":"Ambridge","state":"PA","zip":"15003","distance":14.28368764559,"lon":"-80.22819","lat":"40.587227","theaterChainName":"Independent Chains","ticketType":"STANDARD"},{"id":"5126","tribuneTheaterId":"10532","providerTheaterId":"","name":"Cranberry Cinemas","address":"20111 Route 19","city":"Cranberry Township","state":"PA","zip":"16066","distance":15.978815497565,"lon":"-80.105331","lat":"40.682835","theaterChainName":"WPA\/Pittsburgh Theatres","ticketType":"STANDARD"},{"id":"3557","tribuneTheaterId":"2240","providerTheaterId":"","name":"South Pike Cinemas","address":"718 South Pike Road","city":"Sarver","state":"PA","zip":"16055","distance":22.23138897183,"lon":"-79.72405","lat":"40.699855","theaterChainName":"Carmike Cinemas","ticketType":"STANDARD"},{"id":"3879","tribuneTheaterId":"4203","providerTheaterId":"","name":"Cinemark Center Township Marketplace","address":"99 Wagner Road","city":"Monaca","state":"PA","zip":"15061","distance":21.710995678839,"lon":"-80.307827","lat":"40.681714","theaterChainName":"Cinemark","ticketType":"STANDARD"},{"id":"2832","tribuneTheaterId":"7281","providerTheaterId":"","name":"Carmike Wynnsong 12 Delmont","address":"401 Vine St","city":"Delmont","state":"PA","zip":"15626","distance":22.803062470786,"lon":"-79.585548","lat":"40.398642","theaterChainName":"Carmike Cinemas","ticketType":"STANDARD"}]