[{"id":"3063","name":"Regal Crown Center Stadium 14 ","address":"1500 West Chestnut St.","city":"Washington","state":"PA","zip":"15301","distance":"21.711284637451172","lon":"-80.275810","lat":"40.157738","theaterChainName":"Regal Cinemas","ticketType":"STANDARD"},{"id":"1663","name":"Carmike 6 Uniontown","address":"1372 W Main St","city":"Uniontown","state":"PA","zip":"15401","distance":"12.066021919250488","lon":"-79.746696","lat":"39.907795","theaterChainName":"Carmike Cinemas","ticketType":"STANDARD"},{"id":"2244","name":"Carmike Laurel Mall 4","address":"1952 University Dr","city":"Connellsville","state":"PA","zip":"15425","distance":"21.220468521118164","lon":"-79.579903","lat":"40.028198","theaterChainName":"Carmike Cinemas","ticketType":"STANDARD"},{"id":"4124","name":"Regal Stadium 12 Morgantown","address":"1001 Mountaineer Dr.","city":"Morgantown","state":"WV","zip":"26501","distance":"20.634449005126953","lon":"-80.000412","lat":"39.652637","theaterChainName":"Regal Cinemas","ticketType":"STANDARD"},{"id":"2247","name":"Carmike Morgantown Mall 12","address":"1001 Mountaineer Dr.","city":"Morgantown","state":"WV","zip":"26501","distance":"22.401214599609375","lon":"-79.998901","lat":"39.626896","theaterChainName":"Carmike Cinemas","ticketType":"STANDARD"}]