[{"id":"3063","tribuneTheaterId":"8447","providerTheaterId":"","name":"Regal Crown Center Stadium 14 ","address":"1500 West Chestnut St.","city":"Washington","state":"PA","zip":"15301","distance":5.4062830984944,"lon":"-80.275812","lat":"40.157739","theaterChainName":"Regal Cinemas","ticketType":"STANDARD"},{"id":"4646","tribuneTheaterId":"9845","providerTheaterId":"","name":"Marquee Cinemas Highlands 14","address":"150 Sims Circle","city":"Triadelphia","state":"WV","zip":"26059","distance":13.818590874479,"lon":"-80.6134","lat":"40.0738","theaterChainName":"Marquee Cinemas","ticketType":"STANDARD"},{"id":"2235","tribuneTheaterId":"5752","providerTheaterId":"","name":"Carmike 6 Steubenville","address":"100 Mall Dr","city":"Steubenville","state":"OH","zip":"43952","distance":21.010727205122,"lon":"-80.667702","lat":"40.369999","theaterChainName":"Carmike Cinemas","ticketType":"STANDARD"},{"id":"2637","tribuneTheaterId":"3247","providerTheaterId":"","name":"Chartiers Valley Stadium 18","address":"1025 Washington Pike","city":"Bridgeville","state":"PA","zip":"15017","distance":20.087882012096,"lon":"-80.109419","lat":"40.367238","theaterChainName":"Phoenix Theatres","ticketType":"STANDARD"},{"id":"2128","tribuneTheaterId":"5738","providerTheaterId":"","name":"Carmike 10 Pittsburgh","address":"700 Ft. Couch Rd.","city":"Pittsburgh","state":"PA","zip":"15241","distance":21.224571356514,"lon":"-80.054107","lat":"40.343363","theaterChainName":"Carmike Cinemas","ticketType":"STANDARD"},{"id":"528","tribuneTheaterId":"7906","providerTheaterId":"","name":"Carmike Galleria 6","address":"1500 Washington Rd.","city":"Mount Lebanon","state":"PA","zip":"15228","distance":21.900644791755,"lon":"-80.051644","lat":"40.357076","theaterChainName":"Carmike Cinemas","ticketType":"STANDARD"},{"id":"4803","tribuneTheaterId":"10060","providerTheaterId":"","name":"Cinemark Robinson Township","address":"2100 Settlers Ridge Center Drive","city":"Pittsburgh","state":"PA","zip":"15205","distance":22.737703437379,"lon":"-80.14675","lat":"40.438888","theaterChainName":"Cinemark","ticketType":"STANDARD"}]