[{"id":"1183","name":"Regent Square Theatre","address":"1035 S. BRADDOCK AVENUE","city":"Pittsburgh","state":"PA","zip":"15218","distance":"19.62699317932129","lon":"-79.894699","lat":"40.433701","theaterChainName":"Independent Chains","ticketType":"STANDARD"},{"id":"4803","name":"Cinemark Robinson Township","address":"2100 Settlers Ridge Center Drive","city":"Pittsburgh","state":"PA","zip":"15205","distance":"21.54611587524414","lon":"-80.146751","lat":"40.438889","theaterChainName":"Cinemark","ticketType":"STANDARD"},{"id":"2637","name":"Chartiers Valley Stadium 18","address":"1025 Washington Pike","city":"Bridgeville","state":"PA","zip":"15017","distance":"16.231964111328125","lon":"-80.109421","lat":"40.367237","theaterChainName":"Phoenix Theatres","ticketType":"STANDARD"},{"id":"2295","name":"Pittsburgh Harris Theater","address":"803 Liberty Aveue","city":"Pittsburgh","state":"PA","zip":"15222","distance":"19.847946166992188","lon":"-79.998474","lat":"40.442848","theaterChainName":"Independent Chains","ticketType":"STANDARD"},{"id":"5525","name":"Row House Cinema","address":"4115 Butler Street","city":"Pittsburgh","state":"PA","zip":"15201","distance":"21.694435119628906","lon":"-79.961227","lat":"40.470013","theaterChainName":"Independent Chains","ticketType":"STANDARD"},{"id":"528","name":"Carmike Galleria 6","address":"1500 Washington Rd.","city":"Mount Lebanon","state":"PA","zip":"15228","distance":"14.468266487121582","lon":"-80.051643","lat":"40.357075","theaterChainName":"Carmike Cinemas","ticketType":"STANDARD"},{"id":"2128","name":"Carmike 10 Pittsburgh","address":"700 Ft. Couch Rd.","city":"Pittsburgh","state":"PA","zip":"15241","distance":"13.601922988891602","lon":"-80.054108","lat":"40.343365","theaterChainName":"Carmike Cinemas","ticketType":"STANDARD"},{"id":"3901","name":"SouthSide Works Cinema","address":"425 Cinema Drive","city":"Pittsburgh","state":"PA","zip":"15203","distance":"18.779325485229492","lon":"-79.965256","lat":"40.427895","theaterChainName":"Independent Chains","ticketType":"STANDARD"},{"id":"527","name":"Manor Theatre","address":"1729 Murray Ave.","city":"Pittsburgh","state":"PA","zip":"15217","distance":"19.60044288635254","lon":"-79.922760","lat":"40.437138","theaterChainName":"Independent Chains","ticketType":"STANDARD"},{"id":"526","name":"Waterworks Cinema 10","address":"930 Freeport Rd.","city":"Pittsburgh","state":"PA","zip":"15238","distance":"23.381803512573242","lon":"-79.889725","lat":"40.488403","theaterChainName":"WPA\/Pittsburgh Theatres","ticketType":"STANDARD"},{"id":"2996","name":"AMC Loews Waterfront 22","address":"300 Waterfront Dr.","city":"West Homestead","state":"PA","zip":"15120","distance":"17.547340393066406","lon":"-79.918381","lat":"40.406555","theaterChainName":"AMC Theatres","ticketType":"STANDARD"},{"id":"5904","name":"Century Square Luxury Cinemas","address":"2001 Mountain View Dr.","city":"West Mifflin","state":"PA","zip":"15122","distance":"13.265230178833008","lon":"-79.946190","lat":"40.346985","theaterChainName":"Golden Star Theaters","ticketType":"STANDARD"},{"id":"525","name":"Carmike Southland 9","address":"629 Clairton Blvd.","city":"Pleasant Hills","state":"PA","zip":"15236","distance":"12.26081371307373","lon":"-79.942070","lat":"40.331940","theaterChainName":"Carmike Cinemas","ticketType":"STANDARD"},{"id":"524","name":"Penn Hills Cinemas","address":"76 Federal Dr.","city":"Pittsburgh","state":"PA","zip":"15235","distance":"22.51429557800293","lon":"-79.826920","lat":"40.462067","theaterChainName":"Independent Chains","ticketType":"STANDARD"},{"id":"3063","name":"Regal Crown Center Stadium 14 ","address":"1500 West Chestnut St.","city":"Washington","state":"PA","zip":"15301","distance":"15.92850399017334","lon":"-80.275810","lat":"40.157738","theaterChainName":"Regal Cinemas","ticketType":"STANDARD"},{"id":"5409","name":"Cinemark Monroeville Mall","address":"200 Mall Circle Drive","city":"Monroeville","state":"PA","zip":"15146","distance":"21.040090560913086","lon":"-79.795273","lat":"40.428402","theaterChainName":"Cinemark","ticketType":"STANDARD"},{"id":"2574","name":"North Versailles Stadium 18","address":"1701 Lincoln Highway","city":"North Versailles","state":"PA","zip":"15137","distance":"17.94542694091797","lon":"-79.785065","lat":"40.372120","theaterChainName":"Phoenix Theatres","ticketType":"STANDARD"},{"id":"1663","name":"Carmike 6 Uniontown","address":"1372 W Main St","city":"Uniontown","state":"PA","zip":"15401","distance":"20.96388053894043","lon":"-79.746696","lat":"39.907795","theaterChainName":"Carmike Cinemas","ticketType":"STANDARD"},{"id":"2244","name":"Carmike Laurel Mall 4","address":"1952 University Dr","city":"Connellsville","state":"PA","zip":"15425","distance":"22.641498565673828","lon":"-79.579903","lat":"40.028198","theaterChainName":"Carmike Cinemas","ticketType":"STANDARD"}]