[{"id":"4803","name":"Cinemark Robinson Township","address":"2100 Settlers Ridge Center Drive","city":"Pittsburgh","state":"PA","zip":"15205","distance":"22.739124298095703","lon":"-80.146751","lat":"40.438889","theaterChainName":"Cinemark","ticketType":"STANDARD"},{"id":"2637","name":"Chartiers Valley Stadium 18","address":"1025 Washington Pike","city":"Bridgeville","state":"PA","zip":"15017","distance":"20.088998794555664","lon":"-80.109421","lat":"40.367237","theaterChainName":"Phoenix Theatres","ticketType":"STANDARD"},{"id":"528","name":"Carmike Galleria 6","address":"1500 Washington Rd.","city":"Mount Lebanon","state":"PA","zip":"15228","distance":"21.90193748474121","lon":"-80.051643","lat":"40.357075","theaterChainName":"Carmike Cinemas","ticketType":"STANDARD"},{"id":"2128","name":"Carmike 10 Pittsburgh","address":"700 Ft. Couch Rd.","city":"Pittsburgh","state":"PA","zip":"15241","distance":"21.225887298583984","lon":"-80.054108","lat":"40.343365","theaterChainName":"Carmike Cinemas","ticketType":"STANDARD"},{"id":"3063","name":"Regal Crown Center Stadium 14 ","address":"1500 West Chestnut St.","city":"Washington","state":"PA","zip":"15301","distance":"5.406579971313477","lon":"-80.275810","lat":"40.157738","theaterChainName":"Regal Cinemas","ticketType":"STANDARD"},{"id":"2235","name":"Carmike 6 Steubenville","address":"100 Mall Dr","city":"Steubenville","state":"OH","zip":"43952","distance":"21.012182235717773","lon":"-80.667702","lat":"40.369999","theaterChainName":"Carmike Cinemas","ticketType":"STANDARD"},{"id":"4646","name":"Marquee Cinemas Highlands 14","address":"150 Sims Circle","city":"Triadelphia","state":"WV","zip":"26059","distance":"13.819703102111816","lon":"-80.613403","lat":"40.073799","theaterChainName":"Marquee Cinemas","ticketType":"STANDARD"}]