[{"id":"1663","tribuneTheaterId":"4727","providerTheaterId":"","name":"Carmike 6 Uniontown","address":"1372 W Main St","city":"Uniontown","state":"PA","zip":"15401","distance":14.986990516109,"lon":"-79.746693","lat":"39.907795","theaterChainName":"Carmike Cinemas","ticketType":"STANDARD"},{"id":"2244","tribuneTheaterId":"4726","providerTheaterId":"","name":"Carmike Laurel Mall 4","address":"1952 University Dr","city":"Connellsville","state":"PA","zip":"15425","distance":20.164056971892,"lon":"-79.579903","lat":"40.028198","theaterChainName":"Carmike Cinemas","ticketType":"STANDARD"},{"id":"1898","tribuneTheaterId":"2108","providerTheaterId":"","name":"Garrett 8","address":"19741 Garrett Highway","city":"Oakland","state":"MD","zip":"21550","distance":20.741854907127,"lon":"-79.327206","lat":"39.503809","theaterChainName":"Independent Chains","ticketType":"STANDARD"},{"id":"4124","tribuneTheaterId":"5134","providerTheaterId":"","name":"Regal Stadium 12 Morgantown","address":"1001 Mountaineer Dr.","city":"Morgantown","state":"WV","zip":"26501","distance":23.417798622582,"lon":"-80.000414","lat":"39.652636","theaterChainName":"Regal Cinemas","ticketType":"STANDARD"},{"id":"2247","tribuneTheaterId":"4808","providerTheaterId":"","name":"Carmike Morgantown Mall 12","address":"1001 Mountaineer Dr.","city":"Morgantown","state":"WV","zip":"26501","distance":23.847189568094,"lon":"-79.998901","lat":"39.626896","theaterChainName":"Carmike Cinemas","ticketType":"STANDARD"}]