[{"id":"2128","name":"Carmike 10 Pittsburgh","address":"700 Ft. Couch Rd.","city":"Pittsburgh","state":"PA","zip":"15241","distance":"24.202648162841797","lon":"-80.054108","lat":"40.343365","theaterChainName":"Carmike Cinemas","ticketType":"STANDARD"},{"id":"5904","name":"Century Square Luxury Cinemas","address":"2001 Mountain View Dr.","city":"West Mifflin","state":"PA","zip":"15122","distance":"24.1426944732666","lon":"-79.946190","lat":"40.346985","theaterChainName":"Golden Star Theaters","ticketType":"STANDARD"},{"id":"525","name":"Carmike Southland 9","address":"629 Clairton Blvd.","city":"Pleasant Hills","state":"PA","zip":"15236","distance":"23.120882034301758","lon":"-79.942070","lat":"40.331940","theaterChainName":"Carmike Cinemas","ticketType":"STANDARD"},{"id":"3063","name":"Regal Crown Center Stadium 14 ","address":"1500 West Chestnut St.","city":"Washington","state":"PA","zip":"15301","distance":"19.3297119140625","lon":"-80.275810","lat":"40.157738","theaterChainName":"Regal Cinemas","ticketType":"STANDARD"},{"id":"1663","name":"Carmike 6 Uniontown","address":"1372 W Main St","city":"Uniontown","state":"PA","zip":"15401","distance":"13.63305377960205","lon":"-79.746696","lat":"39.907795","theaterChainName":"Carmike Cinemas","ticketType":"STANDARD"},{"id":"2244","name":"Carmike Laurel Mall 4","address":"1952 University Dr","city":"Connellsville","state":"PA","zip":"15425","distance":"21.032180786132812","lon":"-79.579903","lat":"40.028198","theaterChainName":"Carmike Cinemas","ticketType":"STANDARD"},{"id":"4124","name":"Regal Stadium 12 Morgantown","address":"1001 Mountaineer Dr.","city":"Morgantown","state":"WV","zip":"26501","distance":"23.92119598388672","lon":"-80.000412","lat":"39.652637","theaterChainName":"Regal Cinemas","ticketType":"STANDARD"}]