[{"id":"2244","tribuneTheaterId":"4726","providerTheaterId":"","name":"Carmike Laurel Mall 4","address":"1952 University Dr","city":"Connellsville","state":"PA","zip":"15425","distance":12.126110587712,"lon":"-79.579903","lat":"40.028198","theaterChainName":"Carmike Cinemas","ticketType":"STANDARD"},{"id":"2574","tribuneTheaterId":"3249","providerTheaterId":"","name":"North Versailles Stadium 18","address":"1701 Lincoln Highway","city":"North Versailles","state":"PA","zip":"15137","distance":15.183926408072,"lon":"-79.785064","lat":"40.372118","theaterChainName":"Phoenix Theatres","ticketType":"STANDARD"},{"id":"525","tribuneTheaterId":"8595","providerTheaterId":"","name":"Carmike Southland 9","address":"629 Clairton Blvd.","city":"Pleasant Hills","state":"PA","zip":"15236","distance":16.268650966991,"lon":"-79.94207","lat":"40.331939","theaterChainName":"Carmike Cinemas","ticketType":"STANDARD"},{"id":"2664","tribuneTheaterId":"8322","providerTheaterId":"","name":"Carmike 15 Greensburg","address":"Westmoreland Mall, Rt. 30","city":"Greensburg","state":"PA","zip":"15601","distance":15.726885246124,"lon":"-79.505297","lat":"40.297486","theaterChainName":"Carmike Cinemas","ticketType":"STANDARD"},{"id":"1663","tribuneTheaterId":"4727","providerTheaterId":"","name":"Carmike 6 Uniontown","address":"1372 W Main St","city":"Uniontown","state":"PA","zip":"15401","distance":17.106979322991,"lon":"-79.746693","lat":"39.907795","theaterChainName":"Carmike Cinemas","ticketType":"STANDARD"},{"id":"5904","tribuneTheaterId":"11328","providerTheaterId":"","name":"Century Square Luxury Cinemas","address":"2001 Mountain View Dr.","city":"West Mifflin","state":"PA","zip":"15122","distance":17.199367858519,"lon":"-79.94619","lat":"40.346984","theaterChainName":"Golden Star Theaters","ticketType":"STANDARD"},{"id":"2832","tribuneTheaterId":"7281","providerTheaterId":"","name":"Carmike Wynnsong 12 Delmont","address":"401 Vine St","city":"Delmont","state":"PA","zip":"15626","distance":18.637400109467,"lon":"-79.585548","lat":"40.398642","theaterChainName":"Carmike Cinemas","ticketType":"STANDARD"},{"id":"5409","tribuneTheaterId":"10846","providerTheaterId":"","name":"Cinemark Monroeville Mall","address":"200 Mall Circle Drive","city":"Monroeville","state":"PA","zip":"15146","distance":19.108512311974,"lon":"-79.795274","lat":"40.428401","theaterChainName":"Cinemark","ticketType":"STANDARD"},{"id":"2996","tribuneTheaterId":"5191","providerTheaterId":"2587","name":"AMC Loews Waterfront 22","address":"300 Waterfront Dr.","city":"West Homestead","state":"PA","zip":"15120","distance":19.790607753626,"lon":"-79.918381","lat":"40.406554","theaterChainName":"AMC Theatres","ticketType":"STANDARD"},{"id":"528","tribuneTheaterId":"7906","providerTheaterId":"","name":"Carmike Galleria 6","address":"1500 Washington Rd.","city":"Mount Lebanon","state":"PA","zip":"15228","distance":21.626386733437,"lon":"-80.051644","lat":"40.357076","theaterChainName":"Carmike Cinemas","ticketType":"STANDARD"},{"id":"4692","tribuneTheaterId":"9902","providerTheaterId":"","name":"Latrobe 30 Theatre & Cafe","address":"315 Latrobe 30 Shoppes","city":"Latrobe","state":"PA","zip":"15650","distance":21.006646261427,"lon":"-79.385101","lat":"40.296001","theaterChainName":"Independent Chains","ticketType":"STANDARD"},{"id":"1183","tribuneTheaterId":"2468","providerTheaterId":"","name":"Regent Square Theatre","address":"1035 S. BRADDOCK AVENUE","city":"Pittsburgh","state":"PA","zip":"15218","distance":20.931192825084,"lon":"-79.8947","lat":"40.4337","theaterChainName":"Independent Chains","ticketType":"STANDARD"},{"id":"2128","tribuneTheaterId":"5738","providerTheaterId":"","name":"Carmike 10 Pittsburgh","address":"700 Ft. Couch Rd.","city":"Pittsburgh","state":"PA","zip":"15241","distance":21.131674574385,"lon":"-80.054107","lat":"40.343363","theaterChainName":"Carmike Cinemas","ticketType":"STANDARD"},{"id":"3901","tribuneTheaterId":"2262","providerTheaterId":"","name":"SouthSide Works Cinema","address":"425 Cinema Drive","city":"Pittsburgh","state":"PA","zip":"15203","distance":22.316994759191,"lon":"-79.965255","lat":"40.427893","theaterChainName":"Independent Chains","ticketType":"STANDARD"},{"id":"527","tribuneTheaterId":"6048","providerTheaterId":"","name":"Manor Theatre","address":"1729 Murray Ave.","city":"Pittsburgh","state":"PA","zip":"15217","distance":21.76918314357,"lon":"-79.922761","lat":"40.437137","theaterChainName":"Independent Chains","ticketType":"STANDARD"},{"id":"524","tribuneTheaterId":"1653","providerTheaterId":"","name":"Penn Hills Cinemas","address":"76 Federal Dr.","city":"Pittsburgh","state":"PA","zip":"15235","distance":21.706067602301,"lon":"-79.826918","lat":"40.462068","theaterChainName":"Independent Chains","ticketType":"STANDARD"},{"id":"2637","tribuneTheaterId":"3247","providerTheaterId":"","name":"Chartiers Valley Stadium 18","address":"1025 Washington Pike","city":"Bridgeville","state":"PA","zip":"15017","distance":24.448454373165,"lon":"-80.109419","lat":"40.367238","theaterChainName":"Phoenix Theatres","ticketType":"STANDARD"},{"id":"2295","tribuneTheaterId":"2522","providerTheaterId":"","name":"Pittsburgh Harris Theater","address":"803 Liberty Aveue","city":"Pittsburgh","state":"PA","zip":"15222","distance":24.145037281487,"lon":"-79.998477","lat":"40.442848","theaterChainName":"Independent Chains","ticketType":"STANDARD"},{"id":"5525","tribuneTheaterId":"10954","providerTheaterId":"","name":"Row House Cinema","address":"4115 Butler Street","city":"Pittsburgh","state":"PA","zip":"15201","distance":24.718654451075,"lon":"-79.961225","lat":"40.470012","theaterChainName":"Independent Chains","ticketType":"STANDARD"},{"id":"526","tribuneTheaterId":"6067","providerTheaterId":"","name":"Waterworks Cinema 10","address":"930 Freeport Rd.","city":"Pittsburgh","state":"PA","zip":"15238","distance":24.361820237984,"lon":"-79.889728","lat":"40.488403","theaterChainName":"WPA\/Pittsburgh Theatres","ticketType":"STANDARD"}]