[{"id":"1663","tribuneTheaterId":"4727","providerTheaterId":"","name":"Carmike 6 Uniontown","address":"1372 W Main St","city":"Uniontown","state":"PA","zip":"15401","distance":13.260257583401,"lon":"-79.746693","lat":"39.907795","theaterChainName":"Carmike Cinemas","ticketType":"STANDARD"},{"id":"2244","tribuneTheaterId":"4726","providerTheaterId":"","name":"Carmike Laurel Mall 4","address":"1952 University Dr","city":"Connellsville","state":"PA","zip":"15425","distance":14.775620325937,"lon":"-79.579903","lat":"40.028198","theaterChainName":"Carmike Cinemas","ticketType":"STANDARD"},{"id":"525","tribuneTheaterId":"8595","providerTheaterId":"","name":"Carmike Southland 9","address":"629 Clairton Blvd.","city":"Pleasant Hills","state":"PA","zip":"15236","distance":17.898152905763,"lon":"-79.94207","lat":"40.331939","theaterChainName":"Carmike Cinemas","ticketType":"STANDARD"},{"id":"5904","tribuneTheaterId":"11328","providerTheaterId":"","name":"Century Square Luxury Cinemas","address":"2001 Mountain View Dr.","city":"West Mifflin","state":"PA","zip":"15122","distance":18.957655473294,"lon":"-79.94619","lat":"40.346984","theaterChainName":"Golden Star Theaters","ticketType":"STANDARD"},{"id":"2574","tribuneTheaterId":"3249","providerTheaterId":"","name":"North Versailles Stadium 18","address":"1701 Lincoln Highway","city":"North Versailles","state":"PA","zip":"15137","distance":20.295820345293,"lon":"-79.785064","lat":"40.372118","theaterChainName":"Phoenix Theatres","ticketType":"STANDARD"},{"id":"2128","tribuneTheaterId":"5738","providerTheaterId":"","name":"Carmike 10 Pittsburgh","address":"700 Ft. Couch Rd.","city":"Pittsburgh","state":"PA","zip":"15241","distance":20.987503521464,"lon":"-80.054107","lat":"40.343363","theaterChainName":"Carmike Cinemas","ticketType":"STANDARD"},{"id":"528","tribuneTheaterId":"7906","providerTheaterId":"","name":"Carmike Galleria 6","address":"1500 Washington Rd.","city":"Mount Lebanon","state":"PA","zip":"15228","distance":21.741908932092,"lon":"-80.051644","lat":"40.357076","theaterChainName":"Carmike Cinemas","ticketType":"STANDARD"},{"id":"2637","tribuneTheaterId":"3247","providerTheaterId":"","name":"Chartiers Valley Stadium 18","address":"1025 Washington Pike","city":"Bridgeville","state":"PA","zip":"15017","distance":23.956565780061,"lon":"-80.109419","lat":"40.367238","theaterChainName":"Phoenix Theatres","ticketType":"STANDARD"},{"id":"5409","tribuneTheaterId":"10846","providerTheaterId":"","name":"Cinemark Monroeville Mall","address":"200 Mall Circle Drive","city":"Monroeville","state":"PA","zip":"15146","distance":24.066798448732,"lon":"-79.795274","lat":"40.428401","theaterChainName":"Cinemark","ticketType":"STANDARD"},{"id":"2664","tribuneTheaterId":"8322","providerTheaterId":"","name":"Carmike 15 Greensburg","address":"Westmoreland Mall, Rt. 30","city":"Greensburg","state":"PA","zip":"15601","distance":23.48705558112,"lon":"-79.505297","lat":"40.297486","theaterChainName":"Carmike Cinemas","ticketType":"STANDARD"},{"id":"3063","tribuneTheaterId":"8447","providerTheaterId":"","name":"Regal Crown Center Stadium 14 ","address":"1500 West Chestnut St.","city":"Washington","state":"PA","zip":"15301","distance":23.083957290345,"lon":"-80.275812","lat":"40.157739","theaterChainName":"Regal Cinemas","ticketType":"STANDARD"},{"id":"2996","tribuneTheaterId":"5191","providerTheaterId":"2587","name":"AMC Loews Waterfront 22","address":"300 Waterfront Dr.","city":"West Homestead","state":"PA","zip":"15120","distance":22.670870266764,"lon":"-79.918381","lat":"40.406554","theaterChainName":"AMC Theatres","ticketType":"STANDARD"},{"id":"527","tribuneTheaterId":"6048","providerTheaterId":"","name":"Manor Theatre","address":"1729 Murray Ave.","city":"Pittsburgh","state":"PA","zip":"15217","distance":24.793914002561,"lon":"-79.922761","lat":"40.437137","theaterChainName":"Independent Chains","ticketType":"STANDARD"},{"id":"1183","tribuneTheaterId":"2468","providerTheaterId":"","name":"Regent Square Theatre","address":"1035 S. BRADDOCK AVENUE","city":"Pittsburgh","state":"PA","zip":"15218","distance":24.372377559491,"lon":"-79.8947","lat":"40.4337","theaterChainName":"Independent Chains","ticketType":"STANDARD"},{"id":"3901","tribuneTheaterId":"2262","providerTheaterId":"","name":"SouthSide Works Cinema","address":"425 Cinema Drive","city":"Pittsburgh","state":"PA","zip":"15203","distance":24.618036055422,"lon":"-79.965255","lat":"40.427893","theaterChainName":"Independent Chains","ticketType":"STANDARD"}]