[{"id":"3557","tribuneTheaterId":"2240","providerTheaterId":"","name":"South Pike Cinemas","address":"718 South Pike Road","city":"Sarver","state":"PA","zip":"16055","distance":8.4851558801867,"lon":"-79.72405","lat":"40.699855","theaterChainName":"Carmike Cinemas","ticketType":"STANDARD"},{"id":"4067","tribuneTheaterId":"4205","providerTheaterId":"","name":"Cinemark Galleria at Pittsburgh Mills and IMAX","address":"425 Pittsburgh Mills Circle","city":"Tarentum","state":"PA","zip":"15084","distance":11.484575471812,"lon":"-79.795654","lat":"40.574312","theaterChainName":"Cinemark","ticketType":"STANDARD"},{"id":"2832","tribuneTheaterId":"7281","providerTheaterId":"","name":"Carmike Wynnsong 12 Delmont","address":"401 Vine St","city":"Delmont","state":"PA","zip":"15626","distance":16.06291769756,"lon":"-79.585548","lat":"40.398642","theaterChainName":"Carmike Cinemas","ticketType":"STANDARD"},{"id":"1182","tribuneTheaterId":"2467","providerTheaterId":"","name":"Oaks Theatre","address":"310 Allegheny River Blvd.","city":"Oakmont","state":"PA","zip":"15139","distance":15.490748064514,"lon":"-79.842925","lat":"40.515651","theaterChainName":"Independent Chains","ticketType":"STANDARD"},{"id":"524","tribuneTheaterId":"1653","providerTheaterId":"","name":"Penn Hills Cinemas","address":"76 Federal Dr.","city":"Pittsburgh","state":"PA","zip":"15235","distance":17.066104706682,"lon":"-79.826918","lat":"40.462068","theaterChainName":"Independent Chains","ticketType":"STANDARD"},{"id":"5409","tribuneTheaterId":"10846","providerTheaterId":"","name":"Cinemark Monroeville Mall","address":"200 Mall Circle Drive","city":"Monroeville","state":"PA","zip":"15146","distance":17.676746544985,"lon":"-79.795274","lat":"40.428401","theaterChainName":"Cinemark","ticketType":"STANDARD"},{"id":"526","tribuneTheaterId":"6067","providerTheaterId":"","name":"Waterworks Cinema 10","address":"930 Freeport Rd.","city":"Pittsburgh","state":"PA","zip":"15238","distance":18.571784086213,"lon":"-79.889728","lat":"40.488403","theaterChainName":"WPA\/Pittsburgh Theatres","ticketType":"STANDARD"},{"id":"2243","tribuneTheaterId":"6813","providerTheaterId":"","name":"Carmike 4 Indiana","address":"2334 Oakland Ave. Ste. 4","city":"Indiana","state":"PA","zip":"15701","distance":21.469317576298,"lon":"-79.181801","lat":"40.606701","theaterChainName":"Carmike Cinemas","ticketType":"STANDARD"},{"id":"1183","tribuneTheaterId":"2468","providerTheaterId":"","name":"Regent Square Theatre","address":"1035 S. BRADDOCK AVENUE","city":"Pittsburgh","state":"PA","zip":"15218","distance":21.02898483198,"lon":"-79.8947","lat":"40.4337","theaterChainName":"Independent Chains","ticketType":"STANDARD"},{"id":"2574","tribuneTheaterId":"3249","providerTheaterId":"","name":"North Versailles Stadium 18","address":"1701 Lincoln Highway","city":"North Versailles","state":"PA","zip":"15137","distance":20.623419183642,"lon":"-79.785064","lat":"40.372118","theaterChainName":"Phoenix Theatres","ticketType":"STANDARD"},{"id":"272","tribuneTheaterId":"8535","providerTheaterId":"","name":"Rave Motion Pictures Pittsburgh North 11","address":"9700 Mcknight Road","city":"Pittsburgh","state":"PA","zip":"15237","distance":23.428737736043,"lon":"-80.032665","lat":"40.586438","theaterChainName":"Cinemark","ticketType":"STANDARD"},{"id":"5560","tribuneTheaterId":"11007","providerTheaterId":"","name":"Cinemark North Hills and XD","address":"851 Providence Blvd","city":"Pittsburgh","state":"PA","zip":"15237","distance":22.897640711077,"lon":"-80.018865","lat":"40.56988","theaterChainName":"Cinemark","ticketType":"STANDARD"},{"id":"5525","tribuneTheaterId":"10954","providerTheaterId":"","name":"Row House Cinema","address":"4115 Butler Street","city":"Pittsburgh","state":"PA","zip":"15201","distance":22.447857189235,"lon":"-79.961225","lat":"40.470012","theaterChainName":"Independent Chains","ticketType":"STANDARD"},{"id":"527","tribuneTheaterId":"6048","providerTheaterId":"","name":"Manor Theatre","address":"1729 Murray Ave.","city":"Pittsburgh","state":"PA","zip":"15217","distance":22.025555339419,"lon":"-79.922761","lat":"40.437137","theaterChainName":"Independent Chains","ticketType":"STANDARD"},{"id":"2664","tribuneTheaterId":"8322","providerTheaterId":"","name":"Carmike 15 Greensburg","address":"Westmoreland Mall, Rt. 30","city":"Greensburg","state":"PA","zip":"15601","distance":23.475597888856,"lon":"-79.505297","lat":"40.297486","theaterChainName":"Carmike Cinemas","ticketType":"STANDARD"},{"id":"2996","tribuneTheaterId":"5191","providerTheaterId":"2587","name":"AMC Loews Waterfront 22","address":"300 Waterfront Dr.","city":"West Homestead","state":"PA","zip":"15120","distance":23.20291204673,"lon":"-79.918381","lat":"40.406554","theaterChainName":"AMC Theatres","ticketType":"STANDARD"},{"id":"3901","tribuneTheaterId":"2262","providerTheaterId":"","name":"SouthSide Works Cinema","address":"425 Cinema Drive","city":"Pittsburgh","state":"PA","zip":"15203","distance":24.201093471127,"lon":"-79.965255","lat":"40.427893","theaterChainName":"Independent Chains","ticketType":"STANDARD"}]