[{"id":"4692","tribuneTheaterId":"9902","providerTheaterId":"","name":"Latrobe 30 Theatre & Cafe","address":"315 Latrobe 30 Shoppes","city":"Latrobe","state":"PA","zip":"15650","distance":1.3486104029667,"lon":"-79.385101","lat":"40.296001","theaterChainName":"Independent Chains","ticketType":"STANDARD"},{"id":"2664","tribuneTheaterId":"8322","providerTheaterId":"","name":"Carmike 15 Greensburg","address":"Westmoreland Mall, Rt. 30","city":"Greensburg","state":"PA","zip":"15601","distance":5.0176294811068,"lon":"-79.505297","lat":"40.297486","theaterChainName":"Carmike Cinemas","ticketType":"STANDARD"},{"id":"2832","tribuneTheaterId":"7281","providerTheaterId":"","name":"Carmike Wynnsong 12 Delmont","address":"401 Vine St","city":"Delmont","state":"PA","zip":"15626","distance":11.783337236339,"lon":"-79.585548","lat":"40.398642","theaterChainName":"Carmike Cinemas","ticketType":"STANDARD"},{"id":"2574","tribuneTheaterId":"3249","providerTheaterId":"","name":"North Versailles Stadium 18","address":"1701 Lincoln Highway","city":"North Versailles","state":"PA","zip":"15137","distance":20.489178354547,"lon":"-79.785064","lat":"40.372118","theaterChainName":"Phoenix Theatres","ticketType":"STANDARD"},{"id":"2244","tribuneTheaterId":"4726","providerTheaterId":"","name":"Carmike Laurel Mall 4","address":"1952 University Dr","city":"Connellsville","state":"PA","zip":"15425","distance":20.345493549594,"lon":"-79.579903","lat":"40.028198","theaterChainName":"Carmike Cinemas","ticketType":"STANDARD"},{"id":"5409","tribuneTheaterId":"10846","providerTheaterId":"","name":"Cinemark Monroeville Mall","address":"200 Mall Circle Drive","city":"Monroeville","state":"PA","zip":"15146","distance":22.334625639809,"lon":"-79.795274","lat":"40.428401","theaterChainName":"Cinemark","ticketType":"STANDARD"},{"id":"2766","tribuneTheaterId":"1214","providerTheaterId":"","name":"Westwood Plaza Theatre","address":"1910 Minno Dr.","city":"Johnstown","state":"PA","zip":"15905","distance":23.907537516091,"lon":"-78.958406","lat":"40.323864","theaterChainName":"Independent Chains","ticketType":"STANDARD"},{"id":"2243","tribuneTheaterId":"6813","providerTheaterId":"","name":"Carmike 4 Indiana","address":"2334 Oakland Ave. Ste. 4","city":"Indiana","state":"PA","zip":"15701","distance":24.805770672158,"lon":"-79.181801","lat":"40.606701","theaterChainName":"Carmike Cinemas","ticketType":"STANDARD"},{"id":"524","tribuneTheaterId":"1653","providerTheaterId":"","name":"Penn Hills Cinemas","address":"76 Federal Dr.","city":"Pittsburgh","state":"PA","zip":"15235","distance":24.858938119609,"lon":"-79.826918","lat":"40.462068","theaterChainName":"Independent Chains","ticketType":"STANDARD"}]