[{"id":"2127","tribuneTheaterId":"7280","providerTheaterId":"","name":"Carmike Park Hills Plaza 7","address":"208 Park Hills Plaza","city":"Altoona","state":"PA","zip":"16602","distance":22.247766151426,"lon":"-78.406259","lat":"40.468867","theaterChainName":"Carmike Cinemas","ticketType":"STANDARD"},{"id":"2243","tribuneTheaterId":"6813","providerTheaterId":"","name":"Carmike 4 Indiana","address":"2334 Oakland Ave. Ste. 4","city":"Indiana","state":"PA","zip":"15701","distance":21.727274207392,"lon":"-79.181801","lat":"40.606701","theaterChainName":"Carmike Cinemas","ticketType":"STANDARD"},{"id":"1635","tribuneTheaterId":"7431","providerTheaterId":"","name":"Carmike 8 Altoona","address":"600 Logan Valley Mall","city":"Altoona","state":"PA","zip":"16602","distance":21.887427312305,"lon":"-78.413919","lat":"40.469333","theaterChainName":"Carmike Cinemas","ticketType":"STANDARD"},{"id":"5774","tribuneTheaterId":"11214","providerTheaterId":"","name":"Carmike 12 Altoona","address":"234 Convention Center Drive","city":"Altoona","state":"PA","zip":"16602","distance":22.927055389381,"lon":"-78.400136","lat":"40.457728","theaterChainName":"Carmike Cinemas","ticketType":"STANDARD"},{"id":"2766","tribuneTheaterId":"1214","providerTheaterId":"","name":"Westwood Plaza Theatre","address":"1910 Minno Dr.","city":"Johnstown","state":"PA","zip":"15905","distance":23.692040698799,"lon":"-78.958406","lat":"40.323864","theaterChainName":"Independent Chains","ticketType":"STANDARD"}]