[{"id":"2766","tribuneTheaterId":"1214","providerTheaterId":"","name":"Westwood Plaza Theatre","address":"1910 Minno Dr.","city":"Johnstown","state":"PA","zip":"15905","distance":1.4086904794754,"lon":"-78.958406","lat":"40.323864","theaterChainName":"Independent Chains","ticketType":"STANDARD"},{"id":"1920","tribuneTheaterId":"2295","providerTheaterId":"","name":"Richland Cinemas","address":"420 Theatre Drive","city":"Johnstown","state":"PA","zip":"15904","distance":5.6746564801771,"lon":"-78.844135","lat":"40.274665","theaterChainName":"Independent Chains","ticketType":"STANDARD"},{"id":"2243","tribuneTheaterId":"6813","providerTheaterId":"","name":"Carmike 4 Indiana","address":"2334 Oakland Ave. Ste. 4","city":"Indiana","state":"PA","zip":"15701","distance":24.203993631575,"lon":"-79.181801","lat":"40.606701","theaterChainName":"Carmike Cinemas","ticketType":"STANDARD"},{"id":"4692","tribuneTheaterId":"9902","providerTheaterId":"","name":"Latrobe 30 Theatre & Cafe","address":"315 Latrobe 30 Shoppes","city":"Latrobe","state":"PA","zip":"15650","distance":23.308903948877,"lon":"-79.385101","lat":"40.296001","theaterChainName":"Independent Chains","ticketType":"STANDARD"}]