[{"id":"2766","name":"Westwood Plaza Theatre","address":"1910 Minno Dr.","city":"Johnstown","state":"PA","zip":"15905","distance":"21.584083557128906","lon":"-78.958405","lat":"40.323864","theaterChainName":"Independent Chains","ticketType":"STANDARD"},{"id":"1920","name":"Richland Cinemas","address":"420 Theatre Drive","city":"Johnstown","state":"PA","zip":"15904","distance":"19.830488204956055","lon":"-78.844131","lat":"40.274666","theaterChainName":"Independent Chains","ticketType":"STANDARD"},{"id":"1635","name":"Carmike 8 Altoona","address":"600 Logan Valley Mall","city":"Altoona","state":"PA","zip":"16602","distance":"11.675568580627441","lon":"-78.413918","lat":"40.469334","theaterChainName":"Carmike Cinemas","ticketType":"STANDARD"},{"id":"2127","name":"Carmike Park Hills Plaza 7","address":"208 Park Hills Plaza","city":"Altoona","state":"PA","zip":"16602","distance":"12.074028015136719","lon":"-78.406258","lat":"40.468868","theaterChainName":"Carmike Cinemas","ticketType":"STANDARD"},{"id":"5774","name":"Carmike 12 Altoona","address":"234 Convention Center Drive","city":"Altoona","state":"PA","zip":"16602","distance":"12.588541984558105","lon":"-78.400139","lat":"40.457729","theaterChainName":"Carmike Cinemas","ticketType":"STANDARD"}]