[{"id":"624","tribuneTheaterId":"8511","providerTheaterId":"","name":"Regal Moraine Pointe Cinema Stadium 10","address":"300 Moraine Pointe Plaza","city":"Butler","state":"PA","zip":"16001","distance":17.26728392224,"lon":"-79.95339","lat":"40.873327","theaterChainName":"Regal Cinemas","ticketType":"STANDARD"},{"id":"5168","tribuneTheaterId":"10575","providerTheaterId":"","name":"Carmike Clarion 7","address":"Clarion Mall 22631","city":"Clarion","state":"PA","zip":"16214","distance":21.43686502845,"lon":"-79.366997","lat":"41.205002","theaterChainName":"Carmike Cinemas","ticketType":"STANDARD"},{"id":"6152","tribuneTheaterId":"9940","providerTheaterId":"","name":"The Movies at Cranberry","address":"6945 US 322","city":"Cranberry","state":"PA","zip":"16319","distance":20.474511397748,"lon":"-79.716185","lat":"41.353272","theaterChainName":"Independent Chains","ticketType":"STANDARD"},{"id":"3557","tribuneTheaterId":"2240","providerTheaterId":"","name":"South Pike Cinemas","address":"718 South Pike Road","city":"Sarver","state":"PA","zip":"16055","distance":24.684646764836,"lon":"-79.72405","lat":"40.699855","theaterChainName":"Carmike Cinemas","ticketType":"STANDARD"}]