[{"id":"3557","tribuneTheaterId":"2240","providerTheaterId":"","name":"South Pike Cinemas","address":"718 South Pike Road","city":"Sarver","state":"PA","zip":"16055","distance":1.3855819087307,"lon":"-79.72405","lat":"40.699855","theaterChainName":"Carmike Cinemas","ticketType":"STANDARD"},{"id":"4067","tribuneTheaterId":"4205","providerTheaterId":"","name":"Cinemark Galleria at Pittsburgh Mills and IMAX","address":"425 Pittsburgh Mills Circle","city":"Tarentum","state":"PA","zip":"15084","distance":10.067109340876,"lon":"-79.795654","lat":"40.574312","theaterChainName":"Cinemark","ticketType":"STANDARD"},{"id":"624","tribuneTheaterId":"8511","providerTheaterId":"","name":"Regal Moraine Pointe Cinema Stadium 10","address":"300 Moraine Pointe Plaza","city":"Butler","state":"PA","zip":"16001","distance":15.573489370465,"lon":"-79.95339","lat":"40.873327","theaterChainName":"Regal Cinemas","ticketType":"STANDARD"},{"id":"1182","tribuneTheaterId":"2467","providerTheaterId":"","name":"Oaks Theatre","address":"310 Allegheny River Blvd.","city":"Oakmont","state":"PA","zip":"15139","distance":14.703148248659,"lon":"-79.842925","lat":"40.515651","theaterChainName":"Independent Chains","ticketType":"STANDARD"},{"id":"524","tribuneTheaterId":"1653","providerTheaterId":"","name":"Penn Hills Cinemas","address":"76 Federal Dr.","city":"Pittsburgh","state":"PA","zip":"15235","distance":17.982913976936,"lon":"-79.826918","lat":"40.462068","theaterChainName":"Independent Chains","ticketType":"STANDARD"},{"id":"526","tribuneTheaterId":"6067","providerTheaterId":"","name":"Waterworks Cinema 10","address":"930 Freeport Rd.","city":"Pittsburgh","state":"PA","zip":"15238","distance":17.416718691364,"lon":"-79.889728","lat":"40.488403","theaterChainName":"WPA\/Pittsburgh Theatres","ticketType":"STANDARD"},{"id":"5560","tribuneTheaterId":"11007","providerTheaterId":"","name":"Cinemark North Hills and XD","address":"851 Providence Blvd","city":"Pittsburgh","state":"PA","zip":"15237","distance":17.597042179475,"lon":"-80.018865","lat":"40.56988","theaterChainName":"Cinemark","ticketType":"STANDARD"},{"id":"272","tribuneTheaterId":"8535","providerTheaterId":"","name":"Rave Motion Pictures Pittsburgh North 11","address":"9700 Mcknight Road","city":"Pittsburgh","state":"PA","zip":"15237","distance":17.594671386337,"lon":"-80.032665","lat":"40.586438","theaterChainName":"Cinemark","ticketType":"STANDARD"},{"id":"5409","tribuneTheaterId":"10846","providerTheaterId":"","name":"Cinemark Monroeville Mall","address":"200 Mall Circle Drive","city":"Monroeville","state":"PA","zip":"15146","distance":19.947666919673,"lon":"-79.795274","lat":"40.428401","theaterChainName":"Cinemark","ticketType":"STANDARD"},{"id":"5126","tribuneTheaterId":"10532","providerTheaterId":"","name":"Cranberry Cinemas","address":"20111 Route 19","city":"Cranberry Township","state":"PA","zip":"16066","distance":19.1353475136,"lon":"-80.105331","lat":"40.682835","theaterChainName":"WPA\/Pittsburgh Theatres","ticketType":"STANDARD"},{"id":"5525","tribuneTheaterId":"10954","providerTheaterId":"","name":"Row House Cinema","address":"4115 Butler Street","city":"Pittsburgh","state":"PA","zip":"15201","distance":20.413296011142,"lon":"-79.961225","lat":"40.470012","theaterChainName":"Independent Chains","ticketType":"STANDARD"},{"id":"527","tribuneTheaterId":"6048","providerTheaterId":"","name":"Manor Theatre","address":"1729 Murray Ave.","city":"Pittsburgh","state":"PA","zip":"15217","distance":21.361588205638,"lon":"-79.922761","lat":"40.437137","theaterChainName":"Independent Chains","ticketType":"STANDARD"},{"id":"1183","tribuneTheaterId":"2468","providerTheaterId":"","name":"Regent Square Theatre","address":"1035 S. BRADDOCK AVENUE","city":"Pittsburgh","state":"PA","zip":"15218","distance":20.970539333264,"lon":"-79.8947","lat":"40.4337","theaterChainName":"Independent Chains","ticketType":"STANDARD"},{"id":"2832","tribuneTheaterId":"7281","providerTheaterId":"","name":"Carmike Wynnsong 12 Delmont","address":"401 Vine St","city":"Delmont","state":"PA","zip":"15626","distance":23.312362858446,"lon":"-79.585548","lat":"40.398642","theaterChainName":"Carmike Cinemas","ticketType":"STANDARD"},{"id":"2574","tribuneTheaterId":"3249","providerTheaterId":"","name":"North Versailles Stadium 18","address":"1701 Lincoln Highway","city":"North Versailles","state":"PA","zip":"15137","distance":23.748367844797,"lon":"-79.785064","lat":"40.372118","theaterChainName":"Phoenix Theatres","ticketType":"STANDARD"},{"id":"2295","tribuneTheaterId":"2522","providerTheaterId":"","name":"Pittsburgh Harris Theater","address":"803 Liberty Aveue","city":"Pittsburgh","state":"PA","zip":"15222","distance":23.07281214083,"lon":"-79.998477","lat":"40.442848","theaterChainName":"Independent Chains","ticketType":"STANDARD"},{"id":"2996","tribuneTheaterId":"5191","providerTheaterId":"2587","name":"AMC Loews Waterfront 22","address":"300 Waterfront Dr.","city":"West Homestead","state":"PA","zip":"15120","distance":23.183061341304,"lon":"-79.918381","lat":"40.406554","theaterChainName":"AMC Theatres","ticketType":"STANDARD"},{"id":"3901","tribuneTheaterId":"2262","providerTheaterId":"","name":"SouthSide Works Cinema","address":"425 Cinema Drive","city":"Pittsburgh","state":"PA","zip":"15203","distance":22.98686178389,"lon":"-79.965255","lat":"40.427893","theaterChainName":"Independent Chains","ticketType":"STANDARD"}]