[{"id":"1728","tribuneTheaterId":"6417","providerTheaterId":"","name":"Westgate Cinema","address":"2000 West State Street","city":"New Castle","state":"PA","zip":"16101","distance":3.8586908366684,"lon":"-80.3788","lat":"41.0069","theaterChainName":"Golden Star Theaters","ticketType":"STANDARD"},{"id":"1589","tribuneTheaterId":"5735","providerTheaterId":"","name":"Carmike Plaza 6 Beaver Falls","address":"6800 Big Beaver Blvd.","city":"Beaver Falls","state":"PA","zip":"15010","distance":13.764221676415,"lon":"-80.333533","lat":"40.791396","theaterChainName":"Carmike Cinemas","ticketType":"STANDARD"},{"id":"646","tribuneTheaterId":"7567","providerTheaterId":"","name":"Regal Cinema South Cinema 10","address":"7420 South Ave","city":"Youngstown","state":"OH","zip":"44512","distance":17.160184450146,"lon":"-80.634869","lat":"41.021105","theaterChainName":"Regal Cinemas","ticketType":"STANDARD"},{"id":"4587","tribuneTheaterId":"9739","providerTheaterId":"","name":"Hermitage Cinema 8","address":"2461 E. State St.","city":"Hermitage","state":"PA","zip":"16148","distance":18.832385728865,"lon":"-80.464704","lat":"41.235512","theaterChainName":"WPA\/Pittsburgh Theatres","ticketType":"STANDARD"},{"id":"4495","tribuneTheaterId":"9596","providerTheaterId":"","name":"Shenango Valley Cinemas","address":"2996 East State Street","city":"Hermitage","state":"PA","zip":"16148","distance":18.290563818502,"lon":"-80.454748","lat":"41.230365","theaterChainName":"WPA\/Pittsburgh Theatres","ticketType":"STANDARD"},{"id":"1369","tribuneTheaterId":"7644","providerTheaterId":"","name":"Cinemark Tinseltown Boardman ","address":"7401 Market St. #575","city":"Boardman","state":"OH","zip":"44512","distance":18.43688981314,"lon":"-80.659529","lat":"41.021169","theaterChainName":"Cinemark","ticketType":"STANDARD"},{"id":"624","tribuneTheaterId":"8511","providerTheaterId":"","name":"Regal Moraine Pointe Cinema Stadium 10","address":"300 Moraine Pointe Plaza","city":"Butler","state":"PA","zip":"16001","distance":20.200528274014,"lon":"-79.95339","lat":"40.873327","theaterChainName":"Regal Cinemas","ticketType":"STANDARD"},{"id":"3879","tribuneTheaterId":"4203","providerTheaterId":"","name":"Cinemark Center Township Marketplace","address":"99 Wagner Road","city":"Monaca","state":"PA","zip":"15061","distance":21.279791026477,"lon":"-80.307827","lat":"40.681714","theaterChainName":"Cinemark","ticketType":"STANDARD"},{"id":"5126","tribuneTheaterId":"10532","providerTheaterId":"","name":"Cranberry Cinemas","address":"20111 Route 19","city":"Cranberry Township","state":"PA","zip":"16066","distance":23.711250506972,"lon":"-80.105331","lat":"40.682835","theaterChainName":"WPA\/Pittsburgh Theatres","ticketType":"STANDARD"}]