[{"id":"3879","name":"Cinemark Center Township Marketplace","address":"99 Wagner Road","city":"Monaca","state":"PA","zip":"15061","distance":"23.73952865600586","lon":"-80.307831","lat":"40.681713","theaterChainName":"Cinemark","ticketType":"STANDARD"},{"id":"1589","name":"Carmike Plaza 6 Beaver Falls","address":"6800 Big Beaver Blvd.","city":"Beaver Falls","state":"PA","zip":"15010","distance":"16.09122657775879","lon":"-80.333534","lat":"40.791397","theaterChainName":"Carmike Cinemas","ticketType":"STANDARD"},{"id":"624","name":"Regal Moraine Pointe Cinema Stadium 10","address":"300 Moraine Pointe Plaza","city":"Butler","state":"PA","zip":"16001","distance":"22.958377838134766","lon":"-79.953392","lat":"40.873325","theaterChainName":"Regal Cinemas","ticketType":"STANDARD"},{"id":"1728","name":"Westgate Cinema","address":"2000 West State Street","city":"New Castle","state":"PA","zip":"16101","distance":"2.1083505153656006","lon":"-80.378799","lat":"41.006901","theaterChainName":"Golden Star Theaters","ticketType":"STANDARD"},{"id":"646","name":"Regal Cinema South Cinema 10","address":"7420 South Ave","city":"Youngstown","state":"OH","zip":"44512","distance":"15.091925621032715","lon":"-80.634872","lat":"41.021107","theaterChainName":"Regal Cinemas","ticketType":"STANDARD"},{"id":"1369","name":"Cinemark Tinseltown Boardman ","address":"7401 Market St. #575","city":"Boardman","state":"OH","zip":"44512","distance":"16.377201080322266","lon":"-80.659531","lat":"41.021168","theaterChainName":"Cinemark","ticketType":"STANDARD"},{"id":"4495","name":"Shenango Valley Cinemas","address":"2996 East State Street","city":"Hermitage","state":"PA","zip":"16148","distance":"15.346784591674805","lon":"-80.454750","lat":"41.230366","theaterChainName":"WPA\/Pittsburgh Theatres","ticketType":"STANDARD"},{"id":"4587","name":"Hermitage Cinema 8","address":"2461 E. State St.","city":"Hermitage","state":"PA","zip":"16148","distance":"15.87293815612793","lon":"-80.464706","lat":"41.235512","theaterChainName":"WPA\/Pittsburgh Theatres","ticketType":"STANDARD"},{"id":"695","name":"Regal Austintown Plaza 10","address":"6020 Mahoning Ave.","city":"Youngstown","state":"OH","zip":"44515","distance":"23.090028762817383","lon":"-80.776611","lat":"41.101280","theaterChainName":"Regal Cinemas","ticketType":"STANDARD"},{"id":"645","name":"Encore Cinema","address":"930 Great East Plaza","city":"Niles","state":"OH","zip":"44446","distance":"24.661128997802734","lon":"-80.746841","lat":"41.213623","theaterChainName":"Independent Chains","ticketType":"STANDARD"},{"id":"644","name":"Regal Boulevard Center Stadium 14","address":"24 Boulevard Centre","city":"Niles","state":"OH","zip":"44446","distance":"24.884702682495117","lon":"-80.748314","lat":"41.217937","theaterChainName":"Regal Cinemas","ticketType":"STANDARD"}]