[{"id":"1728","tribuneTheaterId":"6417","providerTheaterId":"","name":"Westgate Cinema","address":"2000 West State Street","city":"New Castle","state":"PA","zip":"16101","distance":6.3729549869685,"lon":"-80.3788","lat":"41.0069","theaterChainName":"Golden Star Theaters","ticketType":"STANDARD"},{"id":"646","tribuneTheaterId":"7567","providerTheaterId":"","name":"Regal Cinema South Cinema 10","address":"7420 South Ave","city":"Youngstown","state":"OH","zip":"44512","distance":8.0075257220752,"lon":"-80.634869","lat":"41.021105","theaterChainName":"Regal Cinemas","ticketType":"STANDARD"},{"id":"1369","tribuneTheaterId":"7644","providerTheaterId":"","name":"Cinemark Tinseltown Boardman ","address":"7401 Market St. #575","city":"Boardman","state":"OH","zip":"44512","distance":9.205149267602,"lon":"-80.659529","lat":"41.021169","theaterChainName":"Cinemark","ticketType":"STANDARD"},{"id":"1589","tribuneTheaterId":"5735","providerTheaterId":"","name":"Carmike Plaza 6 Beaver Falls","address":"6800 Big Beaver Blvd.","city":"Beaver Falls","state":"PA","zip":"15010","distance":15.225281103261,"lon":"-80.333533","lat":"40.791396","theaterChainName":"Carmike Cinemas","ticketType":"STANDARD"},{"id":"4587","tribuneTheaterId":"9739","providerTheaterId":"","name":"Hermitage Cinema 8","address":"2461 E. State St.","city":"Hermitage","state":"PA","zip":"16148","distance":18.028400192791,"lon":"-80.464704","lat":"41.235512","theaterChainName":"WPA\/Pittsburgh Theatres","ticketType":"STANDARD"},{"id":"695","tribuneTheaterId":"7740","providerTheaterId":"","name":"Regal Austintown Plaza 10","address":"6020 Mahoning Ave.","city":"Youngstown","state":"OH","zip":"44515","distance":17.114715429337,"lon":"-80.776613","lat":"41.101282","theaterChainName":"Regal Cinemas","ticketType":"STANDARD"},{"id":"4495","tribuneTheaterId":"9596","providerTheaterId":"","name":"Shenango Valley Cinemas","address":"2996 East State Street","city":"Hermitage","state":"PA","zip":"16148","distance":17.725855994005,"lon":"-80.454748","lat":"41.230365","theaterChainName":"WPA\/Pittsburgh Theatres","ticketType":"STANDARD"},{"id":"5589","tribuneTheaterId":"11042","providerTheaterId":"","name":"Salem Twin Cinema","address":"2350 E State Street","city":"Salem","state":"OH","zip":"44460","distance":18.128858992639,"lon":"-80.827579","lat":"40.903161","theaterChainName":"Independent Chains","ticketType":"STANDARD"},{"id":"2649","tribuneTheaterId":"2750","providerTheaterId":"","name":"Salem Twin Cinema","address":"2350 East State Street","city":"Salem","state":"OH","zip":"44460","distance":18.137495657741,"lon":"-80.827711","lat":"40.903056","theaterChainName":"Independent Chains","ticketType":"STANDARD"},{"id":"645","tribuneTheaterId":"1902","providerTheaterId":"","name":"Encore Cinema","address":"930 Great East Plaza","city":"Niles","state":"OH","zip":"44446","distance":21.081646525173,"lon":"-80.746844","lat":"41.213622","theaterChainName":"Independent Chains","ticketType":"STANDARD"},{"id":"644","tribuneTheaterId":"7895","providerTheaterId":"","name":"Regal Boulevard Center Stadium 14","address":"24 Boulevard Centre","city":"Niles","state":"OH","zip":"44446","distance":21.362262003803,"lon":"-80.748315","lat":"41.217936","theaterChainName":"Regal Cinemas","ticketType":"STANDARD"},{"id":"3879","tribuneTheaterId":"4203","providerTheaterId":"","name":"Cinemark Center Township Marketplace","address":"99 Wagner Road","city":"Monaca","state":"PA","zip":"15061","distance":22.50479081737,"lon":"-80.307827","lat":"40.681714","theaterChainName":"Cinemark","ticketType":"STANDARD"}]