[{"id":"624","name":"Regal Moraine Pointe Cinema Stadium 10","address":"300 Moraine Pointe Plaza","city":"Butler","state":"PA","zip":"16001","distance":"20.993738174438477","lon":"-79.953392","lat":"40.873325","theaterChainName":"Regal Cinemas","ticketType":"STANDARD"},{"id":"1728","name":"Westgate Cinema","address":"2000 West State Street","city":"New Castle","state":"PA","zip":"16101","distance":"18.668691635131836","lon":"-80.378799","lat":"41.006901","theaterChainName":"Golden Star Theaters","ticketType":"STANDARD"},{"id":"6152","name":"The Movies at Cranberry","address":"6945 US 322","city":"Cranberry","state":"PA","zip":"16319","distance":"23.287023544311523","lon":"-79.716187","lat":"41.353271","theaterChainName":"Independent Chains","ticketType":"STANDARD"},{"id":"4495","name":"Shenango Valley Cinemas","address":"2996 East State Street","city":"Hermitage","state":"PA","zip":"16148","distance":"19.863550186157227","lon":"-80.454750","lat":"41.230366","theaterChainName":"WPA\/Pittsburgh Theatres","ticketType":"STANDARD"},{"id":"4587","name":"Hermitage Cinema 8","address":"2461 E. State St.","city":"Hermitage","state":"PA","zip":"16148","distance":"20.45237922668457","lon":"-80.464706","lat":"41.235512","theaterChainName":"WPA\/Pittsburgh Theatres","ticketType":"STANDARD"}]