[{"id":"1728","name":"Westgate Cinema","address":"2000 West State Street","city":"New Castle","state":"PA","zip":"16101","distance":"23.69122886657715","lon":"-80.378799","lat":"41.006901","theaterChainName":"Golden Star Theaters","ticketType":"STANDARD"},{"id":"6152","name":"The Movies at Cranberry","address":"6945 US 322","city":"Cranberry","state":"PA","zip":"16319","distance":"20.736581802368164","lon":"-79.716187","lat":"41.353271","theaterChainName":"Independent Chains","ticketType":"STANDARD"},{"id":"4495","name":"Shenango Valley Cinemas","address":"2996 East State Street","city":"Hermitage","state":"PA","zip":"16148","distance":"18.55675506591797","lon":"-80.454750","lat":"41.230366","theaterChainName":"WPA\/Pittsburgh Theatres","ticketType":"STANDARD"},{"id":"4587","name":"Hermitage Cinema 8","address":"2461 E. State St.","city":"Hermitage","state":"PA","zip":"16148","distance":"19.003637313842773","lon":"-80.464706","lat":"41.235512","theaterChainName":"WPA\/Pittsburgh Theatres","ticketType":"STANDARD"},{"id":"4698","name":"The Movies at Meadville","address":"11185 Perry Hwy","city":"Meadville","state":"PA","zip":"16335","distance":"24.03398323059082","lon":"-80.204445","lat":"41.619633","theaterChainName":"Independent Chains","ticketType":"STANDARD"}]