[{"id":"4495","tribuneTheaterId":"9596","providerTheaterId":"","name":"Shenango Valley Cinemas","address":"2996 East State Street","city":"Hermitage","state":"PA","zip":"16148","distance":18.555421636002,"lon":"-80.454748","lat":"41.230365","theaterChainName":"WPA\/Pittsburgh Theatres","ticketType":"STANDARD"},{"id":"4587","tribuneTheaterId":"9739","providerTheaterId":"","name":"Hermitage Cinema 8","address":"2461 E. State St.","city":"Hermitage","state":"PA","zip":"16148","distance":19.002247607403,"lon":"-80.464704","lat":"41.235512","theaterChainName":"WPA\/Pittsburgh Theatres","ticketType":"STANDARD"},{"id":"6152","tribuneTheaterId":"9940","providerTheaterId":"","name":"The Movies at Cranberry","address":"6945 US 322","city":"Cranberry","state":"PA","zip":"16319","distance":20.735475811369,"lon":"-79.716185","lat":"41.353272","theaterChainName":"Independent Chains","ticketType":"STANDARD"},{"id":"4698","tribuneTheaterId":"9910","providerTheaterId":"","name":"The Movies at Meadville","address":"11185 Perry Hwy","city":"Meadville","state":"PA","zip":"16335","distance":24.032472480389,"lon":"-80.204444","lat":"41.619631","theaterChainName":"Independent Chains","ticketType":"STANDARD"},{"id":"1728","tribuneTheaterId":"6417","providerTheaterId":"","name":"Westgate Cinema","address":"2000 West State Street","city":"New Castle","state":"PA","zip":"16101","distance":23.689683267903,"lon":"-80.3788","lat":"41.0069","theaterChainName":"Golden Star Theaters","ticketType":"STANDARD"}]