[{"id":"1180","name":"Ambridge Family Theatre","address":"645 Merchant Street","city":"Ambridge","state":"PA","zip":"15003","distance":"20.55531120300293","lon":"-80.228188","lat":"40.587227","theaterChainName":"Independent Chains","ticketType":"STANDARD"},{"id":"3879","name":"Cinemark Center Township Marketplace","address":"99 Wagner Road","city":"Monaca","state":"PA","zip":"15061","distance":"12.915694236755371","lon":"-80.307831","lat":"40.681713","theaterChainName":"Cinemark","ticketType":"STANDARD"},{"id":"6085","name":"The Tull Family Theater","address":"418 Walnut Street","city":"Sewickley","state":"PA","zip":"15143","distance":"24.52242088317871","lon":"-80.182236","lat":"40.540356","theaterChainName":"Independent Chains","ticketType":"STANDARD"},{"id":"5126","name":"Cranberry Cinemas","address":"20111 Route 19","city":"Cranberry Township","state":"PA","zip":"16066","distance":"19.30522918701172","lon":"-80.105331","lat":"40.682835","theaterChainName":"WPA\/Pittsburgh Theatres","ticketType":"STANDARD"},{"id":"1589","name":"Carmike Plaza 6 Beaver Falls","address":"6800 Big Beaver Blvd.","city":"Beaver Falls","state":"PA","zip":"15010","distance":"5.517888069152832","lon":"-80.333534","lat":"40.791397","theaterChainName":"Carmike Cinemas","ticketType":"STANDARD"},{"id":"624","name":"Regal Moraine Pointe Cinema Stadium 10","address":"300 Moraine Pointe Plaza","city":"Butler","state":"PA","zip":"16001","distance":"23.046663284301758","lon":"-79.953392","lat":"40.873325","theaterChainName":"Regal Cinemas","ticketType":"STANDARD"},{"id":"1728","name":"Westgate Cinema","address":"2000 West State Street","city":"New Castle","state":"PA","zip":"16101","distance":"10.394668579101562","lon":"-80.378799","lat":"41.006901","theaterChainName":"Golden Star Theaters","ticketType":"STANDARD"},{"id":"646","name":"Regal Cinema South Cinema 10","address":"7420 South Ave","city":"Youngstown","state":"OH","zip":"44512","distance":"16.939529418945312","lon":"-80.634872","lat":"41.021107","theaterChainName":"Regal Cinemas","ticketType":"STANDARD"},{"id":"1369","name":"Cinemark Tinseltown Boardman ","address":"7401 Market St. #575","city":"Boardman","state":"OH","zip":"44512","distance":"17.91864013671875","lon":"-80.659531","lat":"41.021168","theaterChainName":"Cinemark","ticketType":"STANDARD"},{"id":"5589","name":"Salem Twin Cinema","address":"2350 E State Street","city":"Salem","state":"OH","zip":"44460","distance":"22.881155014038086","lon":"-80.827576","lat":"40.903160","theaterChainName":"Independent Chains","ticketType":"STANDARD"},{"id":"2649","name":"Salem Twin Cinema","address":"2350 East State Street","city":"Salem","state":"OH","zip":"44460","distance":"22.887283325195312","lon":"-80.827713","lat":"40.903057","theaterChainName":"Independent Chains","ticketType":"STANDARD"}]