[{"id":"4587","tribuneTheaterId":"9739","providerTheaterId":"","name":"Hermitage Cinema 8","address":"2461 E. State St.","city":"Hermitage","state":"PA","zip":"16148","distance":4.2880426222425,"lon":"-80.464704","lat":"41.235512","theaterChainName":"WPA\/Pittsburgh Theatres","ticketType":"STANDARD"},{"id":"4495","tribuneTheaterId":"9596","providerTheaterId":"","name":"Shenango Valley Cinemas","address":"2996 East State Street","city":"Hermitage","state":"PA","zip":"16148","distance":3.8888534131737,"lon":"-80.454748","lat":"41.230365","theaterChainName":"WPA\/Pittsburgh Theatres","ticketType":"STANDARD"},{"id":"1728","tribuneTheaterId":"6417","providerTheaterId":"","name":"Westgate Cinema","address":"2000 West State Street","city":"New Castle","state":"PA","zip":"16101","distance":12.178137358173,"lon":"-80.3788","lat":"41.0069","theaterChainName":"Golden Star Theaters","ticketType":"STANDARD"},{"id":"1369","tribuneTheaterId":"7644","providerTheaterId":"","name":"Cinemark Tinseltown Boardman ","address":"7401 Market St. #575","city":"Boardman","state":"OH","zip":"44512","distance":15.083568052727,"lon":"-80.659529","lat":"41.021169","theaterChainName":"Cinemark","ticketType":"STANDARD"},{"id":"646","tribuneTheaterId":"7567","providerTheaterId":"","name":"Regal Cinema South Cinema 10","address":"7420 South Ave","city":"Youngstown","state":"OH","zip":"44512","distance":14.199100215716,"lon":"-80.634869","lat":"41.021105","theaterChainName":"Regal Cinemas","ticketType":"STANDARD"},{"id":"644","tribuneTheaterId":"7895","providerTheaterId":"","name":"Regal Boulevard Center Stadium 14","address":"24 Boulevard Centre","city":"Niles","state":"OH","zip":"44446","distance":15.659510406614,"lon":"-80.748315","lat":"41.217936","theaterChainName":"Regal Cinemas","ticketType":"STANDARD"},{"id":"645","tribuneTheaterId":"1902","providerTheaterId":"","name":"Encore Cinema","address":"930 Great East Plaza","city":"Niles","state":"OH","zip":"44446","distance":15.529804980223,"lon":"-80.746844","lat":"41.213622","theaterChainName":"Independent Chains","ticketType":"STANDARD"},{"id":"695","tribuneTheaterId":"7740","providerTheaterId":"","name":"Regal Austintown Plaza 10","address":"6020 Mahoning Ave.","city":"Youngstown","state":"OH","zip":"44515","distance":17.58511693945,"lon":"-80.776613","lat":"41.101282","theaterChainName":"Regal Cinemas","ticketType":"STANDARD"}]