[{"id":"3557","tribuneTheaterId":"2240","providerTheaterId":"","name":"South Pike Cinemas","address":"718 South Pike Road","city":"Sarver","state":"PA","zip":"16055","distance":8.4257026617417,"lon":"-79.72405","lat":"40.699855","theaterChainName":"Carmike Cinemas","ticketType":"STANDARD"},{"id":"4067","tribuneTheaterId":"4205","providerTheaterId":"","name":"Cinemark Galleria at Pittsburgh Mills and IMAX","address":"425 Pittsburgh Mills Circle","city":"Tarentum","state":"PA","zip":"15084","distance":16.791342217705,"lon":"-79.795654","lat":"40.574312","theaterChainName":"Cinemark","ticketType":"STANDARD"},{"id":"1182","tribuneTheaterId":"2467","providerTheaterId":"","name":"Oaks Theatre","address":"310 Allegheny River Blvd.","city":"Oakmont","state":"PA","zip":"15139","distance":21.478372248853,"lon":"-79.842925","lat":"40.515651","theaterChainName":"Independent Chains","ticketType":"STANDARD"},{"id":"624","tribuneTheaterId":"8511","providerTheaterId":"","name":"Regal Moraine Pointe Cinema Stadium 10","address":"300 Moraine Pointe Plaza","city":"Butler","state":"PA","zip":"16001","distance":21.207130715065,"lon":"-79.95339","lat":"40.873327","theaterChainName":"Regal Cinemas","ticketType":"STANDARD"},{"id":"2243","tribuneTheaterId":"6813","providerTheaterId":"","name":"Carmike 4 Indiana","address":"2334 Oakland Ave. Ste. 4","city":"Indiana","state":"PA","zip":"15701","distance":23.201991626792,"lon":"-79.181801","lat":"40.606701","theaterChainName":"Carmike Cinemas","ticketType":"STANDARD"},{"id":"2832","tribuneTheaterId":"7281","providerTheaterId":"","name":"Carmike Wynnsong 12 Delmont","address":"401 Vine St","city":"Delmont","state":"PA","zip":"15626","distance":24.547801986518,"lon":"-79.585548","lat":"40.398642","theaterChainName":"Carmike Cinemas","ticketType":"STANDARD"},{"id":"524","tribuneTheaterId":"1653","providerTheaterId":"","name":"Penn Hills Cinemas","address":"76 Federal Dr.","city":"Pittsburgh","state":"PA","zip":"15235","distance":23.970707232819,"lon":"-79.826918","lat":"40.462068","theaterChainName":"Independent Chains","ticketType":"STANDARD"},{"id":"526","tribuneTheaterId":"6067","providerTheaterId":"","name":"Waterworks Cinema 10","address":"930 Freeport Rd.","city":"Pittsburgh","state":"PA","zip":"15238","distance":24.50899031591,"lon":"-79.889728","lat":"40.488403","theaterChainName":"WPA\/Pittsburgh Theatres","ticketType":"STANDARD"}]