[{"id":"2127","tribuneTheaterId":"7280","providerTheaterId":"","name":"Carmike Park Hills Plaza 7","address":"208 Park Hills Plaza","city":"Altoona","state":"PA","zip":"16602","distance":13.97749932123,"lon":"-78.406259","lat":"40.468867","theaterChainName":"Carmike Cinemas","ticketType":"STANDARD"},{"id":"5774","tribuneTheaterId":"11214","providerTheaterId":"","name":"Carmike 12 Altoona","address":"234 Convention Center Drive","city":"Altoona","state":"PA","zip":"16602","distance":13.404141163959,"lon":"-78.400136","lat":"40.457728","theaterChainName":"Carmike Cinemas","ticketType":"STANDARD"},{"id":"1635","tribuneTheaterId":"7431","providerTheaterId":"","name":"Carmike 8 Altoona","address":"600 Logan Valley Mall","city":"Altoona","state":"PA","zip":"16602","distance":13.857623820898,"lon":"-78.413919","lat":"40.469333","theaterChainName":"Carmike Cinemas","ticketType":"STANDARD"},{"id":"1886","tribuneTheaterId":"281","providerTheaterId":"","name":"Pitt Theatre","address":"134 E Pitt St.","city":"Bedford","state":"PA","zip":"15522","distance":18.182453857372,"lon":"-78.502451","lat":"40.01898","theaterChainName":"Independent Chains","ticketType":"STANDARD"},{"id":"1920","tribuneTheaterId":"2295","providerTheaterId":"","name":"Richland Cinemas","address":"420 Theatre Drive","city":"Johnstown","state":"PA","zip":"15904","distance":17.710019943069,"lon":"-78.844135","lat":"40.274665","theaterChainName":"Independent Chains","ticketType":"STANDARD"},{"id":"2766","tribuneTheaterId":"1214","providerTheaterId":"","name":"Westwood Plaza Theatre","address":"1910 Minno Dr.","city":"Johnstown","state":"PA","zip":"15905","distance":23.892281252936,"lon":"-78.958406","lat":"40.323864","theaterChainName":"Independent Chains","ticketType":"STANDARD"}]