[{"id":"1886","name":"Pitt Theatre","address":"134 E Pitt St.","city":"Bedford","state":"PA","zip":"15522","distance":"18.15066146850586","lon":"-78.502449","lat":"40.018978","theaterChainName":"Independent Chains","ticketType":"STANDARD"},{"id":"1635","name":"Carmike 8 Altoona","address":"600 Logan Valley Mall","city":"Altoona","state":"PA","zip":"16602","distance":"24.052047729492188","lon":"-78.413918","lat":"40.469334","theaterChainName":"Carmike Cinemas","ticketType":"STANDARD"},{"id":"2127","name":"Carmike Park Hills Plaza 7","address":"208 Park Hills Plaza","city":"Altoona","state":"PA","zip":"16602","distance":"23.84621810913086","lon":"-78.406258","lat":"40.468868","theaterChainName":"Carmike Cinemas","ticketType":"STANDARD"},{"id":"5774","name":"Carmike 12 Altoona","address":"234 Convention Center Drive","city":"Altoona","state":"PA","zip":"16602","distance":"23.0131893157959","lon":"-78.400139","lat":"40.457729","theaterChainName":"Carmike Cinemas","ticketType":"STANDARD"},{"id":"2372","name":"Huntingdon Cinema Clifton 5","address":"717 Washington St.","city":"Huntingdon","state":"PA","zip":"16652","distance":"24.965185165405273","lon":"-78.013496","lat":"40.486099","theaterChainName":"Independent Chains","ticketType":"STANDARD"}]