[{"id":"1635","name":"Carmike 8 Altoona","address":"600 Logan Valley Mall","city":"Altoona","state":"PA","zip":"16602","distance":"12.933911323547363","lon":"-78.413918","lat":"40.469334","theaterChainName":"Carmike Cinemas","ticketType":"STANDARD"},{"id":"2127","name":"Carmike Park Hills Plaza 7","address":"208 Park Hills Plaza","city":"Altoona","state":"PA","zip":"16602","distance":"12.788055419921875","lon":"-78.406258","lat":"40.468868","theaterChainName":"Carmike Cinemas","ticketType":"STANDARD"},{"id":"5774","name":"Carmike 12 Altoona","address":"234 Convention Center Drive","city":"Altoona","state":"PA","zip":"16602","distance":"13.364982604980469","lon":"-78.400139","lat":"40.457729","theaterChainName":"Carmike Cinemas","ticketType":"STANDARD"},{"id":"2372","name":"Huntingdon Cinema Clifton 5","address":"717 Washington St.","city":"Huntingdon","state":"PA","zip":"16652","distance":"18.444385528564453","lon":"-78.013496","lat":"40.486099","theaterChainName":"Independent Chains","ticketType":"STANDARD"},{"id":"4482","name":"College 9 Theatre","address":"3031 Carnegie Drive","city":"State College","state":"PA","zip":"16803","distance":"23.09547996520996","lon":"-77.926567","lat":"40.810116","theaterChainName":"UEC Theatres","ticketType":"STANDARD"}]