[{"id":"1635","name":"Carmike 8 Altoona","address":"600 Logan Valley Mall","city":"Altoona","state":"PA","zip":"16602","distance":"17.993669509887695","lon":"-78.413918","lat":"40.469334","theaterChainName":"Carmike Cinemas","ticketType":"STANDARD"},{"id":"2127","name":"Carmike Park Hills Plaza 7","address":"208 Park Hills Plaza","city":"Altoona","state":"PA","zip":"16602","distance":"17.688419342041016","lon":"-78.406258","lat":"40.468868","theaterChainName":"Carmike Cinemas","ticketType":"STANDARD"},{"id":"5774","name":"Carmike 12 Altoona","address":"234 Convention Center Drive","city":"Altoona","state":"PA","zip":"16602","distance":"17.90976333618164","lon":"-78.400139","lat":"40.457729","theaterChainName":"Carmike Cinemas","ticketType":"STANDARD"},{"id":"2372","name":"Huntingdon Cinema Clifton 5","address":"717 Washington St.","city":"Huntingdon","state":"PA","zip":"16652","distance":"11.373265266418457","lon":"-78.013496","lat":"40.486099","theaterChainName":"Independent Chains","ticketType":"STANDARD"},{"id":"4482","name":"College 9 Theatre","address":"3031 Carnegie Drive","city":"State College","state":"PA","zip":"16803","distance":"17.021820068359375","lon":"-77.926567","lat":"40.810116","theaterChainName":"UEC Theatres","ticketType":"STANDARD"},{"id":"3871","name":"Premiere Theatre 12","address":"125 Premiere Drive","city":"State College","state":"PA","zip":"16801","distance":"23.144023895263672","lon":"-77.801079","lat":"40.840290","theaterChainName":"UEC Theatres","ticketType":"STANDARD"}]