[{"id":"3023","tribuneTheaterId":"1241","providerTheaterId":"","name":"Rialto Theatre","address":"5 E. Main St.","city":"Canton","state":"PA","zip":"17724","distance":3.662926214475,"lon":"-76.8499","lat":"41.6546","theaterChainName":"Independent Chains","ticketType":"STANDARD"},{"id":"5214","tribuneTheaterId":"10638","providerTheaterId":"","name":"Victoria Theatre","address":"222 Main St.","city":"Blossburg","state":"PA","zip":"16912","distance":12.335484107568,"lon":"-77.064697","lat":"41.678398","theaterChainName":"Independent Chains","ticketType":"STANDARD"},{"id":"1846","tribuneTheaterId":"1118","providerTheaterId":"","name":"Keystone Theatre","address":"601 Main Street","city":"Towanda","state":"PA","zip":"18848","distance":20.284166116481,"lon":"-76.442957","lat":"41.764248","theaterChainName":"Independent Chains","ticketType":"STANDARD"},{"id":"3022","tribuneTheaterId":"1536","providerTheaterId":"","name":"Sayre Theatre","address":"205 S. Elmer Ave.","city":"Sayre","state":"PA","zip":"18840","distance":24.882078135541,"lon":"-76.51695","lat":"41.980579","theaterChainName":"Independent Chains","ticketType":"STANDARD"},{"id":"2875","tribuneTheaterId":"1716","providerTheaterId":"","name":"Arcadia Theater","address":"50 Main Street","city":"Wellsboro","state":"PA","zip":"16901","distance":24.51767731721,"lon":"-77.300094","lat":"41.749099","theaterChainName":"Independent Chains","ticketType":"STANDARD"}]