[{"id":"2172","tribuneTheaterId":"349","providerTheaterId":"","name":"The Heights Theater","address":"210 E. 14th St.","city":"Elmira Heights","state":"NY","zip":"14903","distance":13.91493663098,"lon":"-76.822645","lat":"42.12921","theaterChainName":"Independent Chains","ticketType":"STANDARD"},{"id":"1702","tribuneTheaterId":"4658","providerTheaterId":"","name":"Regal Arnot Mall 10","address":"3300 Chambers Road","city":"Horseheads","state":"NY","zip":"14845","distance":14.585746929528,"lon":"-76.874153","lat":"42.159935","theaterChainName":"Regal Cinemas","ticketType":"STANDARD"},{"id":"1832","tribuneTheaterId":"2105","providerTheaterId":"","name":"Crystal Cinemas","address":"88 Victory Highway","city":"Painted Post","state":"NY","zip":"14870","distance":15.781911507529,"lon":"-77.101889","lat":"42.170519","theaterChainName":"Independent Chains","ticketType":"STANDARD"},{"id":"5214","tribuneTheaterId":"10638","providerTheaterId":"","name":"Victoria Theatre","address":"222 Main St.","city":"Blossburg","state":"PA","zip":"16912","distance":20.167931499612,"lon":"-77.064697","lat":"41.678398","theaterChainName":"Independent Chains","ticketType":"STANDARD"},{"id":"2875","tribuneTheaterId":"1716","providerTheaterId":"","name":"Arcadia Theater","address":"50 Main Street","city":"Wellsboro","state":"PA","zip":"16901","distance":22.30793302856,"lon":"-77.300094","lat":"41.749099","theaterChainName":"Independent Chains","ticketType":"STANDARD"},{"id":"3023","tribuneTheaterId":"1241","providerTheaterId":"","name":"Rialto Theatre","address":"5 E. Main St.","city":"Canton","state":"PA","zip":"17724","distance":22.225016996055,"lon":"-76.8499","lat":"41.6546","theaterChainName":"Independent Chains","ticketType":"STANDARD"},{"id":"3022","tribuneTheaterId":"1536","providerTheaterId":"","name":"Sayre Theatre","address":"205 S. Elmer Ave.","city":"Sayre","state":"PA","zip":"18840","distance":23.552548786295,"lon":"-76.51695","lat":"41.980579","theaterChainName":"Independent Chains","ticketType":"STANDARD"}]