[{"id":"5214","tribuneTheaterId":"10638","providerTheaterId":"","name":"Victoria Theatre","address":"222 Main St.","city":"Blossburg","state":"PA","zip":"16912","distance":9.2585727609476,"lon":"-77.064697","lat":"41.678398","theaterChainName":"Independent Chains","ticketType":"STANDARD"},{"id":"2875","tribuneTheaterId":"1716","providerTheaterId":"","name":"Arcadia Theater","address":"50 Main Street","city":"Wellsboro","state":"PA","zip":"16901","distance":12.556448787883,"lon":"-77.300094","lat":"41.749099","theaterChainName":"Independent Chains","ticketType":"STANDARD"},{"id":"3023","tribuneTheaterId":"1241","providerTheaterId":"","name":"Rialto Theatre","address":"5 E. Main St.","city":"Canton","state":"PA","zip":"17724","distance":15.79213346226,"lon":"-76.8499","lat":"41.6546","theaterChainName":"Independent Chains","ticketType":"STANDARD"},{"id":"1832","tribuneTheaterId":"2105","providerTheaterId":"","name":"Crystal Cinemas","address":"88 Victory Highway","city":"Painted Post","state":"NY","zip":"14870","distance":24.799360631884,"lon":"-77.101889","lat":"42.170519","theaterChainName":"Independent Chains","ticketType":"STANDARD"}]