[{"id":"2172","name":"The Heights Theater","address":"210 E. 14th St.","city":"Elmira Heights","state":"NY","zip":"14903","distance":"13.915736198425293","lon":"-76.822647","lat":"42.129211","theaterChainName":"Independent Chains","ticketType":"STANDARD"},{"id":"1702","name":"Regal Arnot Mall 10","address":"3300 Chambers Road","city":"Horseheads","state":"NY","zip":"14845","distance":"14.586551666259766","lon":"-76.874153","lat":"42.159935","theaterChainName":"Regal Cinemas","ticketType":"STANDARD"},{"id":"3022","name":"Sayre Theatre","address":"205 S. Elmer Ave.","city":"Sayre","state":"PA","zip":"18840","distance":"23.55388069152832","lon":"-76.516953","lat":"41.980579","theaterChainName":"Independent Chains","ticketType":"STANDARD"},{"id":"3023","name":"Rialto Theatre","address":"5 E. Main St.","city":"Canton","state":"PA","zip":"17724","distance":"22.22662353515625","lon":"-76.849899","lat":"41.654598","theaterChainName":"Independent Chains","ticketType":"STANDARD"},{"id":"1832","name":"Crystal Cinemas","address":"88 Victory Highway","city":"Painted Post","state":"NY","zip":"14870","distance":"15.782936096191406","lon":"-77.101891","lat":"42.170521","theaterChainName":"Independent Chains","ticketType":"STANDARD"},{"id":"2875","name":"Arcadia Theater","address":"50 Main Street","city":"Wellsboro","state":"PA","zip":"16901","distance":"22.309370040893555","lon":"-77.300095","lat":"41.749100","theaterChainName":"Independent Chains","ticketType":"STANDARD"},{"id":"5214","name":"Victoria Theatre","address":"222 Main St.","city":"Blossburg","state":"PA","zip":"16912","distance":"20.16927719116211","lon":"-77.064697","lat":"41.678398","theaterChainName":"Independent Chains","ticketType":"STANDARD"}]