[{"id":"2172","name":"The Heights Theater","address":"210 E. 14th St.","city":"Elmira Heights","state":"NY","zip":"14903","distance":"22.464397430419922","lon":"-76.822647","lat":"42.129211","theaterChainName":"Independent Chains","ticketType":"STANDARD"},{"id":"1702","name":"Regal Arnot Mall 10","address":"3300 Chambers Road","city":"Horseheads","state":"NY","zip":"14845","distance":"24.53428077697754","lon":"-76.874153","lat":"42.159935","theaterChainName":"Regal Cinemas","ticketType":"STANDARD"},{"id":"3022","name":"Sayre Theatre","address":"205 S. Elmer Ave.","city":"Sayre","state":"PA","zip":"18840","distance":"21.278358459472656","lon":"-76.516953","lat":"41.980579","theaterChainName":"Independent Chains","ticketType":"STANDARD"},{"id":"1846","name":"Keystone Theatre","address":"601 Main Street","city":"Towanda","state":"PA","zip":"18848","distance":"21.513771057128906","lon":"-76.442955","lat":"41.764248","theaterChainName":"Independent Chains","ticketType":"STANDARD"},{"id":"3023","name":"Rialto Theatre","address":"5 E. Main St.","city":"Canton","state":"PA","zip":"17724","distance":"10.405542373657227","lon":"-76.849899","lat":"41.654598","theaterChainName":"Independent Chains","ticketType":"STANDARD"},{"id":"2875","name":"Arcadia Theater","address":"50 Main Street","city":"Wellsboro","state":"PA","zip":"16901","distance":"23.162677764892578","lon":"-77.300095","lat":"41.749100","theaterChainName":"Independent Chains","ticketType":"STANDARD"},{"id":"5214","name":"Victoria Theatre","address":"222 Main St.","city":"Blossburg","state":"PA","zip":"16912","distance":"13.835494995117188","lon":"-77.064697","lat":"41.678398","theaterChainName":"Independent Chains","ticketType":"STANDARD"}]