[{"id":"3112","tribuneTheaterId":"522","providerTheaterId":"","name":"Carlisle Theatre","address":"44 West High Street","city":"Carlisle","state":"PA","zip":"17013","distance":10.992303355062,"lon":"-77.190456","lat":"40.201236","theaterChainName":"Independent Chains","ticketType":"STANDARD"},{"id":"124","tribuneTheaterId":"3172","providerTheaterId":"","name":"Digiplex Cinema Center ","address":"3431 Simpson Ferry Road","city":"Camp Hill","state":"PA","zip":"17011","distance":10.322887314523,"lon":"-76.939391","lat":"40.227187","theaterChainName":"Carmike Cinemas","ticketType":"STANDARD"},{"id":"4823","tribuneTheaterId":"10097","providerTheaterId":"","name":"Flagship Cinemas Premium","address":"4950 Carlisle Pike","city":"Mechanicsburg","state":"PA","zip":"17050","distance":10.213319493865,"lon":"-76.969206","lat":"40.235707","theaterChainName":"Carmike Cinemas","ticketType":"STANDARD"},{"id":"5756","tribuneTheaterId":"11198","providerTheaterId":"","name":"Carlisle Commons Movies 8","address":"250 Noble Blvd","city":"Carlisle","state":"PA","zip":"17013","distance":10.774162461612,"lon":"-77.196604","lat":"40.190457","theaterChainName":"R\/C Theatres","ticketType":"STANDARD"},{"id":"4430","tribuneTheaterId":"9502","providerTheaterId":"","name":"Great Escape 14","address":"3501 Paxton Street","city":"Harrisburg","state":"PA","zip":"17111","distance":15.194344289166,"lon":"-76.831027","lat":"40.252387","theaterChainName":"Regal Cinemas","ticketType":"STANDARD"},{"id":"3474","tribuneTheaterId":"1745","providerTheaterId":"","name":"Midtown Cinema","address":"250 Reily Street","city":"Harrisburg","state":"PA","zip":"17102","distance":14.225290210621,"lon":"-76.8913","lat":"40.2711","theaterChainName":"Independent Chains","ticketType":"STANDARD"},{"id":"1444","tribuneTheaterId":"5641","providerTheaterId":"","name":"Regal West Manchester Mall 13","address":"1800 Loucks Road","city":"York","state":"PA","zip":"17408","distance":16.340789727117,"lon":"-76.77171","lat":"39.971366","theaterChainName":"Regal Cinemas","ticketType":"STANDARD"},{"id":"1013","tribuneTheaterId":"2437","providerTheaterId":"","name":"Elks Theatre","address":"Emaus ","city":"Middletown","state":"PA","zip":"17057","distance":17.355961779205,"lon":"-76.731666","lat":"40.195014","theaterChainName":"Independent Chains","ticketType":"STANDARD"},{"id":"3121","tribuneTheaterId":"4988","providerTheaterId":"","name":"R\/C Hanover Movies","address":"380 Eisenhower Dr.","city":"Hanover","state":"PA","zip":"17331","distance":19.058535353176,"lon":"-76.989559","lat":"39.8226642","theaterChainName":"R\/C Theatres","ticketType":"STANDARD"},{"id":"5881","tribuneTheaterId":"11300","providerTheaterId":"","name":"SMALL STAR Art house","address":"232 West Market Street","city":"York","state":"PA","zip":"17401","distance":18.480226714106,"lon":"-76.733113","lat":"39.960416","theaterChainName":"Independent Chains","ticketType":"STANDARD"},{"id":"3075","tribuneTheaterId":"6331","providerTheaterId":"","name":"Colonial Park 4","address":"1 Colonial Park Mall","city":"Harrisburg","state":"PA","zip":"17109","distance":18.124547935958,"lon":"-76.820097","lat":"40.301689","theaterChainName":"Independent Chains","ticketType":"STANDARD"},{"id":"2865","tribuneTheaterId":"5667","providerTheaterId":"","name":"Regal Harrisburg Stadium 14","address":"1500 Caughey Dr","city":"Harrisburg","state":"PA","zip":"17112","distance":17.707857770848,"lon":"-76.835305","lat":"40.30298","theaterChainName":"Regal Cinemas","ticketType":"STANDARD"},{"id":"4193","tribuneTheaterId":"4985","providerTheaterId":"","name":"R\/C Gateway Theatre 8","address":"20 Presidential Circle","city":"Gettysburg","state":"PA","zip":"17325","distance":19.330555264979,"lon":"-77.191067","lat":"39.843881","theaterChainName":"R\/C Theatres","ticketType":"STANDARD"},{"id":"3609","tribuneTheaterId":"1752","providerTheaterId":"","name":"South York Plaza Cinemas 4","address":"217 Pauline Drive","city":"York","state":"PA","zip":"17402","distance":21.739278743733,"lon":"-76.682618","lat":"39.933261","theaterChainName":"Independent Chains","ticketType":"STANDARD"},{"id":"4914","tribuneTheaterId":"10231","providerTheaterId":"","name":"Queensgate Stadium 13","address":"2067 Springwood Road","city":"York","state":"PA","zip":"17403","distance":20.958443893126,"lon":"-76.693352","lat":"39.941498","theaterChainName":"Frank Theatres","ticketType":"STANDARD"},{"id":"2934","tribuneTheaterId":"2235","providerTheaterId":"","name":"Movietown Theatre","address":"700 N Hanover St","city":"Elizabethtown","state":"PA","zip":"17022","distance":22.843545557102,"lon":"-76.6098","lat":"40.1609","theaterChainName":"Independent Chains","ticketType":"STANDARD"},{"id":"2973","tribuneTheaterId":"2042","providerTheaterId":"","name":"Cocoaplex Cinema","address":"1130 Cocoa Ave","city":"Hershey","state":"PA","zip":"17033","distance":23.604753860541,"lon":"-76.648949","lat":"40.270247","theaterChainName":"Independent Chains","ticketType":"STANDARD"},{"id":"4200","tribuneTheaterId":"2275","providerTheaterId":"","name":"Gettysburg Village Cinema","address":"1865 Gettysburg Drive","city":"Gettysburg","state":"PA","zip":"17325","distance":22.89637548019,"lon":"-77.20082","lat":"39.790724","theaterChainName":"Frank Theatres","ticketType":"STANDARD"}]