[{"id":"5756","tribuneTheaterId":"11198","providerTheaterId":"","name":"Carlisle Commons Movies 8","address":"250 Noble Blvd","city":"Carlisle","state":"PA","zip":"17013","distance":2.0430178868239,"lon":"-77.196604","lat":"40.190457","theaterChainName":"R\/C Theatres","ticketType":"STANDARD"},{"id":"3112","tribuneTheaterId":"522","providerTheaterId":"","name":"Carlisle Theatre","address":"44 West High Street","city":"Carlisle","state":"PA","zip":"17013","distance":2.7171315364528,"lon":"-77.190456","lat":"40.201236","theaterChainName":"Independent Chains","ticketType":"STANDARD"},{"id":"4823","tribuneTheaterId":"10097","providerTheaterId":"","name":"Flagship Cinemas Premium","address":"4950 Carlisle Pike","city":"Mechanicsburg","state":"PA","zip":"17050","distance":14.40382576016,"lon":"-76.969206","lat":"40.235707","theaterChainName":"Carmike Cinemas","ticketType":"STANDARD"},{"id":"124","tribuneTheaterId":"3172","providerTheaterId":"","name":"Digiplex Cinema Center ","address":"3431 Simpson Ferry Road","city":"Camp Hill","state":"PA","zip":"17011","distance":15.781742937893,"lon":"-76.939391","lat":"40.227187","theaterChainName":"Carmike Cinemas","ticketType":"STANDARD"},{"id":"3474","tribuneTheaterId":"1745","providerTheaterId":"","name":"Midtown Cinema","address":"250 Reily Street","city":"Harrisburg","state":"PA","zip":"17102","distance":19.068829243067,"lon":"-76.8913","lat":"40.2711","theaterChainName":"Independent Chains","ticketType":"STANDARD"},{"id":"4430","tribuneTheaterId":"9502","providerTheaterId":"","name":"Great Escape 14","address":"3501 Paxton Street","city":"Harrisburg","state":"PA","zip":"17111","distance":21.743473830738,"lon":"-76.831027","lat":"40.252387","theaterChainName":"Regal Cinemas","ticketType":"STANDARD"},{"id":"3075","tribuneTheaterId":"6331","providerTheaterId":"","name":"Colonial Park 4","address":"1 Colonial Park Mall","city":"Harrisburg","state":"PA","zip":"17109","distance":23.326307302269,"lon":"-76.820097","lat":"40.301689","theaterChainName":"Independent Chains","ticketType":"STANDARD"},{"id":"2865","tribuneTheaterId":"5667","providerTheaterId":"","name":"Regal Harrisburg Stadium 14","address":"1500 Caughey Dr","city":"Harrisburg","state":"PA","zip":"17112","distance":22.616602623096,"lon":"-76.835305","lat":"40.30298","theaterChainName":"Regal Cinemas","ticketType":"STANDARD"},{"id":"4193","tribuneTheaterId":"4985","providerTheaterId":"","name":"R\/C Gateway Theatre 8","address":"20 Presidential Circle","city":"Gettysburg","state":"PA","zip":"17325","distance":23.127834013778,"lon":"-77.191067","lat":"39.843881","theaterChainName":"R\/C Theatres","ticketType":"STANDARD"},{"id":"1638","tribuneTheaterId":"8210","providerTheaterId":"","name":"Carmike 7 Chambersburg","address":"900 Chambersburg Mall","city":"Chambersburg","state":"PA","zip":"17202","distance":23.777317024045,"lon":"-77.576397","lat":"39.956658","theaterChainName":"Carmike Cinemas","ticketType":"STANDARD"}]