[{"id":"5756","tribuneTheaterId":"11198","providerTheaterId":"","name":"Carlisle Commons Movies 8","address":"250 Noble Blvd","city":"Carlisle","state":"PA","zip":"17013","distance":16.318692720003,"lon":"-77.196604","lat":"40.190457","theaterChainName":"R\/C Theatres","ticketType":"STANDARD"},{"id":"3112","tribuneTheaterId":"522","providerTheaterId":"","name":"Carlisle Theatre","address":"44 West High Street","city":"Carlisle","state":"PA","zip":"17013","distance":15.758903227196,"lon":"-77.190456","lat":"40.201236","theaterChainName":"Independent Chains","ticketType":"STANDARD"},{"id":"4823","tribuneTheaterId":"10097","providerTheaterId":"","name":"Flagship Cinemas Premium","address":"4950 Carlisle Pike","city":"Mechanicsburg","state":"PA","zip":"17050","distance":21.693804768732,"lon":"-76.969206","lat":"40.235707","theaterChainName":"Carmike Cinemas","ticketType":"STANDARD"},{"id":"3474","tribuneTheaterId":"1745","providerTheaterId":"","name":"Midtown Cinema","address":"250 Reily Street","city":"Harrisburg","state":"PA","zip":"17102","distance":24.13873748489,"lon":"-76.8913","lat":"40.2711","theaterChainName":"Independent Chains","ticketType":"STANDARD"},{"id":"124","tribuneTheaterId":"3172","providerTheaterId":"","name":"Digiplex Cinema Center ","address":"3431 Simpson Ferry Road","city":"Camp Hill","state":"PA","zip":"17011","distance":23.33166736446,"lon":"-76.939391","lat":"40.227187","theaterChainName":"Carmike Cinemas","ticketType":"STANDARD"}]