[{"id":"124","name":"Digiplex Cinema Center ","address":"3431 Simpson Ferry Road","city":"Camp Hill","state":"PA","zip":"17011","distance":"21.30000877380371","lon":"-76.939392","lat":"40.227188","theaterChainName":"Carmike Cinemas","ticketType":"STANDARD"},{"id":"3474","name":"Midtown Cinema","address":"250 Reily Street","city":"Harrisburg","state":"PA","zip":"17102","distance":"22.940977096557617","lon":"-76.891296","lat":"40.271099","theaterChainName":"Independent Chains","ticketType":"STANDARD"},{"id":"4823","name":"Flagship Cinemas Premium","address":"4950 Carlisle Pike","city":"Mechanicsburg","state":"PA","zip":"17050","distance":"19.620695114135742","lon":"-76.969208","lat":"40.235706","theaterChainName":"Carmike Cinemas","ticketType":"STANDARD"},{"id":"3112","name":"Carlisle Theatre","address":"44 West High Street","city":"Carlisle","state":"PA","zip":"17013","distance":"11.331193923950195","lon":"-77.190453","lat":"40.201237","theaterChainName":"Independent Chains","ticketType":"STANDARD"},{"id":"5756","name":"Carlisle Commons Movies 8","address":"250 Noble Blvd","city":"Carlisle","state":"PA","zip":"17013","distance":"11.75529670715332","lon":"-77.196602","lat":"40.190456","theaterChainName":"R\/C Theatres","ticketType":"STANDARD"}]