[{"id":"124","name":"Digiplex Cinema Center ","address":"3431 Simpson Ferry Road","city":"Camp Hill","state":"PA","zip":"17011","distance":"18.863605499267578","lon":"-76.939392","lat":"40.227188","theaterChainName":"Carmike Cinemas","ticketType":"STANDARD"},{"id":"3474","name":"Midtown Cinema","address":"250 Reily Street","city":"Harrisburg","state":"PA","zip":"17102","distance":"18.938270568847656","lon":"-76.891296","lat":"40.271099","theaterChainName":"Independent Chains","ticketType":"STANDARD"},{"id":"4823","name":"Flagship Cinemas Premium","address":"4950 Carlisle Pike","city":"Mechanicsburg","state":"PA","zip":"17050","distance":"17.3465518951416","lon":"-76.969208","lat":"40.235706","theaterChainName":"Carmike Cinemas","ticketType":"STANDARD"},{"id":"4430","name":"Great Escape 14","address":"3501 Paxton Street","city":"Harrisburg","state":"PA","zip":"17111","distance":"22.318567276000977","lon":"-76.831024","lat":"40.252388","theaterChainName":"Regal Cinemas","ticketType":"STANDARD"},{"id":"2865","name":"Regal Harrisburg Stadium 14","address":"1500 Caughey Dr","city":"Harrisburg","state":"PA","zip":"17112","distance":"20.515216827392578","lon":"-76.835304","lat":"40.302979","theaterChainName":"Regal Cinemas","ticketType":"STANDARD"},{"id":"3075","name":"Colonial Park 4","address":"1 Colonial Park Mall","city":"Harrisburg","state":"PA","zip":"17109","distance":"21.288129806518555","lon":"-76.820099","lat":"40.301689","theaterChainName":"Independent Chains","ticketType":"STANDARD"},{"id":"3112","name":"Carlisle Theatre","address":"44 West High Street","city":"Carlisle","state":"PA","zip":"17013","distance":"15.068684577941895","lon":"-77.190453","lat":"40.201237","theaterChainName":"Independent Chains","ticketType":"STANDARD"},{"id":"5756","name":"Carlisle Commons Movies 8","address":"250 Noble Blvd","city":"Carlisle","state":"PA","zip":"17013","distance":"15.813234329223633","lon":"-77.196602","lat":"40.190456","theaterChainName":"R\/C Theatres","ticketType":"STANDARD"}]