[{"id":"4233","tribuneTheaterId":"8543","providerTheaterId":"","name":"Great Escape Lebanon Valley Stadium 10","address":"2200 Lebanon Valley Mall Rd.","city":"Lebanon","state":"PA","zip":"17042","distance":12.625689948218,"lon":"-76.452838","lat":"40.341638","theaterChainName":"Regal Cinemas","ticketType":"STANDARD"},{"id":"3978","tribuneTheaterId":"1421","providerTheaterId":"","name":"Ephrata Main Theatre","address":"124 East Main Street","city":"Ephrata","state":"PA","zip":"17522","distance":12.188573303682,"lon":"-76.1737","lat":"40.1757","theaterChainName":"Independent Chains","ticketType":"STANDARD"},{"id":"5267","tribuneTheaterId":"10700","providerTheaterId":"","name":"Fox Berkshire","address":"800 Berkshire Boulevard","city":"Wyomissing","state":"PA","zip":"19610","distance":12.932695573865,"lon":"-75.9677","lat":"40.3509","theaterChainName":"Fox Theatres","ticketType":"STANDARD"},{"id":"2241","tribuneTheaterId":"6348","providerTheaterId":"","name":"Cinema Center Fairgrounds Sq.","address":"3050 N 5th St. Hwy.","city":"Reading","state":"PA","zip":"19605","distance":15.020197207198,"lon":"-75.930765","lat":"40.379757","theaterChainName":"Carmike Cinemas","ticketType":"STANDARD"},{"id":"4550","tribuneTheaterId":"9686","providerTheaterId":"","name":"R\/C Reading Movies 11 & IMAX","address":"30 N 2nd Street","city":"Reading","state":"PA","zip":"19601","distance":14.720126001569,"lon":"-75.934286","lat":"40.336652","theaterChainName":"R\/C Theatres","ticketType":"STANDARD"},{"id":"4477","tribuneTheaterId":"9571","providerTheaterId":"","name":"Goggleworks Theatre","address":"201 Washington St.","city":"Reading","state":"PA","zip":"19601","distance":14.742323964854,"lon":"-75.933852","lat":"40.336797","theaterChainName":"Independent Chains","ticketType":"STANDARD"},{"id":"4535","tribuneTheaterId":"9667","providerTheaterId":"","name":"Penn Cinema","address":"541 Airport Rd.","city":"Lititz","state":"PA","zip":"17543","distance":16.768308698309,"lon":"-76.291959","lat":"40.114356","theaterChainName":"Independent Chains","ticketType":"STANDARD"},{"id":"5720","tribuneTheaterId":"11162","providerTheaterId":"","name":"Flagship Cinemas Palmyra","address":"2 N. Londonderry Square","city":"Palmyra","state":"PA","zip":"17078","distance":18.916624940573,"lon":"-76.570438","lat":"40.320435","theaterChainName":"Flagship Cinemas","ticketType":"STANDARD"},{"id":"844","tribuneTheaterId":"6116","providerTheaterId":"","name":"Fox East Theatre","address":"4350 Perkiomen Ave.","city":"Reading","state":"PA","zip":"19606","distance":18.362999197558,"lon":"-75.868661","lat":"40.309413","theaterChainName":"Fox Theatres","ticketType":"STANDARD"},{"id":"5437","tribuneTheaterId":"10878","providerTheaterId":"","name":"Zoetropolis","address":"315 W. James St.","city":"Lancaster","state":"PA","zip":"17603","distance":21.659107720229,"lon":"-76.3124","lat":"40.0453","theaterChainName":"Independent Chains","ticketType":"STANDARD"},{"id":"2386","tribuneTheaterId":"8308","providerTheaterId":"","name":"Regal Manor Stadium 16","address":"1246 Millersville Pike","city":"Lancaster","state":"PA","zip":"17603","distance":23.078570743412,"lon":"-76.324189","lat":"40.0264","theaterChainName":"Regal Cinemas","ticketType":"STANDARD"},{"id":"2973","tribuneTheaterId":"2042","providerTheaterId":"","name":"Cocoaplex Cinema","address":"1130 Cocoa Ave","city":"Hershey","state":"PA","zip":"17033","distance":23.597395093103,"lon":"-76.648949","lat":"40.270247","theaterChainName":"Independent Chains","ticketType":"STANDARD"},{"id":"2934","tribuneTheaterId":"2235","providerTheaterId":"","name":"Movietown Theatre","address":"700 N Hanover St","city":"Elizabethtown","state":"PA","zip":"17022","distance":24.635938881156,"lon":"-76.6098","lat":"40.1609","theaterChainName":"Independent Chains","ticketType":"STANDARD"}]