[{"id":"124","name":"Digiplex Cinema Center ","address":"3431 Simpson Ferry Road","city":"Camp Hill","state":"PA","zip":"17011","distance":"4.779938220977783","lon":"-76.939392","lat":"40.227188","theaterChainName":"Carmike Cinemas","ticketType":"STANDARD"},{"id":"3474","name":"Midtown Cinema","address":"250 Reily Street","city":"Harrisburg","state":"PA","zip":"17102","distance":"1.8571422100067139","lon":"-76.891296","lat":"40.271099","theaterChainName":"Independent Chains","ticketType":"STANDARD"},{"id":"4823","name":"Flagship Cinemas Premium","address":"4950 Carlisle Pike","city":"Mechanicsburg","state":"PA","zip":"17050","distance":"6.023947238922119","lon":"-76.969208","lat":"40.235706","theaterChainName":"Carmike Cinemas","ticketType":"STANDARD"},{"id":"4430","name":"Great Escape 14","address":"3501 Paxton Street","city":"Harrisburg","state":"PA","zip":"17111","distance":"1.5792450904846191","lon":"-76.831024","lat":"40.252388","theaterChainName":"Regal Cinemas","ticketType":"STANDARD"},{"id":"2865","name":"Regal Harrisburg Stadium 14","address":"1500 Caughey Dr","city":"Harrisburg","state":"PA","zip":"17112","distance":"3.2489140033721924","lon":"-76.835304","lat":"40.302979","theaterChainName":"Regal Cinemas","ticketType":"STANDARD"},{"id":"3075","name":"Colonial Park 4","address":"1 Colonial Park Mall","city":"Harrisburg","state":"PA","zip":"17109","distance":"3.564969539642334","lon":"-76.820099","lat":"40.301689","theaterChainName":"Independent Chains","ticketType":"STANDARD"},{"id":"1013","name":"Elks Theatre","address":"Emaus ","city":"Middletown","state":"PA","zip":"17057","distance":"8.086087226867676","lon":"-76.731667","lat":"40.195015","theaterChainName":"Independent Chains","ticketType":"STANDARD"},{"id":"2973","name":"Cocoaplex Cinema","address":"1130 Cocoa Ave","city":"Hershey","state":"PA","zip":"17033","distance":"11.120020866394043","lon":"-76.648949","lat":"40.270248","theaterChainName":"Independent Chains","ticketType":"STANDARD"},{"id":"3112","name":"Carlisle Theatre","address":"44 West High Street","city":"Carlisle","state":"PA","zip":"17013","distance":"17.925168991088867","lon":"-77.190453","lat":"40.201237","theaterChainName":"Independent Chains","ticketType":"STANDARD"},{"id":"5756","name":"Carlisle Commons Movies 8","address":"250 Noble Blvd","city":"Carlisle","state":"PA","zip":"17013","distance":"18.422019958496094","lon":"-77.196602","lat":"40.190456","theaterChainName":"R\/C Theatres","ticketType":"STANDARD"},{"id":"1444","name":"Regal West Manchester Mall 13","address":"1800 Loucks Road","city":"York","state":"PA","zip":"17408","distance":"20.454866409301758","lon":"-76.771713","lat":"39.971367","theaterChainName":"Regal Cinemas","ticketType":"STANDARD"},{"id":"2934","name":"Movietown Theatre","address":"700 N Hanover St","city":"Elizabethtown","state":"PA","zip":"17022","distance":"14.834939002990723","lon":"-76.609802","lat":"40.160900","theaterChainName":"Independent Chains","ticketType":"STANDARD"},{"id":"5881","name":"SMALL STAR Art house","address":"232 West Market Street","city":"York","state":"PA","zip":"17401","distance":"21.730056762695312","lon":"-76.733116","lat":"39.960415","theaterChainName":"Independent Chains","ticketType":"STANDARD"},{"id":"5720","name":"Flagship Cinemas Palmyra","address":"2 N. Londonderry Square","city":"Palmyra","state":"PA","zip":"17078","distance":"15.797762870788574","lon":"-76.570435","lat":"40.320435","theaterChainName":"Flagship Cinemas","ticketType":"STANDARD"},{"id":"4914","name":"Queensgate Stadium 13","address":"2067 Springwood Road","city":"York","state":"PA","zip":"17403","distance":"23.673847198486328","lon":"-76.693352","lat":"39.941498","theaterChainName":"Frank Theatres","ticketType":"STANDARD"},{"id":"3609","name":"South York Plaza Cinemas 4","address":"217 Pauline Drive","city":"York","state":"PA","zip":"17402","distance":"24.414968490600586","lon":"-76.682617","lat":"39.933262","theaterChainName":"Independent Chains","ticketType":"STANDARD"},{"id":"4233","name":"Great Escape Lebanon Valley Stadium 10","address":"2200 Lebanon Valley Mall Rd.","city":"Lebanon","state":"PA","zip":"17042","distance":"22.160444259643555","lon":"-76.452835","lat":"40.341637","theaterChainName":"Regal Cinemas","ticketType":"STANDARD"}]