[{"id":"124","name":"Digiplex Cinema Center ","address":"3431 Simpson Ferry Road","city":"Camp Hill","state":"PA","zip":"17011","distance":"3.960826873779297","lon":"-76.939392","lat":"40.227188","theaterChainName":"Carmike Cinemas","ticketType":"STANDARD"},{"id":"3474","name":"Midtown Cinema","address":"250 Reily Street","city":"Harrisburg","state":"PA","zip":"17102","distance":"0.37377873063087463","lon":"-76.891296","lat":"40.271099","theaterChainName":"Independent Chains","ticketType":"STANDARD"},{"id":"4823","name":"Flagship Cinemas Premium","address":"4950 Carlisle Pike","city":"Mechanicsburg","state":"PA","zip":"17050","distance":"4.907257080078125","lon":"-76.969208","lat":"40.235706","theaterChainName":"Carmike Cinemas","ticketType":"STANDARD"},{"id":"4430","name":"Great Escape 14","address":"3501 Paxton Street","city":"Harrisburg","state":"PA","zip":"17111","distance":"3.0813169479370117","lon":"-76.831024","lat":"40.252388","theaterChainName":"Regal Cinemas","ticketType":"STANDARD"},{"id":"2865","name":"Regal Harrisburg Stadium 14","address":"1500 Caughey Dr","city":"Harrisburg","state":"PA","zip":"17112","distance":"3.6263062953948975","lon":"-76.835304","lat":"40.302979","theaterChainName":"Regal Cinemas","ticketType":"STANDARD"},{"id":"3075","name":"Colonial Park 4","address":"1 Colonial Park Mall","city":"Harrisburg","state":"PA","zip":"17109","distance":"4.200873851776123","lon":"-76.820099","lat":"40.301689","theaterChainName":"Independent Chains","ticketType":"STANDARD"},{"id":"1013","name":"Elks Theatre","address":"Emaus ","city":"Middletown","state":"PA","zip":"17057","distance":"9.55880355834961","lon":"-76.731667","lat":"40.195015","theaterChainName":"Independent Chains","ticketType":"STANDARD"},{"id":"2973","name":"Cocoaplex Cinema","address":"1130 Cocoa Ave","city":"Hershey","state":"PA","zip":"17033","distance":"12.499532699584961","lon":"-76.648949","lat":"40.270248","theaterChainName":"Independent Chains","ticketType":"STANDARD"},{"id":"3112","name":"Carlisle Theatre","address":"44 West High Street","city":"Carlisle","state":"PA","zip":"17013","distance":"16.699657440185547","lon":"-77.190453","lat":"40.201237","theaterChainName":"Independent Chains","ticketType":"STANDARD"},{"id":"5756","name":"Carlisle Commons Movies 8","address":"250 Noble Blvd","city":"Carlisle","state":"PA","zip":"17013","distance":"17.228506088256836","lon":"-77.196602","lat":"40.190456","theaterChainName":"R\/C Theatres","ticketType":"STANDARD"},{"id":"1444","name":"Regal West Manchester Mall 13","address":"1800 Loucks Road","city":"York","state":"PA","zip":"17408","distance":"21.334714889526367","lon":"-76.771713","lat":"39.971367","theaterChainName":"Regal Cinemas","ticketType":"STANDARD"},{"id":"2934","name":"Movietown Theatre","address":"700 N Hanover St","city":"Elizabethtown","state":"PA","zip":"17022","distance":"16.329458236694336","lon":"-76.609802","lat":"40.160900","theaterChainName":"Independent Chains","ticketType":"STANDARD"},{"id":"5881","name":"SMALL STAR Art house","address":"232 West Market Street","city":"York","state":"PA","zip":"17401","distance":"22.704933166503906","lon":"-76.733116","lat":"39.960415","theaterChainName":"Independent Chains","ticketType":"STANDARD"},{"id":"5720","name":"Flagship Cinemas Palmyra","address":"2 N. Londonderry Square","city":"Palmyra","state":"PA","zip":"17078","distance":"17.02882194519043","lon":"-76.570435","lat":"40.320435","theaterChainName":"Flagship Cinemas","ticketType":"STANDARD"},{"id":"4914","name":"Queensgate Stadium 13","address":"2067 Springwood Road","city":"York","state":"PA","zip":"17403","distance":"24.720245361328125","lon":"-76.693352","lat":"39.941498","theaterChainName":"Frank Theatres","ticketType":"STANDARD"},{"id":"4233","name":"Great Escape Lebanon Valley Stadium 10","address":"2200 Lebanon Valley Mall Rd.","city":"Lebanon","state":"PA","zip":"17042","distance":"23.393409729003906","lon":"-76.452835","lat":"40.341637","theaterChainName":"Regal Cinemas","ticketType":"STANDARD"}]