[{"id":"1638","name":"Carmike 7 Chambersburg","address":"900 Chambersburg Mall","city":"Chambersburg","state":"PA","zip":"17202","distance":"10.862090110778809","lon":"-77.576401","lat":"39.956657","theaterChainName":"Carmike Cinemas","ticketType":"STANDARD"},{"id":"4193","name":"R\/C Gateway Theatre 8","address":"20 Presidential Circle","city":"Gettysburg","state":"PA","zip":"17325","distance":"20.924713134765625","lon":"-77.191071","lat":"39.843880","theaterChainName":"R\/C Theatres","ticketType":"STANDARD"},{"id":"4200","name":"Gettysburg Village Cinema","address":"1865 Gettysburg Drive","city":"Gettysburg","state":"PA","zip":"17325","distance":"20.198244094848633","lon":"-77.200821","lat":"39.790726","theaterChainName":"Frank Theatres","ticketType":"STANDARD"},{"id":"4946","name":"Leitersburg Cinemas","address":"20145 Leitersburg pike","city":"Hagerstown","state":"MD","zip":"21742","distance":"9.185178756713867","lon":"-77.667404","lat":"39.684319","theaterChainName":"Independent Chains","ticketType":"STANDARD"},{"id":"3027","name":"Regal Valley Mall Stadium 16","address":"17301 Valley Mall Rd.","city":"Hagerstown","state":"MD","zip":"21740","distance":"15.84036636352539","lon":"-77.772583","lat":"39.623840","theaterChainName":"Regal Cinemas","ticketType":"STANDARD"}]