[{"id":"1638","name":"Carmike 7 Chambersburg","address":"900 Chambersburg Mall","city":"Chambersburg","state":"PA","zip":"17202","distance":"12.51002025604248","lon":"-77.576401","lat":"39.956657","theaterChainName":"Carmike Cinemas","ticketType":"STANDARD"},{"id":"3112","name":"Carlisle Theatre","address":"44 West High Street","city":"Carlisle","state":"PA","zip":"17013","distance":"23.193864822387695","lon":"-77.190453","lat":"40.201237","theaterChainName":"Independent Chains","ticketType":"STANDARD"},{"id":"5756","name":"Carlisle Commons Movies 8","address":"250 Noble Blvd","city":"Carlisle","state":"PA","zip":"17013","distance":"22.381526947021484","lon":"-77.196602","lat":"40.190456","theaterChainName":"R\/C Theatres","ticketType":"STANDARD"},{"id":"3121","name":"R\/C Hanover Movies","address":"380 Eisenhower Dr.","city":"Hanover","state":"PA","zip":"17331","distance":"20.026866912841797","lon":"-76.989555","lat":"39.822662","theaterChainName":"R\/C Theatres","ticketType":"STANDARD"},{"id":"4193","name":"R\/C Gateway Theatre 8","address":"20 Presidential Circle","city":"Gettysburg","state":"PA","zip":"17325","distance":"9.353395462036133","lon":"-77.191071","lat":"39.843880","theaterChainName":"R\/C Theatres","ticketType":"STANDARD"},{"id":"4200","name":"Gettysburg Village Cinema","address":"1865 Gettysburg Drive","city":"Gettysburg","state":"PA","zip":"17325","distance":"10.767056465148926","lon":"-77.200821","lat":"39.790726","theaterChainName":"Frank Theatres","ticketType":"STANDARD"},{"id":"4946","name":"Leitersburg Cinemas","address":"20145 Leitersburg pike","city":"Hagerstown","state":"MD","zip":"21742","distance":"21.805875778198242","lon":"-77.667404","lat":"39.684319","theaterChainName":"Independent Chains","ticketType":"STANDARD"}]