[{"id":"3533","tribuneTheaterId":"6842","providerTheaterId":"","name":"Flagship Cinemas 7 Churchville","address":"2408 E.Churchville Rd.","city":"Bel Air","state":"MD","zip":"21015","distance":13.970767557518,"lon":"-76.275727","lat":"39.556571","theaterChainName":"Carmike Cinemas","ticketType":"STANDARD"},{"id":"498","tribuneTheaterId":"4512","providerTheaterId":"","name":"Kendig Square Movies 6","address":"2600 N. Willow Street Pike","city":"Willow Street","state":"PA","zip":"17584","distance":16.471712101526,"lon":"-76.282282","lat":"39.985429","theaterChainName":"Independent Chains","ticketType":"STANDARD"},{"id":"5978","tribuneTheaterId":"11414","providerTheaterId":"","name":"Horizon Cinemas Fallston","address":"2315 Belair Road","city":"Fallston","state":"MD","zip":"21047","distance":18.110323271286,"lon":"-76.390931","lat":"39.49218","theaterChainName":"Horizon Cinemas","ticketType":"STANDARD"},{"id":"2386","tribuneTheaterId":"8308","providerTheaterId":"","name":"Regal Manor Stadium 16","address":"1246 Millersville Pike","city":"Lancaster","state":"PA","zip":"17603","distance":19.002361552412,"lon":"-76.324189","lat":"40.0264","theaterChainName":"Regal Cinemas","ticketType":"STANDARD"},{"id":"685","tribuneTheaterId":"8845","providerTheaterId":"","name":"Regal Bel Air Cinema Stadium 14","address":"409 Constant Friendship Blvd.","city":"Abingdon","state":"MD","zip":"21009","distance":20.544398315077,"lon":"-76.316528","lat":"39.455217","theaterChainName":"Regal Cinemas","ticketType":"STANDARD"},{"id":"5437","tribuneTheaterId":"10878","providerTheaterId":"","name":"Zoetropolis","address":"315 W. James St.","city":"Lancaster","state":"PA","zip":"17603","distance":20.348381352538,"lon":"-76.3124","lat":"40.0453","theaterChainName":"Independent Chains","ticketType":"STANDARD"},{"id":"1014","tribuneTheaterId":"227","providerTheaterId":"","name":"Glen Theatre","address":"37 Manchester Street","city":"Glen Rock","state":"PA","zip":"17327","distance":20.67548213403,"lon":"-76.73008","lat":"39.790971","theaterChainName":"Independent Chains","ticketType":"STANDARD"},{"id":"3609","tribuneTheaterId":"1752","providerTheaterId":"","name":"South York Plaza Cinemas 4","address":"217 Pauline Drive","city":"York","state":"PA","zip":"17402","distance":21.902100227501,"lon":"-76.682618","lat":"39.933261","theaterChainName":"Independent Chains","ticketType":"STANDARD"},{"id":"4914","tribuneTheaterId":"10231","providerTheaterId":"","name":"Queensgate Stadium 13","address":"2067 Springwood Road","city":"York","state":"PA","zip":"17403","distance":22.69432724497,"lon":"-76.693352","lat":"39.941498","theaterChainName":"Frank Theatres","ticketType":"STANDARD"},{"id":"1692","tribuneTheaterId":"7424","providerTheaterId":"","name":"Regal Hunt Valley Stadium 12","address":"11511 McCormick Road","city":"Hunt Valley","state":"MD","zip":"21030","distance":24.075199510742,"lon":"-76.656053","lat":"39.499447","theaterChainName":"Regal Cinemas","ticketType":"STANDARD"}]