[{"id":"1444","name":"Regal West Manchester Mall 13","address":"1800 Loucks Road","city":"York","state":"PA","zip":"17408","distance":"15.205286026000977","lon":"-76.771713","lat":"39.971367","theaterChainName":"Regal Cinemas","ticketType":"STANDARD"},{"id":"5881","name":"SMALL STAR Art house","address":"232 West Market Street","city":"York","state":"PA","zip":"17401","distance":"15.414288520812988","lon":"-76.733116","lat":"39.960415","theaterChainName":"Independent Chains","ticketType":"STANDARD"},{"id":"4914","name":"Queensgate Stadium 13","address":"2067 Springwood Road","city":"York","state":"PA","zip":"17403","distance":"15.52971076965332","lon":"-76.693352","lat":"39.941498","theaterChainName":"Frank Theatres","ticketType":"STANDARD"},{"id":"3609","name":"South York Plaza Cinemas 4","address":"217 Pauline Drive","city":"York","state":"PA","zip":"17402","distance":"15.467314720153809","lon":"-76.682617","lat":"39.933262","theaterChainName":"Independent Chains","ticketType":"STANDARD"},{"id":"3121","name":"R\/C Hanover Movies","address":"380 Eisenhower Dr.","city":"Hanover","state":"PA","zip":"17331","distance":"7.078930377960205","lon":"-76.989555","lat":"39.822662","theaterChainName":"R\/C Theatres","ticketType":"STANDARD"},{"id":"4193","name":"R\/C Gateway Theatre 8","address":"20 Presidential Circle","city":"Gettysburg","state":"PA","zip":"17325","distance":"17.464157104492188","lon":"-77.191071","lat":"39.843880","theaterChainName":"R\/C Theatres","ticketType":"STANDARD"},{"id":"1014","name":"Glen Theatre","address":"37 Manchester Street","city":"Glen Rock","state":"PA","zip":"17327","distance":"8.01359748840332","lon":"-76.730080","lat":"39.790970","theaterChainName":"Independent Chains","ticketType":"STANDARD"},{"id":"4200","name":"Gettysburg Village Cinema","address":"1865 Gettysburg Drive","city":"Gettysburg","state":"PA","zip":"17325","distance":"17.237403869628906","lon":"-77.200821","lat":"39.790726","theaterChainName":"Frank Theatres","ticketType":"STANDARD"},{"id":"487","name":"Regal Westminister 9","address":"400 Center St.","city":"Westminster","state":"MD","zip":"21157","distance":"14.269371032714844","lon":"-76.983704","lat":"39.577190","theaterChainName":"Regal Cinemas","ticketType":"STANDARD"},{"id":"1692","name":"Regal Hunt Valley Stadium 12","address":"11511 McCormick Road","city":"Hunt Valley","state":"MD","zip":"21030","distance":"21.92361068725586","lon":"-76.656052","lat":"39.499447","theaterChainName":"Regal Cinemas","ticketType":"STANDARD"}]