[{"id":"3112","tribuneTheaterId":"522","providerTheaterId":"","name":"Carlisle Theatre","address":"44 West High Street","city":"Carlisle","state":"PA","zip":"17013","distance":12.829421186572,"lon":"-77.190456","lat":"40.201236","theaterChainName":"Independent Chains","ticketType":"STANDARD"},{"id":"4193","tribuneTheaterId":"4985","providerTheaterId":"","name":"R\/C Gateway Theatre 8","address":"20 Presidential Circle","city":"Gettysburg","state":"PA","zip":"17325","distance":11.881185391602,"lon":"-77.191067","lat":"39.843881","theaterChainName":"R\/C Theatres","ticketType":"STANDARD"},{"id":"5756","tribuneTheaterId":"11198","providerTheaterId":"","name":"Carlisle Commons Movies 8","address":"250 Noble Blvd","city":"Carlisle","state":"PA","zip":"17013","distance":12.075951766426,"lon":"-77.196604","lat":"40.190457","theaterChainName":"R\/C Theatres","ticketType":"STANDARD"},{"id":"4200","tribuneTheaterId":"2275","providerTheaterId":"","name":"Gettysburg Village Cinema","address":"1865 Gettysburg Drive","city":"Gettysburg","state":"PA","zip":"17325","distance":15.54438172831,"lon":"-77.20082","lat":"39.790724","theaterChainName":"Frank Theatres","ticketType":"STANDARD"},{"id":"3121","tribuneTheaterId":"4988","providerTheaterId":"","name":"R\/C Hanover Movies","address":"380 Eisenhower Dr.","city":"Hanover","state":"PA","zip":"17331","distance":17.388568091696,"lon":"-76.989559","lat":"39.8226642","theaterChainName":"R\/C Theatres","ticketType":"STANDARD"},{"id":"4823","tribuneTheaterId":"10097","providerTheaterId":"","name":"Flagship Cinemas Premium","address":"4950 Carlisle Pike","city":"Mechanicsburg","state":"PA","zip":"17050","distance":19.490252105051,"lon":"-76.969206","lat":"40.235707","theaterChainName":"Carmike Cinemas","ticketType":"STANDARD"},{"id":"124","tribuneTheaterId":"3172","providerTheaterId":"","name":"Digiplex Cinema Center ","address":"3431 Simpson Ferry Road","city":"Camp Hill","state":"PA","zip":"17011","distance":20.081158044059,"lon":"-76.939391","lat":"40.227187","theaterChainName":"Carmike Cinemas","ticketType":"STANDARD"},{"id":"1638","tribuneTheaterId":"8210","providerTheaterId":"","name":"Carmike 7 Chambersburg","address":"900 Chambersburg Mall","city":"Chambersburg","state":"PA","zip":"17202","distance":20.334266508025,"lon":"-77.576397","lat":"39.956658","theaterChainName":"Carmike Cinemas","ticketType":"STANDARD"},{"id":"1444","tribuneTheaterId":"5641","providerTheaterId":"","name":"Regal West Manchester Mall 13","address":"1800 Loucks Road","city":"York","state":"PA","zip":"17408","distance":22.882138953725,"lon":"-76.77171","lat":"39.971366","theaterChainName":"Regal Cinemas","ticketType":"STANDARD"},{"id":"3474","tribuneTheaterId":"1745","providerTheaterId":"","name":"Midtown Cinema","address":"250 Reily Street","city":"Harrisburg","state":"PA","zip":"17102","distance":24.029347455887,"lon":"-76.8913","lat":"40.2711","theaterChainName":"Independent Chains","ticketType":"STANDARD"}]