[{"id":"3121","tribuneTheaterId":"4988","providerTheaterId":"","name":"R\/C Hanover Movies","address":"380 Eisenhower Dr.","city":"Hanover","state":"PA","zip":"17331","distance":1.4855807266422,"lon":"-76.989559","lat":"39.8226642","theaterChainName":"R\/C Theatres","ticketType":"STANDARD"},{"id":"4193","tribuneTheaterId":"4985","providerTheaterId":"","name":"R\/C Gateway Theatre 8","address":"20 Presidential Circle","city":"Gettysburg","state":"PA","zip":"17325","distance":11.848316140538,"lon":"-77.191067","lat":"39.843881","theaterChainName":"R\/C Theatres","ticketType":"STANDARD"},{"id":"4200","tribuneTheaterId":"2275","providerTheaterId":"","name":"Gettysburg Village Cinema","address":"1865 Gettysburg Drive","city":"Gettysburg","state":"PA","zip":"17325","distance":12.102210496304,"lon":"-77.20082","lat":"39.790724","theaterChainName":"Frank Theatres","ticketType":"STANDARD"},{"id":"1014","tribuneTheaterId":"227","providerTheaterId":"","name":"Glen Theatre","address":"37 Manchester Street","city":"Glen Rock","state":"PA","zip":"17327","distance":12.963496217637,"lon":"-76.73008","lat":"39.790971","theaterChainName":"Independent Chains","ticketType":"STANDARD"},{"id":"5881","tribuneTheaterId":"11300","providerTheaterId":"","name":"SMALL STAR Art house","address":"232 West Market Street","city":"York","state":"PA","zip":"17401","distance":16.669821904787,"lon":"-76.733113","lat":"39.960416","theaterChainName":"Independent Chains","ticketType":"STANDARD"},{"id":"1444","tribuneTheaterId":"5641","providerTheaterId":"","name":"Regal West Manchester Mall 13","address":"1800 Loucks Road","city":"York","state":"PA","zip":"17408","distance":15.706321443696,"lon":"-76.77171","lat":"39.971366","theaterChainName":"Regal Cinemas","ticketType":"STANDARD"},{"id":"487","tribuneTheaterId":"7145","providerTheaterId":"","name":"Regal Westminister 9","address":"400 Center St.","city":"Westminster","state":"MD","zip":"21157","distance":15.749384272434,"lon":"-76.983707","lat":"39.577189","theaterChainName":"Regal Cinemas","ticketType":"STANDARD"},{"id":"3609","tribuneTheaterId":"1752","providerTheaterId":"","name":"South York Plaza Cinemas 4","address":"217 Pauline Drive","city":"York","state":"PA","zip":"17402","distance":17.794424420758,"lon":"-76.682618","lat":"39.933261","theaterChainName":"Independent Chains","ticketType":"STANDARD"},{"id":"4914","tribuneTheaterId":"10231","providerTheaterId":"","name":"Queensgate Stadium 13","address":"2067 Springwood Road","city":"York","state":"PA","zip":"17403","distance":17.600653315132,"lon":"-76.693352","lat":"39.941498","theaterChainName":"Frank Theatres","ticketType":"STANDARD"}]