[{"id":"3121","tribuneTheaterId":"4988","providerTheaterId":"","name":"R\/C Hanover Movies","address":"380 Eisenhower Dr.","city":"Hanover","state":"PA","zip":"17331","distance":5.4838839715884,"lon":"-76.989559","lat":"39.8226642","theaterChainName":"R\/C Theatres","ticketType":"STANDARD"},{"id":"4193","tribuneTheaterId":"4985","providerTheaterId":"","name":"R\/C Gateway Theatre 8","address":"20 Presidential Circle","city":"Gettysburg","state":"PA","zip":"17325","distance":7.1132167908687,"lon":"-77.191067","lat":"39.843881","theaterChainName":"R\/C Theatres","ticketType":"STANDARD"},{"id":"4200","tribuneTheaterId":"2275","providerTheaterId":"","name":"Gettysburg Village Cinema","address":"1865 Gettysburg Drive","city":"Gettysburg","state":"PA","zip":"17325","distance":9.4028439234081,"lon":"-77.20082","lat":"39.790724","theaterChainName":"Frank Theatres","ticketType":"STANDARD"},{"id":"1444","tribuneTheaterId":"5641","providerTheaterId":"","name":"Regal West Manchester Mall 13","address":"1800 Loucks Road","city":"York","state":"PA","zip":"17408","distance":16.805343910005,"lon":"-76.77171","lat":"39.971366","theaterChainName":"Regal Cinemas","ticketType":"STANDARD"},{"id":"1014","tribuneTheaterId":"227","providerTheaterId":"","name":"Glen Theatre","address":"37 Manchester Street","city":"Glen Rock","state":"PA","zip":"17327","distance":18.713352732544,"lon":"-76.73008","lat":"39.790971","theaterChainName":"Independent Chains","ticketType":"STANDARD"},{"id":"5881","tribuneTheaterId":"11300","providerTheaterId":"","name":"SMALL STAR Art house","address":"232 West Market Street","city":"York","state":"PA","zip":"17401","distance":18.461415332712,"lon":"-76.733113","lat":"39.960416","theaterChainName":"Independent Chains","ticketType":"STANDARD"},{"id":"4914","tribuneTheaterId":"10231","providerTheaterId":"","name":"Queensgate Stadium 13","address":"2067 Springwood Road","city":"York","state":"PA","zip":"17403","distance":20.15085796313,"lon":"-76.693352","lat":"39.941498","theaterChainName":"Frank Theatres","ticketType":"STANDARD"},{"id":"3609","tribuneTheaterId":"1752","providerTheaterId":"","name":"South York Plaza Cinemas 4","address":"217 Pauline Drive","city":"York","state":"PA","zip":"17402","distance":20.593421093661,"lon":"-76.682618","lat":"39.933261","theaterChainName":"Independent Chains","ticketType":"STANDARD"},{"id":"487","tribuneTheaterId":"7145","providerTheaterId":"","name":"Regal Westminister 9","address":"400 Center St.","city":"Westminster","state":"MD","zip":"21157","distance":21.186832520945,"lon":"-76.983707","lat":"39.577189","theaterChainName":"Regal Cinemas","ticketType":"STANDARD"},{"id":"3112","tribuneTheaterId":"522","providerTheaterId":"","name":"Carlisle Theatre","address":"44 West High Street","city":"Carlisle","state":"PA","zip":"17013","distance":23.342254932809,"lon":"-77.190456","lat":"40.201236","theaterChainName":"Independent Chains","ticketType":"STANDARD"},{"id":"5756","tribuneTheaterId":"11198","providerTheaterId":"","name":"Carlisle Commons Movies 8","address":"250 Noble Blvd","city":"Carlisle","state":"PA","zip":"17013","distance":22.727785009874,"lon":"-77.196604","lat":"40.190457","theaterChainName":"R\/C Theatres","ticketType":"STANDARD"}]