[{"id":"3609","tribuneTheaterId":"1752","providerTheaterId":"","name":"South York Plaza Cinemas 4","address":"217 Pauline Drive","city":"York","state":"PA","zip":"17402","distance":6.5805776348422,"lon":"-76.682618","lat":"39.933261","theaterChainName":"Independent Chains","ticketType":"STANDARD"},{"id":"4914","tribuneTheaterId":"10231","providerTheaterId":"","name":"Queensgate Stadium 13","address":"2067 Springwood Road","city":"York","state":"PA","zip":"17403","distance":7.2230712281472,"lon":"-76.693352","lat":"39.941498","theaterChainName":"Frank Theatres","ticketType":"STANDARD"},{"id":"5881","tribuneTheaterId":"11300","providerTheaterId":"","name":"SMALL STAR Art house","address":"232 West Market Street","city":"York","state":"PA","zip":"17401","distance":9.5681593084407,"lon":"-76.733113","lat":"39.960416","theaterChainName":"Independent Chains","ticketType":"STANDARD"},{"id":"1444","tribuneTheaterId":"5641","providerTheaterId":"","name":"Regal West Manchester Mall 13","address":"1800 Loucks Road","city":"York","state":"PA","zip":"17408","distance":11.741278593374,"lon":"-76.77171","lat":"39.971366","theaterChainName":"Regal Cinemas","ticketType":"STANDARD"},{"id":"1014","tribuneTheaterId":"227","providerTheaterId":"","name":"Glen Theatre","address":"37 Manchester Street","city":"Glen Rock","state":"PA","zip":"17327","distance":12.877701569315,"lon":"-76.73008","lat":"39.790971","theaterChainName":"Independent Chains","ticketType":"STANDARD"},{"id":"2386","tribuneTheaterId":"8308","providerTheaterId":"","name":"Regal Manor Stadium 16","address":"1246 Millersville Pike","city":"Lancaster","state":"PA","zip":"17603","distance":14.333527642885,"lon":"-76.324189","lat":"40.0264","theaterChainName":"Regal Cinemas","ticketType":"STANDARD"},{"id":"5437","tribuneTheaterId":"10878","providerTheaterId":"","name":"Zoetropolis","address":"315 W. James St.","city":"Lancaster","state":"PA","zip":"17603","distance":15.54445676223,"lon":"-76.3124","lat":"40.0453","theaterChainName":"Independent Chains","ticketType":"STANDARD"},{"id":"498","tribuneTheaterId":"4512","providerTheaterId":"","name":"Kendig Square Movies 6","address":"2600 N. Willow Street Pike","city":"Willow Street","state":"PA","zip":"17584","distance":15.276861632986,"lon":"-76.282282","lat":"39.985429","theaterChainName":"Independent Chains","ticketType":"STANDARD"},{"id":"2934","tribuneTheaterId":"2235","providerTheaterId":"","name":"Movietown Theatre","address":"700 N Hanover St","city":"Elizabethtown","state":"PA","zip":"17022","distance":16.634177609967,"lon":"-76.6098","lat":"40.1609","theaterChainName":"Independent Chains","ticketType":"STANDARD"},{"id":"4535","tribuneTheaterId":"9667","providerTheaterId":"","name":"Penn Cinema","address":"541 Airport Rd.","city":"Lititz","state":"PA","zip":"17543","distance":19.340873625004,"lon":"-76.291959","lat":"40.114356","theaterChainName":"Independent Chains","ticketType":"STANDARD"},{"id":"1013","tribuneTheaterId":"2437","providerTheaterId":"","name":"Elks Theatre","address":"Emaus ","city":"Middletown","state":"PA","zip":"17057","distance":20.874086702918,"lon":"-76.731666","lat":"40.195014","theaterChainName":"Independent Chains","ticketType":"STANDARD"},{"id":"3121","tribuneTheaterId":"4988","providerTheaterId":"","name":"R\/C Hanover Movies","address":"380 Eisenhower Dr.","city":"Hanover","state":"PA","zip":"17331","distance":23.86142825396,"lon":"-76.989559","lat":"39.8226642","theaterChainName":"R\/C Theatres","ticketType":"STANDARD"},{"id":"2973","tribuneTheaterId":"2042","providerTheaterId":"","name":"Cocoaplex Cinema","address":"1130 Cocoa Ave","city":"Hershey","state":"PA","zip":"17033","distance":24.437558077334,"lon":"-76.648949","lat":"40.270247","theaterChainName":"Independent Chains","ticketType":"STANDARD"}]