[{"id":"4193","tribuneTheaterId":"4985","providerTheaterId":"","name":"R\/C Gateway Theatre 8","address":"20 Presidential Circle","city":"Gettysburg","state":"PA","zip":"17325","distance":3.7138452141913,"lon":"-77.191067","lat":"39.843881","theaterChainName":"R\/C Theatres","ticketType":"STANDARD"},{"id":"4200","tribuneTheaterId":"2275","providerTheaterId":"","name":"Gettysburg Village Cinema","address":"1865 Gettysburg Drive","city":"Gettysburg","state":"PA","zip":"17325","distance":7.2223487506535,"lon":"-77.20082","lat":"39.790724","theaterChainName":"Frank Theatres","ticketType":"STANDARD"},{"id":"3121","tribuneTheaterId":"4988","providerTheaterId":"","name":"R\/C Hanover Movies","address":"380 Eisenhower Dr.","city":"Hanover","state":"PA","zip":"17331","distance":12.880711266466,"lon":"-76.989559","lat":"39.8226642","theaterChainName":"R\/C Theatres","ticketType":"STANDARD"},{"id":"1638","tribuneTheaterId":"8210","providerTheaterId":"","name":"Carmike 7 Chambersburg","address":"900 Chambersburg Mall","city":"Chambersburg","state":"PA","zip":"17202","distance":19.697737193113,"lon":"-77.576397","lat":"39.956658","theaterChainName":"Carmike Cinemas","ticketType":"STANDARD"},{"id":"3112","tribuneTheaterId":"522","providerTheaterId":"","name":"Carlisle Theatre","address":"44 West High Street","city":"Carlisle","state":"PA","zip":"17013","distance":21.207727577784,"lon":"-77.190456","lat":"40.201236","theaterChainName":"Independent Chains","ticketType":"STANDARD"},{"id":"5756","tribuneTheaterId":"11198","providerTheaterId":"","name":"Carlisle Commons Movies 8","address":"250 Noble Blvd","city":"Carlisle","state":"PA","zip":"17013","distance":20.447459318416,"lon":"-77.196604","lat":"40.190457","theaterChainName":"R\/C Theatres","ticketType":"STANDARD"},{"id":"1444","tribuneTheaterId":"5641","providerTheaterId":"","name":"Regal West Manchester Mall 13","address":"1800 Loucks Road","city":"York","state":"PA","zip":"17408","distance":23.996562397122,"lon":"-76.77171","lat":"39.971366","theaterChainName":"Regal Cinemas","ticketType":"STANDARD"}]