[{"id":"124","name":"Digiplex Cinema Center ","address":"3431 Simpson Ferry Road","city":"Camp Hill","state":"PA","zip":"17011","distance":"22.619789123535156","lon":"-76.939392","lat":"40.227188","theaterChainName":"Carmike Cinemas","ticketType":"STANDARD"},{"id":"3474","name":"Midtown Cinema","address":"250 Reily Street","city":"Harrisburg","state":"PA","zip":"17102","distance":"24.143068313598633","lon":"-76.891296","lat":"40.271099","theaterChainName":"Independent Chains","ticketType":"STANDARD"},{"id":"4823","name":"Flagship Cinemas Premium","address":"4950 Carlisle Pike","city":"Mechanicsburg","state":"PA","zip":"17050","distance":"23.974655151367188","lon":"-76.969208","lat":"40.235706","theaterChainName":"Carmike Cinemas","ticketType":"STANDARD"},{"id":"4430","name":"Great Escape 14","address":"3501 Paxton Street","city":"Harrisburg","state":"PA","zip":"17111","distance":"21.84522247314453","lon":"-76.831024","lat":"40.252388","theaterChainName":"Regal Cinemas","ticketType":"STANDARD"},{"id":"3075","name":"Colonial Park 4","address":"1 Colonial Park Mall","city":"Harrisburg","state":"PA","zip":"17109","distance":"24.99125099182129","lon":"-76.820099","lat":"40.301689","theaterChainName":"Independent Chains","ticketType":"STANDARD"},{"id":"1013","name":"Elks Theatre","address":"Emaus ","city":"Middletown","state":"PA","zip":"17057","distance":"16.999956130981445","lon":"-76.731667","lat":"40.195015","theaterChainName":"Independent Chains","ticketType":"STANDARD"},{"id":"2973","name":"Cocoaplex Cinema","address":"1130 Cocoa Ave","city":"Hershey","state":"PA","zip":"17033","distance":"22.42661476135254","lon":"-76.648949","lat":"40.270248","theaterChainName":"Independent Chains","ticketType":"STANDARD"},{"id":"1444","name":"Regal West Manchester Mall 13","address":"1800 Loucks Road","city":"York","state":"PA","zip":"17408","distance":"3.4603428840637207","lon":"-76.771713","lat":"39.971367","theaterChainName":"Regal Cinemas","ticketType":"STANDARD"},{"id":"2934","name":"Movietown Theatre","address":"700 N Hanover St","city":"Elizabethtown","state":"PA","zip":"17022","distance":"15.599937438964844","lon":"-76.609802","lat":"40.160900","theaterChainName":"Independent Chains","ticketType":"STANDARD"},{"id":"5881","name":"SMALL STAR Art house","address":"232 West Market Street","city":"York","state":"PA","zip":"17401","distance":"1.3094402551651","lon":"-76.733116","lat":"39.960415","theaterChainName":"Independent Chains","ticketType":"STANDARD"},{"id":"4914","name":"Queensgate Stadium 13","address":"2067 Springwood Road","city":"York","state":"PA","zip":"17403","distance":"1.17531418800354","lon":"-76.693352","lat":"39.941498","theaterChainName":"Frank Theatres","ticketType":"STANDARD"},{"id":"3609","name":"South York Plaza Cinemas 4","address":"217 Pauline Drive","city":"York","state":"PA","zip":"17402","distance":"1.95809006690979","lon":"-76.682617","lat":"39.933262","theaterChainName":"Independent Chains","ticketType":"STANDARD"},{"id":"3121","name":"R\/C Hanover Movies","address":"380 Eisenhower Dr.","city":"Hanover","state":"PA","zip":"17331","distance":"17.07918357849121","lon":"-76.989555","lat":"39.822662","theaterChainName":"R\/C Theatres","ticketType":"STANDARD"},{"id":"1014","name":"Glen Theatre","address":"37 Manchester Street","city":"Glen Rock","state":"PA","zip":"17327","distance":"10.984687805175781","lon":"-76.730080","lat":"39.790970","theaterChainName":"Independent Chains","ticketType":"STANDARD"},{"id":"2386","name":"Regal Manor Stadium 16","address":"1246 Millersville Pike","city":"Lancaster","state":"PA","zip":"17603","distance":"21.260499954223633","lon":"-76.324188","lat":"40.026402","theaterChainName":"Regal Cinemas","ticketType":"STANDARD"},{"id":"5437","name":"Zoetropolis","address":"315 W. James St.","city":"Lancaster","state":"PA","zip":"17603","distance":"22.21630859375","lon":"-76.312401","lat":"40.045300","theaterChainName":"Independent Chains","ticketType":"STANDARD"},{"id":"498","name":"Kendig Square Movies 6","address":"2600 N. Willow Street Pike","city":"Willow Street","state":"PA","zip":"17584","distance":"22.9449462890625","lon":"-76.282280","lat":"39.985428","theaterChainName":"Independent Chains","ticketType":"STANDARD"}]