[{"id":"3978","tribuneTheaterId":"1421","providerTheaterId":"","name":"Ephrata Main Theatre","address":"124 East Main Street","city":"Ephrata","state":"PA","zip":"17522","distance":8.4483588439767,"lon":"-76.1737","lat":"40.1757","theaterChainName":"Independent Chains","ticketType":"STANDARD"},{"id":"844","tribuneTheaterId":"6116","providerTheaterId":"","name":"Fox East Theatre","address":"4350 Perkiomen Ave.","city":"Reading","state":"PA","zip":"19606","distance":11.005484235063,"lon":"-75.868661","lat":"40.309413","theaterChainName":"Fox Theatres","ticketType":"STANDARD"},{"id":"5267","tribuneTheaterId":"10700","providerTheaterId":"","name":"Fox Berkshire","address":"800 Berkshire Boulevard","city":"Wyomissing","state":"PA","zip":"19610","distance":10.960928429994,"lon":"-75.9677","lat":"40.3509","theaterChainName":"Fox Theatres","ticketType":"STANDARD"},{"id":"4550","tribuneTheaterId":"9686","providerTheaterId":"","name":"R\/C Reading Movies 11 & IMAX","address":"30 N 2nd Street","city":"Reading","state":"PA","zip":"19601","distance":10.592312096287,"lon":"-75.934286","lat":"40.336652","theaterChainName":"R\/C Theatres","ticketType":"STANDARD"},{"id":"4477","tribuneTheaterId":"9571","providerTheaterId":"","name":"Goggleworks Theatre","address":"201 Washington St.","city":"Reading","state":"PA","zip":"19601","distance":10.610782097419,"lon":"-75.933852","lat":"40.336797","theaterChainName":"Independent Chains","ticketType":"STANDARD"},{"id":"2241","tribuneTheaterId":"6348","providerTheaterId":"","name":"Cinema Center Fairgrounds Sq.","address":"3050 N 5th St. Hwy.","city":"Reading","state":"PA","zip":"19605","distance":13.428606160368,"lon":"-75.930765","lat":"40.379757","theaterChainName":"Carmike Cinemas","ticketType":"STANDARD"},{"id":"4535","tribuneTheaterId":"9667","providerTheaterId":"","name":"Penn Cinema","address":"541 Airport Rd.","city":"Lititz","state":"PA","zip":"17543","distance":15.641515281359,"lon":"-76.291959","lat":"40.114356","theaterChainName":"Independent Chains","ticketType":"STANDARD"},{"id":"5437","tribuneTheaterId":"10878","providerTheaterId":"","name":"Zoetropolis","address":"315 W. James St.","city":"Lancaster","state":"PA","zip":"17603","distance":18.828790457297,"lon":"-76.3124","lat":"40.0453","theaterChainName":"Independent Chains","ticketType":"STANDARD"},{"id":"2386","tribuneTheaterId":"8308","providerTheaterId":"","name":"Regal Manor Stadium 16","address":"1246 Millersville Pike","city":"Lancaster","state":"PA","zip":"17603","distance":20.087336149106,"lon":"-76.324189","lat":"40.0264","theaterChainName":"Regal Cinemas","ticketType":"STANDARD"},{"id":"498","tribuneTheaterId":"4512","providerTheaterId":"","name":"Kendig Square Movies 6","address":"2600 N. Willow Street Pike","city":"Willow Street","state":"PA","zip":"17584","distance":20.272906234335,"lon":"-76.282282","lat":"39.985429","theaterChainName":"Independent Chains","ticketType":"STANDARD"},{"id":"5120","tribuneTheaterId":"10523","providerTheaterId":"","name":"Carmike 12 Stowe","address":"110 Upland Square Dr","city":"Stowe","state":"PA","zip":"19464","distance":19.519420021346,"lon":"-75.658085","lat":"40.268358","theaterChainName":"Carmike Cinemas","ticketType":"STANDARD"},{"id":"2288","tribuneTheaterId":"8966","providerTheaterId":"","name":"Regal Downingtown Cinema Stadium 16","address":"100 Quarry Rd","city":"Downingtown","state":"PA","zip":"19335","distance":22.016845147195,"lon":"-75.674021","lat":"40.0146","theaterChainName":"Regal Cinemas","ticketType":"STANDARD"},{"id":"5792","tribuneTheaterId":"11232","providerTheaterId":"","name":"Movie Tavern Exton","address":"110 Bartlett Ave.","city":"Exton","state":"PA","zip":"19341","distance":23.778907001488,"lon":"-75.6283","lat":"40.0219","theaterChainName":"Movie Tavern","ticketType":"STANDARD"}]