[{"id":"4430","name":"Great Escape 14","address":"3501 Paxton Street","city":"Harrisburg","state":"PA","zip":"17111","distance":"23.42900848388672","lon":"-76.831024","lat":"40.252388","theaterChainName":"Regal Cinemas","ticketType":"STANDARD"},{"id":"1013","name":"Elks Theatre","address":"Emaus ","city":"Middletown","state":"PA","zip":"17057","distance":"16.8613338470459","lon":"-76.731667","lat":"40.195015","theaterChainName":"Independent Chains","ticketType":"STANDARD"},{"id":"2973","name":"Cocoaplex Cinema","address":"1130 Cocoa Ave","city":"Hershey","state":"PA","zip":"17033","distance":"18.137603759765625","lon":"-76.648949","lat":"40.270248","theaterChainName":"Independent Chains","ticketType":"STANDARD"},{"id":"1444","name":"Regal West Manchester Mall 13","address":"1800 Loucks Road","city":"York","state":"PA","zip":"17408","distance":"15.819819450378418","lon":"-76.771713","lat":"39.971367","theaterChainName":"Regal Cinemas","ticketType":"STANDARD"},{"id":"2934","name":"Movietown Theatre","address":"700 N Hanover St","city":"Elizabethtown","state":"PA","zip":"17022","distance":"10.654092788696289","lon":"-76.609802","lat":"40.160900","theaterChainName":"Independent Chains","ticketType":"STANDARD"},{"id":"5881","name":"SMALL STAR Art house","address":"232 West Market Street","city":"York","state":"PA","zip":"17401","distance":"14.15562629699707","lon":"-76.733116","lat":"39.960415","theaterChainName":"Independent Chains","ticketType":"STANDARD"},{"id":"5720","name":"Flagship Cinemas Palmyra","address":"2 N. Londonderry Square","city":"Palmyra","state":"PA","zip":"17078","distance":"19.94165802001953","lon":"-76.570435","lat":"40.320435","theaterChainName":"Flagship Cinemas","ticketType":"STANDARD"},{"id":"4914","name":"Queensgate Stadium 13","address":"2067 Springwood Road","city":"York","state":"PA","zip":"17403","distance":"12.874333381652832","lon":"-76.693352","lat":"39.941498","theaterChainName":"Frank Theatres","ticketType":"STANDARD"},{"id":"3609","name":"South York Plaza Cinemas 4","address":"217 Pauline Drive","city":"York","state":"PA","zip":"17402","distance":"12.712987899780273","lon":"-76.682617","lat":"39.933262","theaterChainName":"Independent Chains","ticketType":"STANDARD"},{"id":"4233","name":"Great Escape Lebanon Valley Stadium 10","address":"2200 Lebanon Valley Mall Rd.","city":"Lebanon","state":"PA","zip":"17042","distance":"20.978553771972656","lon":"-76.452835","lat":"40.341637","theaterChainName":"Regal Cinemas","ticketType":"STANDARD"},{"id":"1014","name":"Glen Theatre","address":"37 Manchester Street","city":"Glen Rock","state":"PA","zip":"17327","distance":"21.471311569213867","lon":"-76.730080","lat":"39.790970","theaterChainName":"Independent Chains","ticketType":"STANDARD"},{"id":"2386","name":"Regal Manor Stadium 16","address":"1246 Millersville Pike","city":"Lancaster","state":"PA","zip":"17603","distance":"8.61617660522461","lon":"-76.324188","lat":"40.026402","theaterChainName":"Regal Cinemas","ticketType":"STANDARD"},{"id":"5437","name":"Zoetropolis","address":"315 W. James St.","city":"Lancaster","state":"PA","zip":"17603","distance":"9.203706741333008","lon":"-76.312401","lat":"40.045300","theaterChainName":"Independent Chains","ticketType":"STANDARD"},{"id":"4535","name":"Penn Cinema","address":"541 Airport Rd.","city":"Lititz","state":"PA","zip":"17543","distance":"11.511205673217773","lon":"-76.291962","lat":"40.114357","theaterChainName":"Independent Chains","ticketType":"STANDARD"},{"id":"498","name":"Kendig Square Movies 6","address":"2600 N. Willow Street Pike","city":"Willow Street","state":"PA","zip":"17584","distance":"11.411301612854004","lon":"-76.282280","lat":"39.985428","theaterChainName":"Independent Chains","ticketType":"STANDARD"},{"id":"3978","name":"Ephrata Main Theatre","address":"124 East Main Street","city":"Ephrata","state":"PA","zip":"17522","distance":"19.022083282470703","lon":"-76.173698","lat":"40.175701","theaterChainName":"Independent Chains","ticketType":"STANDARD"}]