[{"id":"2934","name":"Movietown Theatre","address":"700 N Hanover St","city":"Elizabethtown","state":"PA","zip":"17022","distance":"22.513505935668945","lon":"-76.609802","lat":"40.160900","theaterChainName":"Independent Chains","ticketType":"STANDARD"},{"id":"4233","name":"Great Escape Lebanon Valley Stadium 10","address":"2200 Lebanon Valley Mall Rd.","city":"Lebanon","state":"PA","zip":"17042","distance":"21.8262939453125","lon":"-76.452835","lat":"40.341637","theaterChainName":"Regal Cinemas","ticketType":"STANDARD"},{"id":"2386","name":"Regal Manor Stadium 16","address":"1246 Millersville Pike","city":"Lancaster","state":"PA","zip":"17603","distance":"8.496460914611816","lon":"-76.324188","lat":"40.026402","theaterChainName":"Regal Cinemas","ticketType":"STANDARD"},{"id":"5437","name":"Zoetropolis","address":"315 W. James St.","city":"Lancaster","state":"PA","zip":"17603","distance":"7.27540922164917","lon":"-76.312401","lat":"40.045300","theaterChainName":"Independent Chains","ticketType":"STANDARD"},{"id":"4535","name":"Penn Cinema","address":"541 Airport Rd.","city":"Lititz","state":"PA","zip":"17543","distance":"5.421539783477783","lon":"-76.291962","lat":"40.114357","theaterChainName":"Independent Chains","ticketType":"STANDARD"},{"id":"498","name":"Kendig Square Movies 6","address":"2600 N. Willow Street Pike","city":"Willow Street","state":"PA","zip":"17584","distance":"9.030821800231934","lon":"-76.282280","lat":"39.985428","theaterChainName":"Independent Chains","ticketType":"STANDARD"},{"id":"3978","name":"Ephrata Main Theatre","address":"124 East Main Street","city":"Ephrata","state":"PA","zip":"17522","distance":"5.56499719619751","lon":"-76.173698","lat":"40.175701","theaterChainName":"Independent Chains","ticketType":"STANDARD"},{"id":"5267","name":"Fox Berkshire","address":"800 Berkshire Boulevard","city":"Wyomissing","state":"PA","zip":"19610","distance":"21.19908332824707","lon":"-75.967697","lat":"40.350899","theaterChainName":"Fox Theatres","ticketType":"STANDARD"},{"id":"2241","name":"Cinema Center Fairgrounds Sq.","address":"3050 N 5th St. Hwy.","city":"Reading","state":"PA","zip":"19605","distance":"23.94497299194336","lon":"-75.930763","lat":"40.379757","theaterChainName":"Carmike Cinemas","ticketType":"STANDARD"},{"id":"4550","name":"R\/C Reading Movies 11 & IMAX","address":"30 N 2nd Street","city":"Reading","state":"PA","zip":"19601","distance":"21.46219825744629","lon":"-75.934288","lat":"40.336651","theaterChainName":"R\/C Theatres","ticketType":"STANDARD"},{"id":"4477","name":"Goggleworks Theatre","address":"201 Washington St.","city":"Reading","state":"PA","zip":"19601","distance":"21.48448371887207","lon":"-75.933853","lat":"40.336796","theaterChainName":"Independent Chains","ticketType":"STANDARD"},{"id":"844","name":"Fox East Theatre","address":"4350 Perkiomen Ave.","city":"Reading","state":"PA","zip":"19606","distance":"22.538837432861328","lon":"-75.868660","lat":"40.309414","theaterChainName":"Fox Theatres","ticketType":"STANDARD"}]