[{"id":"1013","name":"Elks Theatre","address":"Emaus ","city":"Middletown","state":"PA","zip":"17057","distance":"21.0189208984375","lon":"-76.731667","lat":"40.195015","theaterChainName":"Independent Chains","ticketType":"STANDARD"},{"id":"2973","name":"Cocoaplex Cinema","address":"1130 Cocoa Ave","city":"Hershey","state":"PA","zip":"17033","distance":"22.399030685424805","lon":"-76.648949","lat":"40.270248","theaterChainName":"Independent Chains","ticketType":"STANDARD"},{"id":"1444","name":"Regal West Manchester Mall 13","address":"1800 Loucks Road","city":"York","state":"PA","zip":"17408","distance":"17.59078598022461","lon":"-76.771713","lat":"39.971367","theaterChainName":"Regal Cinemas","ticketType":"STANDARD"},{"id":"2934","name":"Movietown Theatre","address":"700 N Hanover St","city":"Elizabethtown","state":"PA","zip":"17022","distance":"14.932662010192871","lon":"-76.609802","lat":"40.160900","theaterChainName":"Independent Chains","ticketType":"STANDARD"},{"id":"5881","name":"SMALL STAR Art house","address":"232 West Market Street","city":"York","state":"PA","zip":"17401","distance":"15.627886772155762","lon":"-76.733116","lat":"39.960415","theaterChainName":"Independent Chains","ticketType":"STANDARD"},{"id":"5720","name":"Flagship Cinemas Palmyra","address":"2 N. Londonderry Square","city":"Palmyra","state":"PA","zip":"17078","distance":"23.971529006958008","lon":"-76.570435","lat":"40.320435","theaterChainName":"Flagship Cinemas","ticketType":"STANDARD"},{"id":"4914","name":"Queensgate Stadium 13","address":"2067 Springwood Road","city":"York","state":"PA","zip":"17403","distance":"13.787900924682617","lon":"-76.693352","lat":"39.941498","theaterChainName":"Frank Theatres","ticketType":"STANDARD"},{"id":"3609","name":"South York Plaza Cinemas 4","address":"217 Pauline Drive","city":"York","state":"PA","zip":"17402","distance":"13.386366844177246","lon":"-76.682617","lat":"39.933262","theaterChainName":"Independent Chains","ticketType":"STANDARD"},{"id":"4233","name":"Great Escape Lebanon Valley Stadium 10","address":"2200 Lebanon Valley Mall Rd.","city":"Lebanon","state":"PA","zip":"17042","distance":"24.43776512145996","lon":"-76.452835","lat":"40.341637","theaterChainName":"Regal Cinemas","ticketType":"STANDARD"},{"id":"1014","name":"Glen Theatre","address":"37 Manchester Street","city":"Glen Rock","state":"PA","zip":"17327","distance":"20.535999298095703","lon":"-76.730080","lat":"39.790970","theaterChainName":"Independent Chains","ticketType":"STANDARD"},{"id":"2386","name":"Regal Manor Stadium 16","address":"1246 Millersville Pike","city":"Lancaster","state":"PA","zip":"17603","distance":"6.686235427856445","lon":"-76.324188","lat":"40.026402","theaterChainName":"Regal Cinemas","ticketType":"STANDARD"},{"id":"5437","name":"Zoetropolis","address":"315 W. James St.","city":"Lancaster","state":"PA","zip":"17603","distance":"7.833303928375244","lon":"-76.312401","lat":"40.045300","theaterChainName":"Independent Chains","ticketType":"STANDARD"},{"id":"4535","name":"Penn Cinema","address":"541 Airport Rd.","city":"Lititz","state":"PA","zip":"17543","distance":"11.729768753051758","lon":"-76.291962","lat":"40.114357","theaterChainName":"Independent Chains","ticketType":"STANDARD"},{"id":"498","name":"Kendig Square Movies 6","address":"2600 N. Willow Street Pike","city":"Willow Street","state":"PA","zip":"17584","distance":"8.362692832946777","lon":"-76.282280","lat":"39.985428","theaterChainName":"Independent Chains","ticketType":"STANDARD"},{"id":"3978","name":"Ephrata Main Theatre","address":"124 East Main Street","city":"Ephrata","state":"PA","zip":"17522","distance":"19.145523071289062","lon":"-76.173698","lat":"40.175701","theaterChainName":"Independent Chains","ticketType":"STANDARD"}]