[{"id":"3023","tribuneTheaterId":"1241","providerTheaterId":"","name":"Rialto Theatre","address":"5 E. Main St.","city":"Canton","state":"PA","zip":"17724","distance":11.830056441056,"lon":"-76.8499","lat":"41.6546","theaterChainName":"Independent Chains","ticketType":"STANDARD"},{"id":"5214","tribuneTheaterId":"10638","providerTheaterId":"","name":"Victoria Theatre","address":"222 Main St.","city":"Blossburg","state":"PA","zip":"16912","distance":13.257371313827,"lon":"-77.064697","lat":"41.678398","theaterChainName":"Independent Chains","ticketType":"STANDARD"},{"id":"5329","tribuneTheaterId":"10766","providerTheaterId":"","name":"Digiplex Cinema Center - Williamsport","address":"300 W. Fourth St.","city":"Williamsport","state":"PA","zip":"17701","distance":18.391211487521,"lon":"-77.0066","lat":"41.2401","theaterChainName":"Carmike Cinemas","ticketType":"STANDARD"},{"id":"3815","tribuneTheaterId":"2304","providerTheaterId":"","name":"Regal Williamsport Lycoming Mall 12","address":"965 Lycoming Mall Circle","city":"Pennsdale","state":"PA","zip":"17756","distance":19.611079040944,"lon":"-76.827199","lat":"41.237562","theaterChainName":"Regal Cinemas","ticketType":"STANDARD"},{"id":"2875","tribuneTheaterId":"1716","providerTheaterId":"","name":"Arcadia Theater","address":"50 Main Street","city":"Wellsboro","state":"PA","zip":"16901","distance":24.471649711459,"lon":"-77.300094","lat":"41.749099","theaterChainName":"Independent Chains","ticketType":"STANDARD"}]