[{"id":"2373","name":"Roxy Theatre Lock Haven","address":"314 E. Main St.","city":"Lock Haven","state":"PA","zip":"17745","distance":"24.454174041748047","lon":"-77.442070","lat":"41.136696","theaterChainName":"Independent Chains","ticketType":"STANDARD"},{"id":"3143","name":"Campus Theater","address":"413 Market Street","city":"Lewisburg","state":"PA","zip":"17837","distance":"12.120318412780762","lon":"-76.886406","lat":"40.963421","theaterChainName":"Independent Chains","ticketType":"STANDARD"},{"id":"5329","name":"Digiplex Cinema Center - Williamsport","address":"300 W. Fourth St.","city":"Williamsport","state":"PA","zip":"17701","distance":"8.055276870727539","lon":"-77.006599","lat":"41.240101","theaterChainName":"Carmike Cinemas","ticketType":"STANDARD"},{"id":"4038","name":"Cinema Center of Selinsgrove","address":"Routes 11 ","city":"Selinsgrove","state":"PA","zip":"17870","distance":"22.94147300720215","lon":"-76.862099","lat":"40.805000","theaterChainName":"Carmike Cinemas","ticketType":"STANDARD"},{"id":"3815","name":"Regal Williamsport Lycoming Mall 12","address":"965 Lycoming Mall Circle","city":"Pennsdale","state":"PA","zip":"17756","distance":"10.770814895629883","lon":"-76.827202","lat":"41.237560","theaterChainName":"Regal Cinemas","ticketType":"STANDARD"}]