[{"id":"1723","name":"Cinema Center of Bloomsburg","address":"1879 Columbia Blvd.","city":"Bloomsburg","state":"PA","zip":"17815","distance":"15.444366455078125","lon":"-76.423103","lat":"41.008400","theaterChainName":"Carmike Cinemas","ticketType":"STANDARD"},{"id":"2702","name":"Berwick Theatre","address":"110 E. Front St.","city":"Berwick","state":"PA","zip":"18603","distance":"12.897976875305176","lon":"-76.233398","lat":"41.054798","theaterChainName":"Independent Chains","ticketType":"STANDARD"},{"id":"2180","name":"Regal Hazleton Stadium 10","address":"400 Laurel Mall","city":"Hazleton","state":"PA","zip":"18201","distance":"23.776145935058594","lon":"-76.011360","lat":"40.984657","theaterChainName":"Regal Cinemas","ticketType":"STANDARD"},{"id":"4194","name":"R\/C Wilkes Barre Movies 14","address":"24 East Northampton St","city":"Wilkes-Barre Township","state":"PA","zip":"18702","distance":"23.77239227294922","lon":"-75.883934","lat":"41.243660","theaterChainName":"R\/C Theatres","ticketType":"STANDARD"}]