[{"id":"3143","name":"Campus Theater","address":"413 Market Street","city":"Lewisburg","state":"PA","zip":"17837","distance":"13.79434871673584","lon":"-76.886406","lat":"40.963421","theaterChainName":"Independent Chains","ticketType":"STANDARD"},{"id":"4038","name":"Cinema Center of Selinsgrove","address":"Routes 11 ","city":"Selinsgrove","state":"PA","zip":"17870","distance":"17.382568359375","lon":"-76.862099","lat":"40.805000","theaterChainName":"Carmike Cinemas","ticketType":"STANDARD"},{"id":"3815","name":"Regal Williamsport Lycoming Mall 12","address":"965 Lycoming Mall Circle","city":"Pennsdale","state":"PA","zip":"17756","distance":"20.73891258239746","lon":"-76.827202","lat":"41.237560","theaterChainName":"Regal Cinemas","ticketType":"STANDARD"},{"id":"1723","name":"Cinema Center of Bloomsburg","address":"1879 Columbia Blvd.","city":"Bloomsburg","state":"PA","zip":"17815","distance":"10.60458755493164","lon":"-76.423103","lat":"41.008400","theaterChainName":"Carmike Cinemas","ticketType":"STANDARD"},{"id":"2702","name":"Berwick Theatre","address":"110 E. Front St.","city":"Berwick","state":"PA","zip":"18603","distance":"20.95578956604004","lon":"-76.233398","lat":"41.054798","theaterChainName":"Independent Chains","ticketType":"STANDARD"}]