[{"id":"3143","tribuneTheaterId":"525","providerTheaterId":"","name":"Campus Theater","address":"413 Market Street","city":"Lewisburg","state":"PA","zip":"17837","distance":14.71877166903,"lon":"-76.886407","lat":"40.963421","theaterChainName":"Independent Chains","ticketType":"STANDARD"},{"id":"4038","tribuneTheaterId":"3216","providerTheaterId":"","name":"Cinema Center of Selinsgrove","address":"Routes 11 ","city":"Selinsgrove","state":"PA","zip":"17870","distance":16.707437161057,"lon":"-76.8621","lat":"40.805","theaterChainName":"Carmike Cinemas","ticketType":"STANDARD"},{"id":"2373","tribuneTheaterId":"389","providerTheaterId":"","name":"Roxy Theatre Lock Haven","address":"314 E. Main St.","city":"Lock Haven","state":"PA","zip":"17745","distance":22.114128150687,"lon":"-77.442072","lat":"41.136694","theaterChainName":"Independent Chains","ticketType":"STANDARD"},{"id":"5329","tribuneTheaterId":"10766","providerTheaterId":"","name":"Digiplex Cinema Center - Williamsport","address":"300 W. Fourth St.","city":"Williamsport","state":"PA","zip":"17701","distance":24.71767348302,"lon":"-77.0066","lat":"41.2401","theaterChainName":"Carmike Cinemas","ticketType":"STANDARD"}]