[{"id":"3143","name":"Campus Theater","address":"413 Market Street","city":"Lewisburg","state":"PA","zip":"17837","distance":"24.593191146850586","lon":"-76.886406","lat":"40.963421","theaterChainName":"Independent Chains","ticketType":"STANDARD"},{"id":"4038","name":"Cinema Center of Selinsgrove","address":"Routes 11 ","city":"Selinsgrove","state":"PA","zip":"17870","distance":"20.763957977294922","lon":"-76.862099","lat":"40.805000","theaterChainName":"Carmike Cinemas","ticketType":"STANDARD"},{"id":"1723","name":"Cinema Center of Bloomsburg","address":"1879 Columbia Blvd.","city":"Bloomsburg","state":"PA","zip":"17815","distance":"14.251887321472168","lon":"-76.423103","lat":"41.008400","theaterChainName":"Carmike Cinemas","ticketType":"STANDARD"},{"id":"5051","name":"Schuylkill Mall Theatre","address":"670 Schuylkill Mall","city":"Frackville","state":"PA","zip":"17931","distance":"12.827240943908691","lon":"-76.225121","lat":"40.766582","theaterChainName":"Independent Chains","ticketType":"STANDARD"},{"id":"2702","name":"Berwick Theatre","address":"110 E. Front St.","city":"Berwick","state":"PA","zip":"18603","distance":"21.09952163696289","lon":"-76.233398","lat":"41.054798","theaterChainName":"Independent Chains","ticketType":"STANDARD"}]