[{"id":"1723","tribuneTheaterId":"2293","providerTheaterId":"","name":"Cinema Center of Bloomsburg","address":"1879 Columbia Blvd.","city":"Bloomsburg","state":"PA","zip":"17815","distance":6.8028295705924,"lon":"-76.4231","lat":"41.0084","theaterChainName":"Carmike Cinemas","ticketType":"STANDARD"},{"id":"2702","tribuneTheaterId":"6169","providerTheaterId":"","name":"Berwick Theatre","address":"110 E. Front St.","city":"Berwick","state":"PA","zip":"18603","distance":8.3400462740526,"lon":"-76.233398","lat":"41.054798","theaterChainName":"Independent Chains","ticketType":"STANDARD"},{"id":"2180","tribuneTheaterId":"4660","providerTheaterId":"","name":"Regal Hazleton Stadium 10","address":"400 Laurel Mall","city":"Hazleton","state":"PA","zip":"18201","distance":20.888252176065,"lon":"-76.011363","lat":"40.984657","theaterChainName":"Regal Cinemas","ticketType":"STANDARD"},{"id":"5051","tribuneTheaterId":"10431","providerTheaterId":"","name":"Schuylkill Mall Theatre","address":"670 Schuylkill Mall","city":"Frackville","state":"PA","zip":"17931","distance":24.535768403725,"lon":"-76.225119","lat":"40.766584","theaterChainName":"Independent Chains","ticketType":"STANDARD"}]