[{"id":"3143","name":"Campus Theater","address":"413 Market Street","city":"Lewisburg","state":"PA","zip":"17837","distance":"6.317588806152344","lon":"-76.886406","lat":"40.963421","theaterChainName":"Independent Chains","ticketType":"STANDARD"},{"id":"5329","name":"Digiplex Cinema Center - Williamsport","address":"300 W. Fourth St.","city":"Williamsport","state":"PA","zip":"17701","distance":"13.959089279174805","lon":"-77.006599","lat":"41.240101","theaterChainName":"Carmike Cinemas","ticketType":"STANDARD"},{"id":"4038","name":"Cinema Center of Selinsgrove","address":"Routes 11 ","city":"Selinsgrove","state":"PA","zip":"17870","distance":"17.337156295776367","lon":"-76.862099","lat":"40.805000","theaterChainName":"Carmike Cinemas","ticketType":"STANDARD"},{"id":"3815","name":"Regal Williamsport Lycoming Mall 12","address":"965 Lycoming Mall Circle","city":"Pennsdale","state":"PA","zip":"17756","distance":"13.259153366088867","lon":"-76.827202","lat":"41.237560","theaterChainName":"Regal Cinemas","ticketType":"STANDARD"}]