[{"id":"1723","tribuneTheaterId":"2293","providerTheaterId":"","name":"Cinema Center of Bloomsburg","address":"1879 Columbia Blvd.","city":"Bloomsburg","state":"PA","zip":"17815","distance":11.507155692549,"lon":"-76.4231","lat":"41.0084","theaterChainName":"Carmike Cinemas","ticketType":"STANDARD"},{"id":"3143","tribuneTheaterId":"525","providerTheaterId":"","name":"Campus Theater","address":"413 Market Street","city":"Lewisburg","state":"PA","zip":"17837","distance":13.341341383171,"lon":"-76.886407","lat":"40.963421","theaterChainName":"Independent Chains","ticketType":"STANDARD"},{"id":"4038","tribuneTheaterId":"3216","providerTheaterId":"","name":"Cinema Center of Selinsgrove","address":"Routes 11 ","city":"Selinsgrove","state":"PA","zip":"17870","distance":15.813108665543,"lon":"-76.8621","lat":"40.805","theaterChainName":"Carmike Cinemas","ticketType":"STANDARD"},{"id":"2702","tribuneTheaterId":"6169","providerTheaterId":"","name":"Berwick Theatre","address":"110 E. Front St.","city":"Berwick","state":"PA","zip":"18603","distance":21.899653413146,"lon":"-76.233398","lat":"41.054798","theaterChainName":"Independent Chains","ticketType":"STANDARD"},{"id":"3815","tribuneTheaterId":"2304","providerTheaterId":"","name":"Regal Williamsport Lycoming Mall 12","address":"965 Lycoming Mall Circle","city":"Pennsdale","state":"PA","zip":"17756","distance":22.160790845964,"lon":"-76.827199","lat":"41.237562","theaterChainName":"Regal Cinemas","ticketType":"STANDARD"},{"id":"5051","tribuneTheaterId":"10431","providerTheaterId":"","name":"Schuylkill Mall Theatre","address":"670 Schuylkill Mall","city":"Frackville","state":"PA","zip":"17931","distance":24.815194560989,"lon":"-76.225119","lat":"40.766584","theaterChainName":"Independent Chains","ticketType":"STANDARD"}]