[{"id":"4038","name":"Cinema Center of Selinsgrove","address":"Routes 11 ","city":"Selinsgrove","state":"PA","zip":"17870","distance":"24.543943405151367","lon":"-76.862099","lat":"40.805000","theaterChainName":"Carmike Cinemas","ticketType":"STANDARD"},{"id":"1723","name":"Cinema Center of Bloomsburg","address":"1879 Columbia Blvd.","city":"Bloomsburg","state":"PA","zip":"17815","distance":"13.655289649963379","lon":"-76.423103","lat":"41.008400","theaterChainName":"Carmike Cinemas","ticketType":"STANDARD"},{"id":"5051","name":"Schuylkill Mall Theatre","address":"670 Schuylkill Mall","city":"Frackville","state":"PA","zip":"17931","distance":"9.323765754699707","lon":"-76.225121","lat":"40.766582","theaterChainName":"Independent Chains","ticketType":"STANDARD"},{"id":"2702","name":"Berwick Theatre","address":"110 E. Front St.","city":"Berwick","state":"PA","zip":"18603","distance":"18.723058700561523","lon":"-76.233398","lat":"41.054798","theaterChainName":"Independent Chains","ticketType":"STANDARD"},{"id":"2180","name":"Regal Hazleton Stadium 10","address":"400 Laurel Mall","city":"Hazleton","state":"PA","zip":"18201","distance":"23.2220401763916","lon":"-76.011360","lat":"40.984657","theaterChainName":"Regal Cinemas","ticketType":"STANDARD"}]