[{"id":"4233","name":"Great Escape Lebanon Valley Stadium 10","address":"2200 Lebanon Valley Mall Rd.","city":"Lebanon","state":"PA","zip":"17042","distance":"23.16996955871582","lon":"-76.452835","lat":"40.341637","theaterChainName":"Regal Cinemas","ticketType":"STANDARD"},{"id":"1723","name":"Cinema Center of Bloomsburg","address":"1879 Columbia Blvd.","city":"Bloomsburg","state":"PA","zip":"17815","distance":"24.240659713745117","lon":"-76.423103","lat":"41.008400","theaterChainName":"Carmike Cinemas","ticketType":"STANDARD"},{"id":"5051","name":"Schuylkill Mall Theatre","address":"670 Schuylkill Mall","city":"Frackville","state":"PA","zip":"17931","distance":"9.04185962677002","lon":"-76.225121","lat":"40.766582","theaterChainName":"Independent Chains","ticketType":"STANDARD"},{"id":"2024","name":"Angela Triplex","address":"113 E Phillips St.","city":"Coaldale","state":"PA","zip":"18218","distance":"24.976978302001953","lon":"-75.904640","lat":"40.823784","theaterChainName":"Independent Chains","ticketType":"STANDARD"}]