[{"id":"3143","name":"Campus Theater","address":"413 Market Street","city":"Lewisburg","state":"PA","zip":"17837","distance":"23.869321823120117","lon":"-76.886406","lat":"40.963421","theaterChainName":"Independent Chains","ticketType":"STANDARD"},{"id":"4038","name":"Cinema Center of Selinsgrove","address":"Routes 11 ","city":"Selinsgrove","state":"PA","zip":"17870","distance":"14.582101821899414","lon":"-76.862099","lat":"40.805000","theaterChainName":"Carmike Cinemas","ticketType":"STANDARD"},{"id":"5720","name":"Flagship Cinemas Palmyra","address":"2 N. Londonderry Square","city":"Palmyra","state":"PA","zip":"17078","distance":"24.3561954498291","lon":"-76.570435","lat":"40.320435","theaterChainName":"Flagship Cinemas","ticketType":"STANDARD"},{"id":"4233","name":"Great Escape Lebanon Valley Stadium 10","address":"2200 Lebanon Valley Mall Rd.","city":"Lebanon","state":"PA","zip":"17042","distance":"24.806537628173828","lon":"-76.452835","lat":"40.341637","theaterChainName":"Regal Cinemas","ticketType":"STANDARD"},{"id":"5051","name":"Schuylkill Mall Theatre","address":"670 Schuylkill Mall","city":"Frackville","state":"PA","zip":"17931","distance":"23.314313888549805","lon":"-76.225121","lat":"40.766582","theaterChainName":"Independent Chains","ticketType":"STANDARD"}]