[{"id":"5051","tribuneTheaterId":"10431","providerTheaterId":"","name":"Schuylkill Mall Theatre","address":"670 Schuylkill Mall","city":"Frackville","state":"PA","zip":"17931","distance":16.242508562481,"lon":"-76.225119","lat":"40.766584","theaterChainName":"Independent Chains","ticketType":"STANDARD"},{"id":"4233","tribuneTheaterId":"8543","providerTheaterId":"","name":"Great Escape Lebanon Valley Stadium 10","address":"2200 Lebanon Valley Mall Rd.","city":"Lebanon","state":"PA","zip":"17042","distance":16.294435855563,"lon":"-76.452838","lat":"40.341638","theaterChainName":"Regal Cinemas","ticketType":"STANDARD"},{"id":"5720","tribuneTheaterId":"11162","providerTheaterId":"","name":"Flagship Cinemas Palmyra","address":"2 N. Londonderry Square","city":"Palmyra","state":"PA","zip":"17078","distance":19.619352446615,"lon":"-76.570438","lat":"40.320435","theaterChainName":"Flagship Cinemas","ticketType":"STANDARD"},{"id":"2973","tribuneTheaterId":"2042","providerTheaterId":"","name":"Cocoaplex Cinema","address":"1130 Cocoa Ave","city":"Hershey","state":"PA","zip":"17033","distance":24.661540495226,"lon":"-76.648949","lat":"40.270247","theaterChainName":"Independent Chains","ticketType":"STANDARD"}]