[{"id":"1990","name":"Strand Theatre - Kutztown","address":"32 N. Whiteoak St.","city":"Kutztown","state":"PA","zip":"19530","distance":"18.235301971435547","lon":"-75.779083","lat":"40.516548","theaterChainName":"Independent Chains","ticketType":"STANDARD"},{"id":"5051","name":"Schuylkill Mall Theatre","address":"670 Schuylkill Mall","city":"Frackville","state":"PA","zip":"17931","distance":"11.289078712463379","lon":"-76.225121","lat":"40.766582","theaterChainName":"Independent Chains","ticketType":"STANDARD"},{"id":"5267","name":"Fox Berkshire","address":"800 Berkshire Boulevard","city":"Wyomissing","state":"PA","zip":"19610","distance":"21.09500503540039","lon":"-75.967697","lat":"40.350899","theaterChainName":"Fox Theatres","ticketType":"STANDARD"},{"id":"2241","name":"Cinema Center Fairgrounds Sq.","address":"3050 N 5th St. Hwy.","city":"Reading","state":"PA","zip":"19605","distance":"19.897537231445312","lon":"-75.930763","lat":"40.379757","theaterChainName":"Carmike Cinemas","ticketType":"STANDARD"},{"id":"4550","name":"R\/C Reading Movies 11 & IMAX","address":"30 N 2nd Street","city":"Reading","state":"PA","zip":"19601","distance":"22.589231491088867","lon":"-75.934288","lat":"40.336651","theaterChainName":"R\/C Theatres","ticketType":"STANDARD"},{"id":"4477","name":"Goggleworks Theatre","address":"201 Washington St.","city":"Reading","state":"PA","zip":"19601","distance":"22.587812423706055","lon":"-75.933853","lat":"40.336796","theaterChainName":"Independent Chains","ticketType":"STANDARD"},{"id":"2180","name":"Regal Hazleton Stadium 10","address":"400 Laurel Mall","city":"Hazleton","state":"PA","zip":"18201","distance":"23.904491424560547","lon":"-76.011360","lat":"40.984657","theaterChainName":"Regal Cinemas","ticketType":"STANDARD"},{"id":"2024","name":"Angela Triplex","address":"113 E Phillips St.","city":"Coaldale","state":"PA","zip":"18218","distance":"15.622464179992676","lon":"-75.904640","lat":"40.823784","theaterChainName":"Independent Chains","ticketType":"STANDARD"}]