[{"id":"1990","name":"Strand Theatre - Kutztown","address":"32 N. Whiteoak St.","city":"Kutztown","state":"PA","zip":"19530","distance":"22.45716667175293","lon":"-75.779083","lat":"40.516548","theaterChainName":"Independent Chains","ticketType":"STANDARD"},{"id":"4233","name":"Great Escape Lebanon Valley Stadium 10","address":"2200 Lebanon Valley Mall Rd.","city":"Lebanon","state":"PA","zip":"17042","distance":"19.693126678466797","lon":"-76.452835","lat":"40.341637","theaterChainName":"Regal Cinemas","ticketType":"STANDARD"},{"id":"5051","name":"Schuylkill Mall Theatre","address":"670 Schuylkill Mall","city":"Frackville","state":"PA","zip":"17931","distance":"14.696911811828613","lon":"-76.225121","lat":"40.766582","theaterChainName":"Independent Chains","ticketType":"STANDARD"},{"id":"5267","name":"Fox Berkshire","address":"800 Berkshire Boulevard","city":"Wyomissing","state":"PA","zip":"19610","distance":"18.762317657470703","lon":"-75.967697","lat":"40.350899","theaterChainName":"Fox Theatres","ticketType":"STANDARD"},{"id":"2241","name":"Cinema Center Fairgrounds Sq.","address":"3050 N 5th St. Hwy.","city":"Reading","state":"PA","zip":"19605","distance":"18.756126403808594","lon":"-75.930763","lat":"40.379757","theaterChainName":"Carmike Cinemas","ticketType":"STANDARD"},{"id":"4550","name":"R\/C Reading Movies 11 & IMAX","address":"30 N 2nd Street","city":"Reading","state":"PA","zip":"19601","distance":"20.674514770507812","lon":"-75.934288","lat":"40.336651","theaterChainName":"R\/C Theatres","ticketType":"STANDARD"},{"id":"4477","name":"Goggleworks Theatre","address":"201 Washington St.","city":"Reading","state":"PA","zip":"19601","distance":"20.682899475097656","lon":"-75.933853","lat":"40.336796","theaterChainName":"Independent Chains","ticketType":"STANDARD"},{"id":"844","name":"Fox East Theatre","address":"4350 Perkiomen Ave.","city":"Reading","state":"PA","zip":"19606","distance":"24.443565368652344","lon":"-75.868660","lat":"40.309414","theaterChainName":"Fox Theatres","ticketType":"STANDARD"},{"id":"2024","name":"Angela Triplex","address":"113 E Phillips St.","city":"Coaldale","state":"PA","zip":"18218","distance":"24.328670501708984","lon":"-75.904640","lat":"40.823784","theaterChainName":"Independent Chains","ticketType":"STANDARD"}]