[{"id":"2629","tribuneTheaterId":"5739","providerTheaterId":"","name":"Carmike 16 Allentown","address":"1700 Catasaqua Rd.","city":"Allentown","state":"PA","zip":"18109","distance":9.7805389688704,"lon":"-75.430348","lat":"40.636103","theaterChainName":"Carmike Cinemas","ticketType":"STANDARD"},{"id":"2355","tribuneTheaterId":"380","providerTheaterId":"","name":"Civic's 19th Street Theatre","address":"527 N. 19th St.","city":"Allentown","state":"PA","zip":"18104","distance":10.420747072393,"lon":"-75.499982","lat":"40.603171","theaterChainName":"Independent Chains","ticketType":"STANDARD"},{"id":"4684","tribuneTheaterId":"9891","providerTheaterId":"","name":"Civic's Theatre 514","address":"514 N. 19th St.","city":"Allentown","state":"PA","zip":"18104","distance":10.442888734666,"lon":"-75.499976","lat":"40.602845","theaterChainName":"Independent Chains","ticketType":"STANDARD"},{"id":"83","tribuneTheaterId":"7067","providerTheaterId":"594","name":"AMC Tilghman Square 8","address":"4608 Broadway","city":"Allentown","state":"PA","zip":"18104","distance":11.363591703117,"lon":"-75.558456","lat":"40.587169","theaterChainName":"AMC Theatres","ticketType":"STANDARD"},{"id":"5047","tribuneTheaterId":"10425","providerTheaterId":"","name":"Frank Banko Alehouse Cinema","address":"ArtsQuest Center at SteelStacks","city":"Bethlehem","state":"PA","zip":"18015","distance":13.01284944928,"lon":"-75.367498","lat":"40.615067","theaterChainName":"Independent Chains","ticketType":"STANDARD"},{"id":"604","tribuneTheaterId":"5642","providerTheaterId":"","name":"Regal Northampton Cinema 14","address":"3720 Nazareth Highway","city":"Easton","state":"PA","zip":"18045","distance":13.504639182595,"lon":"-75.285203","lat":"40.717806","theaterChainName":"Regal Cinemas","ticketType":"STANDARD"},{"id":"4315","tribuneTheaterId":"2399","providerTheaterId":"","name":"Promenade 16","address":"2805 Center Valley Parkway","city":"Center Valley","state":"PA","zip":"18034","distance":14.958054436611,"lon":"-75.407303","lat":"40.559101","theaterChainName":"Carmike Cinemas","ticketType":"STANDARD"},{"id":"3697","tribuneTheaterId":"687","providerTheaterId":"","name":"The Gap Theatre","address":"47 Broadway","city":"Wind Gap","state":"PA","zip":"18091","distance":14.558090821353,"lon":"-75.2917","lat":"40.8471","theaterChainName":"Independent Chains","ticketType":"STANDARD"},{"id":"1990","tribuneTheaterId":"2716","providerTheaterId":"","name":"Strand Theatre - Kutztown","address":"32 N. Whiteoak St.","city":"Kutztown","state":"PA","zip":"19530","distance":20.502510598847,"lon":"-75.779087","lat":"40.51655","theaterChainName":"Independent Chains","ticketType":"STANDARD"},{"id":"2024","tribuneTheaterId":"1498","providerTheaterId":"","name":"Angela Triplex","address":"113 E Phillips St.","city":"Coaldale","state":"PA","zip":"18218","distance":19.757730727887,"lon":"-75.904643","lat":"40.823784","theaterChainName":"Independent Chains","ticketType":"STANDARD"},{"id":"1578","tribuneTheaterId":"5637","providerTheaterId":"","name":"Regal Pohatcong 12","address":"1246 US Highway 22","city":"Phillipsburg","state":"NJ","zip":"08865","distance":21.148680174878,"lon":"-75.147686","lat":"40.676604","theaterChainName":"Regal Cinemas","ticketType":"STANDARD"},{"id":"146","tribuneTheaterId":"8238","providerTheaterId":"","name":"Cinemark Stroud Mall","address":"160 Stroud Mall","city":"Stroudsburg","state":"PA","zip":"18360","distance":23.376457827134,"lon":"-75.223324","lat":"40.990461","theaterChainName":"Cinemark","ticketType":"STANDARD"},{"id":"1489","tribuneTheaterId":"8659","providerTheaterId":"","name":"Regal Richland Crossing Stadium 12","address":"185 North West End Blvd.","city":"Quakertown","state":"PA","zip":"18951","distance":23.058048076331,"lon":"-75.354769","lat":"40.448148","theaterChainName":"Regal Cinemas","ticketType":"STANDARD"}]