[{"id":"4683","name":"Pocono Community Theater","address":"88 South Courtland St.","city":"East Stroudsburg","state":"PA","zip":"18301","distance":"20.98616600036621","lon":"-75.183014","lat":"40.997875","theaterChainName":"Independent Chains","ticketType":"STANDARD"},{"id":"146","name":"Cinemark Stroud Mall","address":"160 Stroud Mall","city":"Stroudsburg","state":"PA","zip":"18360","distance":"18.854904174804688","lon":"-75.223328","lat":"40.990459","theaterChainName":"Cinemark","ticketType":"STANDARD"},{"id":"3697","name":"The Gap Theatre","address":"47 Broadway","city":"Wind Gap","state":"PA","zip":"18091","distance":"17.639423370361328","lon":"-75.291702","lat":"40.847099","theaterChainName":"Independent Chains","ticketType":"STANDARD"},{"id":"604","name":"Regal Northampton Cinema 14","address":"3720 Nazareth Highway","city":"Easton","state":"PA","zip":"18045","distance":"23.655441284179688","lon":"-75.285202","lat":"40.717808","theaterChainName":"Regal Cinemas","ticketType":"STANDARD"},{"id":"4197","name":"Casino Theatre","address":"Route 611 Main Street","city":"Mount Pocono","state":"PA","zip":"18344","distance":"15.608119010925293","lon":"-75.355721","lat":"41.120861","theaterChainName":"Independent Chains","ticketType":"STANDARD"},{"id":"2629","name":"Carmike 16 Allentown","address":"1700 Catasaqua Rd.","city":"Allentown","state":"PA","zip":"18109","distance":"24.747695922851562","lon":"-75.430351","lat":"40.636105","theaterChainName":"Carmike Cinemas","ticketType":"STANDARD"},{"id":"2180","name":"Regal Hazleton Stadium 10","address":"400 Laurel Mall","city":"Hazleton","state":"PA","zip":"18201","distance":"22.293148040771484","lon":"-76.011360","lat":"40.984657","theaterChainName":"Regal Cinemas","ticketType":"STANDARD"},{"id":"4194","name":"R\/C Wilkes Barre Movies 14","address":"24 East Northampton St","city":"Wilkes-Barre Township","state":"PA","zip":"18702","distance":"24.261837005615234","lon":"-75.883934","lat":"41.243660","theaterChainName":"R\/C Theatres","ticketType":"STANDARD"},{"id":"2024","name":"Angela Triplex","address":"113 E Phillips St.","city":"Coaldale","state":"PA","zip":"18218","distance":"19.72265625","lon":"-75.904640","lat":"40.823784","theaterChainName":"Independent Chains","ticketType":"STANDARD"}]