[{"id":"2024","tribuneTheaterId":"1498","providerTheaterId":"","name":"Angela Triplex","address":"113 E Phillips St.","city":"Coaldale","state":"PA","zip":"18218","distance":9.1933461245598,"lon":"-75.904643","lat":"40.823784","theaterChainName":"Independent Chains","ticketType":"STANDARD"},{"id":"2180","tribuneTheaterId":"4660","providerTheaterId":"","name":"Regal Hazleton Stadium 10","address":"400 Laurel Mall","city":"Hazleton","state":"PA","zip":"18201","distance":16.244239724591,"lon":"-76.011363","lat":"40.984657","theaterChainName":"Regal Cinemas","ticketType":"STANDARD"},{"id":"83","tribuneTheaterId":"7067","providerTheaterId":"594","name":"AMC Tilghman Square 8","address":"4608 Broadway","city":"Allentown","state":"PA","zip":"18104","distance":21.724082073323,"lon":"-75.558456","lat":"40.587169","theaterChainName":"AMC Theatres","ticketType":"STANDARD"},{"id":"4684","tribuneTheaterId":"9891","providerTheaterId":"","name":"Civic's Theatre 514","address":"514 N. 19th St.","city":"Allentown","state":"PA","zip":"18104","distance":22.321090884043,"lon":"-75.499976","lat":"40.602845","theaterChainName":"Independent Chains","ticketType":"STANDARD"},{"id":"2355","tribuneTheaterId":"380","providerTheaterId":"","name":"Civic's 19th Street Theatre","address":"527 N. 19th St.","city":"Allentown","state":"PA","zip":"18104","distance":22.302273700113,"lon":"-75.499982","lat":"40.603171","theaterChainName":"Independent Chains","ticketType":"STANDARD"},{"id":"3697","tribuneTheaterId":"687","providerTheaterId":"","name":"The Gap Theatre","address":"47 Broadway","city":"Wind Gap","state":"PA","zip":"18091","distance":23.46457299663,"lon":"-75.2917","lat":"40.8471","theaterChainName":"Independent Chains","ticketType":"STANDARD"},{"id":"2629","tribuneTheaterId":"5739","providerTheaterId":"","name":"Carmike 16 Allentown","address":"1700 Catasaqua Rd.","city":"Allentown","state":"PA","zip":"18109","distance":22.876496635181,"lon":"-75.430348","lat":"40.636103","theaterChainName":"Carmike Cinemas","ticketType":"STANDARD"},{"id":"1990","tribuneTheaterId":"2716","providerTheaterId":"","name":"Strand Theatre - Kutztown","address":"32 N. Whiteoak St.","city":"Kutztown","state":"PA","zip":"19530","distance":24.508041300531,"lon":"-75.779087","lat":"40.51655","theaterChainName":"Independent Chains","ticketType":"STANDARD"}]