[{"id":"3697","name":"The Gap Theatre","address":"47 Broadway","city":"Wind Gap","state":"PA","zip":"18091","distance":"23.465923309326172","lon":"-75.291702","lat":"40.847099","theaterChainName":"Independent Chains","ticketType":"STANDARD"},{"id":"2629","name":"Carmike 16 Allentown","address":"1700 Catasaqua Rd.","city":"Allentown","state":"PA","zip":"18109","distance":"22.877676010131836","lon":"-75.430351","lat":"40.636105","theaterChainName":"Carmike Cinemas","ticketType":"STANDARD"},{"id":"2355","name":"Civic's 19th Street Theatre","address":"527 N. 19th St.","city":"Allentown","state":"PA","zip":"18104","distance":"22.303449630737305","lon":"-75.499985","lat":"40.603172","theaterChainName":"Independent Chains","ticketType":"STANDARD"},{"id":"4684","name":"Civic's Theatre 514","address":"514 N. 19th St.","city":"Allentown","state":"PA","zip":"18104","distance":"22.322433471679688","lon":"-75.499977","lat":"40.602844","theaterChainName":"Independent Chains","ticketType":"STANDARD"},{"id":"83","name":"AMC Tilghman Square 8","address":"4608 Broadway","city":"Allentown","state":"PA","zip":"18104","distance":"21.725318908691406","lon":"-75.558456","lat":"40.587170","theaterChainName":"AMC Theatres","ticketType":"STANDARD"},{"id":"1990","name":"Strand Theatre - Kutztown","address":"32 N. Whiteoak St.","city":"Kutztown","state":"PA","zip":"19530","distance":"24.50959587097168","lon":"-75.779083","lat":"40.516548","theaterChainName":"Independent Chains","ticketType":"STANDARD"},{"id":"2180","name":"Regal Hazleton Stadium 10","address":"400 Laurel Mall","city":"Hazleton","state":"PA","zip":"18201","distance":"16.245149612426758","lon":"-76.011360","lat":"40.984657","theaterChainName":"Regal Cinemas","ticketType":"STANDARD"},{"id":"2024","name":"Angela Triplex","address":"113 E Phillips St.","city":"Coaldale","state":"PA","zip":"18218","distance":"9.193740844726562","lon":"-75.904640","lat":"40.823784","theaterChainName":"Independent Chains","ticketType":"STANDARD"}]