[{"id":"2024","tribuneTheaterId":"1498","providerTheaterId":"","name":"Angela Triplex","address":"113 E Phillips St.","city":"Coaldale","state":"PA","zip":"18218","distance":1.8516684747763,"lon":"-75.904643","lat":"40.823784","theaterChainName":"Independent Chains","ticketType":"STANDARD"},{"id":"2180","tribuneTheaterId":"4660","providerTheaterId":"","name":"Regal Hazleton Stadium 10","address":"400 Laurel Mall","city":"Hazleton","state":"PA","zip":"18201","distance":13.265079687448,"lon":"-76.011363","lat":"40.984657","theaterChainName":"Regal Cinemas","ticketType":"STANDARD"},{"id":"5051","tribuneTheaterId":"10431","providerTheaterId":"","name":"Schuylkill Mall Theatre","address":"670 Schuylkill Mall","city":"Frackville","state":"PA","zip":"17931","distance":19.051566606323,"lon":"-76.225119","lat":"40.766584","theaterChainName":"Independent Chains","ticketType":"STANDARD"},{"id":"1990","tribuneTheaterId":"2716","providerTheaterId":"","name":"Strand Theatre - Kutztown","address":"32 N. Whiteoak St.","city":"Kutztown","state":"PA","zip":"19530","distance":21.863616367109,"lon":"-75.779087","lat":"40.51655","theaterChainName":"Independent Chains","ticketType":"STANDARD"},{"id":"83","tribuneTheaterId":"7067","providerTheaterId":"594","name":"AMC Tilghman Square 8","address":"4608 Broadway","city":"Allentown","state":"PA","zip":"18104","distance":23.156786561048,"lon":"-75.558456","lat":"40.587169","theaterChainName":"AMC Theatres","ticketType":"STANDARD"},{"id":"4684","tribuneTheaterId":"9891","providerTheaterId":"","name":"Civic's Theatre 514","address":"514 N. 19th St.","city":"Allentown","state":"PA","zip":"18104","distance":24.713766489342,"lon":"-75.499976","lat":"40.602845","theaterChainName":"Independent Chains","ticketType":"STANDARD"},{"id":"2702","tribuneTheaterId":"6169","providerTheaterId":"","name":"Berwick Theatre","address":"110 E. Front St.","city":"Berwick","state":"PA","zip":"18603","distance":24.741078566089,"lon":"-76.233398","lat":"41.054798","theaterChainName":"Independent Chains","ticketType":"STANDARD"},{"id":"2355","tribuneTheaterId":"380","providerTheaterId":"","name":"Civic's 19th Street Theatre","address":"527 N. 19th St.","city":"Allentown","state":"PA","zip":"18104","distance":24.699468599382,"lon":"-75.499982","lat":"40.603171","theaterChainName":"Independent Chains","ticketType":"STANDARD"}]