[{"id":"5100","tribuneTheaterId":"10496","providerTheaterId":"","name":"Majestic Cinemas - Matamoras","address":"111 Hulst Drive","city":"Matamoras","state":"PA","zip":"18336","distance":13.601718215936,"lon":"-74.723253","lat":"41.352797","theaterChainName":"Spotlight Theatres","ticketType":"STANDARD"},{"id":"2351","tribuneTheaterId":"4139","providerTheaterId":"","name":"Poconos Movieplex","address":"400 Foxmoor Dr.","city":"East Stroudsburg","state":"PA","zip":"18301","distance":14.182960318926,"lon":"-75.076151","lat":"41.063037","theaterChainName":"Independent Chains","ticketType":"STANDARD"},{"id":"5952","tribuneTheaterId":"6009","providerTheaterId":"","name":"Newton Theatre","address":"234 Spring Street","city":"Newton","state":"NJ","zip":"07860","distance":16.032246208677,"lon":"-74.750079","lat":"41.056105","theaterChainName":"Independent Chains","ticketType":"STANDARD"},{"id":"4683","tribuneTheaterId":"9890","providerTheaterId":"","name":"Pocono Community Theater","address":"88 South Courtland St.","city":"East Stroudsburg","state":"PA","zip":"18301","distance":21.036044602202,"lon":"-75.183015","lat":"40.997874","theaterChainName":"Independent Chains","ticketType":"STANDARD"},{"id":"4396","tribuneTheaterId":"9444","providerTheaterId":"","name":"Sparta Theatre","address":"25 Centre St.","city":"Sparta","state":"NJ","zip":"07871","distance":21.411874963923,"lon":"-74.634832","lat":"41.030475","theaterChainName":"Carmike Cinemas","ticketType":"STANDARD"},{"id":"4197","tribuneTheaterId":"1447","providerTheaterId":"","name":"Casino Theatre","address":"Route 611 Main Street","city":"Mount Pocono","state":"PA","zip":"18344","distance":23.229725989657,"lon":"-75.355718","lat":"41.12086","theaterChainName":"Independent Chains","ticketType":"STANDARD"},{"id":"146","tribuneTheaterId":"8238","providerTheaterId":"","name":"Cinemark Stroud Mall","address":"160 Stroud Mall","city":"Stroudsburg","state":"PA","zip":"18360","distance":22.756482177422,"lon":"-75.223324","lat":"40.990461","theaterChainName":"Cinemark","ticketType":"STANDARD"}]