[{"id":"4396","name":"Sparta Theatre","address":"25 Centre St.","city":"Sparta","state":"NJ","zip":"07871","distance":"21.413299560546875","lon":"-74.634834","lat":"41.030476","theaterChainName":"Carmike Cinemas","ticketType":"STANDARD"},{"id":"5952","name":"Newton Theatre","address":"234 Spring Street","city":"Newton","state":"NJ","zip":"07860","distance":"16.033443450927734","lon":"-74.750076","lat":"41.056107","theaterChainName":"Independent Chains","ticketType":"STANDARD"},{"id":"5100","name":"Majestic Cinemas - Matamoras","address":"111 Hulst Drive","city":"Matamoras","state":"PA","zip":"18336","distance":"13.602773666381836","lon":"-74.723251","lat":"41.352798","theaterChainName":"Spotlight Theatres","ticketType":"STANDARD"},{"id":"2351","name":"Poconos Movieplex","address":"400 Foxmoor Dr.","city":"East Stroudsburg","state":"PA","zip":"18301","distance":"14.183740615844727","lon":"-75.076149","lat":"41.063038","theaterChainName":"Independent Chains","ticketType":"STANDARD"},{"id":"4683","name":"Pocono Community Theater","address":"88 South Courtland St.","city":"East Stroudsburg","state":"PA","zip":"18301","distance":"21.037227630615234","lon":"-75.183014","lat":"40.997875","theaterChainName":"Independent Chains","ticketType":"STANDARD"},{"id":"146","name":"Cinemark Stroud Mall","address":"160 Stroud Mall","city":"Stroudsburg","state":"PA","zip":"18360","distance":"22.758066177368164","lon":"-75.223328","lat":"40.990459","theaterChainName":"Cinemark","ticketType":"STANDARD"},{"id":"4197","name":"Casino Theatre","address":"Route 611 Main Street","city":"Mount Pocono","state":"PA","zip":"18344","distance":"23.231130599975586","lon":"-75.355721","lat":"41.120861","theaterChainName":"Independent Chains","ticketType":"STANDARD"}]