[{"id":"4683","tribuneTheaterId":"9890","providerTheaterId":"","name":"Pocono Community Theater","address":"88 South Courtland St.","city":"East Stroudsburg","state":"PA","zip":"18301","distance":2.4499703649555,"lon":"-75.183015","lat":"40.997874","theaterChainName":"Independent Chains","ticketType":"STANDARD"},{"id":"146","tribuneTheaterId":"8238","providerTheaterId":"","name":"Cinemark Stroud Mall","address":"160 Stroud Mall","city":"Stroudsburg","state":"PA","zip":"18360","distance":4.2598666828357,"lon":"-75.223324","lat":"40.990461","theaterChainName":"Cinemark","ticketType":"STANDARD"},{"id":"2351","tribuneTheaterId":"4139","providerTheaterId":"","name":"Poconos Movieplex","address":"400 Foxmoor Dr.","city":"East Stroudsburg","state":"PA","zip":"18301","distance":6.7540640178971,"lon":"-75.076151","lat":"41.063037","theaterChainName":"Independent Chains","ticketType":"STANDARD"},{"id":"3697","tribuneTheaterId":"687","providerTheaterId":"","name":"The Gap Theatre","address":"47 Broadway","city":"Wind Gap","state":"PA","zip":"18091","distance":11.988137001249,"lon":"-75.2917","lat":"40.8471","theaterChainName":"Independent Chains","ticketType":"STANDARD"},{"id":"4197","tribuneTheaterId":"1447","providerTheaterId":"","name":"Casino Theatre","address":"Route 611 Main Street","city":"Mount Pocono","state":"PA","zip":"18344","distance":14.782285611561,"lon":"-75.355718","lat":"41.12086","theaterChainName":"Independent Chains","ticketType":"STANDARD"},{"id":"604","tribuneTheaterId":"5642","providerTheaterId":"","name":"Regal Northampton Cinema 14","address":"3720 Nazareth Highway","city":"Easton","state":"PA","zip":"18045","distance":19.536424248593,"lon":"-75.285203","lat":"40.717806","theaterChainName":"Regal Cinemas","ticketType":"STANDARD"},{"id":"2352","tribuneTheaterId":"5907","providerTheaterId":"","name":"Cin\u00e9polis Mansfield Cinema 14","address":"1965 State Route 57","city":"Hackettstown","state":"NJ","zip":"07840","distance":19.323645925448,"lon":"-74.836078","lat":"40.82309","theaterChainName":"Cinepolis Luxury Cinemas","ticketType":"STANDARD"},{"id":"1578","tribuneTheaterId":"5637","providerTheaterId":"","name":"Regal Pohatcong 12","address":"1246 US Highway 22","city":"Phillipsburg","state":"NJ","zip":"08865","distance":20.915701221191,"lon":"-75.147686","lat":"40.676604","theaterChainName":"Regal Cinemas","ticketType":"STANDARD"},{"id":"5952","tribuneTheaterId":"6009","providerTheaterId":"","name":"Newton Theatre","address":"234 Spring Street","city":"Newton","state":"NJ","zip":"07860","distance":21.159736506055,"lon":"-74.750079","lat":"41.056105","theaterChainName":"Independent Chains","ticketType":"STANDARD"}]