[{"id":"146","tribuneTheaterId":"8238","providerTheaterId":"","name":"Cinemark Stroud Mall","address":"160 Stroud Mall","city":"Stroudsburg","state":"PA","zip":"18360","distance":4.2419471827077,"lon":"-75.223324","lat":"40.990461","theaterChainName":"Cinemark","ticketType":"STANDARD"},{"id":"4683","tribuneTheaterId":"9890","providerTheaterId":"","name":"Pocono Community Theater","address":"88 South Courtland St.","city":"East Stroudsburg","state":"PA","zip":"18301","distance":3.887102827412,"lon":"-75.183015","lat":"40.997874","theaterChainName":"Independent Chains","ticketType":"STANDARD"},{"id":"2351","tribuneTheaterId":"4139","providerTheaterId":"","name":"Poconos Movieplex","address":"400 Foxmoor Dr.","city":"East Stroudsburg","state":"PA","zip":"18301","distance":6.9367247288427,"lon":"-75.076151","lat":"41.063037","theaterChainName":"Independent Chains","ticketType":"STANDARD"},{"id":"4197","tribuneTheaterId":"1447","providerTheaterId":"","name":"Casino Theatre","address":"Route 611 Main Street","city":"Mount Pocono","state":"PA","zip":"18344","distance":9.07583168498,"lon":"-75.355718","lat":"41.12086","theaterChainName":"Independent Chains","ticketType":"STANDARD"},{"id":"3697","tribuneTheaterId":"687","providerTheaterId":"","name":"The Gap Theatre","address":"47 Broadway","city":"Wind Gap","state":"PA","zip":"18091","distance":14.731885639244,"lon":"-75.2917","lat":"40.8471","theaterChainName":"Independent Chains","ticketType":"STANDARD"},{"id":"604","tribuneTheaterId":"5642","providerTheaterId":"","name":"Regal Northampton Cinema 14","address":"3720 Nazareth Highway","city":"Easton","state":"PA","zip":"18045","distance":23.355720549243,"lon":"-75.285203","lat":"40.717806","theaterChainName":"Regal Cinemas","ticketType":"STANDARD"},{"id":"5952","tribuneTheaterId":"6009","providerTheaterId":"","name":"Newton Theatre","address":"234 Spring Street","city":"Newton","state":"NJ","zip":"07860","distance":23.8775051162,"lon":"-74.750079","lat":"41.056105","theaterChainName":"Independent Chains","ticketType":"STANDARD"},{"id":"2352","tribuneTheaterId":"5907","providerTheaterId":"","name":"Cin\u00e9polis Mansfield Cinema 14","address":"1965 State Route 57","city":"Hackettstown","state":"NJ","zip":"07840","distance":24.99976011508,"lon":"-74.836078","lat":"40.82309","theaterChainName":"Cinepolis Luxury Cinemas","ticketType":"STANDARD"}]