[{"id":"5952","name":"Newton Theatre","address":"234 Spring Street","city":"Newton","state":"NJ","zip":"07860","distance":"23.879009246826172","lon":"-74.750076","lat":"41.056107","theaterChainName":"Independent Chains","ticketType":"STANDARD"},{"id":"2351","name":"Poconos Movieplex","address":"400 Foxmoor Dr.","city":"East Stroudsburg","state":"PA","zip":"18301","distance":"6.937145709991455","lon":"-75.076149","lat":"41.063038","theaterChainName":"Independent Chains","ticketType":"STANDARD"},{"id":"4683","name":"Pocono Community Theater","address":"88 South Courtland St.","city":"East Stroudsburg","state":"PA","zip":"18301","distance":"3.8872649669647217","lon":"-75.183014","lat":"40.997875","theaterChainName":"Independent Chains","ticketType":"STANDARD"},{"id":"146","name":"Cinemark Stroud Mall","address":"160 Stroud Mall","city":"Stroudsburg","state":"PA","zip":"18360","distance":"4.242394924163818","lon":"-75.223328","lat":"40.990459","theaterChainName":"Cinemark","ticketType":"STANDARD"},{"id":"3697","name":"The Gap Theatre","address":"47 Broadway","city":"Wind Gap","state":"PA","zip":"18091","distance":"14.732935905456543","lon":"-75.291702","lat":"40.847099","theaterChainName":"Independent Chains","ticketType":"STANDARD"},{"id":"604","name":"Regal Northampton Cinema 14","address":"3720 Nazareth Highway","city":"Easton","state":"PA","zip":"18045","distance":"23.357080459594727","lon":"-75.285202","lat":"40.717808","theaterChainName":"Regal Cinemas","ticketType":"STANDARD"},{"id":"4197","name":"Casino Theatre","address":"Route 611 Main Street","city":"Mount Pocono","state":"PA","zip":"18344","distance":"9.076632499694824","lon":"-75.355721","lat":"41.120861","theaterChainName":"Independent Chains","ticketType":"STANDARD"}]