[{"id":"5161","tribuneTheaterId":"10567","providerTheaterId":"","name":"Great Escape Dickson City 14 IMAX","address":"3909 Commerce Blvd","city":"Dickson City","state":"PA","zip":"18519","distance":6.6764078785411,"lon":"-75.627","lat":"41.4618","theaterChainName":"Regal Cinemas","ticketType":"STANDARD"},{"id":"168","tribuneTheaterId":"6199","providerTheaterId":"","name":"Marquee Steamtown","address":"301 Lackawanna Ave.","city":"Scranton","state":"PA","zip":"18503","distance":9.2502643704318,"lon":"-75.667445","lat":"41.408404","theaterChainName":"Marquee Cinemas","ticketType":"STANDARD"},{"id":"6098","tribuneTheaterId":"11512","providerTheaterId":"","name":"Iron Horse Movie Bistro","address":"301 Lackawanna Ave","city":"Scranton","state":"PA","zip":"18503","distance":9.2488459119479,"lon":"-75.667645","lat":"41.408394","theaterChainName":"Phoenix Theatres","ticketType":"STANDARD"},{"id":"2871","tribuneTheaterId":"4206","providerTheaterId":"","name":"Cinemark 20","address":"40 Glenmaura National Blvd","city":"Moosic","state":"PA","zip":"18507","distance":12.438554865375,"lon":"-75.679364","lat":"41.360401","theaterChainName":"Cinemark","ticketType":"STANDARD"},{"id":"3493","tribuneTheaterId":"1298","providerTheaterId":"","name":"Dietrich Theater","address":"60 E. Tioga Street","city":"Tunkhannock","state":"PA","zip":"18657","distance":12.533218022196,"lon":"-75.94604","lat":"41.538461","theaterChainName":"Independent Chains","ticketType":"STANDARD"},{"id":"3306","tribuneTheaterId":"579","providerTheaterId":"","name":"Montrose Theatre","address":"38 Public Ave","city":"Montrose","state":"PA","zip":"18801","distance":22.20092012717,"lon":"-75.877967","lat":"41.833283","theaterChainName":"Independent Chains","ticketType":"STANDARD"},{"id":"4194","tribuneTheaterId":"4987","providerTheaterId":"","name":"R\/C Wilkes Barre Movies 14","address":"24 East Northampton St","city":"Wilkes-Barre Township","state":"PA","zip":"18702","distance":22.474250819282,"lon":"-75.883934","lat":"41.243661","theaterChainName":"R\/C Theatres","ticketType":"STANDARD"},{"id":"1933","tribuneTheaterId":"4026","providerTheaterId":"","name":"Cinema 6 - Honesdale","address":"Route 6 Plaza","city":"Honesdale","state":"PA","zip":"18431","distance":24.763764459362,"lon":"-75.225127","lat":"41.552495","theaterChainName":"Independent Chains","ticketType":"STANDARD"}]