[{"id":"1933","name":"Cinema 6 - Honesdale","address":"Route 6 Plaza","city":"Honesdale","state":"PA","zip":"18431","distance":"24.76508903503418","lon":"-75.225128","lat":"41.552494","theaterChainName":"Independent Chains","ticketType":"STANDARD"},{"id":"5161","name":"Great Escape Dickson City 14 IMAX","address":"3909 Commerce Blvd","city":"Dickson City","state":"PA","zip":"18519","distance":"6.676856517791748","lon":"-75.626999","lat":"41.461800","theaterChainName":"Regal Cinemas","ticketType":"STANDARD"},{"id":"168","name":"Marquee Steamtown","address":"301 Lackawanna Ave.","city":"Scranton","state":"PA","zip":"18503","distance":"9.250828742980957","lon":"-75.667442","lat":"41.408405","theaterChainName":"Marquee Cinemas","ticketType":"STANDARD"},{"id":"6098","name":"Iron Horse Movie Bistro","address":"301 Lackawanna Ave","city":"Scranton","state":"PA","zip":"18503","distance":"9.249444961547852","lon":"-75.667648","lat":"41.408394","theaterChainName":"Phoenix Theatres","ticketType":"STANDARD"},{"id":"3306","name":"Montrose Theatre","address":"38 Public Ave","city":"Montrose","state":"PA","zip":"18801","distance":"22.20226287841797","lon":"-75.877968","lat":"41.833282","theaterChainName":"Independent Chains","ticketType":"STANDARD"},{"id":"3493","name":"Dietrich Theater","address":"60 E. Tioga Street","city":"Tunkhannock","state":"PA","zip":"18657","distance":"12.534000396728516","lon":"-75.946037","lat":"41.538460","theaterChainName":"Independent Chains","ticketType":"STANDARD"},{"id":"4194","name":"R\/C Wilkes Barre Movies 14","address":"24 East Northampton St","city":"Wilkes-Barre Township","state":"PA","zip":"18702","distance":"22.47584342956543","lon":"-75.883934","lat":"41.243660","theaterChainName":"R\/C Theatres","ticketType":"STANDARD"},{"id":"2871","name":"Cinemark 20","address":"40 Glenmaura National Blvd","city":"Moosic","state":"PA","zip":"18507","distance":"12.439366340637207","lon":"-75.679367","lat":"41.360401","theaterChainName":"Cinemark","ticketType":"STANDARD"}]