[{"id":"1933","name":"Cinema 6 - Honesdale","address":"Route 6 Plaza","city":"Honesdale","state":"PA","zip":"18431","distance":"14.229096412658691","lon":"-75.225128","lat":"41.552494","theaterChainName":"Independent Chains","ticketType":"STANDARD"},{"id":"2752","name":"Callicoon Theatre","address":"30 Upper Main St.","city":"Callicoon","state":"NY","zip":"12723","distance":"22.527162551879883","lon":"-75.058235","lat":"41.767052","theaterChainName":"Independent Chains","ticketType":"STANDARD"},{"id":"5161","name":"Great Escape Dickson City 14 IMAX","address":"3909 Commerce Blvd","city":"Dickson City","state":"PA","zip":"18519","distance":"15.511305809020996","lon":"-75.626999","lat":"41.461800","theaterChainName":"Regal Cinemas","ticketType":"STANDARD"},{"id":"168","name":"Marquee Steamtown","address":"301 Lackawanna Ave.","city":"Scranton","state":"PA","zip":"18503","distance":"19.7504825592041","lon":"-75.667442","lat":"41.408405","theaterChainName":"Marquee Cinemas","ticketType":"STANDARD"},{"id":"6098","name":"Iron Horse Movie Bistro","address":"301 Lackawanna Ave","city":"Scranton","state":"PA","zip":"18503","distance":"19.75676155090332","lon":"-75.667648","lat":"41.408394","theaterChainName":"Phoenix Theatres","ticketType":"STANDARD"},{"id":"3306","name":"Montrose Theatre","address":"38 Public Ave","city":"Montrose","state":"PA","zip":"18801","distance":"24.649272918701172","lon":"-75.877968","lat":"41.833282","theaterChainName":"Independent Chains","ticketType":"STANDARD"},{"id":"2871","name":"Cinemark 20","address":"40 Glenmaura National Blvd","city":"Moosic","state":"PA","zip":"18507","distance":"22.930391311645508","lon":"-75.679367","lat":"41.360401","theaterChainName":"Cinemark","ticketType":"STANDARD"}]