[{"id":"1933","tribuneTheaterId":"4026","providerTheaterId":"","name":"Cinema 6 - Honesdale","address":"Route 6 Plaza","city":"Honesdale","state":"PA","zip":"18431","distance":14.228280462132,"lon":"-75.225127","lat":"41.552495","theaterChainName":"Independent Chains","ticketType":"STANDARD"},{"id":"5161","tribuneTheaterId":"10567","providerTheaterId":"","name":"Great Escape Dickson City 14 IMAX","address":"3909 Commerce Blvd","city":"Dickson City","state":"PA","zip":"18519","distance":15.510270307219,"lon":"-75.627","lat":"41.4618","theaterChainName":"Regal Cinemas","ticketType":"STANDARD"},{"id":"6098","tribuneTheaterId":"11512","providerTheaterId":"","name":"Iron Horse Movie Bistro","address":"301 Lackawanna Ave","city":"Scranton","state":"PA","zip":"18503","distance":19.755357324043,"lon":"-75.667645","lat":"41.408394","theaterChainName":"Phoenix Theatres","ticketType":"STANDARD"},{"id":"168","tribuneTheaterId":"6199","providerTheaterId":"","name":"Marquee Steamtown","address":"301 Lackawanna Ave.","city":"Scranton","state":"PA","zip":"18503","distance":19.74932598303,"lon":"-75.667445","lat":"41.408404","theaterChainName":"Marquee Cinemas","ticketType":"STANDARD"},{"id":"2752","tribuneTheaterId":"2581","providerTheaterId":"","name":"Callicoon Theatre","address":"30 Upper Main St.","city":"Callicoon","state":"NY","zip":"12723","distance":22.525750183693,"lon":"-75.058237","lat":"41.767051","theaterChainName":"Independent Chains","ticketType":"STANDARD"},{"id":"2871","tribuneTheaterId":"4206","providerTheaterId":"","name":"Cinemark 20","address":"40 Glenmaura National Blvd","city":"Moosic","state":"PA","zip":"18507","distance":22.92882337222,"lon":"-75.679364","lat":"41.360401","theaterChainName":"Cinemark","ticketType":"STANDARD"},{"id":"3306","tribuneTheaterId":"579","providerTheaterId":"","name":"Montrose Theatre","address":"38 Public Ave","city":"Montrose","state":"PA","zip":"18801","distance":24.647686154943,"lon":"-75.877967","lat":"41.833283","theaterChainName":"Independent Chains","ticketType":"STANDARD"}]