[{"id":"4197","name":"Casino Theatre","address":"Route 611 Main Street","city":"Mount Pocono","state":"PA","zip":"18344","distance":"22.364120483398438","lon":"-75.355721","lat":"41.120861","theaterChainName":"Independent Chains","ticketType":"STANDARD"},{"id":"1933","name":"Cinema 6 - Honesdale","address":"Route 6 Plaza","city":"Honesdale","state":"PA","zip":"18431","distance":"13.221627235412598","lon":"-75.225128","lat":"41.552494","theaterChainName":"Independent Chains","ticketType":"STANDARD"},{"id":"5161","name":"Great Escape Dickson City 14 IMAX","address":"3909 Commerce Blvd","city":"Dickson City","state":"PA","zip":"18519","distance":"10.251937866210938","lon":"-75.626999","lat":"41.461800","theaterChainName":"Regal Cinemas","ticketType":"STANDARD"},{"id":"168","name":"Marquee Steamtown","address":"301 Lackawanna Ave.","city":"Scranton","state":"PA","zip":"18503","distance":"12.422290802001953","lon":"-75.667442","lat":"41.408405","theaterChainName":"Marquee Cinemas","ticketType":"STANDARD"},{"id":"6098","name":"Iron Horse Movie Bistro","address":"301 Lackawanna Ave","city":"Scranton","state":"PA","zip":"18503","distance":"12.432940483093262","lon":"-75.667648","lat":"41.408394","theaterChainName":"Phoenix Theatres","ticketType":"STANDARD"},{"id":"2871","name":"Cinemark 20","address":"40 Glenmaura National Blvd","city":"Moosic","state":"PA","zip":"18507","distance":"13.971077919006348","lon":"-75.679367","lat":"41.360401","theaterChainName":"Cinemark","ticketType":"STANDARD"}]