[{"id":"1933","tribuneTheaterId":"4026","providerTheaterId":"","name":"Cinema 6 - Honesdale","address":"Route 6 Plaza","city":"Honesdale","state":"PA","zip":"18431","distance":2.3347446598651,"lon":"-75.225127","lat":"41.552495","theaterChainName":"Independent Chains","ticketType":"STANDARD"},{"id":"2752","tribuneTheaterId":"2581","providerTheaterId":"","name":"Callicoon Theatre","address":"30 Upper Main St.","city":"Callicoon","state":"NY","zip":"12723","distance":16.409972445732,"lon":"-75.058237","lat":"41.767051","theaterChainName":"Independent Chains","ticketType":"STANDARD"},{"id":"5161","tribuneTheaterId":"10567","providerTheaterId":"","name":"Great Escape Dickson City 14 IMAX","address":"3909 Commerce Blvd","city":"Dickson City","state":"PA","zip":"18519","distance":20.988681834618,"lon":"-75.627","lat":"41.4618","theaterChainName":"Regal Cinemas","ticketType":"STANDARD"},{"id":"6098","tribuneTheaterId":"11512","providerTheaterId":"","name":"Iron Horse Movie Bistro","address":"301 Lackawanna Ave","city":"Scranton","state":"PA","zip":"18503","distance":24.499162171424,"lon":"-75.667645","lat":"41.408394","theaterChainName":"Phoenix Theatres","ticketType":"STANDARD"},{"id":"168","tribuneTheaterId":"6199","providerTheaterId":"","name":"Marquee Steamtown","address":"301 Lackawanna Ave.","city":"Scranton","state":"PA","zip":"18503","distance":24.489757824574,"lon":"-75.667445","lat":"41.408404","theaterChainName":"Marquee Cinemas","ticketType":"STANDARD"}]