[{"id":"5100","name":"Majestic Cinemas - Matamoras","address":"111 Hulst Drive","city":"Matamoras","state":"PA","zip":"18336","distance":"24.710575103759766","lon":"-74.723251","lat":"41.352798","theaterChainName":"Spotlight Theatres","ticketType":"STANDARD"},{"id":"2351","name":"Poconos Movieplex","address":"400 Foxmoor Dr.","city":"East Stroudsburg","state":"PA","zip":"18301","distance":"23.852252960205078","lon":"-75.076149","lat":"41.063038","theaterChainName":"Independent Chains","ticketType":"STANDARD"},{"id":"4197","name":"Casino Theatre","address":"Route 611 Main Street","city":"Mount Pocono","state":"PA","zip":"18344","distance":"20.749238967895508","lon":"-75.355721","lat":"41.120861","theaterChainName":"Independent Chains","ticketType":"STANDARD"},{"id":"1933","name":"Cinema 6 - Honesdale","address":"Route 6 Plaza","city":"Honesdale","state":"PA","zip":"18431","distance":"10.902323722839355","lon":"-75.225128","lat":"41.552494","theaterChainName":"Independent Chains","ticketType":"STANDARD"},{"id":"5161","name":"Great Escape Dickson City 14 IMAX","address":"3909 Commerce Blvd","city":"Dickson City","state":"PA","zip":"18519","distance":"22.769437789916992","lon":"-75.626999","lat":"41.461800","theaterChainName":"Regal Cinemas","ticketType":"STANDARD"},{"id":"168","name":"Marquee Steamtown","address":"301 Lackawanna Ave.","city":"Scranton","state":"PA","zip":"18503","distance":"24.43355369567871","lon":"-75.667442","lat":"41.408405","theaterChainName":"Marquee Cinemas","ticketType":"STANDARD"},{"id":"6098","name":"Iron Horse Movie Bistro","address":"301 Lackawanna Ave","city":"Scranton","state":"PA","zip":"18503","distance":"24.444198608398438","lon":"-75.667648","lat":"41.408394","theaterChainName":"Phoenix Theatres","ticketType":"STANDARD"}]