[{"id":"168","name":"Marquee Steamtown","address":"301 Lackawanna Ave.","city":"Scranton","state":"PA","zip":"18503","distance":"24.846538543701172","lon":"-75.667442","lat":"41.408405","theaterChainName":"Marquee Cinemas","ticketType":"STANDARD"},{"id":"6098","name":"Iron Horse Movie Bistro","address":"301 Lackawanna Ave","city":"Scranton","state":"PA","zip":"18503","distance":"24.83718490600586","lon":"-75.667648","lat":"41.408394","theaterChainName":"Phoenix Theatres","ticketType":"STANDARD"},{"id":"3306","name":"Montrose Theatre","address":"38 Public Ave","city":"Montrose","state":"PA","zip":"18801","distance":"22.256948471069336","lon":"-75.877968","lat":"41.833282","theaterChainName":"Independent Chains","ticketType":"STANDARD"},{"id":"1846","name":"Keystone Theatre","address":"601 Main Street","city":"Towanda","state":"PA","zip":"18848","distance":"22.556224822998047","lon":"-76.442955","lat":"41.764248","theaterChainName":"Independent Chains","ticketType":"STANDARD"},{"id":"3493","name":"Dietrich Theater","address":"60 E. Tioga Street","city":"Tunkhannock","state":"PA","zip":"18657","distance":"8.261996269226074","lon":"-75.946037","lat":"41.538460","theaterChainName":"Independent Chains","ticketType":"STANDARD"},{"id":"4194","name":"R\/C Wilkes Barre Movies 14","address":"24 East Northampton St","city":"Wilkes-Barre Township","state":"PA","zip":"18702","distance":"24.563695907592773","lon":"-75.883934","lat":"41.243660","theaterChainName":"R\/C Theatres","ticketType":"STANDARD"}]