[{"id":"4194","tribuneTheaterId":"4987","providerTheaterId":"","name":"R\/C Wilkes Barre Movies 14","address":"24 East Northampton St","city":"Wilkes-Barre Township","state":"PA","zip":"18702","distance":13.689098038005,"lon":"-75.883934","lat":"41.243661","theaterChainName":"R\/C Theatres","ticketType":"STANDARD"},{"id":"3493","tribuneTheaterId":"1298","providerTheaterId":"","name":"Dietrich Theater","address":"60 E. Tioga Street","city":"Tunkhannock","state":"PA","zip":"18657","distance":18.744917211202,"lon":"-75.94604","lat":"41.538461","theaterChainName":"Independent Chains","ticketType":"STANDARD"},{"id":"2702","tribuneTheaterId":"6169","providerTheaterId":"","name":"Berwick Theatre","address":"110 E. Front St.","city":"Berwick","state":"PA","zip":"18603","distance":18.15091816433,"lon":"-76.233398","lat":"41.054798","theaterChainName":"Independent Chains","ticketType":"STANDARD"},{"id":"2871","tribuneTheaterId":"4206","providerTheaterId":"","name":"Cinemark 20","address":"40 Glenmaura National Blvd","city":"Moosic","state":"PA","zip":"18507","distance":23.872782441131,"lon":"-75.679364","lat":"41.360401","theaterChainName":"Cinemark","ticketType":"STANDARD"},{"id":"2180","tribuneTheaterId":"4660","providerTheaterId":"","name":"Regal Hazleton Stadium 10","address":"400 Laurel Mall","city":"Hazleton","state":"PA","zip":"18201","distance":23.139752087373,"lon":"-76.011363","lat":"40.984657","theaterChainName":"Regal Cinemas","ticketType":"STANDARD"}]