[{"id":"4194","tribuneTheaterId":"4987","providerTheaterId":"","name":"R\/C Wilkes Barre Movies 14","address":"24 East Northampton St","city":"Wilkes-Barre Township","state":"PA","zip":"18702","distance":12.792217627422,"lon":"-75.883934","lat":"41.243661","theaterChainName":"R\/C Theatres","ticketType":"STANDARD"},{"id":"2180","tribuneTheaterId":"4660","providerTheaterId":"","name":"Regal Hazleton Stadium 10","address":"400 Laurel Mall","city":"Hazleton","state":"PA","zip":"18201","distance":14.099037291853,"lon":"-76.011363","lat":"40.984657","theaterChainName":"Regal Cinemas","ticketType":"STANDARD"},{"id":"2024","tribuneTheaterId":"1498","providerTheaterId":"","name":"Angela Triplex","address":"113 E Phillips St.","city":"Coaldale","state":"PA","zip":"18218","distance":18.953129862499,"lon":"-75.904643","lat":"40.823784","theaterChainName":"Independent Chains","ticketType":"STANDARD"},{"id":"2871","tribuneTheaterId":"4206","providerTheaterId":"","name":"Cinemark 20","address":"40 Glenmaura National Blvd","city":"Moosic","state":"PA","zip":"18507","distance":20.023888033312,"lon":"-75.679364","lat":"41.360401","theaterChainName":"Cinemark","ticketType":"STANDARD"},{"id":"4197","tribuneTheaterId":"1447","providerTheaterId":"","name":"Casino Theatre","address":"Route 611 Main Street","city":"Mount Pocono","state":"PA","zip":"18344","distance":21.840533617641,"lon":"-75.355718","lat":"41.12086","theaterChainName":"Independent Chains","ticketType":"STANDARD"},{"id":"2702","tribuneTheaterId":"6169","providerTheaterId":"","name":"Berwick Theatre","address":"110 E. Front St.","city":"Berwick","state":"PA","zip":"18603","distance":24.119390134434,"lon":"-76.233398","lat":"41.054798","theaterChainName":"Independent Chains","ticketType":"STANDARD"},{"id":"168","tribuneTheaterId":"6199","providerTheaterId":"","name":"Marquee Steamtown","address":"301 Lackawanna Ave.","city":"Scranton","state":"PA","zip":"18503","distance":23.392799905419,"lon":"-75.667445","lat":"41.408404","theaterChainName":"Marquee Cinemas","ticketType":"STANDARD"},{"id":"6098","tribuneTheaterId":"11512","providerTheaterId":"","name":"Iron Horse Movie Bistro","address":"301 Lackawanna Ave","city":"Scranton","state":"PA","zip":"18503","distance":23.38972877117,"lon":"-75.667645","lat":"41.408394","theaterChainName":"Phoenix Theatres","ticketType":"STANDARD"}]