[{"id":"4194","tribuneTheaterId":"4987","providerTheaterId":"","name":"R\/C Wilkes Barre Movies 14","address":"24 East Northampton St","city":"Wilkes-Barre Township","state":"PA","zip":"18702","distance":5.9467017285423,"lon":"-75.883934","lat":"41.243661","theaterChainName":"R\/C Theatres","ticketType":"STANDARD"},{"id":"2871","tribuneTheaterId":"4206","providerTheaterId":"","name":"Cinemark 20","address":"40 Glenmaura National Blvd","city":"Moosic","state":"PA","zip":"18507","distance":10.815246599744,"lon":"-75.679364","lat":"41.360401","theaterChainName":"Cinemark","ticketType":"STANDARD"},{"id":"6098","tribuneTheaterId":"11512","providerTheaterId":"","name":"Iron Horse Movie Bistro","address":"301 Lackawanna Ave","city":"Scranton","state":"PA","zip":"18503","distance":14.07958825494,"lon":"-75.667645","lat":"41.408394","theaterChainName":"Phoenix Theatres","ticketType":"STANDARD"},{"id":"168","tribuneTheaterId":"6199","providerTheaterId":"","name":"Marquee Steamtown","address":"301 Lackawanna Ave.","city":"Scranton","state":"PA","zip":"18503","distance":14.084280645754,"lon":"-75.667445","lat":"41.408404","theaterChainName":"Marquee Cinemas","ticketType":"STANDARD"},{"id":"5161","tribuneTheaterId":"10567","providerTheaterId":"","name":"Great Escape Dickson City 14 IMAX","address":"3909 Commerce Blvd","city":"Dickson City","state":"PA","zip":"18519","distance":18.305861199108,"lon":"-75.627","lat":"41.4618","theaterChainName":"Regal Cinemas","ticketType":"STANDARD"},{"id":"2180","tribuneTheaterId":"4660","providerTheaterId":"","name":"Regal Hazleton Stadium 10","address":"400 Laurel Mall","city":"Hazleton","state":"PA","zip":"18201","distance":20.480353702271,"lon":"-76.011363","lat":"40.984657","theaterChainName":"Regal Cinemas","ticketType":"STANDARD"},{"id":"3493","tribuneTheaterId":"1298","providerTheaterId":"","name":"Dietrich Theater","address":"60 E. Tioga Street","city":"Tunkhannock","state":"PA","zip":"18657","distance":23.699108965797,"lon":"-75.94604","lat":"41.538461","theaterChainName":"Independent Chains","ticketType":"STANDARD"},{"id":"4197","tribuneTheaterId":"1447","providerTheaterId":"","name":"Casino Theatre","address":"Route 611 Main Street","city":"Mount Pocono","state":"PA","zip":"18344","distance":22.804578327532,"lon":"-75.355718","lat":"41.12086","theaterChainName":"Independent Chains","ticketType":"STANDARD"}]