[{"id":"4620","name":"Tioga Theater","address":"208 Main Street","city":"Owego","state":"NY","zip":"13827","distance":"15.843347549438477","lon":"-76.261482","lat":"42.104034","theaterChainName":"Independent Chains","ticketType":"STANDARD"},{"id":"2172","name":"The Heights Theater","address":"210 E. 14th St.","city":"Elmira Heights","state":"NY","zip":"14903","distance":"21.175363540649414","lon":"-76.822647","lat":"42.129211","theaterChainName":"Independent Chains","ticketType":"STANDARD"},{"id":"1702","name":"Regal Arnot Mall 10","address":"3300 Chambers Road","city":"Horseheads","state":"NY","zip":"14845","distance":"24.55829620361328","lon":"-76.874153","lat":"42.159935","theaterChainName":"Regal Cinemas","ticketType":"STANDARD"},{"id":"3022","name":"Sayre Theatre","address":"205 S. Elmer Ave.","city":"Sayre","state":"PA","zip":"18840","distance":"2.615030527114868","lon":"-76.516953","lat":"41.980579","theaterChainName":"Independent Chains","ticketType":"STANDARD"},{"id":"1846","name":"Keystone Theatre","address":"601 Main Street","city":"Towanda","state":"PA","zip":"18848","distance":"12.983145713806152","lon":"-76.442955","lat":"41.764248","theaterChainName":"Independent Chains","ticketType":"STANDARD"}]