[{"id":"5161","name":"Great Escape Dickson City 14 IMAX","address":"3909 Commerce Blvd","city":"Dickson City","state":"PA","zip":"18519","distance":"23.620141983032227","lon":"-75.626999","lat":"41.461800","theaterChainName":"Regal Cinemas","ticketType":"STANDARD"},{"id":"4881","name":"ART Mission and Theater","address":"61 Prospect Ave.","city":"Binghamton","state":"NY","zip":"13901","distance":"24.82431983947754","lon":"-75.909966","lat":"42.103359","theaterChainName":"Independent Chains","ticketType":"STANDARD"},{"id":"3306","name":"Montrose Theatre","address":"38 Public Ave","city":"Montrose","state":"PA","zip":"18801","distance":"12.219146728515625","lon":"-75.877968","lat":"41.833282","theaterChainName":"Independent Chains","ticketType":"STANDARD"},{"id":"3493","name":"Dietrich Theater","address":"60 E. Tioga Street","city":"Tunkhannock","state":"PA","zip":"18657","distance":"24.041728973388672","lon":"-75.946037","lat":"41.538460","theaterChainName":"Independent Chains","ticketType":"STANDARD"}]