[{"id":"4620","name":"Tioga Theater","address":"208 Main Street","city":"Owego","state":"NY","zip":"13827","distance":"19.988508224487305","lon":"-76.261482","lat":"42.104034","theaterChainName":"Independent Chains","ticketType":"STANDARD"},{"id":"2172","name":"The Heights Theater","address":"210 E. 14th St.","city":"Elmira Heights","state":"NY","zip":"14903","distance":"21.903650283813477","lon":"-76.822647","lat":"42.129211","theaterChainName":"Independent Chains","ticketType":"STANDARD"},{"id":"3022","name":"Sayre Theatre","address":"205 S. Elmer Ave.","city":"Sayre","state":"PA","zip":"18840","distance":"5.859735012054443","lon":"-76.516953","lat":"41.980579","theaterChainName":"Independent Chains","ticketType":"STANDARD"},{"id":"1846","name":"Keystone Theatre","address":"601 Main Street","city":"Towanda","state":"PA","zip":"18848","distance":"10.24843978881836","lon":"-76.442955","lat":"41.764248","theaterChainName":"Independent Chains","ticketType":"STANDARD"},{"id":"3023","name":"Rialto Theatre","address":"5 E. Main St.","city":"Canton","state":"PA","zip":"17724","distance":"23.379819869995117","lon":"-76.849899","lat":"41.654598","theaterChainName":"Independent Chains","ticketType":"STANDARD"}]