[{"id":"1846","tribuneTheaterId":"1118","providerTheaterId":"","name":"Keystone Theatre","address":"601 Main Street","city":"Towanda","state":"PA","zip":"18848","distance":13.988441493342,"lon":"-76.442957","lat":"41.764248","theaterChainName":"Independent Chains","ticketType":"STANDARD"},{"id":"3306","tribuneTheaterId":"579","providerTheaterId":"","name":"Montrose Theatre","address":"38 Public Ave","city":"Montrose","state":"PA","zip":"18801","distance":15.71391181891,"lon":"-75.877967","lat":"41.833283","theaterChainName":"Independent Chains","ticketType":"STANDARD"},{"id":"3493","tribuneTheaterId":"1298","providerTheaterId":"","name":"Dietrich Theater","address":"60 E. Tioga Street","city":"Tunkhannock","state":"PA","zip":"18657","distance":19.890497660326,"lon":"-75.94604","lat":"41.538461","theaterChainName":"Independent Chains","ticketType":"STANDARD"},{"id":"4620","tribuneTheaterId":"9797","providerTheaterId":"","name":"Tioga Theater","address":"208 Main Street","city":"Owego","state":"NY","zip":"13827","distance":23.414465299916,"lon":"-76.26148","lat":"42.104036","theaterChainName":"Independent Chains","ticketType":"STANDARD"},{"id":"3022","tribuneTheaterId":"1536","providerTheaterId":"","name":"Sayre Theatre","address":"205 S. Elmer Ave.","city":"Sayre","state":"PA","zip":"18840","distance":22.881568343106,"lon":"-76.51695","lat":"41.980579","theaterChainName":"Independent Chains","ticketType":"STANDARD"},{"id":"5259","tribuneTheaterId":"7953","providerTheaterId":"2708","name":"AMC Loews Vestal Towne Square 9","address":"2425 Vestal Pkwy","city":"Vestal","state":"NY","zip":"13850","distance":23.972411954939,"lon":"-76.010628","lat":"42.09741","theaterChainName":"AMC Theatres","ticketType":"STANDARD"}]