[{"id":"3306","tribuneTheaterId":"579","providerTheaterId":"","name":"Montrose Theatre","address":"38 Public Ave","city":"Montrose","state":"PA","zip":"18801","distance":8.2902398565438,"lon":"-75.877967","lat":"41.833283","theaterChainName":"Independent Chains","ticketType":"STANDARD"},{"id":"3493","tribuneTheaterId":"1298","providerTheaterId":"","name":"Dietrich Theater","address":"60 E. Tioga Street","city":"Tunkhannock","state":"PA","zip":"18657","distance":12.382824121792,"lon":"-75.94604","lat":"41.538461","theaterChainName":"Independent Chains","ticketType":"STANDARD"},{"id":"5161","tribuneTheaterId":"10567","providerTheaterId":"","name":"Great Escape Dickson City 14 IMAX","address":"3909 Commerce Blvd","city":"Dickson City","state":"PA","zip":"18519","distance":22.539371496059,"lon":"-75.627","lat":"41.4618","theaterChainName":"Regal Cinemas","ticketType":"STANDARD"},{"id":"6098","tribuneTheaterId":"11512","providerTheaterId":"","name":"Iron Horse Movie Bistro","address":"301 Lackawanna Ave","city":"Scranton","state":"PA","zip":"18503","distance":24.399200592578,"lon":"-75.667645","lat":"41.408394","theaterChainName":"Phoenix Theatres","ticketType":"STANDARD"},{"id":"168","tribuneTheaterId":"6199","providerTheaterId":"","name":"Marquee Steamtown","address":"301 Lackawanna Ave.","city":"Scranton","state":"PA","zip":"18503","distance":24.403747860517,"lon":"-75.667445","lat":"41.408404","theaterChainName":"Marquee Cinemas","ticketType":"STANDARD"}]