[{"id":"1846","tribuneTheaterId":"1118","providerTheaterId":"","name":"Keystone Theatre","address":"601 Main Street","city":"Towanda","state":"PA","zip":"18848","distance":5.7674072643812,"lon":"-76.442957","lat":"41.764248","theaterChainName":"Independent Chains","ticketType":"STANDARD"},{"id":"3022","tribuneTheaterId":"1536","providerTheaterId":"","name":"Sayre Theatre","address":"205 S. Elmer Ave.","city":"Sayre","state":"PA","zip":"18840","distance":9.7749897610061,"lon":"-76.51695","lat":"41.980579","theaterChainName":"Independent Chains","ticketType":"STANDARD"},{"id":"4620","tribuneTheaterId":"9797","providerTheaterId":"","name":"Tioga Theater","address":"208 Main Street","city":"Owego","state":"NY","zip":"13827","distance":21.580449307172,"lon":"-76.26148","lat":"42.104036","theaterChainName":"Independent Chains","ticketType":"STANDARD"},{"id":"3023","tribuneTheaterId":"1241","providerTheaterId":"","name":"Rialto Theatre","address":"5 E. Main St.","city":"Canton","state":"PA","zip":"17724","distance":22.678564380208,"lon":"-76.8499","lat":"41.6546","theaterChainName":"Independent Chains","ticketType":"STANDARD"}]