[{"id":"1578","name":"Regal Pohatcong 12","address":"1246 US Highway 22","city":"Phillipsburg","state":"NJ","zip":"08865","distance":"17.401514053344727","lon":"-75.147682","lat":"40.676605","theaterChainName":"Regal Cinemas","ticketType":"STANDARD"},{"id":"604","name":"Regal Northampton Cinema 14","address":"3720 Nazareth Highway","city":"Easton","state":"PA","zip":"18045","distance":"20.92479705810547","lon":"-75.285202","lat":"40.717808","theaterChainName":"Regal Cinemas","ticketType":"STANDARD"},{"id":"5047","name":"Frank Banko Alehouse Cinema","address":"ArtsQuest Center at SteelStacks","city":"Bethlehem","state":"PA","zip":"18015","distance":"16.394512176513672","lon":"-75.367500","lat":"40.615067","theaterChainName":"Independent Chains","ticketType":"STANDARD"},{"id":"2629","name":"Carmike 16 Allentown","address":"1700 Catasaqua Rd.","city":"Allentown","state":"PA","zip":"18109","distance":"19.623409271240234","lon":"-75.430351","lat":"40.636105","theaterChainName":"Carmike Cinemas","ticketType":"STANDARD"},{"id":"4315","name":"Promenade 16","address":"2805 Center Valley Parkway","city":"Center Valley","state":"PA","zip":"18034","distance":"15.116568565368652","lon":"-75.407303","lat":"40.559101","theaterChainName":"Carmike Cinemas","ticketType":"STANDARD"},{"id":"1489","name":"Regal Richland Crossing Stadium 12","address":"185 North West End Blvd.","city":"Quakertown","state":"PA","zip":"18951","distance":"9.3656005859375","lon":"-75.354767","lat":"40.448147","theaterChainName":"Regal Cinemas","ticketType":"STANDARD"},{"id":"2355","name":"Civic's 19th Street Theatre","address":"527 N. 19th St.","city":"Allentown","state":"PA","zip":"18104","distance":"20.83689308166504","lon":"-75.499985","lat":"40.603172","theaterChainName":"Independent Chains","ticketType":"STANDARD"},{"id":"4684","name":"Civic's Theatre 514","address":"514 N. 19th St.","city":"Allentown","state":"PA","zip":"18104","distance":"20.823286056518555","lon":"-75.499977","lat":"40.602844","theaterChainName":"Independent Chains","ticketType":"STANDARD"},{"id":"83","name":"AMC Tilghman Square 8","address":"4608 Broadway","city":"Allentown","state":"PA","zip":"18104","distance":"22.83395767211914","lon":"-75.558456","lat":"40.587170","theaterChainName":"AMC Theatres","ticketType":"STANDARD"},{"id":"2","name":"County Theatre","address":"20 E. State St.","city":"Doylestown","state":"PA","zip":"18901","distance":"8.405022621154785","lon":"-75.130066","lat":"40.310139","theaterChainName":"Independent Chains","ticketType":"STANDARD"},{"id":"2297","name":"Regal Barn Plaza Stadium 14","address":"1745 Easton Road","city":"Doylestown","state":"PA","zip":"18901","distance":"10.995193481445312","lon":"-75.127052","lat":"40.271797","theaterChainName":"Regal Cinemas","ticketType":"STANDARD"},{"id":"438","name":"Newtown","address":"120 N. State St.","city":"Newtown","state":"PA","zip":"18940","distance":"18.578351974487305","lon":"-74.936539","lat":"40.230713","theaterChainName":"Independent Chains","ticketType":"STANDARD"},{"id":"420","name":"United Artists Oxford Valley Stadium 14","address":"403 Middletown Rd.","city":"Langhorne","state":"PA","zip":"19047","distance":"22.78302001953125","lon":"-74.883408","lat":"40.185341","theaterChainName":"United Artists","ticketType":"STANDARD"},{"id":"214","name":"United Artists Grant Plaza 9","address":"1619 Grant Ave.","city":"Philadelphia","state":"PA","zip":"19115","distance":"24.528127670288086","lon":"-75.038162","lat":"40.087608","theaterChainName":"United Artists","ticketType":"STANDARD"},{"id":"436","name":"Hiway Theatre, Inc.","address":"212 Old York Rd.","city":"Jenkintown","state":"PA","zip":"19046","distance":"23.06094741821289","lon":"-75.125435","lat":"40.094677","theaterChainName":"Independent Chains","ticketType":"STANDARD"},{"id":"1441","name":"AMC Neshaminy 24","address":"660 Neshaminy Mall","city":"Bensalem","state":"PA","zip":"19020","distance":"23.052473068237305","lon":"-74.955185","lat":"40.139324","theaterChainName":"AMC Theatres","ticketType":"STANDARD"},{"id":"5747","name":"Movie Tavern Flourtown","address":"1842 Bethlehem Pike","city":"Flourtown","state":"PA","zip":"19031","distance":"21.872364044189453","lon":"-75.214043","lat":"40.110481","theaterChainName":"Movie Tavern","ticketType":"STANDARD"},{"id":"3608","name":"Ambler Theater","address":"108 E. Butler Ave.","city":"Ambler","state":"PA","zip":"19002","distance":"18.860536575317383","lon":"-75.221184","lat":"40.154839","theaterChainName":"Independent Chains","ticketType":"STANDARD"},{"id":"2557","name":"Regal Cinemas Warrington Crossing Stadium 22 & IMAX","address":"140 Easton Rd. Building. F","city":"Warrington","state":"PA","zip":"18976","distance":"14.618350982666016","lon":"-75.142731","lat":"40.216164","theaterChainName":"Regal Cinemas","ticketType":"STANDARD"},{"id":"2083","name":"AMC Plymouth Meeting Mall 12","address":"494 W. Germantown Pike","city":"Plymouth Meeting","state":"PA","zip":"19462","distance":"22.142181396484375","lon":"-75.279396","lat":"40.114723","theaterChainName":"AMC Theatres","ticketType":"STANDARD"},{"id":"418","name":"Regal Plymouth Meeting 10","address":"1011 W. Ridge Pike","city":"Conshohocken","state":"PA","zip":"19428","distance":"23.53214454650879","lon":"-75.306114","lat":"40.099419","theaterChainName":"Regal Cinemas","ticketType":"STANDARD"},{"id":"366","name":"AMC 309 Cinema 9","address":"1210 Bethlehem Pike","city":"North Wales","state":"PA","zip":"19454","distance":"15.2975435256958","lon":"-75.225449","lat":"40.207348","theaterChainName":"AMC Theatres","ticketType":"STANDARD"},{"id":"4199","name":"Frank Theatres Montgomeryville Stadium 12","address":"750 Montgomery Glen Drive","city":"Lansdale","state":"PA","zip":"19446","distance":"12.662491798400879","lon":"-75.239548","lat":"40.248531","theaterChainName":"Frank Theatres","ticketType":"STANDARD"},{"id":"5065","name":"Providence Town Center","address":"140 Market St.","city":"Collegeville","state":"PA","zip":"19426","distance":"23.91613006591797","lon":"-75.479401","lat":"40.166401","theaterChainName":"Movie Tavern","ticketType":"STANDARD"}]