[{"id":"5047","name":"Frank Banko Alehouse Cinema","address":"ArtsQuest Center at SteelStacks","city":"Bethlehem","state":"PA","zip":"18015","distance":"20.37018394470215","lon":"-75.367500","lat":"40.615067","theaterChainName":"Independent Chains","ticketType":"STANDARD"},{"id":"2629","name":"Carmike 16 Allentown","address":"1700 Catasaqua Rd.","city":"Allentown","state":"PA","zip":"18109","distance":"22.192995071411133","lon":"-75.430351","lat":"40.636105","theaterChainName":"Carmike Cinemas","ticketType":"STANDARD"},{"id":"4315","name":"Promenade 16","address":"2805 Center Valley Parkway","city":"Center Valley","state":"PA","zip":"18034","distance":"16.741378784179688","lon":"-75.407303","lat":"40.559101","theaterChainName":"Carmike Cinemas","ticketType":"STANDARD"},{"id":"1489","name":"Regal Richland Crossing Stadium 12","address":"185 North West End Blvd.","city":"Quakertown","state":"PA","zip":"18951","distance":"8.821331024169922","lon":"-75.354767","lat":"40.448147","theaterChainName":"Regal Cinemas","ticketType":"STANDARD"},{"id":"2355","name":"Civic's 19th Street Theatre","address":"527 N. 19th St.","city":"Allentown","state":"PA","zip":"18104","distance":"21.02445411682129","lon":"-75.499985","lat":"40.603172","theaterChainName":"Independent Chains","ticketType":"STANDARD"},{"id":"4684","name":"Civic's Theatre 514","address":"514 N. 19th St.","city":"Allentown","state":"PA","zip":"18104","distance":"21.003253936767578","lon":"-75.499977","lat":"40.602844","theaterChainName":"Independent Chains","ticketType":"STANDARD"},{"id":"83","name":"AMC Tilghman Square 8","address":"4608 Broadway","city":"Allentown","state":"PA","zip":"18104","distance":"21.386062622070312","lon":"-75.558456","lat":"40.587170","theaterChainName":"AMC Theatres","ticketType":"STANDARD"},{"id":"2","name":"County Theatre","address":"20 E. State St.","city":"Doylestown","state":"PA","zip":"18901","distance":"11.714703559875488","lon":"-75.130066","lat":"40.310139","theaterChainName":"Independent Chains","ticketType":"STANDARD"},{"id":"2297","name":"Regal Barn Plaza Stadium 14","address":"1745 Easton Road","city":"Doylestown","state":"PA","zip":"18901","distance":"12.323328018188477","lon":"-75.127052","lat":"40.271797","theaterChainName":"Regal Cinemas","ticketType":"STANDARD"},{"id":"438","name":"Newtown","address":"120 N. State St.","city":"Newtown","state":"PA","zip":"18940","distance":"22.76367950439453","lon":"-74.936539","lat":"40.230713","theaterChainName":"Independent Chains","ticketType":"STANDARD"},{"id":"214","name":"United Artists Grant Plaza 9","address":"1619 Grant Ave.","city":"Philadelphia","state":"PA","zip":"19115","distance":"23.092456817626953","lon":"-75.038162","lat":"40.087608","theaterChainName":"United Artists","ticketType":"STANDARD"},{"id":"436","name":"Hiway Theatre, Inc.","address":"212 Old York Rd.","city":"Jenkintown","state":"PA","zip":"19046","distance":"19.657550811767578","lon":"-75.125435","lat":"40.094677","theaterChainName":"Independent Chains","ticketType":"STANDARD"},{"id":"1441","name":"AMC Neshaminy 24","address":"660 Neshaminy Mall","city":"Bensalem","state":"PA","zip":"19020","distance":"24.390838623046875","lon":"-74.955185","lat":"40.139324","theaterChainName":"AMC Theatres","ticketType":"STANDARD"},{"id":"419","name":"United Artists Main Street Theatre 6","address":"3720 Main St.","city":"Manayunk","state":"PA","zip":"19127","distance":"22.355571746826172","lon":"-75.210464","lat":"40.015575","theaterChainName":"United Artists","ticketType":"STANDARD"},{"id":"415","name":"Bow Tie Bala Theater","address":"157 Bala Ave.","city":"Bala Cynwyd","state":"PA","zip":"19004","distance":"22.72469711303711","lon":"-75.232033","lat":"40.004658","theaterChainName":"Independent Chains","ticketType":"STANDARD"},{"id":"437","name":"Narberth Stadium 2","address":"129 N. Narberth Ave.","city":"Narberth","state":"PA","zip":"19072","distance":"22.233840942382812","lon":"-75.260307","lat":"40.006447","theaterChainName":"Independent Chains","ticketType":"STANDARD"},{"id":"5747","name":"Movie Tavern Flourtown","address":"1842 Bethlehem Pike","city":"Flourtown","state":"PA","zip":"19031","distance":"16.23501968383789","lon":"-75.214043","lat":"40.110481","theaterChainName":"Movie Tavern","ticketType":"STANDARD"},{"id":"3608","name":"Ambler Theater","address":"108 E. Butler Ave.","city":"Ambler","state":"PA","zip":"19002","distance":"13.365586280822754","lon":"-75.221184","lat":"40.154839","theaterChainName":"Independent Chains","ticketType":"STANDARD"},{"id":"428","name":"Bryn Mawr Film Institute","address":"824 Lancaster Ave.","city":"Bryn Mawr","state":"PA","zip":"19010","distance":"20.72171401977539","lon":"-75.318932","lat":"40.021675","theaterChainName":"Independent Chains","ticketType":"STANDARD"},{"id":"2557","name":"Regal Cinemas Warrington Crossing Stadium 22 & IMAX","address":"140 Easton Rd. Building. F","city":"Warrington","state":"PA","zip":"18976","distance":"13.179773330688477","lon":"-75.142731","lat":"40.216164","theaterChainName":"Regal Cinemas","ticketType":"STANDARD"},{"id":"2083","name":"AMC Plymouth Meeting Mall 12","address":"494 W. Germantown Pike","city":"Plymouth Meeting","state":"PA","zip":"19462","distance":"14.725606918334961","lon":"-75.279396","lat":"40.114723","theaterChainName":"AMC Theatres","ticketType":"STANDARD"},{"id":"418","name":"Regal Plymouth Meeting 10","address":"1011 W. Ridge Pike","city":"Conshohocken","state":"PA","zip":"19428","distance":"15.46683120727539","lon":"-75.306114","lat":"40.099419","theaterChainName":"Regal Cinemas","ticketType":"STANDARD"},{"id":"366","name":"AMC 309 Cinema 9","address":"1210 Bethlehem Pike","city":"North Wales","state":"PA","zip":"19454","distance":"10.278670310974121","lon":"-75.225449","lat":"40.207348","theaterChainName":"AMC Theatres","ticketType":"STANDARD"},{"id":"367","name":"Bow Tie Cinemas Anthony Wayne 5","address":"109 W. Lancaster Ave.","city":"Wayne","state":"PA","zip":"19087","distance":"19.19245719909668","lon":"-75.388443","lat":"40.044140","theaterChainName":"Independent Chains","ticketType":"STANDARD"},{"id":"4199","name":"Frank Theatres Montgomeryville Stadium 12","address":"750 Montgomery Glen Drive","city":"Lansdale","state":"PA","zip":"19446","distance":"7.737033843994141","lon":"-75.239548","lat":"40.248531","theaterChainName":"Frank Theatres","ticketType":"STANDARD"},{"id":"2977","name":"UA King of Prussia Stadium 16 & IMAX","address":"300 Goddard Blvd.","city":"King of Prussia","state":"PA","zip":"19406","distance":"15.928031921386719","lon":"-75.397713","lat":"40.092644","theaterChainName":"United Artists","ticketType":"STANDARD"},{"id":"532","name":"Regal Edgmont Square 10","address":"4777 W. Chester Pike","city":"Newtown Square","state":"PA","zip":"19073","distance":"24.112308502197266","lon":"-75.439163","lat":"39.977959","theaterChainName":"Regal Cinemas","ticketType":"STANDARD"},{"id":"1490","name":"Regal Oaks Stadium 24","address":"180 Mill Rd.","city":"Oaks","state":"PA","zip":"19456","distance":"14.367158889770508","lon":"-75.453285","lat":"40.127491","theaterChainName":"Regal Cinemas","ticketType":"STANDARD"},{"id":"2742","name":"Colonial Theatre - Phoenixville","address":"227 Bridge St.","city":"Phoenixville","state":"PA","zip":"19460","distance":"15.573212623596191","lon":"-75.517448","lat":"40.133846","theaterChainName":"Independent Chains","ticketType":"STANDARD"},{"id":"5065","name":"Providence Town Center","address":"140 Market St.","city":"Collegeville","state":"PA","zip":"19426","distance":"12.59083366394043","lon":"-75.479401","lat":"40.166401","theaterChainName":"Movie Tavern","ticketType":"STANDARD"},{"id":"5120","name":"Carmike 12 Stowe","address":"110 Upland Square Dr","city":"Stowe","state":"PA","zip":"19464","distance":"16.529338836669922","lon":"-75.658089","lat":"40.268356","theaterChainName":"Carmike Cinemas","ticketType":"STANDARD"}]