[{"id":"2","tribuneTheaterId":"2661","providerTheaterId":"","name":"County Theatre","address":"20 E. State St.","city":"Doylestown","state":"PA","zip":"18901","distance":8.0591984205103,"lon":"-75.130065","lat":"40.31014","theaterChainName":"Independent Chains","ticketType":"STANDARD"},{"id":"2297","tribuneTheaterId":"8732","providerTheaterId":"","name":"Regal Barn Plaza Stadium 14","address":"1745 Easton Road","city":"Doylestown","state":"PA","zip":"18901","distance":9.7882957220419,"lon":"-75.127054","lat":"40.271799","theaterChainName":"Regal Cinemas","ticketType":"STANDARD"},{"id":"438","tribuneTheaterId":"2418","providerTheaterId":"","name":"Newtown","address":"120 N. State St.","city":"Newtown","state":"PA","zip":"18940","distance":11.029663239699,"lon":"-74.93654","lat":"40.230711","theaterChainName":"Independent Chains","ticketType":"STANDARD"},{"id":"2557","tribuneTheaterId":"8883","providerTheaterId":"","name":"Regal Cinemas Warrington Crossing Stadium 22 & IMAX","address":"140 Easton Rd. Building. F","city":"Warrington","state":"PA","zip":"18976","distance":13.397721320051,"lon":"-75.142729","lat":"40.216162","theaterChainName":"Regal Cinemas","ticketType":"STANDARD"},{"id":"4199","tribuneTheaterId":"2075","providerTheaterId":"","name":"Frank Theatres Montgomeryville Stadium 12","address":"750 Montgomery Glen Drive","city":"Lansdale","state":"PA","zip":"19446","distance":15.22970882485,"lon":"-75.239546","lat":"40.248532","theaterChainName":"Frank Theatres","ticketType":"STANDARD"},{"id":"420","tribuneTheaterId":"5709","providerTheaterId":"","name":"United Artists Oxford Valley Stadium 14","address":"403 Middletown Rd.","city":"Langhorne","state":"PA","zip":"19047","distance":15.015262258025,"lon":"-74.883409","lat":"40.185342","theaterChainName":"United Artists","ticketType":"STANDARD"},{"id":"366","tribuneTheaterId":"5283","providerTheaterId":"670","name":"AMC 309 Cinema 9","address":"1210 Bethlehem Pike","city":"North Wales","state":"PA","zip":"19454","distance":16.569318646362,"lon":"-75.225449","lat":"40.207346","theaterChainName":"AMC Theatres","ticketType":"STANDARD"},{"id":"1441","tribuneTheaterId":"7804","providerTheaterId":"357","name":"AMC Neshaminy 24","address":"660 Neshaminy Mall","city":"Bensalem","state":"PA","zip":"19020","distance":16.910176371114,"lon":"-74.955184","lat":"40.139323","theaterChainName":"AMC Theatres","ticketType":"STANDARD"},{"id":"5764","tribuneTheaterId":"11206","providerTheaterId":"68","name":"AMC MarketFair 10","address":"3521 U.S. 1","city":"Princeton","state":"NJ","zip":"08540","distance":18.790852244178,"lon":"-74.661798","lat":"40.315376","theaterChainName":"AMC Theatres","ticketType":"STANDARD"},{"id":"3608","tribuneTheaterId":"1577","providerTheaterId":"","name":"Ambler Theater","address":"108 E. Butler Ave.","city":"Ambler","state":"PA","zip":"19002","distance":19.225321775196,"lon":"-75.221183","lat":"40.154838","theaterChainName":"Independent Chains","ticketType":"STANDARD"},{"id":"2443","tribuneTheaterId":"4078","providerTheaterId":"","name":"Montgomery Cinema","address":"1325 Route 206","city":"Belle Mead","state":"NJ","zip":"08502","distance":19.056531932782,"lon":"-74.647465","lat":"40.404926","theaterChainName":"Independent Chains","ticketType":"STANDARD"},{"id":"425","tribuneTheaterId":"2665","providerTheaterId":"","name":"Princeton Garden Theatre","address":"160 Nassau St.","city":"Princeton","state":"NJ","zip":"08542","distance":18.576237890129,"lon":"-74.657536","lat":"40.350714","theaterChainName":"Independent Chains","ticketType":"STANDARD"},{"id":"1489","tribuneTheaterId":"8659","providerTheaterId":"","name":"Regal Richland Crossing Stadium 12","address":"185 North West End Blvd.","city":"Quakertown","state":"PA","zip":"18951","distance":18.817745222759,"lon":"-75.354769","lat":"40.448148","theaterChainName":"Regal Cinemas","ticketType":"STANDARD"},{"id":"2476","tribuneTheaterId":"7071","providerTheaterId":"79","name":"AMC Hamilton 24","address":"325 Sloan Ave.","city":"Hamilton","state":"NJ","zip":"08619","distance":18.862721348629,"lon":"-74.694586","lat":"40.24899","theaterChainName":"AMC Theatres","ticketType":"STANDARD"},{"id":"214","tribuneTheaterId":"7276","providerTheaterId":"","name":"United Artists Grant Plaza 9","address":"1619 Grant Ave.","city":"Philadelphia","state":"PA","zip":"19115","distance":20.312147007255,"lon":"-75.038166","lat":"40.08761","theaterChainName":"United Artists","ticketType":"STANDARD"},{"id":"436","tribuneTheaterId":"206","providerTheaterId":"","name":"Hiway Theatre, Inc.","address":"212 Old York Rd.","city":"Jenkintown","state":"PA","zip":"19046","distance":20.707031937769,"lon":"-75.125438","lat":"40.094678","theaterChainName":"Independent Chains","ticketType":"STANDARD"},{"id":"5747","tribuneTheaterId":"11189","providerTheaterId":"","name":"Movie Tavern Flourtown","address":"1842 Bethlehem Pike","city":"Flourtown","state":"PA","zip":"19031","distance":21.596807174613,"lon":"-75.214044","lat":"40.110483","theaterChainName":"Movie Tavern","ticketType":"STANDARD"},{"id":"416","tribuneTheaterId":"5286","providerTheaterId":"870","name":"AMC Franklin Mills 14","address":"903 Franklin Mills Cir.","city":"Philadelphia","state":"PA","zip":"19154","distance":20.664969337831,"lon":"-74.9609","lat":"40.0838","theaterChainName":"AMC Theatres","ticketType":"STANDARD"},{"id":"5755","tribuneTheaterId":"11197","providerTheaterId":"","name":"Regal Independence Plaza 12","address":"2465 South Broad Street","city":"Hamilton","state":"NJ","zip":"08610","distance":19.954083154077,"lon":"-74.721756","lat":"40.191861","theaterChainName":"Regal Cinemas","ticketType":"STANDARD"},{"id":"3116","tribuneTheaterId":"3161","providerTheaterId":"","name":"Hillsborough Cinemas","address":"111 Raider Blvd.","city":"Hillsborough","state":"NJ","zip":"08844","distance":20.633956003708,"lon":"-74.644439","lat":"40.492638","theaterChainName":"Independent Chains","ticketType":"STANDARD"},{"id":"1578","tribuneTheaterId":"5637","providerTheaterId":"","name":"Regal Pohatcong 12","address":"1246 US Highway 22","city":"Phillipsburg","state":"NJ","zip":"08865","distance":21.717672426312,"lon":"-75.147686","lat":"40.676604","theaterChainName":"Regal Cinemas","ticketType":"STANDARD"},{"id":"363","tribuneTheaterId":"5284","providerTheaterId":"564","name":"AMC Woodhaven 10","address":"1336 Bristol Pike","city":"Bensalem","state":"PA","zip":"19020","distance":21.444296983027,"lon":"-74.965435","lat":"40.072055","theaterChainName":"AMC Theatres","ticketType":"STANDARD"},{"id":"2083","tribuneTheaterId":"8105","providerTheaterId":"871","name":"AMC Plymouth Meeting Mall 12","address":"494 W. Germantown Pike","city":"Plymouth Meeting","state":"PA","zip":"19462","distance":23.286330070482,"lon":"-75.279393","lat":"40.114725","theaterChainName":"AMC Theatres","ticketType":"STANDARD"},{"id":"5047","tribuneTheaterId":"10425","providerTheaterId":"","name":"Frank Banko Alehouse Cinema","address":"ArtsQuest Center at SteelStacks","city":"Bethlehem","state":"PA","zip":"18015","distance":24.871396132997,"lon":"-75.367498","lat":"40.615067","theaterChainName":"Independent Chains","ticketType":"STANDARD"},{"id":"4315","tribuneTheaterId":"2399","providerTheaterId":"","name":"Promenade 16","address":"2805 Center Valley Parkway","city":"Center Valley","state":"PA","zip":"18034","distance":24.331190276971,"lon":"-75.407303","lat":"40.559101","theaterChainName":"Carmike Cinemas","ticketType":"STANDARD"},{"id":"754","tribuneTheaterId":"7207","providerTheaterId":"","name":"AMC Bridgewater Commons 7","address":"400 Commons Way","city":"Bridgewater","state":"NJ","zip":"08807","distance":24.910539317923,"lon":"-74.619248","lat":"40.586779","theaterChainName":"AMC Theatres","ticketType":"STANDARD"},{"id":"418","tribuneTheaterId":"9075","providerTheaterId":"","name":"Regal Plymouth Meeting 10","address":"1011 W. Ridge Pike","city":"Conshohocken","state":"PA","zip":"19428","distance":24.991839537856,"lon":"-75.306113","lat":"40.099417","theaterChainName":"Regal Cinemas","ticketType":"STANDARD"}]