[{"id":"6056","name":"Picture Show at East Windsor","address":"319 US-130","city":"East Windsor","state":"NJ","zip":"08520","distance":"23.262283325195312","lon":"-74.530388","lat":"40.277676","theaterChainName":"Picture Show Entertainment","ticketType":"STANDARD"},{"id":"5764","name":"AMC MarketFair 10","address":"3521 U.S. 1","city":"Princeton","state":"NJ","zip":"08540","distance":"19.806554794311523","lon":"-74.661797","lat":"40.315376","theaterChainName":"AMC Theatres","ticketType":"STANDARD"},{"id":"425","name":"Princeton Garden Theatre","address":"160 Nassau St.","city":"Princeton","state":"NJ","zip":"08542","distance":"21.88139533996582","lon":"-74.657539","lat":"40.350716","theaterChainName":"Independent Chains","ticketType":"STANDARD"},{"id":"2476","name":"AMC Hamilton 24","address":"325 Sloan Ave.","city":"Hamilton","state":"NJ","zip":"08619","distance":"15.242300987243652","lon":"-74.694588","lat":"40.248989","theaterChainName":"AMC Theatres","ticketType":"STANDARD"},{"id":"5755","name":"Regal Independence Plaza 12","address":"2465 South Broad Street","city":"Hamilton","state":"NJ","zip":"08610","distance":"11.58150863647461","lon":"-74.721756","lat":"40.191860","theaterChainName":"Regal Cinemas","ticketType":"STANDARD"},{"id":"2","name":"County Theatre","address":"20 E. State St.","city":"Doylestown","state":"PA","zip":"18901","distance":"19.3149471282959","lon":"-75.130066","lat":"40.310139","theaterChainName":"Independent Chains","ticketType":"STANDARD"},{"id":"2297","name":"Regal Barn Plaza Stadium 14","address":"1745 Easton Road","city":"Doylestown","state":"PA","zip":"18901","distance":"17.231563568115234","lon":"-75.127052","lat":"40.271797","theaterChainName":"Regal Cinemas","ticketType":"STANDARD"},{"id":"438","name":"Newtown","address":"120 N. State St.","city":"Newtown","state":"PA","zip":"18940","distance":"9.698530197143555","lon":"-74.936539","lat":"40.230713","theaterChainName":"Independent Chains","ticketType":"STANDARD"},{"id":"420","name":"United Artists Oxford Valley Stadium 14","address":"403 Middletown Rd.","city":"Langhorne","state":"PA","zip":"19047","distance":"6.413613796234131","lon":"-74.883408","lat":"40.185341","theaterChainName":"United Artists","ticketType":"STANDARD"},{"id":"5413","name":"Moorestown Mall Stadium 12 + RPX","address":"400 Route 38","city":"Moorestown","state":"NJ","zip":"08057","distance":"10.94154167175293","lon":"-74.963203","lat":"39.942753","theaterChainName":"Regal Cinemas","ticketType":"STANDARD"},{"id":"2003","name":"AMC Loews Cherry Hill 24","address":"2121 Route 38","city":"Cherry Hill","state":"NJ","zip":"08002","distance":"12.811660766601562","lon":"-75.028229","lat":"39.936462","theaterChainName":"AMC Theatres","ticketType":"STANDARD"},{"id":"5389","name":"Carmike Ritz Center 16","address":"900 Haddonfield-Berlin Road","city":"Voorhees","state":"NJ","zip":"08043","distance":"17.444778442382812","lon":"-74.977173","lat":"39.848026","theaterChainName":"Carmike Cinemas","ticketType":"STANDARD"},{"id":"434","name":"Cinemark 16 Somerdale","address":"711 Evesham Road","city":"Somerdale","state":"NJ","zip":"08083","distance":"17.644771575927734","lon":"-75.020203","lat":"39.855400","theaterChainName":"Cinemark","ticketType":"STANDARD"},{"id":"360","name":"AMC Marlton 8","address":"800 N. Rte. 73","city":"Marlton","state":"NJ","zip":"08053","distance":"13.158190727233887","lon":"-74.935493","lat":"39.904922","theaterChainName":"AMC Theatres","ticketType":"STANDARD"},{"id":"359","name":"AMC Deptford 8","address":"1740 Clements Bridge Rd.","city":"Deptford","state":"NJ","zip":"08096","distance":"20.80582618713379","lon":"-75.100479","lat":"39.834759","theaterChainName":"AMC Theatres","ticketType":"STANDARD"},{"id":"421","name":"United Artists Riverview Stadium 17","address":"1400 S. Columbus Blvd.","city":"Philadelphia","state":"PA","zip":"19147","distance":"17.217967987060547","lon":"-75.144501","lat":"39.929699","theaterChainName":"United Artists","ticketType":"STANDARD"},{"id":"363","name":"AMC Woodhaven 10","address":"1336 Bristol Pike","city":"Bensalem","state":"PA","zip":"19020","distance":"3.8015503883361816","lon":"-74.965431","lat":"40.072056","theaterChainName":"AMC Theatres","ticketType":"STANDARD"},{"id":"5717","name":"Prince Theater","address":"1412 Chestnut Street","city":"Philadelphia","state":"PA","zip":"19102","distance":"17.171358108520508","lon":"-75.164742","lat":"39.950562","theaterChainName":"Independent Chains","ticketType":"STANDARD"},{"id":"5964","name":"AMC N Broadstreet 7","address":"1600 North Broad Street","city":"Philadelphia","state":"PA","zip":"19121","distance":"15.8671875","lon":"-75.158455","lat":"39.977970","theaterChainName":"AMC Theatres","ticketType":"STANDARD"},{"id":"416","name":"AMC Franklin Mills 14","address":"903 Franklin Mills Cir.","city":"Philadelphia","state":"PA","zip":"19154","distance":"3.332118034362793","lon":"-74.960899","lat":"40.083801","theaterChainName":"AMC Theatres","ticketType":"STANDARD"},{"id":"5462","name":"The PFS Theater at the Roxy","address":"2023 Sansom St.","city":"Philadelphia","state":"PA","zip":"19103","distance":"17.559528350830078","lon":"-75.174515","lat":"39.951534","theaterChainName":"Independent Chains","ticketType":"STANDARD"},{"id":"214","name":"United Artists Grant Plaza 9","address":"1619 Grant Ave.","city":"Philadelphia","state":"PA","zip":"19115","distance":"7.361502170562744","lon":"-75.038162","lat":"40.087608","theaterChainName":"United Artists","ticketType":"STANDARD"},{"id":"417","name":"Regal Burlington Stadium 20","address":"250 Bromley Blvd.","city":"Burlington","state":"NJ","zip":"08016","distance":"5.623966217041016","lon":"-74.821510","lat":"40.037636","theaterChainName":"Regal Cinemas","ticketType":"STANDARD"},{"id":"3560","name":"University City Penn 6","address":"4012 Walnut St.","city":"Philadelphia","state":"PA","zip":"19104","distance":"18.748050689697266","lon":"-75.203003","lat":"39.953804","theaterChainName":"Cinemark","ticketType":"STANDARD"},{"id":"436","name":"Hiway Theatre, Inc.","address":"212 Old York Rd.","city":"Jenkintown","state":"PA","zip":"19046","distance":"11.964118957519531","lon":"-75.125435","lat":"40.094677","theaterChainName":"Independent Chains","ticketType":"STANDARD"},{"id":"1441","name":"AMC Neshaminy 24","address":"660 Neshaminy Mall","city":"Bensalem","state":"PA","zip":"19020","distance":"4.346963882446289","lon":"-74.955185","lat":"40.139324","theaterChainName":"AMC Theatres","ticketType":"STANDARD"},{"id":"419","name":"United Artists Main Street Theatre 6","address":"3720 Main St.","city":"Manayunk","state":"PA","zip":"19127","distance":"17.321475982666016","lon":"-75.210464","lat":"40.015575","theaterChainName":"United Artists","ticketType":"STANDARD"},{"id":"415","name":"Bow Tie Bala Theater","address":"157 Bala Ave.","city":"Bala Cynwyd","state":"PA","zip":"19004","distance":"18.644771575927734","lon":"-75.232033","lat":"40.004658","theaterChainName":"Independent Chains","ticketType":"STANDARD"},{"id":"5738","name":"Studio Movie Grill Upper Darby","address":"53 S. 69th St.","city":"Upper Darby","state":"PA","zip":"19082","distance":"21.140121459960938","lon":"-75.258598","lat":"39.959801","theaterChainName":"Studio Movie Grill","ticketType":"SELECT_SEATING"},{"id":"437","name":"Narberth Stadium 2","address":"129 N. Narberth Ave.","city":"Narberth","state":"PA","zip":"19072","distance":"20.025699615478516","lon":"-75.260307","lat":"40.006447","theaterChainName":"Independent Chains","ticketType":"STANDARD"},{"id":"5747","name":"Movie Tavern Flourtown","address":"1842 Bethlehem Pike","city":"Flourtown","state":"PA","zip":"19031","distance":"16.687793731689453","lon":"-75.214043","lat":"40.110481","theaterChainName":"Movie Tavern","ticketType":"STANDARD"},{"id":"3608","name":"Ambler Theater","address":"108 E. Butler Ave.","city":"Ambler","state":"PA","zip":"19002","distance":"17.540592193603516","lon":"-75.221184","lat":"40.154839","theaterChainName":"Independent Chains","ticketType":"STANDARD"},{"id":"428","name":"Bryn Mawr Film Institute","address":"824 Lancaster Ave.","city":"Bryn Mawr","state":"PA","zip":"19010","distance":"22.748517990112305","lon":"-75.318932","lat":"40.021675","theaterChainName":"Independent Chains","ticketType":"STANDARD"},{"id":"2557","name":"Regal Cinemas Warrington Crossing Stadium 22 & IMAX","address":"140 Easton Rd. Building. F","city":"Warrington","state":"PA","zip":"18976","distance":"15.414900779724121","lon":"-75.142731","lat":"40.216164","theaterChainName":"Regal Cinemas","ticketType":"STANDARD"},{"id":"2083","name":"AMC Plymouth Meeting Mall 12","address":"494 W. Germantown Pike","city":"Plymouth Meeting","state":"PA","zip":"19462","distance":"20.153423309326172","lon":"-75.279396","lat":"40.114723","theaterChainName":"AMC Theatres","ticketType":"STANDARD"},{"id":"418","name":"Regal Plymouth Meeting 10","address":"1011 W. Ridge Pike","city":"Conshohocken","state":"PA","zip":"19428","distance":"21.51763916015625","lon":"-75.306114","lat":"40.099419","theaterChainName":"Regal Cinemas","ticketType":"STANDARD"},{"id":"366","name":"AMC 309 Cinema 9","address":"1210 Bethlehem Pike","city":"North Wales","state":"PA","zip":"19454","distance":"18.952119827270508","lon":"-75.225449","lat":"40.207348","theaterChainName":"AMC Theatres","ticketType":"STANDARD"},{"id":"4199","name":"Frank Theatres Montgomeryville Stadium 12","address":"750 Montgomery Glen Drive","city":"Lansdale","state":"PA","zip":"19446","distance":"20.93224334716797","lon":"-75.239548","lat":"40.248531","theaterChainName":"Frank Theatres","ticketType":"STANDARD"}]