[{"id":"420","tribuneTheaterId":"5709","providerTheaterId":"","name":"United Artists Oxford Valley Stadium 14","address":"403 Middletown Rd.","city":"Langhorne","state":"PA","zip":"19047","distance":1.4518648288402,"lon":"-74.883409","lat":"40.185342","theaterChainName":"United Artists","ticketType":"STANDARD"},{"id":"438","tribuneTheaterId":"2418","providerTheaterId":"","name":"Newtown","address":"120 N. State St.","city":"Newtown","state":"PA","zip":"18940","distance":3.6820977748336,"lon":"-74.93654","lat":"40.230711","theaterChainName":"Independent Chains","ticketType":"STANDARD"},{"id":"1441","tribuneTheaterId":"7804","providerTheaterId":"357","name":"AMC Neshaminy 24","address":"660 Neshaminy Mall","city":"Bensalem","state":"PA","zip":"19020","distance":3.7422029754318,"lon":"-74.955184","lat":"40.139323","theaterChainName":"AMC Theatres","ticketType":"STANDARD"},{"id":"416","tribuneTheaterId":"5286","providerTheaterId":"870","name":"AMC Franklin Mills 14","address":"903 Franklin Mills Cir.","city":"Philadelphia","state":"PA","zip":"19154","distance":7.2455733584235,"lon":"-74.9609","lat":"40.0838","theaterChainName":"AMC Theatres","ticketType":"STANDARD"},{"id":"363","tribuneTheaterId":"5284","providerTheaterId":"564","name":"AMC Woodhaven 10","address":"1336 Bristol Pike","city":"Bensalem","state":"PA","zip":"19020","distance":8.0887201486906,"lon":"-74.965435","lat":"40.072055","theaterChainName":"AMC Theatres","ticketType":"STANDARD"},{"id":"214","tribuneTheaterId":"7276","providerTheaterId":"","name":"United Artists Grant Plaza 9","address":"1619 Grant Ave.","city":"Philadelphia","state":"PA","zip":"19115","distance":9.3517400132438,"lon":"-75.038166","lat":"40.08761","theaterChainName":"United Artists","ticketType":"STANDARD"},{"id":"417","tribuneTheaterId":"9129","providerTheaterId":"","name":"Regal Burlington Stadium 20","address":"250 Bromley Blvd.","city":"Burlington","state":"NJ","zip":"08016","distance":10.981518414366,"lon":"-74.821508","lat":"40.037637","theaterChainName":"Regal Cinemas","ticketType":"STANDARD"},{"id":"5755","tribuneTheaterId":"11197","providerTheaterId":"","name":"Regal Independence Plaza 12","address":"2465 South Broad Street","city":"Hamilton","state":"NJ","zip":"08610","distance":9.9840149626938,"lon":"-74.721756","lat":"40.191861","theaterChainName":"Regal Cinemas","ticketType":"STANDARD"},{"id":"2557","tribuneTheaterId":"8883","providerTheaterId":"","name":"Regal Cinemas Warrington Crossing Stadium 22 & IMAX","address":"140 Easton Rd. Building. F","city":"Warrington","state":"PA","zip":"18976","distance":12.495331832612,"lon":"-75.142729","lat":"40.216162","theaterChainName":"Regal Cinemas","ticketType":"STANDARD"},{"id":"2476","tribuneTheaterId":"7071","providerTheaterId":"79","name":"AMC Hamilton 24","address":"325 Sloan Ave.","city":"Hamilton","state":"NJ","zip":"08619","distance":12.309723531888,"lon":"-74.694586","lat":"40.24899","theaterChainName":"AMC Theatres","ticketType":"STANDARD"},{"id":"2297","tribuneTheaterId":"8732","providerTheaterId":"","name":"Regal Barn Plaza Stadium 14","address":"1745 Easton Road","city":"Doylestown","state":"PA","zip":"18901","distance":13.027714609214,"lon":"-75.127054","lat":"40.271799","theaterChainName":"Regal Cinemas","ticketType":"STANDARD"},{"id":"436","tribuneTheaterId":"206","providerTheaterId":"","name":"Hiway Theatre, Inc.","address":"212 Old York Rd.","city":"Jenkintown","state":"PA","zip":"19046","distance":12.838932778396,"lon":"-75.125438","lat":"40.094678","theaterChainName":"Independent Chains","ticketType":"STANDARD"},{"id":"2","tribuneTheaterId":"2661","providerTheaterId":"","name":"County Theatre","address":"20 E. State St.","city":"Doylestown","state":"PA","zip":"18901","distance":14.609860534905,"lon":"-75.130065","lat":"40.31014","theaterChainName":"Independent Chains","ticketType":"STANDARD"},{"id":"5747","tribuneTheaterId":"11189","providerTheaterId":"","name":"Movie Tavern Flourtown","address":"1842 Bethlehem Pike","city":"Flourtown","state":"PA","zip":"19031","distance":16.766862404489,"lon":"-75.214044","lat":"40.110483","theaterChainName":"Movie Tavern","ticketType":"STANDARD"},{"id":"3608","tribuneTheaterId":"1577","providerTheaterId":"","name":"Ambler Theater","address":"108 E. Butler Ave.","city":"Ambler","state":"PA","zip":"19002","distance":16.510271003717,"lon":"-75.221183","lat":"40.154838","theaterChainName":"Independent Chains","ticketType":"STANDARD"},{"id":"366","tribuneTheaterId":"5283","providerTheaterId":"670","name":"AMC 309 Cinema 9","address":"1210 Bethlehem Pike","city":"North Wales","state":"PA","zip":"19454","distance":16.724626125961,"lon":"-75.225449","lat":"40.207346","theaterChainName":"AMC Theatres","ticketType":"STANDARD"},{"id":"5764","tribuneTheaterId":"11206","providerTheaterId":"68","name":"AMC MarketFair 10","address":"3521 U.S. 1","city":"Princeton","state":"NJ","zip":"08540","distance":16.052823188182,"lon":"-74.661798","lat":"40.315376","theaterChainName":"AMC Theatres","ticketType":"STANDARD"},{"id":"5413","tribuneTheaterId":"10850","providerTheaterId":"","name":"Moorestown Mall Stadium 12 + RPX","address":"400 Route 38","city":"Moorestown","state":"NJ","zip":"08057","distance":16.716795112252,"lon":"-74.963205","lat":"39.942754","theaterChainName":"Regal Cinemas","ticketType":"STANDARD"},{"id":"4199","tribuneTheaterId":"2075","providerTheaterId":"","name":"Frank Theatres Montgomeryville Stadium 12","address":"750 Montgomery Glen Drive","city":"Lansdale","state":"PA","zip":"19446","distance":17.976797640817,"lon":"-75.239546","lat":"40.248532","theaterChainName":"Frank Theatres","ticketType":"STANDARD"},{"id":"425","tribuneTheaterId":"2665","providerTheaterId":"","name":"Princeton Garden Theatre","address":"160 Nassau St.","city":"Princeton","state":"NJ","zip":"08542","distance":17.740983824892,"lon":"-74.657536","lat":"40.350714","theaterChainName":"Independent Chains","ticketType":"STANDARD"},{"id":"2003","tribuneTheaterId":"8453","providerTheaterId":"2194","name":"AMC Loews Cherry Hill 24","address":"2121 Route 38","city":"Cherry Hill","state":"NJ","zip":"08002","distance":18.027758980068,"lon":"-75.028232","lat":"39.936463","theaterChainName":"AMC Theatres","ticketType":"STANDARD"},{"id":"419","tribuneTheaterId":"8423","providerTheaterId":"","name":"United Artists Main Street Theatre 6","address":"3720 Main St.","city":"Manayunk","state":"PA","zip":"19127","distance":19.560849797148,"lon":"-75.210468","lat":"40.015576","theaterChainName":"United Artists","ticketType":"STANDARD"},{"id":"360","tribuneTheaterId":"4256","providerTheaterId":"73","name":"AMC Marlton 8","address":"800 N. Rte. 73","city":"Marlton","state":"NJ","zip":"08053","distance":19.141864939009,"lon":"-74.935491","lat":"39.904923","theaterChainName":"AMC Theatres","ticketType":"STANDARD"},{"id":"5964","tribuneTheaterId":"11395","providerTheaterId":"","name":"AMC N Broadstreet 7","address":"1600 North Broad Street","city":"Philadelphia","state":"PA","zip":"19121","distance":19.218253892202,"lon":"-75.158456","lat":"39.97797","theaterChainName":"AMC Theatres","ticketType":"STANDARD"},{"id":"415","tribuneTheaterId":"7298","providerTheaterId":"","name":"Bow Tie Bala Theater","address":"157 Bala Ave.","city":"Bala Cynwyd","state":"PA","zip":"19004","distance":20.927726042737,"lon":"-75.232034","lat":"40.004658","theaterChainName":"Independent Chains","ticketType":"STANDARD"},{"id":"2083","tribuneTheaterId":"8105","providerTheaterId":"871","name":"AMC Plymouth Meeting Mall 12","address":"494 W. Germantown Pike","city":"Plymouth Meeting","state":"PA","zip":"19462","distance":20.023361540351,"lon":"-75.279393","lat":"40.114725","theaterChainName":"AMC Theatres","ticketType":"STANDARD"},{"id":"418","tribuneTheaterId":"9075","providerTheaterId":"","name":"Regal Plymouth Meeting 10","address":"1011 W. Ridge Pike","city":"Conshohocken","state":"PA","zip":"19428","distance":21.653532502251,"lon":"-75.306113","lat":"40.099417","theaterChainName":"Regal Cinemas","ticketType":"STANDARD"},{"id":"5717","tribuneTheaterId":"11159","providerTheaterId":"","name":"Prince Theater","address":"1412 Chestnut Street","city":"Philadelphia","state":"PA","zip":"19102","distance":20.857472099522,"lon":"-75.164743","lat":"39.950563","theaterChainName":"Independent Chains","ticketType":"STANDARD"},{"id":"2443","tribuneTheaterId":"4078","providerTheaterId":"","name":"Montgomery Cinema","address":"1325 Route 206","city":"Belle Mead","state":"NJ","zip":"08502","distance":20.754431821441,"lon":"-74.647465","lat":"40.404926","theaterChainName":"Independent Chains","ticketType":"STANDARD"},{"id":"421","tribuneTheaterId":"8592","providerTheaterId":"","name":"United Artists Riverview Stadium 17","address":"1400 S. Columbus Blvd.","city":"Philadelphia","state":"PA","zip":"19147","distance":21.341857840763,"lon":"-75.1445","lat":"39.9297","theaterChainName":"United Artists","ticketType":"STANDARD"},{"id":"6056","tribuneTheaterId":"11463","providerTheaterId":"","name":"Picture Show at East Windsor","address":"319 US-130","city":"East Windsor","state":"NJ","zip":"08520","distance":21.122799049217,"lon":"-74.530387","lat":"40.277675","theaterChainName":"Picture Show Entertainment","ticketType":"STANDARD"},{"id":"5462","tribuneTheaterId":"10904","providerTheaterId":"","name":"The PFS Theater at the Roxy","address":"2023 Sansom St.","city":"Philadelphia","state":"PA","zip":"19103","distance":21.143848457823,"lon":"-75.174515","lat":"39.951534","theaterChainName":"Independent Chains","ticketType":"STANDARD"},{"id":"437","tribuneTheaterId":"2666","providerTheaterId":"","name":"Narberth Stadium 2","address":"129 N. Narberth Ave.","city":"Narberth","state":"PA","zip":"19072","distance":22.090864680665,"lon":"-75.260307","lat":"40.006445","theaterChainName":"Independent Chains","ticketType":"STANDARD"},{"id":"3560","tribuneTheaterId":"5153","providerTheaterId":"","name":"University City Penn 6","address":"4012 Walnut St.","city":"Philadelphia","state":"PA","zip":"19104","distance":22.055429725208,"lon":"-75.203004","lat":"39.953805","theaterChainName":"Cinemark","ticketType":"STANDARD"},{"id":"5389","tribuneTheaterId":"10826","providerTheaterId":"","name":"Carmike Ritz Center 16","address":"900 Haddonfield-Berlin Road","city":"Voorhees","state":"NJ","zip":"08043","distance":23.296520544111,"lon":"-74.977173","lat":"39.848026","theaterChainName":"Carmike Cinemas","ticketType":"STANDARD"},{"id":"428","tribuneTheaterId":"6580","providerTheaterId":"","name":"Bryn Mawr Film Institute","address":"824 Lancaster Ave.","city":"Bryn Mawr","state":"PA","zip":"19010","distance":24.244695611512,"lon":"-75.318933","lat":"40.021674","theaterChainName":"Independent Chains","ticketType":"STANDARD"},{"id":"5738","tribuneTheaterId":"11180","providerTheaterId":"","name":"Studio Movie Grill Upper Darby","address":"53 S. 69th St.","city":"Upper Darby","state":"PA","zip":"19082","distance":23.940932400541,"lon":"-75.2586","lat":"39.9598","theaterChainName":"Studio Movie Grill","ticketType":"SELECT_SEATING"},{"id":"434","tribuneTheaterId":"9250","providerTheaterId":"","name":"Cinemark 16 Somerdale","address":"711 Evesham Road","city":"Somerdale","state":"NJ","zip":"08083","distance":23.254987227726,"lon":"-75.020206","lat":"39.855401","theaterChainName":"Cinemark","ticketType":"STANDARD"}]