[{"id":"2443","name":"Montgomery Cinema","address":"1325 Route 206","city":"Belle Mead","state":"NJ","zip":"08502","distance":"20.755563735961914","lon":"-74.647469","lat":"40.404926","theaterChainName":"Independent Chains","ticketType":"STANDARD"},{"id":"6056","name":"Picture Show at East Windsor","address":"319 US-130","city":"East Windsor","state":"NJ","zip":"08520","distance":"21.124073028564453","lon":"-74.530388","lat":"40.277676","theaterChainName":"Picture Show Entertainment","ticketType":"STANDARD"},{"id":"5764","name":"AMC MarketFair 10","address":"3521 U.S. 1","city":"Princeton","state":"NJ","zip":"08540","distance":"16.053863525390625","lon":"-74.661797","lat":"40.315376","theaterChainName":"AMC Theatres","ticketType":"STANDARD"},{"id":"425","name":"Princeton Garden Theatre","address":"160 Nassau St.","city":"Princeton","state":"NJ","zip":"08542","distance":"17.741989135742188","lon":"-74.657539","lat":"40.350716","theaterChainName":"Independent Chains","ticketType":"STANDARD"},{"id":"2476","name":"AMC Hamilton 24","address":"325 Sloan Ave.","city":"Hamilton","state":"NJ","zip":"08619","distance":"12.310369491577148","lon":"-74.694588","lat":"40.248989","theaterChainName":"AMC Theatres","ticketType":"STANDARD"},{"id":"5755","name":"Regal Independence Plaza 12","address":"2465 South Broad Street","city":"Hamilton","state":"NJ","zip":"08610","distance":"9.98464584350586","lon":"-74.721756","lat":"40.191860","theaterChainName":"Regal Cinemas","ticketType":"STANDARD"},{"id":"2","name":"County Theatre","address":"20 E. State St.","city":"Doylestown","state":"PA","zip":"18901","distance":"14.610686302185059","lon":"-75.130066","lat":"40.310139","theaterChainName":"Independent Chains","ticketType":"STANDARD"},{"id":"2297","name":"Regal Barn Plaza Stadium 14","address":"1745 Easton Road","city":"Doylestown","state":"PA","zip":"18901","distance":"13.028327941894531","lon":"-75.127052","lat":"40.271797","theaterChainName":"Regal Cinemas","ticketType":"STANDARD"},{"id":"438","name":"Newtown","address":"120 N. State St.","city":"Newtown","state":"PA","zip":"18940","distance":"3.682342052459717","lon":"-74.936539","lat":"40.230713","theaterChainName":"Independent Chains","ticketType":"STANDARD"},{"id":"420","name":"United Artists Oxford Valley Stadium 14","address":"403 Middletown Rd.","city":"Langhorne","state":"PA","zip":"19047","distance":"1.4520182609558105","lon":"-74.883408","lat":"40.185341","theaterChainName":"United Artists","ticketType":"STANDARD"},{"id":"5413","name":"Moorestown Mall Stadium 12 + RPX","address":"400 Route 38","city":"Moorestown","state":"NJ","zip":"08057","distance":"16.71796989440918","lon":"-74.963203","lat":"39.942753","theaterChainName":"Regal Cinemas","ticketType":"STANDARD"},{"id":"2003","name":"AMC Loews Cherry Hill 24","address":"2121 Route 38","city":"Cherry Hill","state":"NJ","zip":"08002","distance":"18.028921127319336","lon":"-75.028229","lat":"39.936462","theaterChainName":"AMC Theatres","ticketType":"STANDARD"},{"id":"5389","name":"Carmike Ritz Center 16","address":"900 Haddonfield-Berlin Road","city":"Voorhees","state":"NJ","zip":"08043","distance":"23.298017501831055","lon":"-74.977173","lat":"39.848026","theaterChainName":"Carmike Cinemas","ticketType":"STANDARD"},{"id":"434","name":"Cinemark 16 Somerdale","address":"711 Evesham Road","city":"Somerdale","state":"NJ","zip":"08083","distance":"23.256515502929688","lon":"-75.020203","lat":"39.855400","theaterChainName":"Cinemark","ticketType":"STANDARD"},{"id":"360","name":"AMC Marlton 8","address":"800 N. Rte. 73","city":"Marlton","state":"NJ","zip":"08053","distance":"19.143171310424805","lon":"-74.935493","lat":"39.904922","theaterChainName":"AMC Theatres","ticketType":"STANDARD"},{"id":"421","name":"United Artists Riverview Stadium 17","address":"1400 S. Columbus Blvd.","city":"Philadelphia","state":"PA","zip":"19147","distance":"21.343313217163086","lon":"-75.144501","lat":"39.929699","theaterChainName":"United Artists","ticketType":"STANDARD"},{"id":"363","name":"AMC Woodhaven 10","address":"1336 Bristol Pike","city":"Bensalem","state":"PA","zip":"19020","distance":"8.08916187286377","lon":"-74.965431","lat":"40.072056","theaterChainName":"AMC Theatres","ticketType":"STANDARD"},{"id":"5717","name":"Prince Theater","address":"1412 Chestnut Street","city":"Philadelphia","state":"PA","zip":"19102","distance":"20.858837127685547","lon":"-75.164742","lat":"39.950562","theaterChainName":"Independent Chains","ticketType":"STANDARD"},{"id":"5964","name":"AMC N Broadstreet 7","address":"1600 North Broad Street","city":"Philadelphia","state":"PA","zip":"19121","distance":"19.219440460205078","lon":"-75.158455","lat":"39.977970","theaterChainName":"AMC Theatres","ticketType":"STANDARD"},{"id":"416","name":"AMC Franklin Mills 14","address":"903 Franklin Mills Cir.","city":"Philadelphia","state":"PA","zip":"19154","distance":"7.245992660522461","lon":"-74.960899","lat":"40.083801","theaterChainName":"AMC Theatres","ticketType":"STANDARD"},{"id":"5462","name":"The PFS Theater at the Roxy","address":"2023 Sansom St.","city":"Philadelphia","state":"PA","zip":"19103","distance":"21.14518165588379","lon":"-75.174515","lat":"39.951534","theaterChainName":"Independent Chains","ticketType":"STANDARD"},{"id":"214","name":"United Artists Grant Plaza 9","address":"1619 Grant Ave.","city":"Philadelphia","state":"PA","zip":"19115","distance":"9.352293968200684","lon":"-75.038162","lat":"40.087608","theaterChainName":"United Artists","ticketType":"STANDARD"},{"id":"417","name":"Regal Burlington Stadium 20","address":"250 Bromley Blvd.","city":"Burlington","state":"NJ","zip":"08016","distance":"10.9822998046875","lon":"-74.821510","lat":"40.037636","theaterChainName":"Regal Cinemas","ticketType":"STANDARD"},{"id":"3560","name":"University City Penn 6","address":"4012 Walnut St.","city":"Philadelphia","state":"PA","zip":"19104","distance":"22.056846618652344","lon":"-75.203003","lat":"39.953804","theaterChainName":"Cinemark","ticketType":"STANDARD"},{"id":"436","name":"Hiway Theatre, Inc.","address":"212 Old York Rd.","city":"Jenkintown","state":"PA","zip":"19046","distance":"12.839632987976074","lon":"-75.125435","lat":"40.094677","theaterChainName":"Independent Chains","ticketType":"STANDARD"},{"id":"1441","name":"AMC Neshaminy 24","address":"660 Neshaminy Mall","city":"Bensalem","state":"PA","zip":"19020","distance":"3.7424492835998535","lon":"-74.955185","lat":"40.139324","theaterChainName":"AMC Theatres","ticketType":"STANDARD"},{"id":"419","name":"United Artists Main Street Theatre 6","address":"3720 Main St.","city":"Manayunk","state":"PA","zip":"19127","distance":"19.56196403503418","lon":"-75.210464","lat":"40.015575","theaterChainName":"United Artists","ticketType":"STANDARD"},{"id":"415","name":"Bow Tie Bala Theater","address":"157 Bala Ave.","city":"Bala Cynwyd","state":"PA","zip":"19004","distance":"20.92900848388672","lon":"-75.232033","lat":"40.004658","theaterChainName":"Independent Chains","ticketType":"STANDARD"},{"id":"5738","name":"Studio Movie Grill Upper Darby","address":"53 S. 69th St.","city":"Upper Darby","state":"PA","zip":"19082","distance":"23.942350387573242","lon":"-75.258598","lat":"39.959801","theaterChainName":"Studio Movie Grill","ticketType":"SELECT_SEATING"},{"id":"437","name":"Narberth Stadium 2","address":"129 N. Narberth Ave.","city":"Narberth","state":"PA","zip":"19072","distance":"22.09220314025879","lon":"-75.260307","lat":"40.006447","theaterChainName":"Independent Chains","ticketType":"STANDARD"},{"id":"5747","name":"Movie Tavern Flourtown","address":"1842 Bethlehem Pike","city":"Flourtown","state":"PA","zip":"19031","distance":"16.767871856689453","lon":"-75.214043","lat":"40.110481","theaterChainName":"Movie Tavern","ticketType":"STANDARD"},{"id":"3608","name":"Ambler Theater","address":"108 E. Butler Ave.","city":"Ambler","state":"PA","zip":"19002","distance":"16.51131820678711","lon":"-75.221184","lat":"40.154839","theaterChainName":"Independent Chains","ticketType":"STANDARD"},{"id":"428","name":"Bryn Mawr Film Institute","address":"824 Lancaster Ave.","city":"Bryn Mawr","state":"PA","zip":"19010","distance":"24.246112823486328","lon":"-75.318932","lat":"40.021675","theaterChainName":"Independent Chains","ticketType":"STANDARD"},{"id":"2557","name":"Regal Cinemas Warrington Crossing Stadium 22 & IMAX","address":"140 Easton Rd. Building. F","city":"Warrington","state":"PA","zip":"18976","distance":"12.49618148803711","lon":"-75.142731","lat":"40.216164","theaterChainName":"Regal Cinemas","ticketType":"STANDARD"},{"id":"2083","name":"AMC Plymouth Meeting Mall 12","address":"494 W. Germantown Pike","city":"Plymouth Meeting","state":"PA","zip":"19462","distance":"20.0247859954834","lon":"-75.279396","lat":"40.114723","theaterChainName":"AMC Theatres","ticketType":"STANDARD"},{"id":"418","name":"Regal Plymouth Meeting 10","address":"1011 W. Ridge Pike","city":"Conshohocken","state":"PA","zip":"19428","distance":"21.654905319213867","lon":"-75.306114","lat":"40.099419","theaterChainName":"Regal Cinemas","ticketType":"STANDARD"},{"id":"366","name":"AMC 309 Cinema 9","address":"1210 Bethlehem Pike","city":"North Wales","state":"PA","zip":"19454","distance":"16.72562599182129","lon":"-75.225449","lat":"40.207348","theaterChainName":"AMC Theatres","ticketType":"STANDARD"},{"id":"4199","name":"Frank Theatres Montgomeryville Stadium 12","address":"750 Montgomery Glen Drive","city":"Lansdale","state":"PA","zip":"19446","distance":"17.977949142456055","lon":"-75.239548","lat":"40.248531","theaterChainName":"Frank Theatres","ticketType":"STANDARD"}]