[{"id":"3560","tribuneTheaterId":"5153","providerTheaterId":"","name":"University City Penn 6","address":"4012 Walnut St.","city":"Philadelphia","state":"PA","zip":"19104","distance":1.501348756904,"lon":"-75.203004","lat":"39.953805","theaterChainName":"Cinemark","ticketType":"STANDARD"},{"id":"5738","tribuneTheaterId":"11180","providerTheaterId":"","name":"Studio Movie Grill Upper Darby","address":"53 S. 69th St.","city":"Upper Darby","state":"PA","zip":"19082","distance":1.8882217746489,"lon":"-75.2586","lat":"39.9598","theaterChainName":"Studio Movie Grill","ticketType":"SELECT_SEATING"},{"id":"5964","tribuneTheaterId":"11395","providerTheaterId":"","name":"AMC N Broadstreet 7","address":"1600 North Broad Street","city":"Philadelphia","state":"PA","zip":"19121","distance":4.3738305320358,"lon":"-75.158456","lat":"39.97797","theaterChainName":"AMC Theatres","ticketType":"STANDARD"},{"id":"5717","tribuneTheaterId":"11159","providerTheaterId":"","name":"Prince Theater","address":"1412 Chestnut Street","city":"Philadelphia","state":"PA","zip":"19102","distance":3.4163240871682,"lon":"-75.164743","lat":"39.950563","theaterChainName":"Independent Chains","ticketType":"STANDARD"},{"id":"5462","tribuneTheaterId":"10904","providerTheaterId":"","name":"The PFS Theater at the Roxy","address":"2023 Sansom St.","city":"Philadelphia","state":"PA","zip":"19103","distance":2.9128058439908,"lon":"-75.174515","lat":"39.951534","theaterChainName":"Independent Chains","ticketType":"STANDARD"},{"id":"419","tribuneTheaterId":"8423","providerTheaterId":"","name":"United Artists Main Street Theatre 6","address":"3720 Main St.","city":"Manayunk","state":"PA","zip":"19127","distance":4.9855335083817,"lon":"-75.210468","lat":"40.015576","theaterChainName":"United Artists","ticketType":"STANDARD"},{"id":"415","tribuneTheaterId":"7298","providerTheaterId":"","name":"Bow Tie Bala Theater","address":"157 Bala Ave.","city":"Bala Cynwyd","state":"PA","zip":"19004","distance":4.1393302086149,"lon":"-75.232034","lat":"40.004658","theaterChainName":"Independent Chains","ticketType":"STANDARD"},{"id":"421","tribuneTheaterId":"8592","providerTheaterId":"","name":"United Artists Riverview Stadium 17","address":"1400 S. Columbus Blvd.","city":"Philadelphia","state":"PA","zip":"19147","distance":4.5862198264529,"lon":"-75.1445","lat":"39.9297","theaterChainName":"United Artists","ticketType":"STANDARD"},{"id":"437","tribuneTheaterId":"2666","providerTheaterId":"","name":"Narberth Stadium 2","address":"129 N. Narberth Ave.","city":"Narberth","state":"PA","zip":"19072","distance":4.5742984971421,"lon":"-75.260307","lat":"40.006445","theaterChainName":"Independent Chains","ticketType":"STANDARD"},{"id":"365","tribuneTheaterId":"5285","providerTheaterId":"596","name":"AMC Marple 10","address":"400 S. State Road","city":"Springfield","state":"PA","zip":"19064","distance":6.8608892480705,"lon":"-75.358036","lat":"39.938289","theaterChainName":"AMC Theatres","ticketType":"STANDARD"},{"id":"428","tribuneTheaterId":"6580","providerTheaterId":"","name":"Bryn Mawr Film Institute","address":"824 Lancaster Ave.","city":"Bryn Mawr","state":"PA","zip":"19010","distance":7.1401448002399,"lon":"-75.318933","lat":"40.021674","theaterChainName":"Independent Chains","ticketType":"STANDARD"},{"id":"2003","tribuneTheaterId":"8453","providerTheaterId":"2194","name":"AMC Loews Cherry Hill 24","address":"2121 Route 38","city":"Cherry Hill","state":"NJ","zip":"08002","distance":10.640596720264,"lon":"-75.028232","lat":"39.936463","theaterChainName":"AMC Theatres","ticketType":"STANDARD"},{"id":"359","tribuneTheaterId":"4255","providerTheaterId":"72","name":"AMC Deptford 8","address":"1740 Clements Bridge Rd.","city":"Deptford","state":"NJ","zip":"08096","distance":10.202258378452,"lon":"-75.100479","lat":"39.834758","theaterChainName":"AMC Theatres","ticketType":"STANDARD"},{"id":"2083","tribuneTheaterId":"8105","providerTheaterId":"871","name":"AMC Plymouth Meeting Mall 12","address":"494 W. Germantown Pike","city":"Plymouth Meeting","state":"PA","zip":"19462","distance":12.041925605777,"lon":"-75.279393","lat":"40.114725","theaterChainName":"AMC Theatres","ticketType":"STANDARD"},{"id":"5747","tribuneTheaterId":"11189","providerTheaterId":"","name":"Movie Tavern Flourtown","address":"1842 Bethlehem Pike","city":"Flourtown","state":"PA","zip":"19031","distance":11.474175564278,"lon":"-75.214044","lat":"40.110483","theaterChainName":"Movie Tavern","ticketType":"STANDARD"},{"id":"367","tribuneTheaterId":"5897","providerTheaterId":"","name":"Bow Tie Cinemas Anthony Wayne 5","address":"109 W. Lancaster Ave.","city":"Wayne","state":"PA","zip":"19087","distance":10.886693528549,"lon":"-75.388444","lat":"40.04414","theaterChainName":"Independent Chains","ticketType":"STANDARD"},{"id":"418","tribuneTheaterId":"9075","providerTheaterId":"","name":"Regal Plymouth Meeting 10","address":"1011 W. Ridge Pike","city":"Conshohocken","state":"PA","zip":"19428","distance":11.439431143185,"lon":"-75.306113","lat":"40.099417","theaterChainName":"Regal Cinemas","ticketType":"STANDARD"},{"id":"436","tribuneTheaterId":"206","providerTheaterId":"","name":"Hiway Theatre, Inc.","address":"212 Old York Rd.","city":"Jenkintown","state":"PA","zip":"19046","distance":11.711107415291,"lon":"-75.125438","lat":"40.094678","theaterChainName":"Independent Chains","ticketType":"STANDARD"},{"id":"364","tribuneTheaterId":"5280","providerTheaterId":"354","name":"AMC Granite Run 8","address":"1067 W. Baltimore Pike","city":"Media","state":"PA","zip":"19063","distance":10.955171047002,"lon":"-75.432211","lat":"39.916335","theaterChainName":"AMC Theatres","ticketType":"STANDARD"},{"id":"532","tribuneTheaterId":"5640","providerTheaterId":"","name":"Regal Edgmont Square 10","address":"4777 W. Chester Pike","city":"Newtown Square","state":"PA","zip":"19073","distance":11.373861241216,"lon":"-75.439167","lat":"39.97796","theaterChainName":"Regal Cinemas","ticketType":"STANDARD"},{"id":"434","tribuneTheaterId":"9250","providerTheaterId":"","name":"Cinemark 16 Somerdale","address":"711 Evesham Road","city":"Somerdale","state":"NJ","zip":"08083","distance":12.665089677329,"lon":"-75.020206","lat":"39.855401","theaterChainName":"Cinemark","ticketType":"STANDARD"},{"id":"3608","tribuneTheaterId":"1577","providerTheaterId":"","name":"Ambler Theater","address":"108 E. Butler Ave.","city":"Ambler","state":"PA","zip":"19002","distance":14.51780980397,"lon":"-75.221183","lat":"40.154838","theaterChainName":"Independent Chains","ticketType":"STANDARD"},{"id":"214","tribuneTheaterId":"7276","providerTheaterId":"","name":"United Artists Grant Plaza 9","address":"1619 Grant Ave.","city":"Philadelphia","state":"PA","zip":"19115","distance":14.111026894372,"lon":"-75.038166","lat":"40.08761","theaterChainName":"United Artists","ticketType":"STANDARD"},{"id":"2977","tribuneTheaterId":"5710","providerTheaterId":"","name":"UA King of Prussia Stadium 16 & IMAX","address":"300 Goddard Blvd.","city":"King of Prussia","state":"PA","zip":"19406","distance":13.573040619494,"lon":"-75.397711","lat":"40.092642","theaterChainName":"United Artists","ticketType":"STANDARD"},{"id":"5413","tribuneTheaterId":"10850","providerTheaterId":"","name":"Moorestown Mall Stadium 12 + RPX","address":"400 Route 38","city":"Moorestown","state":"NJ","zip":"08057","distance":14.069828810518,"lon":"-74.963205","lat":"39.942754","theaterChainName":"Regal Cinemas","ticketType":"STANDARD"},{"id":"360","tribuneTheaterId":"4256","providerTheaterId":"73","name":"AMC Marlton 8","address":"800 N. Rte. 73","city":"Marlton","state":"NJ","zip":"08053","distance":15.783817275563,"lon":"-74.935491","lat":"39.904923","theaterChainName":"AMC Theatres","ticketType":"STANDARD"},{"id":"5389","tribuneTheaterId":"10826","providerTheaterId":"","name":"Carmike Ritz Center 16","address":"900 Haddonfield-Berlin Road","city":"Voorhees","state":"NJ","zip":"08043","distance":14.920521000044,"lon":"-74.977173","lat":"39.848026","theaterChainName":"Carmike Cinemas","ticketType":"STANDARD"},{"id":"363","tribuneTheaterId":"5284","providerTheaterId":"564","name":"AMC Woodhaven 10","address":"1336 Bristol Pike","city":"Bensalem","state":"PA","zip":"19020","distance":16.479365967681,"lon":"-74.965435","lat":"40.072055","theaterChainName":"AMC Theatres","ticketType":"STANDARD"},{"id":"366","tribuneTheaterId":"5283","providerTheaterId":"670","name":"AMC 309 Cinema 9","address":"1210 Bethlehem Pike","city":"North Wales","state":"PA","zip":"19454","distance":18.141035386026,"lon":"-75.225449","lat":"40.207346","theaterChainName":"AMC Theatres","ticketType":"STANDARD"},{"id":"368","tribuneTheaterId":"9165","providerTheaterId":"598","name":"AMC Painters Crossing 9","address":"112 Wilmington Pike","city":"West Chester","state":"PA","zip":"19382","distance":17.53252246972,"lon":"-75.549572","lat":"39.882701","theaterChainName":"AMC Theatres","ticketType":"STANDARD"},{"id":"416","tribuneTheaterId":"5286","providerTheaterId":"870","name":"AMC Franklin Mills 14","address":"903 Franklin Mills Cir.","city":"Philadelphia","state":"PA","zip":"19154","distance":17.123415428107,"lon":"-74.9609","lat":"40.0838","theaterChainName":"AMC Theatres","ticketType":"STANDARD"},{"id":"439","tribuneTheaterId":"8965","providerTheaterId":"","name":"Regal Cross Keys Stadium 12","address":"151 American Blvd.","city":"Turnersville","state":"NJ","zip":"08012","distance":17.995545488503,"lon":"-75.039668","lat":"39.728596","theaterChainName":"Regal Cinemas","ticketType":"STANDARD"},{"id":"1490","tribuneTheaterId":"6712","providerTheaterId":"","name":"Regal Oaks Stadium 24","address":"180 Mill Rd.","city":"Oaks","state":"PA","zip":"19456","distance":17.330801793351,"lon":"-75.453286","lat":"40.12749","theaterChainName":"Regal Cinemas","ticketType":"STANDARD"},{"id":"450","tribuneTheaterId":"8309","providerTheaterId":"","name":"Regal Brandywine Town Center 16","address":"3300 Brandywine Parkway","city":"Wilmington","state":"DE","zip":"19803","distance":18.019437588416,"lon":"-75.536005","lat":"39.8332","theaterChainName":"Regal Cinemas","ticketType":"STANDARD"},{"id":"5065","tribuneTheaterId":"10448","providerTheaterId":"","name":"Providence Town Center","address":"140 Market St.","city":"Collegeville","state":"PA","zip":"19426","distance":20.250247575055,"lon":"-75.4794","lat":"40.1664","theaterChainName":"Movie Tavern","ticketType":"STANDARD"},{"id":"2742","tribuneTheaterId":"2572","providerTheaterId":"","name":"Colonial Theatre - Phoenixville","address":"227 Bridge St.","city":"Phoenixville","state":"PA","zip":"19460","distance":20.093487737992,"lon":"-75.517447","lat":"40.133846","theaterChainName":"Independent Chains","ticketType":"STANDARD"},{"id":"2557","tribuneTheaterId":"8883","providerTheaterId":"","name":"Regal Cinemas Warrington Crossing Stadium 22 & IMAX","address":"140 Easton Rd. Building. F","city":"Warrington","state":"PA","zip":"18976","distance":19.293539824536,"lon":"-75.142729","lat":"40.216162","theaterChainName":"Regal Cinemas","ticketType":"STANDARD"},{"id":"1441","tribuneTheaterId":"7804","providerTheaterId":"357","name":"AMC Neshaminy 24","address":"660 Neshaminy Mall","city":"Bensalem","state":"PA","zip":"19020","distance":19.751249050079,"lon":"-74.955184","lat":"40.139323","theaterChainName":"AMC Theatres","ticketType":"STANDARD"},{"id":"120","tribuneTheaterId":"6569","providerTheaterId":"","name":"United Artists Washington Township 14","address":"121 Tuckahoe Rd.","city":"Sewell","state":"NJ","zip":"08080","distance":19.038045833751,"lon":"-75.028563","lat":"39.716157","theaterChainName":"United Artists","ticketType":"STANDARD"},{"id":"5792","tribuneTheaterId":"11232","providerTheaterId":"","name":"Movie Tavern Exton","address":"110 Bartlett Ave.","city":"Exton","state":"PA","zip":"19341","distance":21.810639558955,"lon":"-75.6283","lat":"40.0219","theaterChainName":"Movie Tavern","ticketType":"STANDARD"},{"id":"4199","tribuneTheaterId":"2075","providerTheaterId":"","name":"Frank Theatres Montgomeryville Stadium 12","address":"750 Montgomery Glen Drive","city":"Lansdale","state":"PA","zip":"19446","distance":20.993531304438,"lon":"-75.239546","lat":"40.248532","theaterChainName":"Frank Theatres","ticketType":"STANDARD"},{"id":"2297","tribuneTheaterId":"8732","providerTheaterId":"","name":"Regal Barn Plaza Stadium 14","address":"1745 Easton Road","city":"Doylestown","state":"PA","zip":"18901","distance":23.224392401829,"lon":"-75.127054","lat":"40.271799","theaterChainName":"Regal Cinemas","ticketType":"STANDARD"},{"id":"5255","tribuneTheaterId":"10685","providerTheaterId":"","name":"Penn Cinema Riverfront IMAX","address":"401 S. Madison St.","city":"Wilmington","state":"DE","zip":"19801","distance":22.781715591581,"lon":"-75.562","lat":"39.7368","theaterChainName":"Independent Chains","ticketType":"STANDARD"},{"id":"417","tribuneTheaterId":"9129","providerTheaterId":"","name":"Regal Burlington Stadium 20","address":"250 Bromley Blvd.","city":"Burlington","state":"NJ","zip":"08016","distance":22.494074200936,"lon":"-74.821508","lat":"40.037637","theaterChainName":"Regal Cinemas","ticketType":"STANDARD"},{"id":"3591","tribuneTheaterId":"666","providerTheaterId":"","name":"Theatre N at Nemours","address":"11th ","city":"Wilmington","state":"DE","zip":"19801","distance":21.82790582749,"lon":"-75.549384","lat":"39.746753","theaterChainName":"Independent Chains","ticketType":"STANDARD"},{"id":"2288","tribuneTheaterId":"8966","providerTheaterId":"","name":"Regal Downingtown Cinema Stadium 16","address":"100 Quarry Rd","city":"Downingtown","state":"PA","zip":"19335","distance":24.060169441105,"lon":"-75.674021","lat":"40.0146","theaterChainName":"Regal Cinemas","ticketType":"STANDARD"},{"id":"420","tribuneTheaterId":"5709","providerTheaterId":"","name":"United Artists Oxford Valley Stadium 14","address":"403 Middletown Rd.","city":"Langhorne","state":"PA","zip":"19047","distance":24.693654481048,"lon":"-74.883409","lat":"40.185342","theaterChainName":"United Artists","ticketType":"STANDARD"}]