[{"id":"5989","tribuneTheaterId":"11425","providerTheaterId":"","name":"Main Street Movies 5","address":"230 East Main Street","city":"Newark","state":"DE","zip":"19711","distance":6.065608475297,"lon":"-75.744789","lat":"39.686269","theaterChainName":"Independent Chains","ticketType":"STANDARD"},{"id":"1323","tribuneTheaterId":"5218","providerTheaterId":"","name":"Cinemark Movies 10 Wilmington","address":"1796 W. Newport Pike","city":"Wilmington","state":"DE","zip":"19804","distance":8.8062136561092,"lon":"-75.631315","lat":"39.714372","theaterChainName":"Cinemark","ticketType":"STANDARD"},{"id":"5574","tribuneTheaterId":"11021","providerTheaterId":"","name":"Cinemark Christiana and XD","address":"1200 Christiana Mall","city":"Christiana","state":"DE","zip":"19702","distance":9.2249353969448,"lon":"-75.6513","lat":"39.6806","theaterChainName":"Cinemark","ticketType":"STANDARD"},{"id":"590","tribuneTheaterId":"7744","providerTheaterId":"","name":"Regal Peoples Plaza Cinema Stadium 17","address":"1100 Peoples Plaza","city":"Newark","state":"DE","zip":"19702","distance":11.648019020005,"lon":"-75.748554","lat":"39.602841","theaterChainName":"Regal Cinemas","ticketType":"STANDARD"},{"id":"5255","tribuneTheaterId":"10685","providerTheaterId":"","name":"Penn Cinema Riverfront IMAX","address":"401 S. Madison St.","city":"Wilmington","state":"DE","zip":"19801","distance":11.836184178439,"lon":"-75.562","lat":"39.7368","theaterChainName":"Independent Chains","ticketType":"STANDARD"},{"id":"3591","tribuneTheaterId":"666","providerTheaterId":"","name":"Theatre N at Nemours","address":"11th ","city":"Wilmington","state":"DE","zip":"19801","distance":12.387458222314,"lon":"-75.549384","lat":"39.746753","theaterChainName":"Independent Chains","ticketType":"STANDARD"},{"id":"450","tribuneTheaterId":"8309","providerTheaterId":"","name":"Regal Brandywine Town Center 16","address":"3300 Brandywine Parkway","city":"Wilmington","state":"DE","zip":"19803","distance":13.712132865776,"lon":"-75.536005","lat":"39.8332","theaterChainName":"Regal Cinemas","ticketType":"STANDARD"},{"id":"368","tribuneTheaterId":"9165","providerTheaterId":"598","name":"AMC Painters Crossing 9","address":"112 Wilmington Pike","city":"West Chester","state":"PA","zip":"19382","distance":14.542385770943,"lon":"-75.549572","lat":"39.882701","theaterChainName":"AMC Theatres","ticketType":"STANDARD"},{"id":"2288","tribuneTheaterId":"8966","providerTheaterId":"","name":"Regal Downingtown Cinema Stadium 16","address":"100 Quarry Rd","city":"Downingtown","state":"PA","zip":"19335","distance":17.847532324565,"lon":"-75.674021","lat":"40.0146","theaterChainName":"Regal Cinemas","ticketType":"STANDARD"},{"id":"5792","tribuneTheaterId":"11232","providerTheaterId":"","name":"Movie Tavern Exton","address":"110 Bartlett Ave.","city":"Exton","state":"PA","zip":"19341","distance":19.213188749275,"lon":"-75.6283","lat":"40.0219","theaterChainName":"Movie Tavern","ticketType":"STANDARD"},{"id":"364","tribuneTheaterId":"5280","providerTheaterId":"354","name":"AMC Granite Run 8","address":"1067 W. Baltimore Pike","city":"Media","state":"PA","zip":"19063","distance":21.084802145948,"lon":"-75.432211","lat":"39.916335","theaterChainName":"AMC Theatres","ticketType":"STANDARD"},{"id":"532","tribuneTheaterId":"5640","providerTheaterId":"","name":"Regal Edgmont Square 10","address":"4777 W. Chester Pike","city":"Newtown Square","state":"PA","zip":"19073","distance":23.135065209108,"lon":"-75.439167","lat":"39.97796","theaterChainName":"Regal Cinemas","ticketType":"STANDARD"}]