[{"id":"5792","tribuneTheaterId":"11232","providerTheaterId":"","name":"Movie Tavern Exton","address":"110 Bartlett Ave.","city":"Exton","state":"PA","zip":"19341","distance":5.4272570771074,"lon":"-75.6283","lat":"40.0219","theaterChainName":"Movie Tavern","ticketType":"STANDARD"},{"id":"532","tribuneTheaterId":"5640","providerTheaterId":"","name":"Regal Edgmont Square 10","address":"4777 W. Chester Pike","city":"Newtown Square","state":"PA","zip":"19073","distance":6.7999929129116,"lon":"-75.439167","lat":"39.97796","theaterChainName":"Regal Cinemas","ticketType":"STANDARD"},{"id":"367","tribuneTheaterId":"5897","providerTheaterId":"","name":"Bow Tie Cinemas Anthony Wayne 5","address":"109 W. Lancaster Ave.","city":"Wayne","state":"PA","zip":"19087","distance":7.5424928939089,"lon":"-75.388444","lat":"40.04414","theaterChainName":"Independent Chains","ticketType":"STANDARD"},{"id":"2977","tribuneTheaterId":"5710","providerTheaterId":"","name":"UA King of Prussia Stadium 16 & IMAX","address":"300 Goddard Blvd.","city":"King of Prussia","state":"PA","zip":"19406","distance":7.7266216922452,"lon":"-75.397711","lat":"40.092642","theaterChainName":"United Artists","ticketType":"STANDARD"},{"id":"1490","tribuneTheaterId":"6712","providerTheaterId":"","name":"Regal Oaks Stadium 24","address":"180 Mill Rd.","city":"Oaks","state":"PA","zip":"19456","distance":6.9251791597432,"lon":"-75.453286","lat":"40.12749","theaterChainName":"Regal Cinemas","ticketType":"STANDARD"},{"id":"2742","tribuneTheaterId":"2572","providerTheaterId":"","name":"Colonial Theatre - Phoenixville","address":"227 Bridge St.","city":"Phoenixville","state":"PA","zip":"19460","distance":6.0568116469641,"lon":"-75.517447","lat":"40.133846","theaterChainName":"Independent Chains","ticketType":"STANDARD"},{"id":"2288","tribuneTheaterId":"8966","providerTheaterId":"","name":"Regal Downingtown Cinema Stadium 16","address":"100 Quarry Rd","city":"Downingtown","state":"PA","zip":"19335","distance":7.886791631883,"lon":"-75.674021","lat":"40.0146","theaterChainName":"Regal Cinemas","ticketType":"STANDARD"},{"id":"5065","tribuneTheaterId":"10448","providerTheaterId":"","name":"Providence Town Center","address":"140 Market St.","city":"Collegeville","state":"PA","zip":"19426","distance":8.7018433963768,"lon":"-75.4794","lat":"40.1664","theaterChainName":"Movie Tavern","ticketType":"STANDARD"},{"id":"368","tribuneTheaterId":"9165","providerTheaterId":"598","name":"AMC Painters Crossing 9","address":"112 Wilmington Pike","city":"West Chester","state":"PA","zip":"19382","distance":11.380717204282,"lon":"-75.549572","lat":"39.882701","theaterChainName":"AMC Theatres","ticketType":"STANDARD"},{"id":"364","tribuneTheaterId":"5280","providerTheaterId":"354","name":"AMC Granite Run 8","address":"1067 W. Baltimore Pike","city":"Media","state":"PA","zip":"19063","distance":10.421682632658,"lon":"-75.432211","lat":"39.916335","theaterChainName":"AMC Theatres","ticketType":"STANDARD"},{"id":"365","tribuneTheaterId":"5285","providerTheaterId":"596","name":"AMC Marple 10","address":"400 S. State Road","city":"Springfield","state":"PA","zip":"19064","distance":11.833768389572,"lon":"-75.358036","lat":"39.938289","theaterChainName":"AMC Theatres","ticketType":"STANDARD"},{"id":"428","tribuneTheaterId":"6580","providerTheaterId":"","name":"Bryn Mawr Film Institute","address":"824 Lancaster Ave.","city":"Bryn Mawr","state":"PA","zip":"19010","distance":11.352290239559,"lon":"-75.318933","lat":"40.021674","theaterChainName":"Independent Chains","ticketType":"STANDARD"},{"id":"418","tribuneTheaterId":"9075","providerTheaterId":"","name":"Regal Plymouth Meeting 10","address":"1011 W. Ridge Pike","city":"Conshohocken","state":"PA","zip":"19428","distance":12.433550095244,"lon":"-75.306113","lat":"40.099417","theaterChainName":"Regal Cinemas","ticketType":"STANDARD"},{"id":"437","tribuneTheaterId":"2666","providerTheaterId":"","name":"Narberth Stadium 2","address":"129 N. Narberth Ave.","city":"Narberth","state":"PA","zip":"19072","distance":14.59068552194,"lon":"-75.260307","lat":"40.006445","theaterChainName":"Independent Chains","ticketType":"STANDARD"},{"id":"5738","tribuneTheaterId":"11180","providerTheaterId":"","name":"Studio Movie Grill Upper Darby","address":"53 S. 69th St.","city":"Upper Darby","state":"PA","zip":"19082","distance":15.619994249949,"lon":"-75.2586","lat":"39.9598","theaterChainName":"Studio Movie Grill","ticketType":"SELECT_SEATING"},{"id":"450","tribuneTheaterId":"8309","providerTheaterId":"","name":"Regal Brandywine Town Center 16","address":"3300 Brandywine Parkway","city":"Wilmington","state":"DE","zip":"19803","distance":14.760710948693,"lon":"-75.536005","lat":"39.8332","theaterChainName":"Regal Cinemas","ticketType":"STANDARD"},{"id":"2083","tribuneTheaterId":"8105","providerTheaterId":"871","name":"AMC Plymouth Meeting Mall 12","address":"494 W. Germantown Pike","city":"Plymouth Meeting","state":"PA","zip":"19462","distance":14.10508952116,"lon":"-75.279393","lat":"40.114725","theaterChainName":"AMC Theatres","ticketType":"STANDARD"},{"id":"5120","tribuneTheaterId":"10523","providerTheaterId":"","name":"Carmike 12 Stowe","address":"110 Upland Square Dr","city":"Stowe","state":"PA","zip":"19464","distance":16.714540176657,"lon":"-75.658085","lat":"40.268358","theaterChainName":"Carmike Cinemas","ticketType":"STANDARD"},{"id":"415","tribuneTheaterId":"7298","providerTheaterId":"","name":"Bow Tie Bala Theater","address":"157 Bala Ave.","city":"Bala Cynwyd","state":"PA","zip":"19004","distance":16.083622525875,"lon":"-75.232034","lat":"40.004658","theaterChainName":"Independent Chains","ticketType":"STANDARD"},{"id":"5747","tribuneTheaterId":"11189","providerTheaterId":"","name":"Movie Tavern Flourtown","address":"1842 Bethlehem Pike","city":"Flourtown","state":"PA","zip":"19031","distance":17.324739477968,"lon":"-75.214044","lat":"40.110483","theaterChainName":"Movie Tavern","ticketType":"STANDARD"},{"id":"419","tribuneTheaterId":"8423","providerTheaterId":"","name":"United Artists Main Street Theatre 6","address":"3720 Main St.","city":"Manayunk","state":"PA","zip":"19127","distance":17.094211254601,"lon":"-75.210468","lat":"40.015576","theaterChainName":"United Artists","ticketType":"STANDARD"},{"id":"3560","tribuneTheaterId":"5153","providerTheaterId":"","name":"University City Penn 6","address":"4012 Walnut St.","city":"Philadelphia","state":"PA","zip":"19104","distance":18.511169865804,"lon":"-75.203004","lat":"39.953805","theaterChainName":"Cinemark","ticketType":"STANDARD"},{"id":"3608","tribuneTheaterId":"1577","providerTheaterId":"","name":"Ambler Theater","address":"108 E. Butler Ave.","city":"Ambler","state":"PA","zip":"19002","distance":17.995184388484,"lon":"-75.221183","lat":"40.154838","theaterChainName":"Independent Chains","ticketType":"STANDARD"},{"id":"5462","tribuneTheaterId":"10904","providerTheaterId":"","name":"The PFS Theater at the Roxy","address":"2023 Sansom St.","city":"Philadelphia","state":"PA","zip":"19103","distance":19.983593462111,"lon":"-75.174515","lat":"39.951534","theaterChainName":"Independent Chains","ticketType":"STANDARD"},{"id":"5717","tribuneTheaterId":"11159","providerTheaterId":"","name":"Prince Theater","address":"1412 Chestnut Street","city":"Philadelphia","state":"PA","zip":"19102","distance":20.494461237447,"lon":"-75.164743","lat":"39.950563","theaterChainName":"Independent Chains","ticketType":"STANDARD"},{"id":"5964","tribuneTheaterId":"11395","providerTheaterId":"","name":"AMC N Broadstreet 7","address":"1600 North Broad Street","city":"Philadelphia","state":"PA","zip":"19121","distance":20.280105073405,"lon":"-75.158456","lat":"39.97797","theaterChainName":"AMC Theatres","ticketType":"STANDARD"},{"id":"366","tribuneTheaterId":"5283","providerTheaterId":"670","name":"AMC 309 Cinema 9","address":"1210 Bethlehem Pike","city":"North Wales","state":"PA","zip":"19454","distance":19.586164182556,"lon":"-75.225449","lat":"40.207346","theaterChainName":"AMC Theatres","ticketType":"STANDARD"},{"id":"436","tribuneTheaterId":"206","providerTheaterId":"","name":"Hiway Theatre, Inc.","address":"212 Old York Rd.","city":"Jenkintown","state":"PA","zip":"19046","distance":21.697192511777,"lon":"-75.125438","lat":"40.094678","theaterChainName":"Independent Chains","ticketType":"STANDARD"},{"id":"3591","tribuneTheaterId":"666","providerTheaterId":"","name":"Theatre N at Nemours","address":"11th ","city":"Wilmington","state":"DE","zip":"19801","distance":20.754129622109,"lon":"-75.549384","lat":"39.746753","theaterChainName":"Independent Chains","ticketType":"STANDARD"},{"id":"4199","tribuneTheaterId":"2075","providerTheaterId":"","name":"Frank Theatres Montgomeryville Stadium 12","address":"750 Montgomery Glen Drive","city":"Lansdale","state":"PA","zip":"19446","distance":20.765718778095,"lon":"-75.239546","lat":"40.248532","theaterChainName":"Frank Theatres","ticketType":"STANDARD"},{"id":"421","tribuneTheaterId":"8592","providerTheaterId":"","name":"United Artists Riverview Stadium 17","address":"1400 S. Columbus Blvd.","city":"Philadelphia","state":"PA","zip":"19147","distance":22.002007879318,"lon":"-75.1445","lat":"39.9297","theaterChainName":"United Artists","ticketType":"STANDARD"},{"id":"5255","tribuneTheaterId":"10685","providerTheaterId":"","name":"Penn Cinema Riverfront IMAX","address":"401 S. Madison St.","city":"Wilmington","state":"DE","zip":"19801","distance":21.481875675503,"lon":"-75.562","lat":"39.7368","theaterChainName":"Independent Chains","ticketType":"STANDARD"},{"id":"2557","tribuneTheaterId":"8883","providerTheaterId":"","name":"Regal Cinemas Warrington Crossing Stadium 22 & IMAX","address":"140 Easton Rd. Building. F","city":"Warrington","state":"PA","zip":"18976","distance":23.614208123735,"lon":"-75.142729","lat":"40.216162","theaterChainName":"Regal Cinemas","ticketType":"STANDARD"},{"id":"1323","tribuneTheaterId":"5218","providerTheaterId":"","name":"Cinemark Movies 10 Wilmington","address":"1796 W. Newport Pike","city":"Wilmington","state":"DE","zip":"19804","distance":23.576335753847,"lon":"-75.631315","lat":"39.714372","theaterChainName":"Cinemark","ticketType":"STANDARD"}]