[{"id":"2288","tribuneTheaterId":"8966","providerTheaterId":"","name":"Regal Downingtown Cinema Stadium 16","address":"100 Quarry Rd","city":"Downingtown","state":"PA","zip":"19335","distance":4.4811557815312,"lon":"-75.674021","lat":"40.0146","theaterChainName":"Regal Cinemas","ticketType":"STANDARD"},{"id":"5792","tribuneTheaterId":"11232","providerTheaterId":"","name":"Movie Tavern Exton","address":"110 Bartlett Ave.","city":"Exton","state":"PA","zip":"19341","distance":6.8813535434982,"lon":"-75.6283","lat":"40.0219","theaterChainName":"Movie Tavern","ticketType":"STANDARD"},{"id":"368","tribuneTheaterId":"9165","providerTheaterId":"598","name":"AMC Painters Crossing 9","address":"112 Wilmington Pike","city":"West Chester","state":"PA","zip":"19382","distance":12.6034492637,"lon":"-75.549572","lat":"39.882701","theaterChainName":"AMC Theatres","ticketType":"STANDARD"},{"id":"2742","tribuneTheaterId":"2572","providerTheaterId":"","name":"Colonial Theatre - Phoenixville","address":"227 Bridge St.","city":"Phoenixville","state":"PA","zip":"19460","distance":16.035026013277,"lon":"-75.517447","lat":"40.133846","theaterChainName":"Independent Chains","ticketType":"STANDARD"},{"id":"450","tribuneTheaterId":"8309","providerTheaterId":"","name":"Regal Brandywine Town Center 16","address":"3300 Brandywine Parkway","city":"Wilmington","state":"DE","zip":"19803","distance":15.289578952859,"lon":"-75.536005","lat":"39.8332","theaterChainName":"Regal Cinemas","ticketType":"STANDARD"},{"id":"532","tribuneTheaterId":"5640","providerTheaterId":"","name":"Regal Edgmont Square 10","address":"4777 W. Chester Pike","city":"Newtown Square","state":"PA","zip":"19073","distance":16.360020731766,"lon":"-75.439167","lat":"39.97796","theaterChainName":"Regal Cinemas","ticketType":"STANDARD"},{"id":"364","tribuneTheaterId":"5280","providerTheaterId":"354","name":"AMC Granite Run 8","address":"1067 W. Baltimore Pike","city":"Media","state":"PA","zip":"19063","distance":17.357928451322,"lon":"-75.432211","lat":"39.916335","theaterChainName":"AMC Theatres","ticketType":"STANDARD"},{"id":"5065","tribuneTheaterId":"10448","providerTheaterId":"","name":"Providence Town Center","address":"140 Market St.","city":"Collegeville","state":"PA","zip":"19426","distance":19.027368073965,"lon":"-75.4794","lat":"40.1664","theaterChainName":"Movie Tavern","ticketType":"STANDARD"},{"id":"1490","tribuneTheaterId":"6712","providerTheaterId":"","name":"Regal Oaks Stadium 24","address":"180 Mill Rd.","city":"Oaks","state":"PA","zip":"19456","distance":18.506272917799,"lon":"-75.453286","lat":"40.12749","theaterChainName":"Regal Cinemas","ticketType":"STANDARD"},{"id":"5120","tribuneTheaterId":"10523","providerTheaterId":"","name":"Carmike 12 Stowe","address":"110 Upland Square Dr","city":"Stowe","state":"PA","zip":"19464","distance":20.268304512626,"lon":"-75.658085","lat":"40.268358","theaterChainName":"Carmike Cinemas","ticketType":"STANDARD"},{"id":"5989","tribuneTheaterId":"11425","providerTheaterId":"","name":"Main Street Movies 5","address":"230 East Main Street","city":"Newark","state":"DE","zip":"19711","distance":20.516695559271,"lon":"-75.744789","lat":"39.686269","theaterChainName":"Independent Chains","ticketType":"STANDARD"},{"id":"5255","tribuneTheaterId":"10685","providerTheaterId":"","name":"Penn Cinema Riverfront IMAX","address":"401 S. Madison St.","city":"Wilmington","state":"DE","zip":"19801","distance":19.678830386277,"lon":"-75.562","lat":"39.7368","theaterChainName":"Independent Chains","ticketType":"STANDARD"},{"id":"3591","tribuneTheaterId":"666","providerTheaterId":"","name":"Theatre N at Nemours","address":"11th ","city":"Wilmington","state":"DE","zip":"19801","distance":19.441045217798,"lon":"-75.549384","lat":"39.746753","theaterChainName":"Independent Chains","ticketType":"STANDARD"},{"id":"367","tribuneTheaterId":"5897","providerTheaterId":"","name":"Bow Tie Cinemas Anthony Wayne 5","address":"109 W. Lancaster Ave.","city":"Wayne","state":"PA","zip":"19087","distance":19.492430714012,"lon":"-75.388444","lat":"40.04414","theaterChainName":"Independent Chains","ticketType":"STANDARD"},{"id":"365","tribuneTheaterId":"5285","providerTheaterId":"596","name":"AMC Marple 10","address":"400 S. State Road","city":"Springfield","state":"PA","zip":"19064","distance":20.889126828267,"lon":"-75.358036","lat":"39.938289","theaterChainName":"AMC Theatres","ticketType":"STANDARD"},{"id":"2977","tribuneTheaterId":"5710","providerTheaterId":"","name":"UA King of Prussia Stadium 16 & IMAX","address":"300 Goddard Blvd.","city":"King of Prussia","state":"PA","zip":"19406","distance":20.018368980659,"lon":"-75.397711","lat":"40.092642","theaterChainName":"United Artists","ticketType":"STANDARD"},{"id":"1323","tribuneTheaterId":"5218","providerTheaterId":"","name":"Cinemark Movies 10 Wilmington","address":"1796 W. Newport Pike","city":"Wilmington","state":"DE","zip":"19804","distance":19.580049394025,"lon":"-75.631315","lat":"39.714372","theaterChainName":"Cinemark","ticketType":"STANDARD"},{"id":"5574","tribuneTheaterId":"11021","providerTheaterId":"","name":"Cinemark Christiana and XD","address":"1200 Christiana Mall","city":"Christiana","state":"DE","zip":"19702","distance":21.529240523845,"lon":"-75.6513","lat":"39.6806","theaterChainName":"Cinemark","ticketType":"STANDARD"},{"id":"844","tribuneTheaterId":"6116","providerTheaterId":"","name":"Fox East Theatre","address":"4350 Perkiomen Ave.","city":"Reading","state":"PA","zip":"19606","distance":23.421278492099,"lon":"-75.868661","lat":"40.309413","theaterChainName":"Fox Theatres","ticketType":"STANDARD"},{"id":"428","tribuneTheaterId":"6580","providerTheaterId":"","name":"Bryn Mawr Film Institute","address":"824 Lancaster Ave.","city":"Bryn Mawr","state":"PA","zip":"19010","distance":22.869372245586,"lon":"-75.318933","lat":"40.021674","theaterChainName":"Independent Chains","ticketType":"STANDARD"},{"id":"418","tribuneTheaterId":"9075","providerTheaterId":"","name":"Regal Plymouth Meeting 10","address":"1011 W. Ridge Pike","city":"Conshohocken","state":"PA","zip":"19428","distance":24.720041753548,"lon":"-75.306113","lat":"40.099417","theaterChainName":"Regal Cinemas","ticketType":"STANDARD"}]