[{"id":"428","name":"Bryn Mawr Film Institute","address":"824 Lancaster Ave.","city":"Bryn Mawr","state":"PA","zip":"19010","distance":"22.870887756347656","lon":"-75.318932","lat":"40.021675","theaterChainName":"Independent Chains","ticketType":"STANDARD"},{"id":"365","name":"AMC Marple 10","address":"400 S. State Road","city":"Springfield","state":"PA","zip":"19064","distance":"20.890628814697266","lon":"-75.358032","lat":"39.938290","theaterChainName":"AMC Theatres","ticketType":"STANDARD"},{"id":"418","name":"Regal Plymouth Meeting 10","address":"1011 W. Ridge Pike","city":"Conshohocken","state":"PA","zip":"19428","distance":"24.7215633392334","lon":"-75.306114","lat":"40.099419","theaterChainName":"Regal Cinemas","ticketType":"STANDARD"},{"id":"367","name":"Bow Tie Cinemas Anthony Wayne 5","address":"109 W. Lancaster Ave.","city":"Wayne","state":"PA","zip":"19087","distance":"19.493701934814453","lon":"-75.388443","lat":"40.044140","theaterChainName":"Independent Chains","ticketType":"STANDARD"},{"id":"364","name":"AMC Granite Run 8","address":"1067 W. Baltimore Pike","city":"Media","state":"PA","zip":"19063","distance":"17.35890769958496","lon":"-75.432213","lat":"39.916336","theaterChainName":"AMC Theatres","ticketType":"STANDARD"},{"id":"2977","name":"UA King of Prussia Stadium 16 & IMAX","address":"300 Goddard Blvd.","city":"King of Prussia","state":"PA","zip":"19406","distance":"20.019582748413086","lon":"-75.397713","lat":"40.092644","theaterChainName":"United Artists","ticketType":"STANDARD"},{"id":"532","name":"Regal Edgmont Square 10","address":"4777 W. Chester Pike","city":"Newtown Square","state":"PA","zip":"19073","distance":"16.361251831054688","lon":"-75.439163","lat":"39.977959","theaterChainName":"Regal Cinemas","ticketType":"STANDARD"},{"id":"450","name":"Regal Brandywine Town Center 16","address":"3300 Brandywine Parkway","city":"Wilmington","state":"DE","zip":"19803","distance":"15.290682792663574","lon":"-75.536003","lat":"39.833199","theaterChainName":"Regal Cinemas","ticketType":"STANDARD"},{"id":"3591","name":"Theatre N at Nemours","address":"11th ","city":"Wilmington","state":"DE","zip":"19801","distance":"19.44219207763672","lon":"-75.549385","lat":"39.746754","theaterChainName":"Independent Chains","ticketType":"STANDARD"},{"id":"368","name":"AMC Painters Crossing 9","address":"112 Wilmington Pike","city":"West Chester","state":"PA","zip":"19382","distance":"12.604043960571289","lon":"-75.549576","lat":"39.882702","theaterChainName":"AMC Theatres","ticketType":"STANDARD"},{"id":"5255","name":"Penn Cinema Riverfront IMAX","address":"401 S. Madison St.","city":"Wilmington","state":"DE","zip":"19801","distance":"19.68008804321289","lon":"-75.561996","lat":"39.736801","theaterChainName":"Independent Chains","ticketType":"STANDARD"},{"id":"1323","name":"Cinemark Movies 10 Wilmington","address":"1796 W. Newport Pike","city":"Wilmington","state":"DE","zip":"19804","distance":"19.58131980895996","lon":"-75.631317","lat":"39.714371","theaterChainName":"Cinemark","ticketType":"STANDARD"},{"id":"5574","name":"Cinemark Christiana and XD","address":"1200 Christiana Mall","city":"Christiana","state":"DE","zip":"19702","distance":"21.530654907226562","lon":"-75.651299","lat":"39.680599","theaterChainName":"Cinemark","ticketType":"STANDARD"},{"id":"1490","name":"Regal Oaks Stadium 24","address":"180 Mill Rd.","city":"Oaks","state":"PA","zip":"19456","distance":"18.50750160217285","lon":"-75.453285","lat":"40.127491","theaterChainName":"Regal Cinemas","ticketType":"STANDARD"},{"id":"5792","name":"Movie Tavern Exton","address":"110 Bartlett Ave.","city":"Exton","state":"PA","zip":"19341","distance":"6.881624221801758","lon":"-75.628304","lat":"40.021900","theaterChainName":"Movie Tavern","ticketType":"STANDARD"},{"id":"2742","name":"Colonial Theatre - Phoenixville","address":"227 Bridge St.","city":"Phoenixville","state":"PA","zip":"19460","distance":"16.03598403930664","lon":"-75.517448","lat":"40.133846","theaterChainName":"Independent Chains","ticketType":"STANDARD"},{"id":"5065","name":"Providence Town Center","address":"140 Market St.","city":"Collegeville","state":"PA","zip":"19426","distance":"19.02857208251953","lon":"-75.479401","lat":"40.166401","theaterChainName":"Movie Tavern","ticketType":"STANDARD"},{"id":"2288","name":"Regal Downingtown Cinema Stadium 16","address":"100 Quarry Rd","city":"Downingtown","state":"PA","zip":"19335","distance":"4.481504440307617","lon":"-75.674019","lat":"40.014599","theaterChainName":"Regal Cinemas","ticketType":"STANDARD"},{"id":"5989","name":"Main Street Movies 5","address":"230 East Main Street","city":"Newark","state":"DE","zip":"19711","distance":"20.518051147460938","lon":"-75.744789","lat":"39.686268","theaterChainName":"Independent Chains","ticketType":"STANDARD"},{"id":"844","name":"Fox East Theatre","address":"4350 Perkiomen Ave.","city":"Reading","state":"PA","zip":"19606","distance":"23.422767639160156","lon":"-75.868660","lat":"40.309414","theaterChainName":"Fox Theatres","ticketType":"STANDARD"},{"id":"5120","name":"Carmike 12 Stowe","address":"110 Upland Square Dr","city":"Stowe","state":"PA","zip":"19464","distance":"20.26940155029297","lon":"-75.658089","lat":"40.268356","theaterChainName":"Carmike Cinemas","ticketType":"STANDARD"}]