[{"id":"2973","name":"Cocoaplex Cinema","address":"1130 Cocoa Ave","city":"Hershey","state":"PA","zip":"17033","distance":"21.303834915161133","lon":"-76.648949","lat":"40.270248","theaterChainName":"Independent Chains","ticketType":"STANDARD"},{"id":"2934","name":"Movietown Theatre","address":"700 N Hanover St","city":"Elizabethtown","state":"PA","zip":"17022","distance":"24.365140914916992","lon":"-76.609802","lat":"40.160900","theaterChainName":"Independent Chains","ticketType":"STANDARD"},{"id":"5720","name":"Flagship Cinemas Palmyra","address":"2 N. Londonderry Square","city":"Palmyra","state":"PA","zip":"17078","distance":"16.039548873901367","lon":"-76.570435","lat":"40.320435","theaterChainName":"Flagship Cinemas","ticketType":"STANDARD"},{"id":"4233","name":"Great Escape Lebanon Valley Stadium 10","address":"2200 Lebanon Valley Mall Rd.","city":"Lebanon","state":"PA","zip":"17042","distance":"9.89433479309082","lon":"-76.452835","lat":"40.341637","theaterChainName":"Regal Cinemas","ticketType":"STANDARD"},{"id":"4535","name":"Penn Cinema","address":"541 Airport Rd.","city":"Lititz","state":"PA","zip":"17543","distance":"21.029842376708984","lon":"-76.291962","lat":"40.114357","theaterChainName":"Independent Chains","ticketType":"STANDARD"},{"id":"5051","name":"Schuylkill Mall Theatre","address":"670 Schuylkill Mall","city":"Frackville","state":"PA","zip":"17931","distance":"24.311079025268555","lon":"-76.225121","lat":"40.766582","theaterChainName":"Independent Chains","ticketType":"STANDARD"},{"id":"3978","name":"Ephrata Main Theatre","address":"124 East Main Street","city":"Ephrata","state":"PA","zip":"17522","distance":"17.955307006835938","lon":"-76.173698","lat":"40.175701","theaterChainName":"Independent Chains","ticketType":"STANDARD"},{"id":"5267","name":"Fox Berkshire","address":"800 Berkshire Boulevard","city":"Wyomissing","state":"PA","zip":"19610","distance":"17.82208824157715","lon":"-75.967697","lat":"40.350899","theaterChainName":"Fox Theatres","ticketType":"STANDARD"},{"id":"2241","name":"Cinema Center Fairgrounds Sq.","address":"3050 N 5th St. Hwy.","city":"Reading","state":"PA","zip":"19605","distance":"19.32338523864746","lon":"-75.930763","lat":"40.379757","theaterChainName":"Carmike Cinemas","ticketType":"STANDARD"},{"id":"4550","name":"R\/C Reading Movies 11 & IMAX","address":"30 N 2nd Street","city":"Reading","state":"PA","zip":"19601","distance":"19.785371780395508","lon":"-75.934288","lat":"40.336651","theaterChainName":"R\/C Theatres","ticketType":"STANDARD"},{"id":"4477","name":"Goggleworks Theatre","address":"201 Washington St.","city":"Reading","state":"PA","zip":"19601","distance":"19.804418563842773","lon":"-75.933853","lat":"40.336796","theaterChainName":"Independent Chains","ticketType":"STANDARD"},{"id":"844","name":"Fox East Theatre","address":"4350 Perkiomen Ave.","city":"Reading","state":"PA","zip":"19606","distance":"23.6525821685791","lon":"-75.868660","lat":"40.309414","theaterChainName":"Fox Theatres","ticketType":"STANDARD"}]