[{"id":"5267","tribuneTheaterId":"10700","providerTheaterId":"","name":"Fox Berkshire","address":"800 Berkshire Boulevard","city":"Wyomissing","state":"PA","zip":"19610","distance":2.6022895298784,"lon":"-75.9677","lat":"40.3509","theaterChainName":"Fox Theatres","ticketType":"STANDARD"},{"id":"2241","tribuneTheaterId":"6348","providerTheaterId":"","name":"Cinema Center Fairgrounds Sq.","address":"3050 N 5th St. Hwy.","city":"Reading","state":"PA","zip":"19605","distance":1.8035157453703,"lon":"-75.930765","lat":"40.379757","theaterChainName":"Carmike Cinemas","ticketType":"STANDARD"},{"id":"4477","tribuneTheaterId":"9571","providerTheaterId":"","name":"Goggleworks Theatre","address":"201 Washington St.","city":"Reading","state":"PA","zip":"19601","distance":3.8837125131257,"lon":"-75.933852","lat":"40.336797","theaterChainName":"Independent Chains","ticketType":"STANDARD"},{"id":"4550","tribuneTheaterId":"9686","providerTheaterId":"","name":"R\/C Reading Movies 11 & IMAX","address":"30 N 2nd Street","city":"Reading","state":"PA","zip":"19601","distance":3.8839318151694,"lon":"-75.934286","lat":"40.336652","theaterChainName":"R\/C Theatres","ticketType":"STANDARD"},{"id":"844","tribuneTheaterId":"6116","providerTheaterId":"","name":"Fox East Theatre","address":"4350 Perkiomen Ave.","city":"Reading","state":"PA","zip":"19606","distance":7.3833309643083,"lon":"-75.868661","lat":"40.309413","theaterChainName":"Fox Theatres","ticketType":"STANDARD"},{"id":"1990","tribuneTheaterId":"2716","providerTheaterId":"","name":"Strand Theatre - Kutztown","address":"32 N. Whiteoak St.","city":"Kutztown","state":"PA","zip":"19530","distance":13.114814417631,"lon":"-75.779087","lat":"40.51655","theaterChainName":"Independent Chains","ticketType":"STANDARD"},{"id":"5120","tribuneTheaterId":"10523","providerTheaterId":"","name":"Carmike 12 Stowe","address":"110 Upland Square Dr","city":"Stowe","state":"PA","zip":"19464","distance":18.080678592077,"lon":"-75.658085","lat":"40.268358","theaterChainName":"Carmike Cinemas","ticketType":"STANDARD"},{"id":"3978","tribuneTheaterId":"1421","providerTheaterId":"","name":"Ephrata Main Theatre","address":"124 East Main Street","city":"Ephrata","state":"PA","zip":"17522","distance":18.41735323707,"lon":"-76.1737","lat":"40.1757","theaterChainName":"Independent Chains","ticketType":"STANDARD"}]