[{"id":"5267","tribuneTheaterId":"10700","providerTheaterId":"","name":"Fox Berkshire","address":"800 Berkshire Boulevard","city":"Wyomissing","state":"PA","zip":"19610","distance":4.4570748042967,"lon":"-75.9677","lat":"40.3509","theaterChainName":"Fox Theatres","ticketType":"STANDARD"},{"id":"4550","tribuneTheaterId":"9686","providerTheaterId":"","name":"R\/C Reading Movies 11 & IMAX","address":"30 N 2nd Street","city":"Reading","state":"PA","zip":"19601","distance":5.561958609349,"lon":"-75.934286","lat":"40.336652","theaterChainName":"R\/C Theatres","ticketType":"STANDARD"},{"id":"4477","tribuneTheaterId":"9571","providerTheaterId":"","name":"Goggleworks Theatre","address":"201 Washington St.","city":"Reading","state":"PA","zip":"19601","distance":5.5868071382108,"lon":"-75.933852","lat":"40.336797","theaterChainName":"Independent Chains","ticketType":"STANDARD"},{"id":"2241","tribuneTheaterId":"6348","providerTheaterId":"","name":"Cinema Center Fairgrounds Sq.","address":"3050 N 5th St. Hwy.","city":"Reading","state":"PA","zip":"19605","distance":7.2258405621354,"lon":"-75.930765","lat":"40.379757","theaterChainName":"Carmike Cinemas","ticketType":"STANDARD"},{"id":"844","tribuneTheaterId":"6116","providerTheaterId":"","name":"Fox East Theatre","address":"4350 Perkiomen Ave.","city":"Reading","state":"PA","zip":"19606","distance":8.7385631698289,"lon":"-75.868661","lat":"40.309413","theaterChainName":"Fox Theatres","ticketType":"STANDARD"},{"id":"3978","tribuneTheaterId":"1421","providerTheaterId":"","name":"Ephrata Main Theatre","address":"124 East Main Street","city":"Ephrata","state":"PA","zip":"17522","distance":11.902685265122,"lon":"-76.1737","lat":"40.1757","theaterChainName":"Independent Chains","ticketType":"STANDARD"},{"id":"5120","tribuneTheaterId":"10523","providerTheaterId":"","name":"Carmike 12 Stowe","address":"110 Upland Square Dr","city":"Stowe","state":"PA","zip":"19464","distance":20.058906062751,"lon":"-75.658085","lat":"40.268358","theaterChainName":"Carmike Cinemas","ticketType":"STANDARD"},{"id":"1990","tribuneTheaterId":"2716","providerTheaterId":"","name":"Strand Theatre - Kutztown","address":"32 N. Whiteoak St.","city":"Kutztown","state":"PA","zip":"19530","distance":19.535774928418,"lon":"-75.779087","lat":"40.51655","theaterChainName":"Independent Chains","ticketType":"STANDARD"},{"id":"4535","tribuneTheaterId":"9667","providerTheaterId":"","name":"Penn Cinema","address":"541 Airport Rd.","city":"Lititz","state":"PA","zip":"17543","distance":19.227546670604,"lon":"-76.291959","lat":"40.114356","theaterChainName":"Independent Chains","ticketType":"STANDARD"},{"id":"4233","tribuneTheaterId":"8543","providerTheaterId":"","name":"Great Escape Lebanon Valley Stadium 10","address":"2200 Lebanon Valley Mall Rd.","city":"Lebanon","state":"PA","zip":"17042","distance":22.135248934497,"lon":"-76.452838","lat":"40.341638","theaterChainName":"Regal Cinemas","ticketType":"STANDARD"},{"id":"5437","tribuneTheaterId":"10878","providerTheaterId":"","name":"Zoetropolis","address":"315 W. James St.","city":"Lancaster","state":"PA","zip":"17603","distance":23.515933190012,"lon":"-76.3124","lat":"40.0453","theaterChainName":"Independent Chains","ticketType":"STANDARD"},{"id":"2386","tribuneTheaterId":"8308","providerTheaterId":"","name":"Regal Manor Stadium 16","address":"1246 Millersville Pike","city":"Lancaster","state":"PA","zip":"17603","distance":24.928235765325,"lon":"-76.324189","lat":"40.0264","theaterChainName":"Regal Cinemas","ticketType":"STANDARD"}]