[{"id":"1990","name":"Strand Theatre - Kutztown","address":"32 N. Whiteoak St.","city":"Kutztown","state":"PA","zip":"19530","distance":"17.139606475830078","lon":"-75.779083","lat":"40.516548","theaterChainName":"Independent Chains","ticketType":"STANDARD"},{"id":"4233","name":"Great Escape Lebanon Valley Stadium 10","address":"2200 Lebanon Valley Mall Rd.","city":"Lebanon","state":"PA","zip":"17042","distance":"24.354286193847656","lon":"-76.452835","lat":"40.341637","theaterChainName":"Regal Cinemas","ticketType":"STANDARD"},{"id":"4535","name":"Penn Cinema","address":"541 Airport Rd.","city":"Lititz","state":"PA","zip":"17543","distance":"21.688501358032227","lon":"-76.291962","lat":"40.114357","theaterChainName":"Independent Chains","ticketType":"STANDARD"},{"id":"3978","name":"Ephrata Main Theatre","address":"124 East Main Street","city":"Ephrata","state":"PA","zip":"17522","distance":"14.275012016296387","lon":"-76.173698","lat":"40.175701","theaterChainName":"Independent Chains","ticketType":"STANDARD"},{"id":"5267","name":"Fox Berkshire","address":"800 Berkshire Boulevard","city":"Wyomissing","state":"PA","zip":"19610","distance":"1.9960235357284546","lon":"-75.967697","lat":"40.350899","theaterChainName":"Fox Theatres","ticketType":"STANDARD"},{"id":"2241","name":"Cinema Center Fairgrounds Sq.","address":"3050 N 5th St. Hwy.","city":"Reading","state":"PA","zip":"19605","distance":"4.77324104309082","lon":"-75.930763","lat":"40.379757","theaterChainName":"Carmike Cinemas","ticketType":"STANDARD"},{"id":"4550","name":"R\/C Reading Movies 11 & IMAX","address":"30 N 2nd Street","city":"Reading","state":"PA","zip":"19601","distance":"3.03605580329895","lon":"-75.934288","lat":"40.336651","theaterChainName":"R\/C Theatres","ticketType":"STANDARD"},{"id":"4477","name":"Goggleworks Theatre","address":"201 Washington St.","city":"Reading","state":"PA","zip":"19601","distance":"3.0604875087738037","lon":"-75.933853","lat":"40.336796","theaterChainName":"Independent Chains","ticketType":"STANDARD"},{"id":"844","name":"Fox East Theatre","address":"4350 Perkiomen Ave.","city":"Reading","state":"PA","zip":"19606","distance":"6.561655521392822","lon":"-75.868660","lat":"40.309414","theaterChainName":"Fox Theatres","ticketType":"STANDARD"},{"id":"5120","name":"Carmike 12 Stowe","address":"110 Upland Square Dr","city":"Stowe","state":"PA","zip":"19464","distance":"18.01161766052246","lon":"-75.658089","lat":"40.268356","theaterChainName":"Carmike Cinemas","ticketType":"STANDARD"}]