[{"id":"2241","tribuneTheaterId":"6348","providerTheaterId":"","name":"Cinema Center Fairgrounds Sq.","address":"3050 N 5th St. Hwy.","city":"Reading","state":"PA","zip":"19605","distance":4.734952229109,"lon":"-75.930765","lat":"40.379757","theaterChainName":"Carmike Cinemas","ticketType":"STANDARD"},{"id":"4550","tribuneTheaterId":"9686","providerTheaterId":"","name":"R\/C Reading Movies 11 & IMAX","address":"30 N 2nd Street","city":"Reading","state":"PA","zip":"19601","distance":7.5203226079439,"lon":"-75.934286","lat":"40.336652","theaterChainName":"R\/C Theatres","ticketType":"STANDARD"},{"id":"4477","tribuneTheaterId":"9571","providerTheaterId":"","name":"Goggleworks Theatre","address":"201 Washington St.","city":"Reading","state":"PA","zip":"19601","distance":7.5031022577267,"lon":"-75.933852","lat":"40.336797","theaterChainName":"Independent Chains","ticketType":"STANDARD"},{"id":"5267","tribuneTheaterId":"10700","providerTheaterId":"","name":"Fox Berkshire","address":"800 Berkshire Boulevard","city":"Wyomissing","state":"PA","zip":"19610","distance":7.4679125738488,"lon":"-75.9677","lat":"40.3509","theaterChainName":"Fox Theatres","ticketType":"STANDARD"},{"id":"1990","tribuneTheaterId":"2716","providerTheaterId":"","name":"Strand Theatre - Kutztown","address":"32 N. Whiteoak St.","city":"Kutztown","state":"PA","zip":"19530","distance":7.742407918282,"lon":"-75.779087","lat":"40.51655","theaterChainName":"Independent Chains","ticketType":"STANDARD"},{"id":"844","tribuneTheaterId":"6116","providerTheaterId":"","name":"Fox East Theatre","address":"4350 Perkiomen Ave.","city":"Reading","state":"PA","zip":"19606","distance":8.9894519740396,"lon":"-75.868661","lat":"40.309413","theaterChainName":"Fox Theatres","ticketType":"STANDARD"},{"id":"5120","tribuneTheaterId":"10523","providerTheaterId":"","name":"Carmike 12 Stowe","address":"110 Upland Square Dr","city":"Stowe","state":"PA","zip":"19464","distance":16.792106413289,"lon":"-75.658085","lat":"40.268358","theaterChainName":"Carmike Cinemas","ticketType":"STANDARD"},{"id":"83","tribuneTheaterId":"7067","providerTheaterId":"594","name":"AMC Tilghman Square 8","address":"4608 Broadway","city":"Allentown","state":"PA","zip":"18104","distance":19.992780112138,"lon":"-75.558456","lat":"40.587169","theaterChainName":"AMC Theatres","ticketType":"STANDARD"},{"id":"2355","tribuneTheaterId":"380","providerTheaterId":"","name":"Civic's 19th Street Theatre","address":"527 N. 19th St.","city":"Allentown","state":"PA","zip":"18104","distance":23.203284702497,"lon":"-75.499982","lat":"40.603171","theaterChainName":"Independent Chains","ticketType":"STANDARD"},{"id":"3978","tribuneTheaterId":"1421","providerTheaterId":"","name":"Ephrata Main Theatre","address":"124 East Main Street","city":"Ephrata","state":"PA","zip":"17522","distance":23.698402151599,"lon":"-76.1737","lat":"40.1757","theaterChainName":"Independent Chains","ticketType":"STANDARD"},{"id":"4684","tribuneTheaterId":"9891","providerTheaterId":"","name":"Civic's Theatre 514","address":"514 N. 19th St.","city":"Allentown","state":"PA","zip":"18104","distance":23.192593077611,"lon":"-75.499976","lat":"40.602845","theaterChainName":"Independent Chains","ticketType":"STANDARD"}]