[{"id":"450","tribuneTheaterId":"8309","providerTheaterId":"","name":"Regal Brandywine Town Center 16","address":"3300 Brandywine Parkway","city":"Wilmington","state":"DE","zip":"19803","distance":4.2659805581204,"lon":"-75.536005","lat":"39.8332","theaterChainName":"Regal Cinemas","ticketType":"STANDARD"},{"id":"3591","tribuneTheaterId":"666","providerTheaterId":"","name":"Theatre N at Nemours","address":"11th ","city":"Wilmington","state":"DE","zip":"19801","distance":5.9992615122224,"lon":"-75.549384","lat":"39.746753","theaterChainName":"Independent Chains","ticketType":"STANDARD"},{"id":"368","tribuneTheaterId":"9165","providerTheaterId":"598","name":"AMC Painters Crossing 9","address":"112 Wilmington Pike","city":"West Chester","state":"PA","zip":"19382","distance":7.0317363414851,"lon":"-75.549572","lat":"39.882701","theaterChainName":"AMC Theatres","ticketType":"STANDARD"},{"id":"5255","tribuneTheaterId":"10685","providerTheaterId":"","name":"Penn Cinema Riverfront IMAX","address":"401 S. Madison St.","city":"Wilmington","state":"DE","zip":"19801","distance":6.9574330572558,"lon":"-75.562","lat":"39.7368","theaterChainName":"Independent Chains","ticketType":"STANDARD"},{"id":"364","tribuneTheaterId":"5280","providerTheaterId":"354","name":"AMC Granite Run 8","address":"1067 W. Baltimore Pike","city":"Media","state":"PA","zip":"19063","distance":7.9258993627715,"lon":"-75.432211","lat":"39.916335","theaterChainName":"AMC Theatres","ticketType":"STANDARD"},{"id":"1323","tribuneTheaterId":"5218","providerTheaterId":"","name":"Cinemark Movies 10 Wilmington","address":"1796 W. Newport Pike","city":"Wilmington","state":"DE","zip":"19804","distance":10.808399403574,"lon":"-75.631315","lat":"39.714372","theaterChainName":"Cinemark","ticketType":"STANDARD"},{"id":"365","tribuneTheaterId":"5285","providerTheaterId":"596","name":"AMC Marple 10","address":"400 S. State Road","city":"Springfield","state":"PA","zip":"19064","distance":10.848523892529,"lon":"-75.358036","lat":"39.938289","theaterChainName":"AMC Theatres","ticketType":"STANDARD"},{"id":"532","tribuneTheaterId":"5640","providerTheaterId":"","name":"Regal Edgmont Square 10","address":"4777 W. Chester Pike","city":"Newtown Square","state":"PA","zip":"19073","distance":12.069177756337,"lon":"-75.439167","lat":"39.97796","theaterChainName":"Regal Cinemas","ticketType":"STANDARD"},{"id":"5574","tribuneTheaterId":"11021","providerTheaterId":"","name":"Cinemark Christiana and XD","address":"1200 Christiana Mall","city":"Christiana","state":"DE","zip":"19702","distance":13.085702967836,"lon":"-75.6513","lat":"39.6806","theaterChainName":"Cinemark","ticketType":"STANDARD"},{"id":"5738","tribuneTheaterId":"11180","providerTheaterId":"","name":"Studio Movie Grill Upper Darby","address":"53 S. 69th St.","city":"Upper Darby","state":"PA","zip":"19082","distance":15.327250571152,"lon":"-75.2586","lat":"39.9598","theaterChainName":"Studio Movie Grill","ticketType":"SELECT_SEATING"},{"id":"367","tribuneTheaterId":"5897","providerTheaterId":"","name":"Bow Tie Cinemas Anthony Wayne 5","address":"109 W. Lancaster Ave.","city":"Wayne","state":"PA","zip":"19087","distance":17.052634570386,"lon":"-75.388444","lat":"40.04414","theaterChainName":"Independent Chains","ticketType":"STANDARD"},{"id":"5792","tribuneTheaterId":"11232","providerTheaterId":"","name":"Movie Tavern Exton","address":"110 Bartlett Ave.","city":"Exton","state":"PA","zip":"19341","distance":17.344205175741,"lon":"-75.6283","lat":"40.0219","theaterChainName":"Movie Tavern","ticketType":"STANDARD"},{"id":"428","tribuneTheaterId":"6580","providerTheaterId":"","name":"Bryn Mawr Film Institute","address":"824 Lancaster Ave.","city":"Bryn Mawr","state":"PA","zip":"19010","distance":16.888029911534,"lon":"-75.318933","lat":"40.021674","theaterChainName":"Independent Chains","ticketType":"STANDARD"},{"id":"437","tribuneTheaterId":"2666","providerTheaterId":"","name":"Narberth Stadium 2","address":"129 N. Narberth Ave.","city":"Narberth","state":"PA","zip":"19072","distance":17.676758763454,"lon":"-75.260307","lat":"40.006445","theaterChainName":"Independent Chains","ticketType":"STANDARD"},{"id":"3560","tribuneTheaterId":"5153","providerTheaterId":"","name":"University City Penn 6","address":"4012 Walnut St.","city":"Philadelphia","state":"PA","zip":"19104","distance":17.302901266721,"lon":"-75.203004","lat":"39.953805","theaterChainName":"Cinemark","ticketType":"STANDARD"},{"id":"5989","tribuneTheaterId":"11425","providerTheaterId":"","name":"Main Street Movies 5","address":"230 East Main Street","city":"Newark","state":"DE","zip":"19711","distance":16.962091047889,"lon":"-75.744789","lat":"39.686269","theaterChainName":"Independent Chains","ticketType":"STANDARD"},{"id":"359","tribuneTheaterId":"4255","providerTheaterId":"72","name":"AMC Deptford 8","address":"1740 Clements Bridge Rd.","city":"Deptford","state":"NJ","zip":"08096","distance":19.45254425463,"lon":"-75.100479","lat":"39.834758","theaterChainName":"AMC Theatres","ticketType":"STANDARD"},{"id":"421","tribuneTheaterId":"8592","providerTheaterId":"","name":"United Artists Riverview Stadium 17","address":"1400 S. Columbus Blvd.","city":"Philadelphia","state":"PA","zip":"19147","distance":19.069694923017,"lon":"-75.1445","lat":"39.9297","theaterChainName":"United Artists","ticketType":"STANDARD"},{"id":"5717","tribuneTheaterId":"11159","providerTheaterId":"","name":"Prince Theater","address":"1412 Chestnut Street","city":"Philadelphia","state":"PA","zip":"19102","distance":18.84900239504,"lon":"-75.164743","lat":"39.950563","theaterChainName":"Independent Chains","ticketType":"STANDARD"},{"id":"5462","tribuneTheaterId":"10904","providerTheaterId":"","name":"The PFS Theater at the Roxy","address":"2023 Sansom St.","city":"Philadelphia","state":"PA","zip":"19103","distance":18.450385530037,"lon":"-75.174515","lat":"39.951534","theaterChainName":"Independent Chains","ticketType":"STANDARD"},{"id":"415","tribuneTheaterId":"7298","providerTheaterId":"","name":"Bow Tie Bala Theater","address":"157 Bala Ave.","city":"Bala Cynwyd","state":"PA","zip":"19004","distance":18.541425058191,"lon":"-75.232034","lat":"40.004658","theaterChainName":"Independent Chains","ticketType":"STANDARD"},{"id":"2288","tribuneTheaterId":"8966","providerTheaterId":"","name":"Regal Downingtown Cinema Stadium 16","address":"100 Quarry Rd","city":"Downingtown","state":"PA","zip":"19335","distance":18.269227935598,"lon":"-75.674021","lat":"40.0146","theaterChainName":"Regal Cinemas","ticketType":"STANDARD"},{"id":"590","tribuneTheaterId":"7744","providerTheaterId":"","name":"Regal Peoples Plaza Cinema Stadium 17","address":"1100 Peoples Plaza","city":"Newark","state":"DE","zip":"19702","distance":20.525591504921,"lon":"-75.748554","lat":"39.602841","theaterChainName":"Regal Cinemas","ticketType":"STANDARD"},{"id":"5964","tribuneTheaterId":"11395","providerTheaterId":"","name":"AMC N Broadstreet 7","address":"1600 North Broad Street","city":"Philadelphia","state":"PA","zip":"19121","distance":20.192436075149,"lon":"-75.158456","lat":"39.97797","theaterChainName":"AMC Theatres","ticketType":"STANDARD"},{"id":"419","tribuneTheaterId":"8423","providerTheaterId":"","name":"United Artists Main Street Theatre 6","address":"3720 Main St.","city":"Manayunk","state":"PA","zip":"19127","distance":19.867623349945,"lon":"-75.210468","lat":"40.015576","theaterChainName":"United Artists","ticketType":"STANDARD"},{"id":"2977","tribuneTheaterId":"5710","providerTheaterId":"","name":"UA King of Prussia Stadium 16 & IMAX","address":"300 Goddard Blvd.","city":"King of Prussia","state":"PA","zip":"19406","distance":20.231076303389,"lon":"-75.397711","lat":"40.092642","theaterChainName":"United Artists","ticketType":"STANDARD"},{"id":"2742","tribuneTheaterId":"2572","providerTheaterId":"","name":"Colonial Theatre - Phoenixville","address":"227 Bridge St.","city":"Phoenixville","state":"PA","zip":"19460","distance":22.931946385572,"lon":"-75.517447","lat":"40.133846","theaterChainName":"Independent Chains","ticketType":"STANDARD"},{"id":"439","tribuneTheaterId":"8965","providerTheaterId":"","name":"Regal Cross Keys Stadium 12","address":"151 American Blvd.","city":"Turnersville","state":"NJ","zip":"08012","distance":23.18304734914,"lon":"-75.039668","lat":"39.728596","theaterChainName":"Regal Cinemas","ticketType":"STANDARD"},{"id":"1490","tribuneTheaterId":"6712","providerTheaterId":"","name":"Regal Oaks Stadium 24","address":"180 Mill Rd.","city":"Oaks","state":"PA","zip":"19456","distance":22.331825532925,"lon":"-75.453286","lat":"40.12749","theaterChainName":"Regal Cinemas","ticketType":"STANDARD"},{"id":"418","tribuneTheaterId":"9075","providerTheaterId":"","name":"Regal Plymouth Meeting 10","address":"1011 W. Ridge Pike","city":"Conshohocken","state":"PA","zip":"19428","distance":22.05056675021,"lon":"-75.306113","lat":"40.099417","theaterChainName":"Regal Cinemas","ticketType":"STANDARD"},{"id":"120","tribuneTheaterId":"6569","providerTheaterId":"","name":"United Artists Washington Township 14","address":"121 Tuckahoe Rd.","city":"Sewell","state":"NJ","zip":"08080","distance":23.964108399393,"lon":"-75.028563","lat":"39.716157","theaterChainName":"United Artists","ticketType":"STANDARD"},{"id":"2083","tribuneTheaterId":"8105","providerTheaterId":"871","name":"AMC Plymouth Meeting Mall 12","address":"494 W. Germantown Pike","city":"Plymouth Meeting","state":"PA","zip":"19462","distance":23.584981231109,"lon":"-75.279393","lat":"40.114725","theaterChainName":"AMC Theatres","ticketType":"STANDARD"},{"id":"434","tribuneTheaterId":"9250","providerTheaterId":"","name":"Cinemark 16 Somerdale","address":"711 Evesham Road","city":"Somerdale","state":"NJ","zip":"08083","distance":23.857186073707,"lon":"-75.020206","lat":"39.855401","theaterChainName":"Cinemark","ticketType":"STANDARD"},{"id":"2003","tribuneTheaterId":"8453","providerTheaterId":"2194","name":"AMC Loews Cherry Hill 24","address":"2121 Route 38","city":"Cherry Hill","state":"NJ","zip":"08002","distance":24.888912851337,"lon":"-75.028232","lat":"39.936463","theaterChainName":"AMC Theatres","ticketType":"STANDARD"},{"id":"5747","tribuneTheaterId":"11189","providerTheaterId":"","name":"Movie Tavern Flourtown","address":"1842 Bethlehem Pike","city":"Flourtown","state":"PA","zip":"19031","distance":24.975162570233,"lon":"-75.214044","lat":"40.110483","theaterChainName":"Movie Tavern","ticketType":"STANDARD"}]