[{"id":"5738","name":"Studio Movie Grill Upper Darby","address":"53 S. 69th St.","city":"Upper Darby","state":"PA","zip":"19082","distance":"24.461149215698242","lon":"-75.258598","lat":"39.959801","theaterChainName":"Studio Movie Grill","ticketType":"SELECT_SEATING"},{"id":"428","name":"Bryn Mawr Film Institute","address":"824 Lancaster Ave.","city":"Bryn Mawr","state":"PA","zip":"19010","distance":"23.972553253173828","lon":"-75.318932","lat":"40.021675","theaterChainName":"Independent Chains","ticketType":"STANDARD"},{"id":"365","name":"AMC Marple 10","address":"400 S. State Road","city":"Springfield","state":"PA","zip":"19064","distance":"19.084646224975586","lon":"-75.358032","lat":"39.938290","theaterChainName":"AMC Theatres","ticketType":"STANDARD"},{"id":"367","name":"Bow Tie Cinemas Anthony Wayne 5","address":"109 W. Lancaster Ave.","city":"Wayne","state":"PA","zip":"19087","distance":"22.29684829711914","lon":"-75.388443","lat":"40.044140","theaterChainName":"Independent Chains","ticketType":"STANDARD"},{"id":"364","name":"AMC Granite Run 8","address":"1067 W. Baltimore Pike","city":"Media","state":"PA","zip":"19063","distance":"14.910717964172363","lon":"-75.432213","lat":"39.916336","theaterChainName":"AMC Theatres","ticketType":"STANDARD"},{"id":"2977","name":"UA King of Prussia Stadium 16 & IMAX","address":"300 Goddard Blvd.","city":"King of Prussia","state":"PA","zip":"19406","distance":"24.552072525024414","lon":"-75.397713","lat":"40.092644","theaterChainName":"United Artists","ticketType":"STANDARD"},{"id":"532","name":"Regal Edgmont Square 10","address":"4777 W. Chester Pike","city":"Newtown Square","state":"PA","zip":"19073","distance":"17.163076400756836","lon":"-75.439163","lat":"39.977959","theaterChainName":"Regal Cinemas","ticketType":"STANDARD"},{"id":"450","name":"Regal Brandywine Town Center 16","address":"3300 Brandywine Parkway","city":"Wilmington","state":"DE","zip":"19803","distance":"7.601953983306885","lon":"-75.536003","lat":"39.833199","theaterChainName":"Regal Cinemas","ticketType":"STANDARD"},{"id":"3591","name":"Theatre N at Nemours","address":"11th ","city":"Wilmington","state":"DE","zip":"19801","distance":"7.929623126983643","lon":"-75.549385","lat":"39.746754","theaterChainName":"Independent Chains","ticketType":"STANDARD"},{"id":"368","name":"AMC Painters Crossing 9","address":"112 Wilmington Pike","city":"West Chester","state":"PA","zip":"19382","distance":"8.433744430541992","lon":"-75.549576","lat":"39.882702","theaterChainName":"AMC Theatres","ticketType":"STANDARD"},{"id":"5255","name":"Penn Cinema Riverfront IMAX","address":"401 S. Madison St.","city":"Wilmington","state":"DE","zip":"19801","distance":"7.78941535949707","lon":"-75.561996","lat":"39.736801","theaterChainName":"Independent Chains","ticketType":"STANDARD"},{"id":"1323","name":"Cinemark Movies 10 Wilmington","address":"1796 W. Newport Pike","city":"Wilmington","state":"DE","zip":"19804","distance":"6.895091533660889","lon":"-75.631317","lat":"39.714371","theaterChainName":"Cinemark","ticketType":"STANDARD"},{"id":"5574","name":"Cinemark Christiana and XD","address":"1200 Christiana Mall","city":"Christiana","state":"DE","zip":"19702","distance":"8.9102201461792","lon":"-75.651299","lat":"39.680599","theaterChainName":"Cinemark","ticketType":"STANDARD"},{"id":"5792","name":"Movie Tavern Exton","address":"110 Bartlett Ave.","city":"Exton","state":"PA","zip":"19341","distance":"14.97645378112793","lon":"-75.628304","lat":"40.021900","theaterChainName":"Movie Tavern","ticketType":"STANDARD"},{"id":"2742","name":"Colonial Theatre - Phoenixville","address":"227 Bridge St.","city":"Phoenixville","state":"PA","zip":"19460","distance":"24.007421493530273","lon":"-75.517448","lat":"40.133846","theaterChainName":"Independent Chains","ticketType":"STANDARD"},{"id":"2288","name":"Regal Downingtown Cinema Stadium 16","address":"100 Quarry Rd","city":"Downingtown","state":"PA","zip":"19335","distance":"14.261819839477539","lon":"-75.674019","lat":"40.014599","theaterChainName":"Regal Cinemas","ticketType":"STANDARD"},{"id":"590","name":"Regal Peoples Plaza Cinema Stadium 17","address":"1100 Peoples Plaza","city":"Newark","state":"DE","zip":"19702","distance":"14.71169662475586","lon":"-75.748550","lat":"39.602840","theaterChainName":"Regal Cinemas","ticketType":"STANDARD"},{"id":"5989","name":"Main Street Movies 5","address":"230 East Main Street","city":"Newark","state":"DE","zip":"19711","distance":"9.19437026977539","lon":"-75.744789","lat":"39.686268","theaterChainName":"Independent Chains","ticketType":"STANDARD"}]