[{"id":"450","name":"Regal Brandywine Town Center 16","address":"3300 Brandywine Parkway","city":"Wilmington","state":"DE","zip":"19803","distance":"20.130756378173828","lon":"-75.536003","lat":"39.833199","theaterChainName":"Regal Cinemas","ticketType":"STANDARD"},{"id":"3591","name":"Theatre N at Nemours","address":"11th ","city":"Wilmington","state":"DE","zip":"19801","distance":"14.268057823181152","lon":"-75.549385","lat":"39.746754","theaterChainName":"Independent Chains","ticketType":"STANDARD"},{"id":"368","name":"AMC Painters Crossing 9","address":"112 Wilmington Pike","city":"West Chester","state":"PA","zip":"19382","distance":"23.23642349243164","lon":"-75.549576","lat":"39.882702","theaterChainName":"AMC Theatres","ticketType":"STANDARD"},{"id":"5255","name":"Penn Cinema Riverfront IMAX","address":"401 S. Madison St.","city":"Wilmington","state":"DE","zip":"19801","distance":"13.383172988891602","lon":"-75.561996","lat":"39.736801","theaterChainName":"Independent Chains","ticketType":"STANDARD"},{"id":"1323","name":"Cinemark Movies 10 Wilmington","address":"1796 W. Newport Pike","city":"Wilmington","state":"DE","zip":"19804","distance":"11.024928092956543","lon":"-75.631317","lat":"39.714371","theaterChainName":"Cinemark","ticketType":"STANDARD"},{"id":"5574","name":"Cinemark Christiana and XD","address":"1200 Christiana Mall","city":"Christiana","state":"DE","zip":"19702","distance":"8.644156455993652","lon":"-75.651299","lat":"39.680599","theaterChainName":"Cinemark","ticketType":"STANDARD"},{"id":"5464","name":"Westown Movies","address":"150 Commerce Drive","city":"Middletown","state":"DE","zip":"19709","distance":"11.44747257232666","lon":"-75.692299","lat":"39.393002","theaterChainName":"Independent Chains","ticketType":"STANDARD"},{"id":"590","name":"Regal Peoples Plaza Cinema Stadium 17","address":"1100 Peoples Plaza","city":"Newark","state":"DE","zip":"19702","distance":"6.161907196044922","lon":"-75.748550","lat":"39.602840","theaterChainName":"Regal Cinemas","ticketType":"STANDARD"},{"id":"5989","name":"Main Street Movies 5","address":"230 East Main Street","city":"Newark","state":"DE","zip":"19711","distance":"10.335920333862305","lon":"-75.744789","lat":"39.686268","theaterChainName":"Independent Chains","ticketType":"STANDARD"}]