[{"id":"1804","name":"The Movies at Midway","address":"29 Midway Shopping Center","city":"Rehoboth Beach","state":"DE","zip":"19971","distance":"14.855039596557617","lon":"-75.141991","lat":"38.737938","theaterChainName":"Independent Chains","ticketType":"STANDARD"},{"id":"6141","name":"Cinema Art Theater","address":"17701 Dartmouth Drive","city":"Lewes","state":"DE","zip":"19958","distance":"15.409457206726074","lon":"-75.154404","lat":"38.743401","theaterChainName":"Independent Chains","ticketType":"STANDARD"},{"id":"2181","name":"Sun & Surf Cinema 8","address":"14301 Coastal Highway","city":"Ocean City","state":"MD","zip":"21842","distance":"5.724785804748535","lon":"-75.053001","lat":"38.448917","theaterChainName":"Fox Theatres","ticketType":"STANDARD"},{"id":"3216","name":"Fox Gold Coast Mall","address":"11301 Coastal Hwy","city":"Ocean City","state":"MD","zip":"21842","distance":"7.672822952270508","lon":"-75.058121","lat":"38.420193","theaterChainName":"Fox Theatres","ticketType":"STANDARD"},{"id":"2995","name":"Clayton Theatre","address":"900 Main St.","city":"Dagsboro","state":"DE","zip":"19939","distance":"9.827897071838379","lon":"-75.247322","lat":"38.551620","theaterChainName":"Independent Chains","ticketType":"STANDARD"}]