[{"id":"2181","tribuneTheaterId":"4718","providerTheaterId":"","name":"Sun & Surf Cinema 8","address":"14301 Coastal Highway","city":"Ocean City","state":"MD","zip":"21842","distance":5.7245051951919,"lon":"-75.053004","lat":"38.448918","theaterChainName":"Fox Theatres","ticketType":"STANDARD"},{"id":"3216","tribuneTheaterId":"6736","providerTheaterId":"","name":"Fox Gold Coast Mall","address":"11301 Coastal Hwy","city":"Ocean City","state":"MD","zip":"21842","distance":7.6723836617943,"lon":"-75.058122","lat":"38.420194","theaterChainName":"Fox Theatres","ticketType":"STANDARD"},{"id":"2995","tribuneTheaterId":"507","providerTheaterId":"","name":"Clayton Theatre","address":"900 Main St.","city":"Dagsboro","state":"DE","zip":"19939","distance":9.8272548032868,"lon":"-75.247324","lat":"38.551619","theaterChainName":"Independent Chains","ticketType":"STANDARD"},{"id":"1804","tribuneTheaterId":"2336","providerTheaterId":"","name":"The Movies at Midway","address":"29 Midway Shopping Center","city":"Rehoboth Beach","state":"DE","zip":"19971","distance":14.853953710914,"lon":"-75.141989","lat":"38.737938","theaterChainName":"Independent Chains","ticketType":"STANDARD"},{"id":"6141","tribuneTheaterId":"11563","providerTheaterId":"","name":"Cinema Art Theater","address":"17701 Dartmouth Drive","city":"Lewes","state":"DE","zip":"19958","distance":15.40825602932,"lon":"-75.1544","lat":"38.7434","theaterChainName":"Independent Chains","ticketType":"STANDARD"}]