[{"id":"4201","name":"Rio Stadium 12","address":"3801 Route 9 South Suite 1","city":"Rio Grande","state":"NJ","zip":"08242","distance":"24.55213737487793","lon":"-74.879433","lat":"39.014160","theaterChainName":"Frank Theatres","ticketType":"STANDARD"},{"id":"1804","name":"The Movies at Midway","address":"29 Midway Shopping Center","city":"Rehoboth Beach","state":"DE","zip":"19971","distance":"2.650578737258911","lon":"-75.141991","lat":"38.737938","theaterChainName":"Independent Chains","ticketType":"STANDARD"},{"id":"6141","name":"Cinema Art Theater","address":"17701 Dartmouth Drive","city":"Lewes","state":"DE","zip":"19958","distance":"1.8923012018203735","lon":"-75.154404","lat":"38.743401","theaterChainName":"Independent Chains","ticketType":"STANDARD"},{"id":"2181","name":"Sun & Surf Cinema 8","address":"14301 Coastal Highway","city":"Ocean City","state":"MD","zip":"21842","distance":"22.176132202148438","lon":"-75.053001","lat":"38.448917","theaterChainName":"Fox Theatres","ticketType":"STANDARD"},{"id":"3216","name":"Fox Gold Coast Mall","address":"11301 Coastal Hwy","city":"Ocean City","state":"MD","zip":"21842","distance":"23.978225708007812","lon":"-75.058121","lat":"38.420193","theaterChainName":"Fox Theatres","ticketType":"STANDARD"},{"id":"2995","name":"Clayton Theatre","address":"900 Main St.","city":"Dagsboro","state":"DE","zip":"19939","distance":"14.22150993347168","lon":"-75.247322","lat":"38.551620","theaterChainName":"Independent Chains","ticketType":"STANDARD"}]