[{"id":"3898","name":"Regal Gallery Place Stadium 14","address":"707 Seventh Street NW","city":"Washington","state":"DC","zip":"20001","distance":"23.983665466308594","lon":"-77.021729","lat":"38.898533","theaterChainName":"Regal Cinemas","ticketType":"STANDARD"},{"id":"3581","name":"AMC Loews Georgetown 14","address":"3111 K Street N.W.","city":"Washington","state":"DC","zip":"20007","distance":"21.793962478637695","lon":"-77.062653","lat":"38.902721","theaterChainName":"AMC Theatres","ticketType":"STANDARD"},{"id":"207","name":"AMC Loews Uptown 1","address":"3426 Connecticut Ave. NW","city":"Washington","state":"DC","zip":"20008","distance":"21.45993423461914","lon":"-77.058403","lat":"38.934944","theaterChainName":"AMC Theatres","ticketType":"STANDARD"},{"id":"369","name":"AMC Courthouse Plaza 8","address":"2150 Clarendon Blvd","city":"Arlington","state":"VA","zip":"22201","distance":"20.93059539794922","lon":"-77.085167","lat":"38.890179","theaterChainName":"AMC Theatres","ticketType":"STANDARD"},{"id":"1606","name":"Regal Potomac Yard Stadium 16","address":"3575 Jefferson Davis Hwy.","city":"Alexandria","state":"VA","zip":"22305","distance":"24.2330379486084","lon":"-77.048126","lat":"38.837368","theaterChainName":"Regal Cinemas","ticketType":"STANDARD"},{"id":"204","name":"AMC Loews Shirlington 7","address":"2772 South Randolph St.","city":"Arlington","state":"VA","zip":"22206","distance":"22.158998489379883","lon":"-77.089104","lat":"38.841278","theaterChainName":"AMC Theatres","ticketType":"STANDARD"},{"id":"2532","name":"Regal Ballston Common Stadium 12","address":"671 N. Glebe Road","city":"Arlington","state":"VA","zip":"22203","distance":"19.915447235107422","lon":"-77.111580","lat":"38.878807","theaterChainName":"Regal Cinemas","ticketType":"STANDARD"},{"id":"206","name":"AMC Mazza Gallerie","address":"5300 Wisconsin Ave., NW","city":"Washington","state":"DC","zip":"20015","distance":"19.784526824951172","lon":"-77.084801","lat":"38.959000","theaterChainName":"AMC Theatres","ticketType":"STANDARD"},{"id":"205","name":"The Avalon Theatre","address":"5612 Connecticut Ave. NW","city":"Washington","state":"DC","zip":"20015","distance":"20.196046829223633","lon":"-77.076103","lat":"38.965336","theaterChainName":"Independent Chains","ticketType":"STANDARD"},{"id":"3225","name":"AMC Hoffman Center 22","address":"206 Swamp Fox Rd.","city":"Alexandria","state":"VA","zip":"22314","distance":"24.40804672241211","lon":"-77.070534","lat":"38.802380","theaterChainName":"AMC Theatres","ticketType":"STANDARD"},{"id":"3844","name":"Regal Majestic Cinema 20 & IMAX","address":"900 Ellsworth Drive","city":"Silver Spring","state":"MD","zip":"20910","distance":"22.80123519897461","lon":"-77.025406","lat":"38.996574","theaterChainName":"Regal Cinemas","ticketType":"STANDARD"},{"id":"3859","name":"AFI Silver Theatre Cultural Center","address":"8633 Colesville Rd","city":"Silver Spring","state":"MD","zip":"20910","distance":"22.793859481811523","lon":"-77.025543","lat":"38.996582","theaterChainName":"Independent Chains","ticketType":"STANDARD"},{"id":"502","name":"Regal Bethesda","address":"7272 Wisconsin Ave.","city":"Bethesda","state":"MD","zip":"20814","distance":"19.158750534057617","lon":"-77.093735","lat":"38.982059","theaterChainName":"Regal Cinemas","ticketType":"STANDARD"},{"id":"5977","name":"AMC Wheaton Mall 9","address":"11006 Veirs Mall Road","city":"Wheaton","state":"MD","zip":"20902","distance":"21.541175842285156","lon":"-77.051964","lat":"39.035522","theaterChainName":"AMC Theatres","ticketType":"STANDARD"},{"id":"4135","name":"Regal Kingstowne Stadium 16","address":"5910 Kingstowne Towne Center","city":"Alexandria","state":"VA","zip":"22315","distance":"22.825166702270508","lon":"-77.138329","lat":"38.772011","theaterChainName":"Regal Cinemas","ticketType":"STANDARD"},{"id":"5506","name":"Springfield Town Center 12","address":"6859 Springfield Town Center","city":"Springfield","state":"VA","zip":"22150","distance":"21.239784240722656","lon":"-77.177399","lat":"38.773800","theaterChainName":"Regal Cinemas","ticketType":"STANDARD"},{"id":"4108","name":"AMC Tysons Corner 16","address":"7850 Tysons Corner Center","city":"West McLean","state":"VA","zip":"22102","distance":"13.54770278930664","lon":"-77.218933","lat":"38.917732","theaterChainName":"AMC Theatres","ticketType":"STANDARD"},{"id":"5222","name":"Angelika Film Center-Mosaic","address":"2911 District Avenue","city":"Fairfax","state":"VA","zip":"22031","distance":"14.632582664489746","lon":"-77.229469","lat":"38.872028","theaterChainName":"Reading International, Inc","ticketType":"STANDARD"},{"id":"1458","name":"Regal Rockville Center Stadium 13","address":"199 E. Montgomery Ave.","city":"Rockville","state":"MD","zip":"20850","distance":"17.20853042602539","lon":"-77.149925","lat":"39.083973","theaterChainName":"Regal Cinemas","ticketType":"STANDARD"},{"id":"2670","name":"Cinema Arts Theatre","address":"9650 Main St","city":"Fairfax","state":"VA","zip":"22031","distance":"14.195722579956055","lon":"-77.275803","lat":"38.841801","theaterChainName":"Independent Chains","ticketType":"STANDARD"},{"id":"201","name":"AMC Loews Rio Cinemas 18","address":"9811 Washingtonian Blvd","city":"Gaithersburg","state":"MD","zip":"20878","distance":"15.882538795471191","lon":"-77.197525","lat":"39.116192","theaterChainName":"AMC Theatres","ticketType":"STANDARD"},{"id":"600","name":"University Mall Theatres","address":"10659 Braddock Road","city":"Fairfax","state":"VA","zip":"22032","distance":"13.893835067749023","lon":"-77.314362","lat":"38.825050","theaterChainName":"Independent Chains","ticketType":"STANDARD"},{"id":"2025","name":"Kentlands Stadium 10","address":"629 Centerpoint Way","city":"Gaithersburg","state":"MD","zip":"20878","distance":"14.460688591003418","lon":"-77.234222","lat":"39.121601","theaterChainName":"Independent Chains","ticketType":"STANDARD"},{"id":"3657","name":"Fairfax Corner 14","address":"11900 Palace Way","city":"Fairfax","state":"VA","zip":"22030","distance":"10.72166919708252","lon":"-77.356728","lat":"38.859043","theaterChainName":"Cinemark","ticketType":"STANDARD"},{"id":"277","name":"Bow Tie Cinemas Reston Town Center 13","address":"11940 Market St","city":"Reston","state":"VA","zip":"20190","distance":"5.570337772369385","lon":"-77.358101","lat":"38.958847","theaterChainName":"Bow-Tie Cinemas","ticketType":"STANDARD"},{"id":"503","name":"Regal Fairfax Town Center","address":"4110 W Ox Road","city":"Fairfax","state":"VA","zip":"22033","distance":"9.952071189880371","lon":"-77.367279","lat":"38.867344","theaterChainName":"Regal Cinemas","ticketType":"STANDARD"},{"id":"5345","name":"AMC Worldgate 9","address":"13025 Worldgate Dr.","city":"Herndon","state":"VA","zip":"20170","distance":"3.7966766357421875","lon":"-77.399696","lat":"38.957600","theaterChainName":"AMC Theatres","ticketType":"STANDARD"},{"id":"278","name":"Rave Motion Pictures Centreville 12","address":"6201 Multiplex Dr","city":"Centreville","state":"VA","zip":"20121","distance":"11.482425689697266","lon":"-77.437698","lat":"38.830299","theaterChainName":"Cinemark","ticketType":"STANDARD"},{"id":"501","name":"Regal Countryside Stadium 20","address":"45980 Regal Plaza","city":"Sterling","state":"VA","zip":"20165","distance":"3.5854671001434326","lon":"-77.409012","lat":"39.037170","theaterChainName":"Regal Cinemas","ticketType":"STANDARD"},{"id":"5546","name":"Dulles Town Center St. 10","address":"21010 Dulles Town Circle","city":"Sterling","state":"VA","zip":"20164","distance":"2.6678996086120605","lon":"-77.424202","lat":"39.029202","theaterChainName":"Regal Cinemas","ticketType":"STANDARD"},{"id":"5704","name":"Starplex Loudoun Station Luxury Cinemas 11","address":"43751 Central Station Drive","city":"Ashburn","state":"VA","zip":"20147","distance":"2.1420137882232666","lon":"-77.487617","lat":"39.006508","theaterChainName":"AMC Theatres","ticketType":"STANDARD"},{"id":"5321","name":"Alamo Drafthouse Loudoun","address":"20575 E. Hampton Plaza","city":"Ashburn","state":"VA","zip":"20147","distance":"3.8904128074645996","lon":"-77.454422","lat":"39.052399","theaterChainName":"Alamo Drafthouse","ticketType":"STANDARD"},{"id":"599","name":"Manassas Cinemas","address":"8890 Mathis Ave.","city":"Manassas","state":"VA","zip":"20110","distance":"16.173269271850586","lon":"-77.463013","lat":"38.762356","theaterChainName":"Independent Chains","ticketType":"STANDARD"},{"id":"4381","name":"Fox Stadium 16 & IMAX","address":"22875 Brambleton Plaza","city":"Ashburn","state":"VA","zip":"20148","distance":"4.762579917907715","lon":"-77.537361","lat":"38.984379","theaterChainName":"Regal Cinemas","ticketType":"STANDARD"},{"id":"2481","name":"Regal Manassas Stadium 14 & IMAX","address":"11380 Bulloch Dr","city":"Manassas","state":"VA","zip":"20109","distance":"14.08804988861084","lon":"-77.529930","lat":"38.802036","theaterChainName":"Regal Cinemas","ticketType":"STANDARD"},{"id":"5063","name":"Cobb Village 12 Cinemas","address":"1600 Village Market Blvd.","city":"Leesburg","state":"VA","zip":"20175","distance":"7.726377010345459","lon":"-77.526794","lat":"39.090782","theaterChainName":"Cobb Theatres","ticketType":"STANDARD"},{"id":"3515","name":"Regal Germantown Stadium 14","address":"20000 Century Blvd.","city":"Germantown","state":"MD","zip":"20874","distance":"16.457670211791992","lon":"-77.261620","lat":"39.184223","theaterChainName":"Regal Cinemas","ticketType":"STANDARD"},{"id":"5394","name":"Regal Virginia Gateway Stadium 16 & RPX","address":"8001 Gateway Promenade Place","city":"Gainesville","state":"VA","zip":"20155","distance":"16.232769012451172","lon":"-77.616798","lat":"38.800400","theaterChainName":"Regal Cinemas","ticketType":"STANDARD"}]