[{"id":"4381","tribuneTheaterId":"9423","providerTheaterId":"","name":"Fox Stadium 16 & IMAX","address":"22875 Brambleton Plaza","city":"Ashburn","state":"VA","zip":"20148","distance":4.0168058140048,"lon":"-77.537361","lat":"38.984377","theaterChainName":"Regal Cinemas","ticketType":"STANDARD"},{"id":"5704","tribuneTheaterId":"11141","providerTheaterId":"","name":"Starplex Loudoun Station Luxury Cinemas 11","address":"43751 Central Station Drive","city":"Ashburn","state":"VA","zip":"20147","distance":7.0928624933932,"lon":"-77.48762","lat":"39.006507","theaterChainName":"AMC Theatres","ticketType":"STANDARD"},{"id":"5321","tribuneTheaterId":"10758","providerTheaterId":"","name":"Alamo Drafthouse Loudoun","address":"20575 E. Hampton Plaza","city":"Ashburn","state":"VA","zip":"20147","distance":10.350577210754,"lon":"-77.454425","lat":"39.052398","theaterChainName":"Alamo Drafthouse","ticketType":"STANDARD"},{"id":"501","tribuneTheaterId":"7566","providerTheaterId":"","name":"Regal Countryside Stadium 20","address":"45980 Regal Plaza","city":"Sterling","state":"VA","zip":"20165","distance":11.813201819411,"lon":"-77.409014","lat":"39.037171","theaterChainName":"Regal Cinemas","ticketType":"STANDARD"},{"id":"5546","tribuneTheaterId":"10987","providerTheaterId":"","name":"Dulles Town Center St. 10","address":"21010 Dulles Town Circle","city":"Sterling","state":"VA","zip":"20164","distance":10.836230994105,"lon":"-77.4242","lat":"39.0292","theaterChainName":"Regal Cinemas","ticketType":"STANDARD"},{"id":"5345","tribuneTheaterId":"10783","providerTheaterId":"367","name":"AMC Worldgate 9","address":"13025 Worldgate Dr.","city":"Herndon","state":"VA","zip":"20170","distance":10.965824677888,"lon":"-77.3997","lat":"38.9576","theaterChainName":"AMC Theatres","ticketType":"STANDARD"},{"id":"5063","tribuneTheaterId":"10446","providerTheaterId":"","name":"Cobb Village 12 Cinemas","address":"1600 Village Market Blvd.","city":"Leesburg","state":"VA","zip":"20175","distance":10.081518148491,"lon":"-77.526795","lat":"39.090784","theaterChainName":"Cobb Theatres","ticketType":"STANDARD"},{"id":"2481","tribuneTheaterId":"5666","providerTheaterId":"","name":"Regal Manassas Stadium 14 & IMAX","address":"11380 Bulloch Dr","city":"Manassas","state":"VA","zip":"20109","distance":11.465691464081,"lon":"-77.529927","lat":"38.802038","theaterChainName":"Regal Cinemas","ticketType":"STANDARD"},{"id":"5394","tribuneTheaterId":"10831","providerTheaterId":"","name":"Regal Virginia Gateway Stadium 16 & RPX","address":"8001 Gateway Promenade Place","city":"Gainesville","state":"VA","zip":"20155","distance":10.890846428285,"lon":"-77.6168","lat":"38.8004","theaterChainName":"Regal Cinemas","ticketType":"STANDARD"},{"id":"278","tribuneTheaterId":"9190","providerTheaterId":"","name":"Rave Motion Pictures Centreville 12","address":"6201 Multiplex Dr","city":"Centreville","state":"VA","zip":"20121","distance":12.54063544352,"lon":"-77.4377","lat":"38.8303","theaterChainName":"Cinemark","ticketType":"STANDARD"},{"id":"277","tribuneTheaterId":"9264","providerTheaterId":"","name":"Bow Tie Cinemas Reston Town Center 13","address":"11940 Market St","city":"Reston","state":"VA","zip":"20190","distance":13.200854236772,"lon":"-77.358103","lat":"38.958848","theaterChainName":"Bow-Tie Cinemas","ticketType":"STANDARD"},{"id":"503","tribuneTheaterId":"7139","providerTheaterId":"","name":"Regal Fairfax Town Center","address":"4110 W Ox Road","city":"Fairfax","state":"VA","zip":"22033","distance":14.16583788111,"lon":"-77.367276","lat":"38.867344","theaterChainName":"Regal Cinemas","ticketType":"STANDARD"},{"id":"3657","tribuneTheaterId":"5147","providerTheaterId":"","name":"Fairfax Corner 14","address":"11900 Palace Way","city":"Fairfax","state":"VA","zip":"22030","distance":14.930508486705,"lon":"-77.356731","lat":"38.859044","theaterChainName":"Cinemark","ticketType":"STANDARD"},{"id":"599","tribuneTheaterId":"6735","providerTheaterId":"","name":"Manassas Cinemas","address":"8890 Mathis Ave.","city":"Manassas","state":"VA","zip":"20110","distance":15.477116727718,"lon":"-77.463014","lat":"38.762356","theaterChainName":"Independent Chains","ticketType":"STANDARD"},{"id":"600","tribuneTheaterId":"6459","providerTheaterId":"","name":"University Mall Theatres","address":"10659 Braddock Road","city":"Fairfax","state":"VA","zip":"22032","distance":18.063316099799,"lon":"-77.314361","lat":"38.82505","theaterChainName":"Independent Chains","ticketType":"STANDARD"},{"id":"2670","tribuneTheaterId":"6528","providerTheaterId":"","name":"Cinema Arts Theatre","address":"9650 Main St","city":"Fairfax","state":"VA","zip":"22031","distance":19.369887712572,"lon":"-77.2758","lat":"38.8418","theaterChainName":"Independent Chains","ticketType":"STANDARD"},{"id":"5222","tribuneTheaterId":"10646","providerTheaterId":"","name":"Angelika Film Center-Mosaic","address":"2911 District Avenue","city":"Fairfax","state":"VA","zip":"22031","distance":20.976751762515,"lon":"-77.229466","lat":"38.872027","theaterChainName":"Reading International, Inc","ticketType":"STANDARD"},{"id":"4108","tribuneTheaterId":"9046","providerTheaterId":"366","name":"AMC Tysons Corner 16","address":"7850 Tysons Corner Center","city":"West McLean","state":"VA","zip":"22102","distance":20.867174410314,"lon":"-77.218936","lat":"38.917734","theaterChainName":"AMC Theatres","ticketType":"STANDARD"},{"id":"2025","tribuneTheaterId":"3153","providerTheaterId":"","name":"Kentlands Stadium 10","address":"629 Centerpoint Way","city":"Gaithersburg","state":"MD","zip":"20878","distance":22.838674050792,"lon":"-77.234225","lat":"39.1216","theaterChainName":"Independent Chains","ticketType":"STANDARD"},{"id":"201","tribuneTheaterId":"9086","providerTheaterId":"2777","name":"AMC Loews Rio Cinemas 18","address":"9811 Washingtonian Blvd","city":"Gaithersburg","state":"MD","zip":"20878","distance":24.399055214901,"lon":"-77.197527","lat":"39.11619","theaterChainName":"AMC Theatres","ticketType":"STANDARD"},{"id":"3515","tribuneTheaterId":"8202","providerTheaterId":"","name":"Regal Germantown Stadium 14","address":"20000 Century Blvd.","city":"Germantown","state":"MD","zip":"20874","distance":24.121932304458,"lon":"-77.261623","lat":"39.184225","theaterChainName":"Regal Cinemas","ticketType":"STANDARD"}]