[{"id":"3657","name":"Fairfax Corner 14","address":"11900 Palace Way","city":"Fairfax","state":"VA","zip":"22030","distance":"24.252933502197266","lon":"-77.356728","lat":"38.859043","theaterChainName":"Cinemark","ticketType":"STANDARD"},{"id":"277","name":"Bow Tie Cinemas Reston Town Center 13","address":"11940 Market St","city":"Reston","state":"VA","zip":"20190","distance":"22.144222259521484","lon":"-77.358101","lat":"38.958847","theaterChainName":"Bow-Tie Cinemas","ticketType":"STANDARD"},{"id":"503","name":"Regal Fairfax Town Center","address":"4110 W Ox Road","city":"Fairfax","state":"VA","zip":"22033","distance":"23.496959686279297","lon":"-77.367279","lat":"38.867344","theaterChainName":"Regal Cinemas","ticketType":"STANDARD"},{"id":"5345","name":"AMC Worldgate 9","address":"13025 Worldgate Dr.","city":"Herndon","state":"VA","zip":"20170","distance":"19.9537296295166","lon":"-77.399696","lat":"38.957600","theaterChainName":"AMC Theatres","ticketType":"STANDARD"},{"id":"278","name":"Rave Motion Pictures Centreville 12","address":"6201 Multiplex Dr","city":"Centreville","state":"VA","zip":"20121","distance":"21.463272094726562","lon":"-77.437698","lat":"38.830299","theaterChainName":"Cinemark","ticketType":"STANDARD"},{"id":"501","name":"Regal Countryside Stadium 20","address":"45980 Regal Plaza","city":"Sterling","state":"VA","zip":"20165","distance":"19.251924514770508","lon":"-77.409012","lat":"39.037170","theaterChainName":"Regal Cinemas","ticketType":"STANDARD"},{"id":"5546","name":"Dulles Town Center St. 10","address":"21010 Dulles Town Circle","city":"Sterling","state":"VA","zip":"20164","distance":"18.38928985595703","lon":"-77.424202","lat":"39.029202","theaterChainName":"Regal Cinemas","ticketType":"STANDARD"},{"id":"5704","name":"Starplex Loudoun Station Luxury Cinemas 11","address":"43751 Central Station Drive","city":"Ashburn","state":"VA","zip":"20147","distance":"14.92614459991455","lon":"-77.487617","lat":"39.006508","theaterChainName":"AMC Theatres","ticketType":"STANDARD"},{"id":"5321","name":"Alamo Drafthouse Loudoun","address":"20575 E. Hampton Plaza","city":"Ashburn","state":"VA","zip":"20147","distance":"16.98862648010254","lon":"-77.454422","lat":"39.052399","theaterChainName":"Alamo Drafthouse","ticketType":"STANDARD"},{"id":"599","name":"Manassas Cinemas","address":"8890 Mathis Ave.","city":"Manassas","state":"VA","zip":"20110","distance":"23.490478515625","lon":"-77.463013","lat":"38.762356","theaterChainName":"Independent Chains","ticketType":"STANDARD"},{"id":"4381","name":"Fox Stadium 16 & IMAX","address":"22875 Brambleton Plaza","city":"Ashburn","state":"VA","zip":"20148","distance":"12.360669136047363","lon":"-77.537361","lat":"38.984379","theaterChainName":"Regal Cinemas","ticketType":"STANDARD"},{"id":"2481","name":"Regal Manassas Stadium 14 & IMAX","address":"11380 Bulloch Dr","city":"Manassas","state":"VA","zip":"20109","distance":"19.030061721801758","lon":"-77.529930","lat":"38.802036","theaterChainName":"Regal Cinemas","ticketType":"STANDARD"},{"id":"5063","name":"Cobb Village 12 Cinemas","address":"1600 Village Market Blvd.","city":"Leesburg","state":"VA","zip":"20175","distance":"14.047581672668457","lon":"-77.526794","lat":"39.090782","theaterChainName":"Cobb Theatres","ticketType":"STANDARD"},{"id":"5394","name":"Regal Virginia Gateway Stadium 16 & RPX","address":"8001 Gateway Promenade Place","city":"Gainesville","state":"VA","zip":"20155","distance":"16.39517593383789","lon":"-77.616798","lat":"38.800400","theaterChainName":"Regal Cinemas","ticketType":"STANDARD"},{"id":"1917","name":"Royal Cinemas","address":"117 E. Main St.","city":"Front Royal","state":"VA","zip":"22630","distance":"23.75275993347168","lon":"-78.192383","lat":"38.917793","theaterChainName":"Independent Chains","ticketType":"STANDARD"},{"id":"5354","name":"Apple Blossom 12","address":"1850 Apple Blossom Drive","city":"Winchester","state":"VA","zip":"22601","distance":"23.88330841064453","lon":"-78.163101","lat":"39.163300","theaterChainName":"Carmike Cinemas","ticketType":"STANDARD"},{"id":"4844","name":"Alamo Winchester","address":"181 Kerstown Commons Blvd.","city":"Winchester","state":"VA","zip":"22602","distance":"24.304105758666992","lon":"-78.194901","lat":"39.119801","theaterChainName":"Alamo Drafthouse","ticketType":"STANDARD"}]