[{"id":"600","name":"University Mall Theatres","address":"10659 Braddock Road","city":"Fairfax","state":"VA","zip":"22032","distance":"24.03913688659668","lon":"-77.314362","lat":"38.825050","theaterChainName":"Independent Chains","ticketType":"STANDARD"},{"id":"3657","name":"Fairfax Corner 14","address":"11900 Palace Way","city":"Fairfax","state":"VA","zip":"22030","distance":"23.639436721801758","lon":"-77.356728","lat":"38.859043","theaterChainName":"Cinemark","ticketType":"STANDARD"},{"id":"503","name":"Regal Fairfax Town Center","address":"4110 W Ox Road","city":"Fairfax","state":"VA","zip":"22033","distance":"23.602100372314453","lon":"-77.367279","lat":"38.867344","theaterChainName":"Regal Cinemas","ticketType":"STANDARD"},{"id":"371","name":"AMC Potomac Mills 18","address":"2700 Potomac Mills Circle","city":"Woodbridge","state":"VA","zip":"22192","distance":"21.03165054321289","lon":"-77.297379","lat":"38.642384","theaterChainName":"AMC Theatres","ticketType":"STANDARD"},{"id":"278","name":"Rave Motion Pictures Centreville 12","address":"6201 Multiplex Dr","city":"Centreville","state":"VA","zip":"20121","distance":"19.09910011291504","lon":"-77.437698","lat":"38.830299","theaterChainName":"Cinemark","ticketType":"STANDARD"},{"id":"599","name":"Manassas Cinemas","address":"8890 Mathis Ave.","city":"Manassas","state":"VA","zip":"20110","distance":"14.9891357421875","lon":"-77.463013","lat":"38.762356","theaterChainName":"Independent Chains","ticketType":"STANDARD"},{"id":"2481","name":"Regal Manassas Stadium 14 & IMAX","address":"11380 Bulloch Dr","city":"Manassas","state":"VA","zip":"20109","distance":"14.378683090209961","lon":"-77.529930","lat":"38.802036","theaterChainName":"Regal Cinemas","ticketType":"STANDARD"},{"id":"5394","name":"Regal Virginia Gateway Stadium 16 & RPX","address":"8001 Gateway Promenade Place","city":"Gainesville","state":"VA","zip":"20155","distance":"12.116093635559082","lon":"-77.616798","lat":"38.800400","theaterChainName":"Regal Cinemas","ticketType":"STANDARD"},{"id":"3229","name":"Regal Culpeper Stadium 4","address":"210 S. Main St.","city":"Culpeper","state":"VA","zip":"22701","distance":"20.105863571166992","lon":"-77.996475","lat":"38.472382","theaterChainName":"Regal Cinemas","ticketType":"STANDARD"},{"id":"670","name":"Regal Aquia 10","address":"2850 Jefferson Davis Hwy","city":"Stafford","state":"VA","zip":"22554","distance":"19.503639221191406","lon":"-77.400909","lat":"38.461624","theaterChainName":"Regal Cinemas","ticketType":"STANDARD"}]