[{"id":"5063","tribuneTheaterId":"10446","providerTheaterId":"","name":"Cobb Village 12 Cinemas","address":"1600 Village Market Blvd.","city":"Leesburg","state":"VA","zip":"20175","distance":11.70181950162,"lon":"-77.526795","lat":"39.090784","theaterChainName":"Cobb Theatres","ticketType":"STANDARD"},{"id":"4381","tribuneTheaterId":"9423","providerTheaterId":"","name":"Fox Stadium 16 & IMAX","address":"22875 Brambleton Plaza","city":"Ashburn","state":"VA","zip":"20148","distance":15.249159696925,"lon":"-77.537361","lat":"38.984377","theaterChainName":"Regal Cinemas","ticketType":"STANDARD"},{"id":"5321","tribuneTheaterId":"10758","providerTheaterId":"","name":"Alamo Drafthouse Loudoun","address":"20575 E. Hampton Plaza","city":"Ashburn","state":"VA","zip":"20147","distance":16.271554392806,"lon":"-77.454425","lat":"39.052398","theaterChainName":"Alamo Drafthouse","ticketType":"STANDARD"},{"id":"5704","tribuneTheaterId":"11141","providerTheaterId":"","name":"Starplex Loudoun Station Luxury Cinemas 11","address":"43751 Central Station Drive","city":"Ashburn","state":"VA","zip":"20147","distance":16.268212754313,"lon":"-77.48762","lat":"39.006507","theaterChainName":"AMC Theatres","ticketType":"STANDARD"},{"id":"501","tribuneTheaterId":"7566","providerTheaterId":"","name":"Regal Countryside Stadium 20","address":"45980 Regal Plaza","city":"Sterling","state":"VA","zip":"20165","distance":18.925721244837,"lon":"-77.409014","lat":"39.037171","theaterChainName":"Regal Cinemas","ticketType":"STANDARD"},{"id":"5546","tribuneTheaterId":"10987","providerTheaterId":"","name":"Dulles Town Center St. 10","address":"21010 Dulles Town Circle","city":"Sterling","state":"VA","zip":"20164","distance":18.408614821757,"lon":"-77.4242","lat":"39.0292","theaterChainName":"Regal Cinemas","ticketType":"STANDARD"},{"id":"5345","tribuneTheaterId":"10783","providerTheaterId":"367","name":"AMC Worldgate 9","address":"13025 Worldgate Dr.","city":"Herndon","state":"VA","zip":"20170","distance":22.074833933403,"lon":"-77.3997","lat":"38.9576","theaterChainName":"AMC Theatres","ticketType":"STANDARD"},{"id":"5354","tribuneTheaterId":"10791","providerTheaterId":"","name":"Apple Blossom 12","address":"1850 Apple Blossom Drive","city":"Winchester","state":"VA","zip":"22601","distance":23.020259475708,"lon":"-78.1631","lat":"39.1633","theaterChainName":"Carmike Cinemas","ticketType":"STANDARD"},{"id":"4844","tribuneTheaterId":"10124","providerTheaterId":"","name":"Alamo Winchester","address":"181 Kerstown Commons Blvd.","city":"Winchester","state":"VA","zip":"22602","distance":24.746113923678,"lon":"-78.1949","lat":"39.1198","theaterChainName":"Alamo Drafthouse","ticketType":"STANDARD"},{"id":"5394","tribuneTheaterId":"10831","providerTheaterId":"","name":"Regal Virginia Gateway Stadium 16 & RPX","address":"8001 Gateway Promenade Place","city":"Gainesville","state":"VA","zip":"20155","distance":24.537067085847,"lon":"-77.6168","lat":"38.8004","theaterChainName":"Regal Cinemas","ticketType":"STANDARD"},{"id":"277","tribuneTheaterId":"9264","providerTheaterId":"","name":"Bow Tie Cinemas Reston Town Center 13","address":"11940 Market St","city":"Reston","state":"VA","zip":"20190","distance":23.878525787277,"lon":"-77.358103","lat":"38.958848","theaterChainName":"Bow-Tie Cinemas","ticketType":"STANDARD"},{"id":"3579","tribuneTheaterId":"4665","providerTheaterId":"","name":"Westview Stadium 16 & IMAX","address":"5243 Buckeystown Pike","city":"Frederick","state":"MD","zip":"21704","distance":23.423287770651,"lon":"-77.413058","lat":"39.374027","theaterChainName":"Regal Cinemas","ticketType":"STANDARD"},{"id":"1845","tribuneTheaterId":"5662","providerTheaterId":"","name":"Regal Martinsburg Stadium 10","address":"950 Foxcroft Ave.","city":"Martinsburg","state":"WV","zip":"25401","distance":24.888724556979,"lon":"-77.984938","lat":"39.447088","theaterChainName":"Regal Cinemas","ticketType":"STANDARD"}]