[{"id":"5394","tribuneTheaterId":"10831","providerTheaterId":"","name":"Regal Virginia Gateway Stadium 16 & RPX","address":"8001 Gateway Promenade Place","city":"Gainesville","state":"VA","zip":"20155","distance":12.115408949707,"lon":"-77.6168","lat":"38.8004","theaterChainName":"Regal Cinemas","ticketType":"STANDARD"},{"id":"599","tribuneTheaterId":"6735","providerTheaterId":"","name":"Manassas Cinemas","address":"8890 Mathis Ave.","city":"Manassas","state":"VA","zip":"20110","distance":14.988296712992,"lon":"-77.463014","lat":"38.762356","theaterChainName":"Independent Chains","ticketType":"STANDARD"},{"id":"2481","tribuneTheaterId":"5666","providerTheaterId":"","name":"Regal Manassas Stadium 14 & IMAX","address":"11380 Bulloch Dr","city":"Manassas","state":"VA","zip":"20109","distance":14.378100720079,"lon":"-77.529927","lat":"38.802038","theaterChainName":"Regal Cinemas","ticketType":"STANDARD"},{"id":"670","tribuneTheaterId":"8504","providerTheaterId":"","name":"Regal Aquia 10","address":"2850 Jefferson Davis Hwy","city":"Stafford","state":"VA","zip":"22554","distance":19.502549900709,"lon":"-77.400908","lat":"38.461625","theaterChainName":"Regal Cinemas","ticketType":"STANDARD"},{"id":"278","tribuneTheaterId":"9190","providerTheaterId":"","name":"Rave Motion Pictures Centreville 12","address":"6201 Multiplex Dr","city":"Centreville","state":"VA","zip":"20121","distance":19.098012592851,"lon":"-77.4377","lat":"38.8303","theaterChainName":"Cinemark","ticketType":"STANDARD"},{"id":"3229","tribuneTheaterId":"4640","providerTheaterId":"","name":"Regal Culpeper Stadium 4","address":"210 S. Main St.","city":"Culpeper","state":"VA","zip":"22701","distance":20.104412373641,"lon":"-77.996475","lat":"38.472383","theaterChainName":"Regal Cinemas","ticketType":"STANDARD"},{"id":"371","tribuneTheaterId":"5314","providerTheaterId":"364","name":"AMC Potomac Mills 18","address":"2700 Potomac Mills Circle","city":"Woodbridge","state":"VA","zip":"22192","distance":21.030414658464,"lon":"-77.29738","lat":"38.642383","theaterChainName":"AMC Theatres","ticketType":"STANDARD"},{"id":"3657","tribuneTheaterId":"5147","providerTheaterId":"","name":"Fairfax Corner 14","address":"11900 Palace Way","city":"Fairfax","state":"VA","zip":"22030","distance":23.638007281015,"lon":"-77.356731","lat":"38.859044","theaterChainName":"Cinemark","ticketType":"STANDARD"},{"id":"503","tribuneTheaterId":"7139","providerTheaterId":"","name":"Regal Fairfax Town Center","address":"4110 W Ox Road","city":"Fairfax","state":"VA","zip":"22033","distance":23.600892848013,"lon":"-77.367276","lat":"38.867344","theaterChainName":"Regal Cinemas","ticketType":"STANDARD"},{"id":"600","tribuneTheaterId":"6459","providerTheaterId":"","name":"University Mall Theatres","address":"10659 Braddock Road","city":"Fairfax","state":"VA","zip":"22032","distance":24.037801469893,"lon":"-77.314361","lat":"38.82505","theaterChainName":"Independent Chains","ticketType":"STANDARD"}]