[{"id":"1917","tribuneTheaterId":"1484","providerTheaterId":"","name":"Royal Cinemas","address":"117 E. Main St.","city":"Front Royal","state":"VA","zip":"22630","distance":12.103268934928,"lon":"-78.192379","lat":"38.917793","theaterChainName":"Independent Chains","ticketType":"STANDARD"},{"id":"4844","tribuneTheaterId":"10124","providerTheaterId":"","name":"Alamo Winchester","address":"181 Kerstown Commons Blvd.","city":"Winchester","state":"VA","zip":"22602","distance":18.886231954651,"lon":"-78.1949","lat":"39.1198","theaterChainName":"Alamo Drafthouse","ticketType":"STANDARD"},{"id":"5354","tribuneTheaterId":"10791","providerTheaterId":"","name":"Apple Blossom 12","address":"1850 Apple Blossom Drive","city":"Winchester","state":"VA","zip":"22601","distance":20.333876821069,"lon":"-78.1631","lat":"39.1633","theaterChainName":"Carmike Cinemas","ticketType":"STANDARD"},{"id":"5394","tribuneTheaterId":"10831","providerTheaterId":"","name":"Regal Virginia Gateway Stadium 16 & RPX","address":"8001 Gateway Promenade Place","city":"Gainesville","state":"VA","zip":"20155","distance":20.360783835871,"lon":"-77.6168","lat":"38.8004","theaterChainName":"Regal Cinemas","ticketType":"STANDARD"},{"id":"4381","tribuneTheaterId":"9423","providerTheaterId":"","name":"Fox Stadium 16 & IMAX","address":"22875 Brambleton Plaza","city":"Ashburn","state":"VA","zip":"20148","distance":23.653367354102,"lon":"-77.537361","lat":"38.984377","theaterChainName":"Regal Cinemas","ticketType":"STANDARD"},{"id":"2481","tribuneTheaterId":"5666","providerTheaterId":"","name":"Regal Manassas Stadium 14 & IMAX","address":"11380 Bulloch Dr","city":"Manassas","state":"VA","zip":"20109","distance":24.718853435866,"lon":"-77.529927","lat":"38.802038","theaterChainName":"Regal Cinemas","ticketType":"STANDARD"}]