[{"id":"4108","name":"AMC Tysons Corner 16","address":"7850 Tysons Corner Center","city":"West McLean","state":"VA","zip":"22102","distance":"22.464515686035156","lon":"-77.218933","lat":"38.917732","theaterChainName":"AMC Theatres","ticketType":"STANDARD"},{"id":"5222","name":"Angelika Film Center-Mosaic","address":"2911 District Avenue","city":"Fairfax","state":"VA","zip":"22031","distance":"23.365520477294922","lon":"-77.229469","lat":"38.872028","theaterChainName":"Reading International, Inc","ticketType":"STANDARD"},{"id":"1458","name":"Regal Rockville Center Stadium 13","address":"199 E. Montgomery Ave.","city":"Rockville","state":"MD","zip":"20850","distance":"24.608192443847656","lon":"-77.149925","lat":"39.083973","theaterChainName":"Regal Cinemas","ticketType":"STANDARD"},{"id":"2670","name":"Cinema Arts Theatre","address":"9650 Main St","city":"Fairfax","state":"VA","zip":"22031","distance":"22.475053787231445","lon":"-77.275803","lat":"38.841801","theaterChainName":"Independent Chains","ticketType":"STANDARD"},{"id":"201","name":"AMC Loews Rio Cinemas 18","address":"9811 Washingtonian Blvd","city":"Gaithersburg","state":"MD","zip":"20878","distance":"22.470518112182617","lon":"-77.197525","lat":"39.116192","theaterChainName":"AMC Theatres","ticketType":"STANDARD"},{"id":"600","name":"University Mall Theatres","address":"10659 Braddock Road","city":"Fairfax","state":"VA","zip":"22032","distance":"21.666259765625","lon":"-77.314362","lat":"38.825050","theaterChainName":"Independent Chains","ticketType":"STANDARD"},{"id":"2025","name":"Kentlands Stadium 10","address":"629 Centerpoint Way","city":"Gaithersburg","state":"MD","zip":"20878","distance":"20.654571533203125","lon":"-77.234222","lat":"39.121601","theaterChainName":"Independent Chains","ticketType":"STANDARD"},{"id":"3657","name":"Fairfax Corner 14","address":"11900 Palace Way","city":"Fairfax","state":"VA","zip":"22030","distance":"18.39510726928711","lon":"-77.356728","lat":"38.859043","theaterChainName":"Cinemark","ticketType":"STANDARD"},{"id":"277","name":"Bow Tie Cinemas Reston Town Center 13","address":"11940 Market St","city":"Reston","state":"VA","zip":"20190","distance":"14.469298362731934","lon":"-77.358101","lat":"38.958847","theaterChainName":"Bow-Tie Cinemas","ticketType":"STANDARD"},{"id":"503","name":"Regal Fairfax Town Center","address":"4110 W Ox Road","city":"Fairfax","state":"VA","zip":"22033","distance":"17.588523864746094","lon":"-77.367279","lat":"38.867344","theaterChainName":"Regal Cinemas","ticketType":"STANDARD"},{"id":"5345","name":"AMC Worldgate 9","address":"13025 Worldgate Dr.","city":"Herndon","state":"VA","zip":"20170","distance":"12.491061210632324","lon":"-77.399696","lat":"38.957600","theaterChainName":"AMC Theatres","ticketType":"STANDARD"},{"id":"278","name":"Rave Motion Pictures Centreville 12","address":"6201 Multiplex Dr","city":"Centreville","state":"VA","zip":"20121","distance":"17.182004928588867","lon":"-77.437698","lat":"38.830299","theaterChainName":"Cinemark","ticketType":"STANDARD"},{"id":"501","name":"Regal Countryside Stadium 20","address":"45980 Regal Plaza","city":"Sterling","state":"VA","zip":"20165","distance":"10.545210838317871","lon":"-77.409012","lat":"39.037170","theaterChainName":"Regal Cinemas","ticketType":"STANDARD"},{"id":"5546","name":"Dulles Town Center St. 10","address":"21010 Dulles Town Circle","city":"Sterling","state":"VA","zip":"20164","distance":"9.765366554260254","lon":"-77.424202","lat":"39.029202","theaterChainName":"Regal Cinemas","ticketType":"STANDARD"},{"id":"5704","name":"Starplex Loudoun Station Luxury Cinemas 11","address":"43751 Central Station Drive","city":"Ashburn","state":"VA","zip":"20147","distance":"6.781586647033691","lon":"-77.487617","lat":"39.006508","theaterChainName":"AMC Theatres","ticketType":"STANDARD"},{"id":"5321","name":"Alamo Drafthouse Loudoun","address":"20575 E. Hampton Plaza","city":"Ashburn","state":"VA","zip":"20147","distance":"8.133746147155762","lon":"-77.454422","lat":"39.052399","theaterChainName":"Alamo Drafthouse","ticketType":"STANDARD"},{"id":"599","name":"Manassas Cinemas","address":"8890 Mathis Ave.","city":"Manassas","state":"VA","zip":"20110","distance":"20.784393310546875","lon":"-77.463013","lat":"38.762356","theaterChainName":"Independent Chains","ticketType":"STANDARD"},{"id":"4381","name":"Fox Stadium 16 & IMAX","address":"22875 Brambleton Plaza","city":"Ashburn","state":"VA","zip":"20148","distance":"5.403337478637695","lon":"-77.537361","lat":"38.984379","theaterChainName":"Regal Cinemas","ticketType":"STANDARD"},{"id":"2481","name":"Regal Manassas Stadium 14 & IMAX","address":"11380 Bulloch Dr","city":"Manassas","state":"VA","zip":"20109","distance":"17.070043563842773","lon":"-77.529930","lat":"38.802036","theaterChainName":"Regal Cinemas","ticketType":"STANDARD"},{"id":"5063","name":"Cobb Village 12 Cinemas","address":"1600 Village Market Blvd.","city":"Leesburg","state":"VA","zip":"20175","distance":"5.398667812347412","lon":"-77.526794","lat":"39.090782","theaterChainName":"Cobb Theatres","ticketType":"STANDARD"},{"id":"3515","name":"Regal Germantown Stadium 14","address":"20000 Century Blvd.","city":"Germantown","state":"MD","zip":"20874","distance":"20.887311935424805","lon":"-77.261620","lat":"39.184223","theaterChainName":"Regal Cinemas","ticketType":"STANDARD"},{"id":"5394","name":"Regal Virginia Gateway Stadium 16 & RPX","address":"8001 Gateway Promenade Place","city":"Gainesville","state":"VA","zip":"20155","distance":"16.70522117614746","lon":"-77.616798","lat":"38.800400","theaterChainName":"Regal Cinemas","ticketType":"STANDARD"}]