[{"id":"5394","tribuneTheaterId":"10831","providerTheaterId":"","name":"Regal Virginia Gateway Stadium 16 & RPX","address":"8001 Gateway Promenade Place","city":"Gainesville","state":"VA","zip":"20155","distance":11.221120105939,"lon":"-77.6168","lat":"38.8004","theaterChainName":"Regal Cinemas","ticketType":"STANDARD"},{"id":"2481","tribuneTheaterId":"5666","providerTheaterId":"","name":"Regal Manassas Stadium 14 & IMAX","address":"11380 Bulloch Dr","city":"Manassas","state":"VA","zip":"20109","distance":15.840615406105,"lon":"-77.529927","lat":"38.802038","theaterChainName":"Regal Cinemas","ticketType":"STANDARD"},{"id":"599","tribuneTheaterId":"6735","providerTheaterId":"","name":"Manassas Cinemas","address":"8890 Mathis Ave.","city":"Manassas","state":"VA","zip":"20110","distance":19.249805298421,"lon":"-77.463014","lat":"38.762356","theaterChainName":"Independent Chains","ticketType":"STANDARD"},{"id":"3229","tribuneTheaterId":"4640","providerTheaterId":"","name":"Regal Culpeper Stadium 4","address":"210 S. Main St.","city":"Culpeper","state":"VA","zip":"22701","distance":22.3805820004,"lon":"-77.996475","lat":"38.472383","theaterChainName":"Regal Cinemas","ticketType":"STANDARD"},{"id":"4381","tribuneTheaterId":"9423","providerTheaterId":"","name":"Fox Stadium 16 & IMAX","address":"22875 Brambleton Plaza","city":"Ashburn","state":"VA","zip":"20148","distance":21.450472241388,"lon":"-77.537361","lat":"38.984377","theaterChainName":"Regal Cinemas","ticketType":"STANDARD"},{"id":"278","tribuneTheaterId":"9190","providerTheaterId":"","name":"Rave Motion Pictures Centreville 12","address":"6201 Multiplex Dr","city":"Centreville","state":"VA","zip":"20121","distance":21.081860437156,"lon":"-77.4377","lat":"38.8303","theaterChainName":"Cinemark","ticketType":"STANDARD"},{"id":"1917","tribuneTheaterId":"1484","providerTheaterId":"","name":"Royal Cinemas","address":"117 E. Main St.","city":"Front Royal","state":"VA","zip":"22630","distance":22.6168144341,"lon":"-78.192379","lat":"38.917793","theaterChainName":"Independent Chains","ticketType":"STANDARD"},{"id":"5704","tribuneTheaterId":"11141","providerTheaterId":"","name":"Starplex Loudoun Station Luxury Cinemas 11","address":"43751 Central Station Drive","city":"Ashburn","state":"VA","zip":"20147","distance":24.437396517207,"lon":"-77.48762","lat":"39.006507","theaterChainName":"AMC Theatres","ticketType":"STANDARD"}]