[{"id":"4135","name":"Regal Kingstowne Stadium 16","address":"5910 Kingstowne Towne Center","city":"Alexandria","state":"VA","zip":"22315","distance":"24.60814094543457","lon":"-77.138329","lat":"38.772011","theaterChainName":"Regal Cinemas","ticketType":"STANDARD"},{"id":"5506","name":"Springfield Town Center 12","address":"6859 Springfield Town Center","city":"Springfield","state":"VA","zip":"22150","distance":"22.575647354125977","lon":"-77.177399","lat":"38.773800","theaterChainName":"Regal Cinemas","ticketType":"STANDARD"},{"id":"4108","name":"AMC Tysons Corner 16","address":"7850 Tysons Corner Center","city":"West McLean","state":"VA","zip":"22102","distance":"24.788251876831055","lon":"-77.218933","lat":"38.917732","theaterChainName":"AMC Theatres","ticketType":"STANDARD"},{"id":"5222","name":"Angelika Film Center-Mosaic","address":"2911 District Avenue","city":"Fairfax","state":"VA","zip":"22031","distance":"22.537799835205078","lon":"-77.229469","lat":"38.872028","theaterChainName":"Reading International, Inc","ticketType":"STANDARD"},{"id":"2670","name":"Cinema Arts Theatre","address":"9650 Main St","city":"Fairfax","state":"VA","zip":"22031","distance":"19.326242446899414","lon":"-77.275803","lat":"38.841801","theaterChainName":"Independent Chains","ticketType":"STANDARD"},{"id":"600","name":"University Mall Theatres","address":"10659 Braddock Road","city":"Fairfax","state":"VA","zip":"22032","distance":"16.9503173828125","lon":"-77.314362","lat":"38.825050","theaterChainName":"Independent Chains","ticketType":"STANDARD"},{"id":"3657","name":"Fairfax Corner 14","address":"11900 Palace Way","city":"Fairfax","state":"VA","zip":"22030","distance":"16.478044509887695","lon":"-77.356728","lat":"38.859043","theaterChainName":"Cinemark","ticketType":"STANDARD"},{"id":"277","name":"Bow Tie Cinemas Reston Town Center 13","address":"11940 Market St","city":"Reston","state":"VA","zip":"20190","distance":"21.627912521362305","lon":"-77.358101","lat":"38.958847","theaterChainName":"Bow-Tie Cinemas","ticketType":"STANDARD"},{"id":"503","name":"Regal Fairfax Town Center","address":"4110 W Ox Road","city":"Fairfax","state":"VA","zip":"22033","distance":"16.45225715637207","lon":"-77.367279","lat":"38.867344","theaterChainName":"Regal Cinemas","ticketType":"STANDARD"},{"id":"371","name":"AMC Potomac Mills 18","address":"2700 Potomac Mills Circle","city":"Woodbridge","state":"VA","zip":"22192","distance":"16.071155548095703","lon":"-77.297379","lat":"38.642384","theaterChainName":"AMC Theatres","ticketType":"STANDARD"},{"id":"5345","name":"AMC Worldgate 9","address":"13025 Worldgate Dr.","city":"Herndon","state":"VA","zip":"20170","distance":"20.368011474609375","lon":"-77.399696","lat":"38.957600","theaterChainName":"AMC Theatres","ticketType":"STANDARD"},{"id":"278","name":"Rave Motion Pictures Centreville 12","address":"6201 Multiplex Dr","city":"Centreville","state":"VA","zip":"20121","distance":"11.980216026306152","lon":"-77.437698","lat":"38.830299","theaterChainName":"Cinemark","ticketType":"STANDARD"},{"id":"5546","name":"Dulles Town Center St. 10","address":"21010 Dulles Town Circle","city":"Sterling","state":"VA","zip":"20164","distance":"24.291851043701172","lon":"-77.424202","lat":"39.029202","theaterChainName":"Regal Cinemas","ticketType":"STANDARD"},{"id":"5704","name":"Starplex Loudoun Station Luxury Cinemas 11","address":"43751 Central Station Drive","city":"Ashburn","state":"VA","zip":"20147","distance":"21.766265869140625","lon":"-77.487617","lat":"39.006508","theaterChainName":"AMC Theatres","ticketType":"STANDARD"},{"id":"599","name":"Manassas Cinemas","address":"8890 Mathis Ave.","city":"Manassas","state":"VA","zip":"20110","distance":"7.859094619750977","lon":"-77.463013","lat":"38.762356","theaterChainName":"Independent Chains","ticketType":"STANDARD"},{"id":"4381","name":"Fox Stadium 16 & IMAX","address":"22875 Brambleton Plaza","city":"Ashburn","state":"VA","zip":"20148","distance":"19.759639739990234","lon":"-77.537361","lat":"38.984379","theaterChainName":"Regal Cinemas","ticketType":"STANDARD"},{"id":"2481","name":"Regal Manassas Stadium 14 & IMAX","address":"11380 Bulloch Dr","city":"Manassas","state":"VA","zip":"20109","distance":"7.607032775878906","lon":"-77.529930","lat":"38.802036","theaterChainName":"Regal Cinemas","ticketType":"STANDARD"},{"id":"5394","name":"Regal Virginia Gateway Stadium 16 & RPX","address":"8001 Gateway Promenade Place","city":"Gainesville","state":"VA","zip":"20155","distance":"7.076405048370361","lon":"-77.616798","lat":"38.800400","theaterChainName":"Regal Cinemas","ticketType":"STANDARD"},{"id":"670","name":"Regal Aquia 10","address":"2850 Jefferson Davis Hwy","city":"Stafford","state":"VA","zip":"22554","distance":"19.312854766845703","lon":"-77.400909","lat":"38.461624","theaterChainName":"Regal Cinemas","ticketType":"STANDARD"}]