[{"id":"1606","name":"Regal Potomac Yard Stadium 16","address":"3575 Jefferson Davis Hwy.","city":"Alexandria","state":"VA","zip":"22305","distance":"23.089059829711914","lon":"-77.048126","lat":"38.837368","theaterChainName":"Regal Cinemas","ticketType":"STANDARD"},{"id":"204","name":"AMC Loews Shirlington 7","address":"2772 South Randolph St.","city":"Arlington","state":"VA","zip":"22206","distance":"24.436138153076172","lon":"-77.089104","lat":"38.841278","theaterChainName":"AMC Theatres","ticketType":"STANDARD"},{"id":"3225","name":"AMC Hoffman Center 22","address":"206 Swamp Fox Rd.","city":"Alexandria","state":"VA","zip":"22314","distance":"21.639835357666016","lon":"-77.070534","lat":"38.802380","theaterChainName":"AMC Theatres","ticketType":"STANDARD"},{"id":"5701","name":"AMC Rivertowne 12","address":"6075 Oxon Hill Rd.","city":"Oxon Hill","state":"MD","zip":"20745","distance":"19.472885131835938","lon":"-76.980103","lat":"38.804401","theaterChainName":"AMC Theatres","ticketType":"STANDARD"},{"id":"4701","name":"Marlow 6 Theatre","address":"3899 Branch Ave.","city":"Temple Hills","state":"MD","zip":"20748","distance":"20.94976043701172","lon":"-76.944862","lat":"38.835907","theaterChainName":"Phoenix Theatres","ticketType":"STANDARD"},{"id":"4135","name":"Regal Kingstowne Stadium 16","address":"5910 Kingstowne Towne Center","city":"Alexandria","state":"VA","zip":"22315","distance":"22.343610763549805","lon":"-77.138329","lat":"38.772011","theaterChainName":"Regal Cinemas","ticketType":"STANDARD"},{"id":"3887","name":"AMC Magic Johnson Capital Center 12","address":"800 Shoppers Way","city":"Largo","state":"MD","zip":"20774","distance":"23.842721939086914","lon":"-76.807297","lat":"38.886299","theaterChainName":"AMC Theatres","ticketType":"STANDARD"},{"id":"5506","name":"Springfield Town Center 12","address":"6859 Springfield Town Center","city":"Springfield","state":"VA","zip":"22150","distance":"23.958297729492188","lon":"-77.177399","lat":"38.773800","theaterChainName":"Regal Cinemas","ticketType":"STANDARD"},{"id":"5343","name":"Xscape 14","address":"7710 Matapeake Business Drive","city":"Brandywine","state":"MD","zip":"20613","distance":"9.240837097167969","lon":"-76.871498","lat":"38.674900","theaterChainName":"Independent Chains","ticketType":"STANDARD"},{"id":"203","name":"AMC Loews St. Charles Town Center 9","address":"11115 Mall Circle","city":"Waldorf","state":"MD","zip":"20601","distance":"6.938807964324951","lon":"-76.928200","lat":"38.620090","theaterChainName":"AMC Theatres","ticketType":"STANDARD"},{"id":"1683","name":"Calvert Village V","address":"200 W. Dares Beach Rd.","city":"Prince Frederick","state":"MD","zip":"20678","distance":"13.783058166503906","lon":"-76.591469","lat":"38.544121","theaterChainName":"Independent Chains","ticketType":"STANDARD"},{"id":"5750","name":"Lexington Exchange Movies 12","address":"23326 Three Notch Road","city":"California","state":"MD","zip":"20619","distance":"23.546092987060547","lon":"-76.527069","lat":"38.311295","theaterChainName":"R\/C Theatres","ticketType":"STANDARD"},{"id":"1108","name":"Clinton Street Theater","address":"2522 S.E. Clinton St.","city":"Portland","state":"OR","zip":"97202","distance":"23.546092987060547","lon":"-76.527069","lat":"38.311295","theaterChainName":"Independent Chains","ticketType":"STANDARD"}]