[{"id":"1683","name":"Calvert Village V","address":"200 W. Dares Beach Rd.","city":"Prince Frederick","state":"MD","zip":"20678","distance":"23.200563430786133","lon":"-76.591469","lat":"38.544121","theaterChainName":"Independent Chains","ticketType":"STANDARD"},{"id":"5750","name":"Lexington Exchange Movies 12","address":"23326 Three Notch Road","city":"California","state":"MD","zip":"20619","distance":"13.870115280151367","lon":"-76.527069","lat":"38.311295","theaterChainName":"R\/C Theatres","ticketType":"STANDARD"},{"id":"1108","name":"Clinton Street Theater","address":"2522 S.E. Clinton St.","city":"Portland","state":"OR","zip":"97202","distance":"13.870115280151367","lon":"-76.527069","lat":"38.311295","theaterChainName":"Independent Chains","ticketType":"STANDARD"},{"id":"134","name":"AMC Loews Lexington Park 6","address":"21882 FDR Boulevard","city":"Lexington Park","state":"MD","zip":"20653","distance":"16.703815460205078","lon":"-76.459229","lat":"38.267521","theaterChainName":"AMC Theatres","ticketType":"STANDARD"},{"id":"3501","name":"Essex 5 Cinemas","address":"1653 Tappahannock Blvd.","city":"Tappahannock","state":"VA","zip":"22560","distance":"23.526426315307617","lon":"-76.864899","lat":"37.905800","theaterChainName":"Independent Chains","ticketType":"STANDARD"}]