[{"id":"371","tribuneTheaterId":"5314","providerTheaterId":"364","name":"AMC Potomac Mills 18","address":"2700 Potomac Mills Circle","city":"Woodbridge","state":"VA","zip":"22192","distance":12.506086543407,"lon":"-77.29738","lat":"38.642383","theaterChainName":"AMC Theatres","ticketType":"STANDARD"},{"id":"203","tribuneTheaterId":"8757","providerTheaterId":"2794","name":"AMC Loews St. Charles Town Center 9","address":"11115 Mall Circle","city":"Waldorf","state":"MD","zip":"20601","distance":14.347346248823,"lon":"-76.928201","lat":"38.620089","theaterChainName":"AMC Theatres","ticketType":"STANDARD"},{"id":"670","tribuneTheaterId":"8504","providerTheaterId":"","name":"Regal Aquia 10","address":"2850 Jefferson Davis Hwy","city":"Stafford","state":"VA","zip":"22554","distance":13.971274826139,"lon":"-77.400908","lat":"38.461625","theaterChainName":"Regal Cinemas","ticketType":"STANDARD"},{"id":"5506","tribuneTheaterId":"10970","providerTheaterId":"","name":"Springfield Town Center 12","address":"6859 Springfield Town Center","city":"Springfield","state":"VA","zip":"22150","distance":18.714295335462,"lon":"-77.1774","lat":"38.7738","theaterChainName":"Regal Cinemas","ticketType":"STANDARD"},{"id":"5343","tribuneTheaterId":"10780","providerTheaterId":"","name":"Xscape 14","address":"7710 Matapeake Business Drive","city":"Brandywine","state":"MD","zip":"20613","distance":19.054115716259,"lon":"-76.8715","lat":"38.6749","theaterChainName":"Independent Chains","ticketType":"STANDARD"},{"id":"4135","tribuneTheaterId":"4910","providerTheaterId":"","name":"Regal Kingstowne Stadium 16","address":"5910 Kingstowne Towne Center","city":"Alexandria","state":"VA","zip":"22315","distance":18.532564236272,"lon":"-77.138325","lat":"38.772012","theaterChainName":"Regal Cinemas","ticketType":"STANDARD"},{"id":"3225","tribuneTheaterId":"8913","providerTheaterId":"337","name":"AMC Hoffman Center 22","address":"206 Swamp Fox Rd.","city":"Alexandria","state":"VA","zip":"22314","distance":21.045418746655,"lon":"-77.070537","lat":"38.802379","theaterChainName":"AMC Theatres","ticketType":"STANDARD"},{"id":"5701","tribuneTheaterId":"11138","providerTheaterId":"339","name":"AMC Rivertowne 12","address":"6075 Oxon Hill Rd.","city":"Oxon Hill","state":"MD","zip":"20745","distance":22.659402408214,"lon":"-76.9801","lat":"38.8044","theaterChainName":"AMC Theatres","ticketType":"STANDARD"},{"id":"204","tribuneTheaterId":"7322","providerTheaterId":"2798","name":"AMC Loews Shirlington 7","address":"2772 South Randolph St.","city":"Arlington","state":"VA","zip":"22206","distance":23.528345566342,"lon":"-77.089101","lat":"38.841279","theaterChainName":"AMC Theatres","ticketType":"STANDARD"},{"id":"675","tribuneTheaterId":"8505","providerTheaterId":"","name":"Regal Fredericksburg 15","address":"3301 Plank Road Route 3W","city":"Fredericksburg","state":"VA","zip":"22401","distance":24.566298357373,"lon":"-77.5157","lat":"38.2953","theaterChainName":"Regal Cinemas","ticketType":"STANDARD"},{"id":"4913","tribuneTheaterId":"10230","providerTheaterId":"","name":"Paragon Village 12","address":"51 Towne Centre Blvd.","city":"Fredericksburg","state":"VA","zip":"22407","distance":24.590949050082,"lon":"-77.51024","lat":"38.288943","theaterChainName":"Paragon Theaters","ticketType":"STANDARD"},{"id":"600","tribuneTheaterId":"6459","providerTheaterId":"","name":"University Mall Theatres","address":"10659 Braddock Road","city":"Fairfax","state":"VA","zip":"22032","distance":23.929614131692,"lon":"-77.314361","lat":"38.82505","theaterChainName":"Independent Chains","ticketType":"STANDARD"},{"id":"2670","tribuneTheaterId":"6528","providerTheaterId":"","name":"Cinema Arts Theatre","address":"9650 Main St","city":"Fairfax","state":"VA","zip":"22031","distance":24.33860620103,"lon":"-77.2758","lat":"38.8418","theaterChainName":"Independent Chains","ticketType":"STANDARD"},{"id":"1606","tribuneTheaterId":"5629","providerTheaterId":"","name":"Regal Potomac Yard Stadium 16","address":"3575 Jefferson Davis Hwy.","city":"Alexandria","state":"VA","zip":"22305","distance":23.665664305899,"lon":"-77.048128","lat":"38.837369","theaterChainName":"Regal Cinemas","ticketType":"STANDARD"},{"id":"599","tribuneTheaterId":"6735","providerTheaterId":"","name":"Manassas Cinemas","address":"8890 Mathis Ave.","city":"Manassas","state":"VA","zip":"20110","distance":24.645821292383,"lon":"-77.463014","lat":"38.762356","theaterChainName":"Independent Chains","ticketType":"STANDARD"}]