[{"id":"843","name":"Premier Cinemas Cambridge 4","address":"2759 Dorchester Square","city":"Cambridge","state":"MD","zip":"21613","distance":"24.285009384155273","lon":"-76.054771","lat":"38.553352","theaterChainName":"Independent Chains","ticketType":"STANDARD"},{"id":"1683","name":"Calvert Village V","address":"200 W. Dares Beach Rd.","city":"Prince Frederick","state":"MD","zip":"20678","distance":"14.945148468017578","lon":"-76.591469","lat":"38.544121","theaterChainName":"Independent Chains","ticketType":"STANDARD"},{"id":"5750","name":"Lexington Exchange Movies 12","address":"23326 Three Notch Road","city":"California","state":"MD","zip":"20619","distance":"6.281425476074219","lon":"-76.527069","lat":"38.311295","theaterChainName":"R\/C Theatres","ticketType":"STANDARD"},{"id":"1108","name":"Clinton Street Theater","address":"2522 S.E. Clinton St.","city":"Portland","state":"OR","zip":"97202","distance":"6.281425476074219","lon":"-76.527069","lat":"38.311295","theaterChainName":"Independent Chains","ticketType":"STANDARD"},{"id":"134","name":"AMC Loews Lexington Park 6","address":"21882 FDR Boulevard","city":"Lexington Park","state":"MD","zip":"20653","distance":"6.941218852996826","lon":"-76.459229","lat":"38.267521","theaterChainName":"AMC Theatres","ticketType":"STANDARD"}]