[{"id":"5343","name":"Xscape 14","address":"7710 Matapeake Business Drive","city":"Brandywine","state":"MD","zip":"20613","distance":"22.77680206298828","lon":"-76.871498","lat":"38.674900","theaterChainName":"Independent Chains","ticketType":"STANDARD"},{"id":"203","name":"AMC Loews St. Charles Town Center 9","address":"11115 Mall Circle","city":"Waldorf","state":"MD","zip":"20601","distance":"21.076372146606445","lon":"-76.928200","lat":"38.620090","theaterChainName":"AMC Theatres","ticketType":"STANDARD"},{"id":"1683","name":"Calvert Village V","address":"200 W. Dares Beach Rd.","city":"Prince Frederick","state":"MD","zip":"20678","distance":"12.945950508117676","lon":"-76.591469","lat":"38.544121","theaterChainName":"Independent Chains","ticketType":"STANDARD"},{"id":"5750","name":"Lexington Exchange Movies 12","address":"23326 Three Notch Road","city":"California","state":"MD","zip":"20619","distance":"10.146073341369629","lon":"-76.527069","lat":"38.311295","theaterChainName":"R\/C Theatres","ticketType":"STANDARD"},{"id":"1108","name":"Clinton Street Theater","address":"2522 S.E. Clinton St.","city":"Portland","state":"OR","zip":"97202","distance":"10.146073341369629","lon":"-76.527069","lat":"38.311295","theaterChainName":"Independent Chains","ticketType":"STANDARD"},{"id":"134","name":"AMC Loews Lexington Park 6","address":"21882 FDR Boulevard","city":"Lexington Park","state":"MD","zip":"20653","distance":"14.819659233093262","lon":"-76.459229","lat":"38.267521","theaterChainName":"AMC Theatres","ticketType":"STANDARD"}]