[{"id":"3898","name":"Regal Gallery Place Stadium 14","address":"707 Seventh Street NW","city":"Washington","state":"DC","zip":"20001","distance":"20.876310348510742","lon":"-77.021729","lat":"38.898533","theaterChainName":"Regal Cinemas","ticketType":"STANDARD"},{"id":"3581","name":"AMC Loews Georgetown 14","address":"3111 K Street N.W.","city":"Washington","state":"DC","zip":"20007","distance":"21.454153060913086","lon":"-77.062653","lat":"38.902721","theaterChainName":"AMC Theatres","ticketType":"STANDARD"},{"id":"5494","name":"Angelika Pop-Up at Union Market","address":"550 Penn St","city":"Washington","state":"DC","zip":"20002","distance":"21.604036331176758","lon":"-76.996208","lat":"38.910027","theaterChainName":"Reading International, Inc","ticketType":"STANDARD"},{"id":"207","name":"AMC Loews Uptown 1","address":"3426 Connecticut Ave. NW","city":"Washington","state":"DC","zip":"20008","distance":"23.61025047302246","lon":"-77.058403","lat":"38.934944","theaterChainName":"AMC Theatres","ticketType":"STANDARD"},{"id":"369","name":"AMC Courthouse Plaza 8","address":"2150 Clarendon Blvd","city":"Arlington","state":"VA","zip":"22201","distance":"20.866252899169922","lon":"-77.085167","lat":"38.890179","theaterChainName":"AMC Theatres","ticketType":"STANDARD"},{"id":"1606","name":"Regal Potomac Yard Stadium 16","address":"3575 Jefferson Davis Hwy.","city":"Alexandria","state":"VA","zip":"22305","distance":"16.871667861938477","lon":"-77.048126","lat":"38.837368","theaterChainName":"Regal Cinemas","ticketType":"STANDARD"},{"id":"204","name":"AMC Loews Shirlington 7","address":"2772 South Randolph St.","city":"Arlington","state":"VA","zip":"22206","distance":"17.67310905456543","lon":"-77.089104","lat":"38.841278","theaterChainName":"AMC Theatres","ticketType":"STANDARD"},{"id":"2532","name":"Regal Ballston Common Stadium 12","address":"671 N. Glebe Road","city":"Arlington","state":"VA","zip":"22203","distance":"20.513750076293945","lon":"-77.111580","lat":"38.878807","theaterChainName":"Regal Cinemas","ticketType":"STANDARD"},{"id":"3225","name":"AMC Hoffman Center 22","address":"206 Swamp Fox Rd.","city":"Alexandria","state":"VA","zip":"22314","distance":"14.809619903564453","lon":"-77.070534","lat":"38.802380","theaterChainName":"AMC Theatres","ticketType":"STANDARD"},{"id":"5701","name":"AMC Rivertowne 12","address":"6075 Oxon Hill Rd.","city":"Oxon Hill","state":"MD","zip":"20745","distance":"14.313823699951172","lon":"-76.980103","lat":"38.804401","theaterChainName":"AMC Theatres","ticketType":"STANDARD"},{"id":"4701","name":"Marlow 6 Theatre","address":"3899 Branch Ave.","city":"Temple Hills","state":"MD","zip":"20748","distance":"16.661306381225586","lon":"-76.944862","lat":"38.835907","theaterChainName":"Phoenix Theatres","ticketType":"STANDARD"},{"id":"4135","name":"Regal Kingstowne Stadium 16","address":"5910 Kingstowne Towne Center","city":"Alexandria","state":"VA","zip":"22315","distance":"14.467668533325195","lon":"-77.138329","lat":"38.772011","theaterChainName":"Regal Cinemas","ticketType":"STANDARD"},{"id":"3887","name":"AMC Magic Johnson Capital Center 12","address":"800 Shoppers Way","city":"Largo","state":"MD","zip":"20774","distance":"22.265823364257812","lon":"-76.807297","lat":"38.886299","theaterChainName":"AMC Theatres","ticketType":"STANDARD"},{"id":"5506","name":"Springfield Town Center 12","address":"6859 Springfield Town Center","city":"Springfield","state":"VA","zip":"22150","distance":"15.82404613494873","lon":"-77.177399","lat":"38.773800","theaterChainName":"Regal Cinemas","ticketType":"STANDARD"},{"id":"5222","name":"Angelika Film Center-Mosaic","address":"2911 District Avenue","city":"Fairfax","state":"VA","zip":"22031","distance":"22.9405574798584","lon":"-77.229469","lat":"38.872028","theaterChainName":"Reading International, Inc","ticketType":"STANDARD"},{"id":"2670","name":"Cinema Arts Theatre","address":"9650 Main St","city":"Fairfax","state":"VA","zip":"22031","distance":"22.84919548034668","lon":"-77.275803","lat":"38.841801","theaterChainName":"Independent Chains","ticketType":"STANDARD"},{"id":"5343","name":"Xscape 14","address":"7710 Matapeake Business Drive","city":"Brandywine","state":"MD","zip":"20613","distance":"8.354325294494629","lon":"-76.871498","lat":"38.674900","theaterChainName":"Independent Chains","ticketType":"STANDARD"},{"id":"203","name":"AMC Loews St. Charles Town Center 9","address":"11115 Mall Circle","city":"Waldorf","state":"MD","zip":"20601","distance":"3.7016561031341553","lon":"-76.928200","lat":"38.620090","theaterChainName":"AMC Theatres","ticketType":"STANDARD"},{"id":"600","name":"University Mall Theatres","address":"10659 Braddock Road","city":"Fairfax","state":"VA","zip":"22032","distance":"23.509939193725586","lon":"-77.314362","lat":"38.825050","theaterChainName":"Independent Chains","ticketType":"STANDARD"},{"id":"371","name":"AMC Potomac Mills 18","address":"2700 Potomac Mills Circle","city":"Woodbridge","state":"VA","zip":"22192","distance":"16.866697311401367","lon":"-77.297379","lat":"38.642384","theaterChainName":"AMC Theatres","ticketType":"STANDARD"},{"id":"670","name":"Regal Aquia 10","address":"2850 Jefferson Davis Hwy","city":"Stafford","state":"VA","zip":"22554","distance":"24.096363067626953","lon":"-77.400909","lat":"38.461624","theaterChainName":"Regal Cinemas","ticketType":"STANDARD"},{"id":"1683","name":"Calvert Village V","address":"200 W. Dares Beach Rd.","city":"Prince Frederick","state":"MD","zip":"20678","distance":"21.85852813720703","lon":"-76.591469","lat":"38.544121","theaterChainName":"Independent Chains","ticketType":"STANDARD"}]