[{"id":"3225","name":"AMC Hoffman Center 22","address":"206 Swamp Fox Rd.","city":"Alexandria","state":"VA","zip":"22314","distance":"23.1976375579834","lon":"-77.070534","lat":"38.802380","theaterChainName":"AMC Theatres","ticketType":"STANDARD"},{"id":"5701","name":"AMC Rivertowne 12","address":"6075 Oxon Hill Rd.","city":"Oxon Hill","state":"MD","zip":"20745","distance":"24.11090850830078","lon":"-76.980103","lat":"38.804401","theaterChainName":"AMC Theatres","ticketType":"STANDARD"},{"id":"4135","name":"Regal Kingstowne Stadium 16","address":"5910 Kingstowne Towne Center","city":"Alexandria","state":"VA","zip":"22315","distance":"21.19109535217285","lon":"-77.138329","lat":"38.772011","theaterChainName":"Regal Cinemas","ticketType":"STANDARD"},{"id":"5506","name":"Springfield Town Center 12","address":"6859 Springfield Town Center","city":"Springfield","state":"VA","zip":"22150","distance":"21.647193908691406","lon":"-77.177399","lat":"38.773800","theaterChainName":"Regal Cinemas","ticketType":"STANDARD"},{"id":"5343","name":"Xscape 14","address":"7710 Matapeake Business Drive","city":"Brandywine","state":"MD","zip":"20613","distance":"18.75508689880371","lon":"-76.871498","lat":"38.674900","theaterChainName":"Independent Chains","ticketType":"STANDARD"},{"id":"203","name":"AMC Loews St. Charles Town Center 9","address":"11115 Mall Circle","city":"Waldorf","state":"MD","zip":"20601","distance":"13.887613296508789","lon":"-76.928200","lat":"38.620090","theaterChainName":"AMC Theatres","ticketType":"STANDARD"},{"id":"371","name":"AMC Potomac Mills 18","address":"2700 Potomac Mills Circle","city":"Woodbridge","state":"VA","zip":"22192","distance":"16.312814712524414","lon":"-77.297379","lat":"38.642384","theaterChainName":"AMC Theatres","ticketType":"STANDARD"},{"id":"670","name":"Regal Aquia 10","address":"2850 Jefferson Davis Hwy","city":"Stafford","state":"VA","zip":"22554","distance":"16.555042266845703","lon":"-77.400909","lat":"38.461624","theaterChainName":"Regal Cinemas","ticketType":"STANDARD"}]