[{"id":"203","tribuneTheaterId":"8757","providerTheaterId":"2794","name":"AMC Loews St. Charles Town Center 9","address":"11115 Mall Circle","city":"Waldorf","state":"MD","zip":"20601","distance":13.886653063458,"lon":"-76.928201","lat":"38.620089","theaterChainName":"AMC Theatres","ticketType":"STANDARD"},{"id":"371","tribuneTheaterId":"5314","providerTheaterId":"364","name":"AMC Potomac Mills 18","address":"2700 Potomac Mills Circle","city":"Woodbridge","state":"VA","zip":"22192","distance":16.311934016337,"lon":"-77.29738","lat":"38.642383","theaterChainName":"AMC Theatres","ticketType":"STANDARD"},{"id":"670","tribuneTheaterId":"8504","providerTheaterId":"","name":"Regal Aquia 10","address":"2850 Jefferson Davis Hwy","city":"Stafford","state":"VA","zip":"22554","distance":16.554001652907,"lon":"-77.400908","lat":"38.461625","theaterChainName":"Regal Cinemas","ticketType":"STANDARD"},{"id":"5343","tribuneTheaterId":"10780","providerTheaterId":"","name":"Xscape 14","address":"7710 Matapeake Business Drive","city":"Brandywine","state":"MD","zip":"20613","distance":18.753879379732,"lon":"-76.8715","lat":"38.6749","theaterChainName":"Independent Chains","ticketType":"STANDARD"},{"id":"5506","tribuneTheaterId":"10970","providerTheaterId":"","name":"Springfield Town Center 12","address":"6859 Springfield Town Center","city":"Springfield","state":"VA","zip":"22150","distance":21.645970461323,"lon":"-77.1774","lat":"38.7738","theaterChainName":"Regal Cinemas","ticketType":"STANDARD"},{"id":"4135","tribuneTheaterId":"4910","providerTheaterId":"","name":"Regal Kingstowne Stadium 16","address":"5910 Kingstowne Towne Center","city":"Alexandria","state":"VA","zip":"22315","distance":21.189934649115,"lon":"-77.138325","lat":"38.772012","theaterChainName":"Regal Cinemas","ticketType":"STANDARD"},{"id":"5701","tribuneTheaterId":"11138","providerTheaterId":"339","name":"AMC Rivertowne 12","address":"6075 Oxon Hill Rd.","city":"Oxon Hill","state":"MD","zip":"20745","distance":24.109422030731,"lon":"-76.9801","lat":"38.8044","theaterChainName":"AMC Theatres","ticketType":"STANDARD"},{"id":"3225","tribuneTheaterId":"8913","providerTheaterId":"337","name":"AMC Hoffman Center 22","address":"206 Swamp Fox Rd.","city":"Alexandria","state":"VA","zip":"22314","distance":23.196229677135,"lon":"-77.070537","lat":"38.802379","theaterChainName":"AMC Theatres","ticketType":"STANDARD"}]