[{"id":"2383","name":"Premier Cinemas at Easton","address":"210 Marlboro Ave","city":"Easton","state":"MD","zip":"21601","distance":"24.018123626708984","lon":"-76.079697","lat":"38.780300","theaterChainName":"Independent Chains","ticketType":"STANDARD"},{"id":"5701","name":"AMC Rivertowne 12","address":"6075 Oxon Hill Rd.","city":"Oxon Hill","state":"MD","zip":"20745","distance":"24.517606735229492","lon":"-76.980103","lat":"38.804401","theaterChainName":"AMC Theatres","ticketType":"STANDARD"},{"id":"4701","name":"Marlow 6 Theatre","address":"3899 Branch Ave.","city":"Temple Hills","state":"MD","zip":"20748","distance":"22.736806869506836","lon":"-76.944862","lat":"38.835907","theaterChainName":"Phoenix Theatres","ticketType":"STANDARD"},{"id":"3887","name":"AMC Magic Johnson Capital Center 12","address":"800 Shoppers Way","city":"Largo","state":"MD","zip":"20774","distance":"16.28559684753418","lon":"-76.807297","lat":"38.886299","theaterChainName":"AMC Theatres","ticketType":"STANDARD"},{"id":"479","name":"Old Greenbelt Theatre","address":"129 Centerway","city":"Greenbelt","state":"MD","zip":"20770","distance":"23.384111404418945","lon":"-76.875999","lat":"39.001377","theaterChainName":"Independent Chains","ticketType":"STANDARD"},{"id":"5343","name":"Xscape 14","address":"7710 Matapeake Business Drive","city":"Brandywine","state":"MD","zip":"20613","distance":"20.640832901000977","lon":"-76.871498","lat":"38.674900","theaterChainName":"Independent Chains","ticketType":"STANDARD"},{"id":"1699","name":"Regal Bowie Stadium 14","address":"15200 Major Lansdale Blvd.","city":"Bowie","state":"MD","zip":"20716","distance":"15.479042053222656","lon":"-76.739601","lat":"38.950867","theaterChainName":"Regal Cinemas","ticketType":"STANDARD"},{"id":"5212","name":"Waugh Chapel Stadium 12 & IMAX","address":"1419 S. Main Chapel Way","city":"Gambrills","state":"MD","zip":"21054","distance":"18.21686553955078","lon":"-76.678398","lat":"39.036800","theaterChainName":"Regal Cinemas","ticketType":"STANDARD"},{"id":"1683","name":"Calvert Village V","address":"200 W. Dares Beach Rd.","city":"Prince Frederick","state":"MD","zip":"20678","distance":"18.164569854736328","lon":"-76.591469","lat":"38.544121","theaterChainName":"Independent Chains","ticketType":"STANDARD"},{"id":"477","name":"Bow Tie Cinemas Annapolis Harbour","address":"2474 Solomons Island Rd","city":"Annapolis","state":"MD","zip":"21401","distance":"11.998946189880371","lon":"-76.542465","lat":"38.974907","theaterChainName":"Bow-Tie Cinemas","ticketType":"STANDARD"},{"id":"478","name":"Bow Tie Cinemas Annapolis Mall","address":"Annapolis Mall Route 450","city":"Annapolis","state":"MD","zip":"21401","distance":"12.929641723632812","lon":"-76.545708","lat":"38.988213","theaterChainName":"Bow-Tie Cinemas","ticketType":"STANDARD"},{"id":"5529","name":"Marley Station Movies","address":"7900 Ritchie Hwy","city":"Glen Burnie","state":"MD","zip":"21061","distance":"23.692298889160156","lon":"-76.605629","lat":"39.138874","theaterChainName":"Independent Chains","ticketType":"STANDARD"},{"id":"5602","name":"Sun Valley Movies","address":"7959 Baltimore Annapolis Blvd.","city":"Glen Burnie","state":"MD","zip":"21060","distance":"23.293292999267578","lon":"-76.584572","lat":"39.135689","theaterChainName":"Independent Chains","ticketType":"STANDARD"}]