[{"id":"3898","name":"Regal Gallery Place Stadium 14","address":"707 Seventh Street NW","city":"Washington","state":"DC","zip":"20001","distance":"23.133502960205078","lon":"-77.021729","lat":"38.898533","theaterChainName":"Regal Cinemas","ticketType":"STANDARD"},{"id":"5494","name":"Angelika Pop-Up at Union Market","address":"550 Penn St","city":"Washington","state":"DC","zip":"20002","distance":"22.335205078125","lon":"-76.996208","lat":"38.910027","theaterChainName":"Reading International, Inc","ticketType":"STANDARD"},{"id":"1606","name":"Regal Potomac Yard Stadium 16","address":"3575 Jefferson Davis Hwy.","city":"Alexandria","state":"VA","zip":"22305","distance":"22.83245086669922","lon":"-77.048126","lat":"38.837368","theaterChainName":"Regal Cinemas","ticketType":"STANDARD"},{"id":"3225","name":"AMC Hoffman Center 22","address":"206 Swamp Fox Rd.","city":"Alexandria","state":"VA","zip":"22314","distance":"23.43764305114746","lon":"-77.070534","lat":"38.802380","theaterChainName":"AMC Theatres","ticketType":"STANDARD"},{"id":"5701","name":"AMC Rivertowne 12","address":"6075 Oxon Hill Rd.","city":"Oxon Hill","state":"MD","zip":"20745","distance":"18.699966430664062","lon":"-76.980103","lat":"38.804401","theaterChainName":"AMC Theatres","ticketType":"STANDARD"},{"id":"4701","name":"Marlow 6 Theatre","address":"3899 Branch Ave.","city":"Temple Hills","state":"MD","zip":"20748","distance":"17.550983428955078","lon":"-76.944862","lat":"38.835907","theaterChainName":"Phoenix Theatres","ticketType":"STANDARD"},{"id":"4370","name":"Regal Hyattsville Royale Stadium 14","address":"6505 America Blvd","city":"Hyattsville","state":"MD","zip":"20782","distance":"22.90043067932129","lon":"-76.951881","lat":"38.968548","theaterChainName":"Regal Cinemas","ticketType":"STANDARD"},{"id":"3887","name":"AMC Magic Johnson Capital Center 12","address":"800 Shoppers Way","city":"Largo","state":"MD","zip":"20774","distance":"13.401874542236328","lon":"-76.807297","lat":"38.886299","theaterChainName":"AMC Theatres","ticketType":"STANDARD"},{"id":"479","name":"Old Greenbelt Theatre","address":"129 Centerway","city":"Greenbelt","state":"MD","zip":"20770","distance":"21.94791603088379","lon":"-76.875999","lat":"39.001377","theaterChainName":"Independent Chains","ticketType":"STANDARD"},{"id":"5343","name":"Xscape 14","address":"7710 Matapeake Business Drive","city":"Brandywine","state":"MD","zip":"20613","distance":"13.150273323059082","lon":"-76.871498","lat":"38.674900","theaterChainName":"Independent Chains","ticketType":"STANDARD"},{"id":"203","name":"AMC Loews St. Charles Town Center 9","address":"11115 Mall Circle","city":"Waldorf","state":"MD","zip":"20601","distance":"17.51361656188965","lon":"-76.928200","lat":"38.620090","theaterChainName":"AMC Theatres","ticketType":"STANDARD"},{"id":"1699","name":"Regal Bowie Stadium 14","address":"15200 Major Lansdale Blvd.","city":"Bowie","state":"MD","zip":"20716","distance":"15.423497200012207","lon":"-76.739601","lat":"38.950867","theaterChainName":"Regal Cinemas","ticketType":"STANDARD"},{"id":"5212","name":"Waugh Chapel Stadium 12 & IMAX","address":"1419 S. Main Chapel Way","city":"Gambrills","state":"MD","zip":"21054","distance":"20.54290008544922","lon":"-76.678398","lat":"39.036800","theaterChainName":"Regal Cinemas","ticketType":"STANDARD"},{"id":"1683","name":"Calvert Village V","address":"200 W. Dares Beach Rd.","city":"Prince Frederick","state":"MD","zip":"20678","distance":"13.86839771270752","lon":"-76.591469","lat":"38.544121","theaterChainName":"Independent Chains","ticketType":"STANDARD"},{"id":"477","name":"Bow Tie Cinemas Annapolis Harbour","address":"2474 Solomons Island Rd","city":"Annapolis","state":"MD","zip":"21401","distance":"17.05169105529785","lon":"-76.542465","lat":"38.974907","theaterChainName":"Bow-Tie Cinemas","ticketType":"STANDARD"},{"id":"478","name":"Bow Tie Cinemas Annapolis Mall","address":"Annapolis Mall Route 450","city":"Annapolis","state":"MD","zip":"21401","distance":"17.874380111694336","lon":"-76.545708","lat":"38.988213","theaterChainName":"Bow-Tie Cinemas","ticketType":"STANDARD"}]