[{"id":"1683","tribuneTheaterId":"2944","providerTheaterId":"","name":"Calvert Village V","address":"200 W. Dares Beach Rd.","city":"Prince Frederick","state":"MD","zip":"20678","distance":13.867569762431,"lon":"-76.591471","lat":"38.544121","theaterChainName":"Independent Chains","ticketType":"STANDARD"},{"id":"5343","tribuneTheaterId":"10780","providerTheaterId":"","name":"Xscape 14","address":"7710 Matapeake Business Drive","city":"Brandywine","state":"MD","zip":"20613","distance":13.149590372756,"lon":"-76.8715","lat":"38.6749","theaterChainName":"Independent Chains","ticketType":"STANDARD"},{"id":"3887","tribuneTheaterId":"4162","providerTheaterId":"2307","name":"AMC Magic Johnson Capital Center 12","address":"800 Shoppers Way","city":"Largo","state":"MD","zip":"20774","distance":13.401156943551,"lon":"-76.8073","lat":"38.8863","theaterChainName":"AMC Theatres","ticketType":"STANDARD"},{"id":"1699","tribuneTheaterId":"5665","providerTheaterId":"","name":"Regal Bowie Stadium 14","address":"15200 Major Lansdale Blvd.","city":"Bowie","state":"MD","zip":"20716","distance":15.422457222441,"lon":"-76.739599","lat":"38.950867","theaterChainName":"Regal Cinemas","ticketType":"STANDARD"},{"id":"477","tribuneTheaterId":"8441","providerTheaterId":"","name":"Bow Tie Cinemas Annapolis Harbour","address":"2474 Solomons Island Rd","city":"Annapolis","state":"MD","zip":"21401","distance":17.050454221163,"lon":"-76.542468","lat":"38.974906","theaterChainName":"Bow-Tie Cinemas","ticketType":"STANDARD"},{"id":"203","tribuneTheaterId":"8757","providerTheaterId":"2794","name":"AMC Loews St. Charles Town Center 9","address":"11115 Mall Circle","city":"Waldorf","state":"MD","zip":"20601","distance":17.512682397458,"lon":"-76.928201","lat":"38.620089","theaterChainName":"AMC Theatres","ticketType":"STANDARD"},{"id":"478","tribuneTheaterId":"8607","providerTheaterId":"","name":"Bow Tie Cinemas Annapolis Mall","address":"Annapolis Mall Route 450","city":"Annapolis","state":"MD","zip":"21401","distance":17.87310691034,"lon":"-76.545707","lat":"38.988211","theaterChainName":"Bow-Tie Cinemas","ticketType":"STANDARD"},{"id":"4701","tribuneTheaterId":"9915","providerTheaterId":"","name":"Marlow 6 Theatre","address":"3899 Branch Ave.","city":"Temple Hills","state":"MD","zip":"20748","distance":17.549884217099,"lon":"-76.944863","lat":"38.835906","theaterChainName":"Phoenix Theatres","ticketType":"STANDARD"},{"id":"5701","tribuneTheaterId":"11138","providerTheaterId":"339","name":"AMC Rivertowne 12","address":"6075 Oxon Hill Rd.","city":"Oxon Hill","state":"MD","zip":"20745","distance":18.698645205301,"lon":"-76.9801","lat":"38.8044","theaterChainName":"AMC Theatres","ticketType":"STANDARD"},{"id":"5212","tribuneTheaterId":"10636","providerTheaterId":"","name":"Waugh Chapel Stadium 12 & IMAX","address":"1419 S. Main Chapel Way","city":"Gambrills","state":"MD","zip":"21054","distance":20.541538738612,"lon":"-76.6784","lat":"39.0368","theaterChainName":"Regal Cinemas","ticketType":"STANDARD"},{"id":"5494","tribuneTheaterId":"10950","providerTheaterId":"","name":"Angelika Pop-Up at Union Market","address":"550 Penn St","city":"Washington","state":"DC","zip":"20002","distance":22.333818582214,"lon":"-76.99621","lat":"38.910025","theaterChainName":"Reading International, Inc","ticketType":"STANDARD"},{"id":"1606","tribuneTheaterId":"5629","providerTheaterId":"","name":"Regal Potomac Yard Stadium 16","address":"3575 Jefferson Davis Hwy.","city":"Alexandria","state":"VA","zip":"22305","distance":22.831136873898,"lon":"-77.048128","lat":"38.837369","theaterChainName":"Regal Cinemas","ticketType":"STANDARD"},{"id":"4370","tribuneTheaterId":"9403","providerTheaterId":"","name":"Regal Hyattsville Royale Stadium 14","address":"6505 America Blvd","city":"Hyattsville","state":"MD","zip":"20782","distance":22.899166205371,"lon":"-76.951885","lat":"38.968549","theaterChainName":"Regal Cinemas","ticketType":"STANDARD"},{"id":"479","tribuneTheaterId":"4103","providerTheaterId":"","name":"Old Greenbelt Theatre","address":"129 Centerway","city":"Greenbelt","state":"MD","zip":"20770","distance":21.946687757415,"lon":"-76.876002","lat":"39.001379","theaterChainName":"Independent Chains","ticketType":"STANDARD"},{"id":"3225","tribuneTheaterId":"8913","providerTheaterId":"337","name":"AMC Hoffman Center 22","address":"206 Swamp Fox Rd.","city":"Alexandria","state":"VA","zip":"22314","distance":23.436351068941,"lon":"-77.070537","lat":"38.802379","theaterChainName":"AMC Theatres","ticketType":"STANDARD"},{"id":"3898","tribuneTheaterId":"4667","providerTheaterId":"","name":"Regal Gallery Place Stadium 14","address":"707 Seventh Street NW","city":"Washington","state":"DC","zip":"20001","distance":23.13205717627,"lon":"-77.021728","lat":"38.898534","theaterChainName":"Regal Cinemas","ticketType":"STANDARD"}]