[{"id":"5701","name":"AMC Rivertowne 12","address":"6075 Oxon Hill Rd.","city":"Oxon Hill","state":"MD","zip":"20745","distance":"23.130281448364258","lon":"-76.980103","lat":"38.804401","theaterChainName":"AMC Theatres","ticketType":"STANDARD"},{"id":"4701","name":"Marlow 6 Theatre","address":"3899 Branch Ave.","city":"Temple Hills","state":"MD","zip":"20748","distance":"21.49431800842285","lon":"-76.944862","lat":"38.835907","theaterChainName":"Phoenix Theatres","ticketType":"STANDARD"},{"id":"3887","name":"AMC Magic Johnson Capital Center 12","address":"800 Shoppers Way","city":"Largo","state":"MD","zip":"20774","distance":"15.511465072631836","lon":"-76.807297","lat":"38.886299","theaterChainName":"AMC Theatres","ticketType":"STANDARD"},{"id":"479","name":"Old Greenbelt Theatre","address":"129 Centerway","city":"Greenbelt","state":"MD","zip":"20770","distance":"23.07508659362793","lon":"-76.875999","lat":"39.001377","theaterChainName":"Independent Chains","ticketType":"STANDARD"},{"id":"5343","name":"Xscape 14","address":"7710 Matapeake Business Drive","city":"Brandywine","state":"MD","zip":"20613","distance":"18.79437255859375","lon":"-76.871498","lat":"38.674900","theaterChainName":"Independent Chains","ticketType":"STANDARD"},{"id":"203","name":"AMC Loews St. Charles Town Center 9","address":"11115 Mall Circle","city":"Waldorf","state":"MD","zip":"20601","distance":"23.220619201660156","lon":"-76.928200","lat":"38.620090","theaterChainName":"AMC Theatres","ticketType":"STANDARD"},{"id":"1699","name":"Regal Bowie Stadium 14","address":"15200 Major Lansdale Blvd.","city":"Bowie","state":"MD","zip":"20716","distance":"15.398390769958496","lon":"-76.739601","lat":"38.950867","theaterChainName":"Regal Cinemas","ticketType":"STANDARD"},{"id":"5212","name":"Waugh Chapel Stadium 12 & IMAX","address":"1419 S. Main Chapel Way","city":"Gambrills","state":"MD","zip":"21054","distance":"18.823869705200195","lon":"-76.678398","lat":"39.036800","theaterChainName":"Regal Cinemas","ticketType":"STANDARD"},{"id":"1683","name":"Calvert Village V","address":"200 W. Dares Beach Rd.","city":"Prince Frederick","state":"MD","zip":"20678","distance":"16.6395263671875","lon":"-76.591469","lat":"38.544121","theaterChainName":"Independent Chains","ticketType":"STANDARD"},{"id":"477","name":"Bow Tie Cinemas Annapolis Harbour","address":"2474 Solomons Island Rd","city":"Annapolis","state":"MD","zip":"21401","distance":"13.27598762512207","lon":"-76.542465","lat":"38.974907","theaterChainName":"Bow-Tie Cinemas","ticketType":"STANDARD"},{"id":"478","name":"Bow Tie Cinemas Annapolis Mall","address":"Annapolis Mall Route 450","city":"Annapolis","state":"MD","zip":"21401","distance":"14.189900398254395","lon":"-76.545708","lat":"38.988213","theaterChainName":"Bow-Tie Cinemas","ticketType":"STANDARD"},{"id":"5529","name":"Marley Station Movies","address":"7900 Ritchie Hwy","city":"Glen Burnie","state":"MD","zip":"21061","distance":"24.768171310424805","lon":"-76.605629","lat":"39.138874","theaterChainName":"Independent Chains","ticketType":"STANDARD"},{"id":"5602","name":"Sun Valley Movies","address":"7959 Baltimore Annapolis Blvd.","city":"Glen Burnie","state":"MD","zip":"21060","distance":"24.441415786743164","lon":"-76.584572","lat":"39.135689","theaterChainName":"Independent Chains","ticketType":"STANDARD"}]