[{"id":"478","tribuneTheaterId":"8607","providerTheaterId":"","name":"Bow Tie Cinemas Annapolis Mall","address":"Annapolis Mall Route 450","city":"Annapolis","state":"MD","zip":"21401","distance":14.189036093582,"lon":"-76.545707","lat":"38.988211","theaterChainName":"Bow-Tie Cinemas","ticketType":"STANDARD"},{"id":"477","tribuneTheaterId":"8441","providerTheaterId":"","name":"Bow Tie Cinemas Annapolis Harbour","address":"2474 Solomons Island Rd","city":"Annapolis","state":"MD","zip":"21401","distance":13.275220719579,"lon":"-76.542468","lat":"38.974906","theaterChainName":"Bow-Tie Cinemas","ticketType":"STANDARD"},{"id":"1699","tribuneTheaterId":"5665","providerTheaterId":"","name":"Regal Bowie Stadium 14","address":"15200 Major Lansdale Blvd.","city":"Bowie","state":"MD","zip":"20716","distance":15.397412500023,"lon":"-76.739599","lat":"38.950867","theaterChainName":"Regal Cinemas","ticketType":"STANDARD"},{"id":"3887","tribuneTheaterId":"4162","providerTheaterId":"2307","name":"AMC Magic Johnson Capital Center 12","address":"800 Shoppers Way","city":"Largo","state":"MD","zip":"20774","distance":15.510666532218,"lon":"-76.8073","lat":"38.8863","theaterChainName":"AMC Theatres","ticketType":"STANDARD"},{"id":"1683","tribuneTheaterId":"2944","providerTheaterId":"","name":"Calvert Village V","address":"200 W. Dares Beach Rd.","city":"Prince Frederick","state":"MD","zip":"20678","distance":16.638364769357,"lon":"-76.591471","lat":"38.544121","theaterChainName":"Independent Chains","ticketType":"STANDARD"},{"id":"5212","tribuneTheaterId":"10636","providerTheaterId":"","name":"Waugh Chapel Stadium 12 & IMAX","address":"1419 S. Main Chapel Way","city":"Gambrills","state":"MD","zip":"21054","distance":18.8227969868,"lon":"-76.6784","lat":"39.0368","theaterChainName":"Regal Cinemas","ticketType":"STANDARD"},{"id":"5343","tribuneTheaterId":"10780","providerTheaterId":"","name":"Xscape 14","address":"7710 Matapeake Business Drive","city":"Brandywine","state":"MD","zip":"20613","distance":18.793175663596,"lon":"-76.8715","lat":"38.6749","theaterChainName":"Independent Chains","ticketType":"STANDARD"},{"id":"4701","tribuneTheaterId":"9915","providerTheaterId":"","name":"Marlow 6 Theatre","address":"3899 Branch Ave.","city":"Temple Hills","state":"MD","zip":"20748","distance":21.492945336235,"lon":"-76.944863","lat":"38.835906","theaterChainName":"Phoenix Theatres","ticketType":"STANDARD"},{"id":"479","tribuneTheaterId":"4103","providerTheaterId":"","name":"Old Greenbelt Theatre","address":"129 Centerway","city":"Greenbelt","state":"MD","zip":"20770","distance":23.073861917603,"lon":"-76.876002","lat":"39.001379","theaterChainName":"Independent Chains","ticketType":"STANDARD"},{"id":"5701","tribuneTheaterId":"11138","providerTheaterId":"339","name":"AMC Rivertowne 12","address":"6075 Oxon Hill Rd.","city":"Oxon Hill","state":"MD","zip":"20745","distance":23.128628467212,"lon":"-76.9801","lat":"38.8044","theaterChainName":"AMC Theatres","ticketType":"STANDARD"},{"id":"203","tribuneTheaterId":"8757","providerTheaterId":"2794","name":"AMC Loews St. Charles Town Center 9","address":"11115 Mall Circle","city":"Waldorf","state":"MD","zip":"20601","distance":23.219153625007,"lon":"-76.928201","lat":"38.620089","theaterChainName":"AMC Theatres","ticketType":"STANDARD"},{"id":"5602","tribuneTheaterId":"11058","providerTheaterId":"","name":"Sun Valley Movies","address":"7959 Baltimore Annapolis Blvd.","city":"Glen Burnie","state":"MD","zip":"21060","distance":24.43989047757,"lon":"-76.584571","lat":"39.135687","theaterChainName":"Independent Chains","ticketType":"STANDARD"},{"id":"5529","tribuneTheaterId":"10960","providerTheaterId":"","name":"Marley Station Movies","address":"7900 Ritchie Hwy","city":"Glen Burnie","state":"MD","zip":"21061","distance":24.766805815458,"lon":"-76.605628","lat":"39.138875","theaterChainName":"Independent Chains","ticketType":"STANDARD"}]