[{"id":"2383","name":"Premier Cinemas at Easton","address":"210 Marlboro Ave","city":"Easton","state":"MD","zip":"21601","distance":"23.543710708618164","lon":"-76.079697","lat":"38.780300","theaterChainName":"Independent Chains","ticketType":"STANDARD"},{"id":"4701","name":"Marlow 6 Theatre","address":"3899 Branch Ave.","city":"Temple Hills","state":"MD","zip":"20748","distance":"23.357038497924805","lon":"-76.944862","lat":"38.835907","theaterChainName":"Phoenix Theatres","ticketType":"STANDARD"},{"id":"3887","name":"AMC Magic Johnson Capital Center 12","address":"800 Shoppers Way","city":"Largo","state":"MD","zip":"20774","distance":"16.30980682373047","lon":"-76.807297","lat":"38.886299","theaterChainName":"AMC Theatres","ticketType":"STANDARD"},{"id":"479","name":"Old Greenbelt Theatre","address":"129 Centerway","city":"Greenbelt","state":"MD","zip":"20770","distance":"22.684049606323242","lon":"-76.875999","lat":"39.001377","theaterChainName":"Independent Chains","ticketType":"STANDARD"},{"id":"5343","name":"Xscape 14","address":"7710 Matapeake Business Drive","city":"Brandywine","state":"MD","zip":"20613","distance":"22.420501708984375","lon":"-76.871498","lat":"38.674900","theaterChainName":"Independent Chains","ticketType":"STANDARD"},{"id":"1699","name":"Regal Bowie Stadium 14","address":"15200 Major Lansdale Blvd.","city":"Bowie","state":"MD","zip":"20716","distance":"14.608016967773438","lon":"-76.739601","lat":"38.950867","theaterChainName":"Regal Cinemas","ticketType":"STANDARD"},{"id":"5212","name":"Waugh Chapel Stadium 12 & IMAX","address":"1419 S. Main Chapel Way","city":"Gambrills","state":"MD","zip":"21054","distance":"16.493114471435547","lon":"-76.678398","lat":"39.036800","theaterChainName":"Regal Cinemas","ticketType":"STANDARD"},{"id":"1683","name":"Calvert Village V","address":"200 W. Dares Beach Rd.","city":"Prince Frederick","state":"MD","zip":"20678","distance":"20.684934616088867","lon":"-76.591469","lat":"38.544121","theaterChainName":"Independent Chains","ticketType":"STANDARD"},{"id":"477","name":"Bow Tie Cinemas Annapolis Harbour","address":"2474 Solomons Island Rd","city":"Annapolis","state":"MD","zip":"21401","distance":"9.692618370056152","lon":"-76.542465","lat":"38.974907","theaterChainName":"Bow-Tie Cinemas","ticketType":"STANDARD"},{"id":"478","name":"Bow Tie Cinemas Annapolis Mall","address":"Annapolis Mall Route 450","city":"Annapolis","state":"MD","zip":"21401","distance":"10.628307342529297","lon":"-76.545708","lat":"38.988213","theaterChainName":"Bow-Tie Cinemas","ticketType":"STANDARD"},{"id":"5529","name":"Marley Station Movies","address":"7900 Ritchie Hwy","city":"Glen Burnie","state":"MD","zip":"21061","distance":"21.483699798583984","lon":"-76.605629","lat":"39.138874","theaterChainName":"Independent Chains","ticketType":"STANDARD"},{"id":"5602","name":"Sun Valley Movies","address":"7959 Baltimore Annapolis Blvd.","city":"Glen Burnie","state":"MD","zip":"21060","distance":"21.02812957763672","lon":"-76.584572","lat":"39.135689","theaterChainName":"Independent Chains","ticketType":"STANDARD"}]