[{"id":"3579","name":"Westview Stadium 16 & IMAX","address":"5243 Buckeystown Pike","city":"Frederick","state":"MD","zip":"21704","distance":"12.649920463562012","lon":"-77.413055","lat":"39.374027","theaterChainName":"Regal Cinemas","ticketType":"STANDARD"},{"id":"487","name":"Regal Westminister 9","address":"400 Center St.","city":"Westminster","state":"MD","zip":"21157","distance":"24.13990020751953","lon":"-76.983704","lat":"39.577190","theaterChainName":"Regal Cinemas","ticketType":"STANDARD"},{"id":"5444","name":"The Pikes Theatre","address":"921 Reisterstown Rd.","city":"Pikesville","state":"MD","zip":"21208","distance":"24.311002731323242","lon":"-76.790482","lat":"39.406338","theaterChainName":"Independent Chains","ticketType":"STANDARD"},{"id":"2135","name":"AMC Owings Mills 17","address":"10100 Mill Run Circle","city":"Owings Mills","state":"MD","zip":"21117","distance":"24.36404800415039","lon":"-76.788849","lat":"39.405228","theaterChainName":"AMC Theatres","ticketType":"STANDARD"},{"id":"486","name":"AMC Security Square 8","address":"1717 Rolling Road","city":"Baltimore","state":"MD","zip":"21244","distance":"24.810319900512695","lon":"-76.750938","lat":"39.307598","theaterChainName":"AMC Theatres","ticketType":"STANDARD"},{"id":"207","name":"AMC Loews Uptown 1","address":"3426 Connecticut Ave. NW","city":"Washington","state":"DC","zip":"20008","distance":"24.989730834960938","lon":"-77.058403","lat":"38.934944","theaterChainName":"AMC Theatres","ticketType":"STANDARD"},{"id":"206","name":"AMC Mazza Gallerie","address":"5300 Wisconsin Ave., NW","city":"Washington","state":"DC","zip":"20015","distance":"22.965009689331055","lon":"-77.084801","lat":"38.959000","theaterChainName":"AMC Theatres","ticketType":"STANDARD"},{"id":"205","name":"The Avalon Theatre","address":"5612 Connecticut Ave. NW","city":"Washington","state":"DC","zip":"20015","distance":"22.694137573242188","lon":"-77.076103","lat":"38.965336","theaterChainName":"Independent Chains","ticketType":"STANDARD"},{"id":"3844","name":"Regal Majestic Cinema 20 & IMAX","address":"900 Ellsworth Drive","city":"Silver Spring","state":"MD","zip":"20910","distance":"21.777090072631836","lon":"-77.025406","lat":"38.996574","theaterChainName":"Regal Cinemas","ticketType":"STANDARD"},{"id":"3859","name":"AFI Silver Theatre Cultural Center","address":"8633 Colesville Rd","city":"Silver Spring","state":"MD","zip":"20910","distance":"21.773223876953125","lon":"-77.025543","lat":"38.996582","theaterChainName":"Independent Chains","ticketType":"STANDARD"},{"id":"502","name":"Regal Bethesda","address":"7272 Wisconsin Ave.","city":"Bethesda","state":"MD","zip":"20814","distance":"21.301023483276367","lon":"-77.093735","lat":"38.982059","theaterChainName":"Regal Cinemas","ticketType":"STANDARD"},{"id":"5977","name":"AMC Wheaton Mall 9","address":"11006 Veirs Mall Road","city":"Wheaton","state":"MD","zip":"20902","distance":"18.731618881225586","lon":"-77.051964","lat":"39.035522","theaterChainName":"AMC Theatres","ticketType":"STANDARD"},{"id":"136","name":"AMC Loews Center Park 8","address":"4001 Powder Mill Rd.","city":"Beltsville","state":"MD","zip":"20705","distance":"21.69451332092285","lon":"-76.937401","lat":"39.046143","theaterChainName":"AMC Theatres","ticketType":"STANDARD"},{"id":"4108","name":"AMC Tysons Corner 16","address":"7850 Tysons Corner Center","city":"West McLean","state":"VA","zip":"22102","distance":"24.76433563232422","lon":"-77.218933","lat":"38.917732","theaterChainName":"AMC Theatres","ticketType":"STANDARD"},{"id":"1458","name":"Regal Rockville Center Stadium 13","address":"199 E. Montgomery Ave.","city":"Rockville","state":"MD","zip":"20850","distance":"13.699935913085938","lon":"-77.149925","lat":"39.083973","theaterChainName":"Regal Cinemas","ticketType":"STANDARD"},{"id":"5547","name":"Laurel Mall St. 12","address":"14716 Baltimore Ave","city":"Laurel","state":"MD","zip":"20707","distance":"22.948226928710938","lon":"-76.855797","lat":"39.092800","theaterChainName":"Regal Cinemas","ticketType":"STANDARD"},{"id":"201","name":"AMC Loews Rio Cinemas 18","address":"9811 Washingtonian Blvd","city":"Gaithersburg","state":"MD","zip":"20878","distance":"11.080696105957031","lon":"-77.197525","lat":"39.116192","theaterChainName":"AMC Theatres","ticketType":"STANDARD"},{"id":"2025","name":"Kentlands Stadium 10","address":"629 Centerpoint Way","city":"Gaithersburg","state":"MD","zip":"20878","distance":"10.73528003692627","lon":"-77.234222","lat":"39.121601","theaterChainName":"Independent Chains","ticketType":"STANDARD"},{"id":"277","name":"Bow Tie Cinemas Reston Town Center 13","address":"11940 Market St","city":"Reston","state":"VA","zip":"20190","distance":"23.258926391601562","lon":"-77.358101","lat":"38.958847","theaterChainName":"Bow-Tie Cinemas","ticketType":"STANDARD"},{"id":"712","name":"United Artists Snowden Square Stadium 14","address":"9161 Commerce Center Drive","city":"Columbia","state":"MD","zip":"21046","distance":"22.12694549560547","lon":"-76.819672","lat":"39.177795","theaterChainName":"United Artists","ticketType":"STANDARD"},{"id":"3683","name":"AMC Columbia 14","address":"10300 Patuxent Parkway","city":"Columbia","state":"MD","zip":"21044","distance":"19.144920349121094","lon":"-76.863548","lat":"39.217030","theaterChainName":"AMC Theatres","ticketType":"STANDARD"},{"id":"5345","name":"AMC Worldgate 9","address":"13025 Worldgate Dr.","city":"Herndon","state":"VA","zip":"20170","distance":"24.17451286315918","lon":"-77.399696","lat":"38.957600","theaterChainName":"AMC Theatres","ticketType":"STANDARD"},{"id":"501","name":"Regal Countryside Stadium 20","address":"45980 Regal Plaza","city":"Sterling","state":"VA","zip":"20165","distance":"19.564029693603516","lon":"-77.409012","lat":"39.037170","theaterChainName":"Regal Cinemas","ticketType":"STANDARD"},{"id":"5546","name":"Dulles Town Center St. 10","address":"21010 Dulles Town Circle","city":"Sterling","state":"VA","zip":"20164","distance":"20.469472885131836","lon":"-77.424202","lat":"39.029202","theaterChainName":"Regal Cinemas","ticketType":"STANDARD"},{"id":"5704","name":"Starplex Loudoun Station Luxury Cinemas 11","address":"43751 Central Station Drive","city":"Ashburn","state":"VA","zip":"20147","distance":"23.737104415893555","lon":"-77.487617","lat":"39.006508","theaterChainName":"AMC Theatres","ticketType":"STANDARD"},{"id":"5321","name":"Alamo Drafthouse Loudoun","address":"20575 E. Hampton Plaza","city":"Ashburn","state":"VA","zip":"20147","distance":"20.15138816833496","lon":"-77.454422","lat":"39.052399","theaterChainName":"Alamo Drafthouse","ticketType":"STANDARD"},{"id":"5063","name":"Cobb Village 12 Cinemas","address":"1600 Village Market Blvd.","city":"Leesburg","state":"VA","zip":"20175","distance":"21.124797821044922","lon":"-77.526794","lat":"39.090782","theaterChainName":"Cobb Theatres","ticketType":"STANDARD"},{"id":"3515","name":"Regal Germantown Stadium 14","address":"20000 Century Blvd.","city":"Germantown","state":"MD","zip":"20874","distance":"6.85917329788208","lon":"-77.261620","lat":"39.184223","theaterChainName":"Regal Cinemas","ticketType":"STANDARD"}]