[{"id":"3533","tribuneTheaterId":"6842","providerTheaterId":"","name":"Flagship Cinemas 7 Churchville","address":"2408 E.Churchville Rd.","city":"Bel Air","state":"MD","zip":"21015","distance":4.4587740721794,"lon":"-76.275727","lat":"39.556571","theaterChainName":"Carmike Cinemas","ticketType":"STANDARD"},{"id":"5978","tribuneTheaterId":"11414","providerTheaterId":"","name":"Horizon Cinemas Fallston","address":"2315 Belair Road","city":"Fallston","state":"MD","zip":"21047","distance":3.7459531812254,"lon":"-76.390931","lat":"39.49218","theaterChainName":"Horizon Cinemas","ticketType":"STANDARD"},{"id":"685","tribuneTheaterId":"8845","providerTheaterId":"","name":"Regal Bel Air Cinema Stadium 14","address":"409 Constant Friendship Blvd.","city":"Abingdon","state":"MD","zip":"21009","distance":6.1927839200449,"lon":"-76.316528","lat":"39.455217","theaterChainName":"Regal Cinemas","ticketType":"STANDARD"},{"id":"700","tribuneTheaterId":"8817","providerTheaterId":"2817","name":"AMC Loews White Marsh 16","address":"8141 Honeygo Blvd","city":"Baltimore","state":"MD","zip":"21236","distance":13.007852100721,"lon":"-76.46464","lat":"39.370702","theaterChainName":"AMC Theatres","ticketType":"STANDARD"},{"id":"489","tribuneTheaterId":"7049","providerTheaterId":"","name":"Beltway Movies","address":"7660 Bel Air Rd.","city":"Baltimore","state":"MD","zip":"21236","distance":14.723077104144,"lon":"-76.519446","lat":"39.367476","theaterChainName":"Independent Chains","ticketType":"STANDARD"},{"id":"1692","tribuneTheaterId":"7424","providerTheaterId":"","name":"Regal Hunt Valley Stadium 12","address":"11511 McCormick Road","city":"Hunt Valley","state":"MD","zip":"21030","distance":16.208060218528,"lon":"-76.656053","lat":"39.499447","theaterChainName":"Regal Cinemas","ticketType":"STANDARD"},{"id":"5495","tribuneTheaterId":"10957","providerTheaterId":"","name":"Cinemark Towson and XD","address":"111 East Joppa Road","city":"Towson","state":"MD","zip":"21286","distance":16.089035189173,"lon":"-76.600516","lat":"39.402607","theaterChainName":"Cinemark","ticketType":"STANDARD"},{"id":"490","tribuneTheaterId":"4047","providerTheaterId":"","name":"Senator Theatre","address":"5904 York Rd.","city":"Baltimore","state":"MD","zip":"21212","distance":18.178360650163,"lon":"-76.6099","lat":"39.3636","theaterChainName":"Independent Chains","ticketType":"STANDARD"},{"id":"4824","tribuneTheaterId":"10098","providerTheaterId":"","name":"East Point Movies 10","address":"7938 Eastern Avenue","city":"Baltimore","state":"MD","zip":"21224","distance":18.568736911293,"lon":"-76.509156","lat":"39.297946","theaterChainName":"Independent Chains","ticketType":"STANDARD"},{"id":"485","tribuneTheaterId":"2925","providerTheaterId":"","name":"The Charles","address":"1711 N. Charles St.","city":"Baltimore","state":"MD","zip":"21201","distance":21.103124156872,"lon":"-76.616313","lat":"39.309232","theaterChainName":"Independent Chains","ticketType":"STANDARD"},{"id":"135","tribuneTheaterId":"2662","providerTheaterId":"","name":"Rotunda Cinemas","address":"711 W. 40th St.","city":"Baltimore","state":"MD","zip":"21211","distance":20.280237194495,"lon":"-76.630776","lat":"39.336298","theaterChainName":"Independent Chains","ticketType":"STANDARD"},{"id":"2135","tribuneTheaterId":"5312","providerTheaterId":"804","name":"AMC Owings Mills 17","address":"10100 Mill Run Circle","city":"Owings Mills","state":"MD","zip":"21117","distance":24.857944256856,"lon":"-76.788847","lat":"39.405229","theaterChainName":"AMC Theatres","ticketType":"STANDARD"},{"id":"5444","tribuneTheaterId":"10884","providerTheaterId":"","name":"The Pikes Theatre","address":"921 Reisterstown Rd.","city":"Pikesville","state":"MD","zip":"21208","distance":24.910300905753,"lon":"-76.790481","lat":"39.406337","theaterChainName":"Independent Chains","ticketType":"STANDARD"}]