[{"id":"1692","name":"Regal Hunt Valley Stadium 12","address":"11511 McCormick Road","city":"Hunt Valley","state":"MD","zip":"21030","distance":"22.4106388092041","lon":"-76.656052","lat":"39.499447","theaterChainName":"Regal Cinemas","ticketType":"STANDARD"},{"id":"5444","name":"The Pikes Theatre","address":"921 Reisterstown Rd.","city":"Pikesville","state":"MD","zip":"21208","distance":"14.082728385925293","lon":"-76.790482","lat":"39.406338","theaterChainName":"Independent Chains","ticketType":"STANDARD"},{"id":"2135","name":"AMC Owings Mills 17","address":"10100 Mill Run Circle","city":"Owings Mills","state":"MD","zip":"21117","distance":"14.021166801452637","lon":"-76.788849","lat":"39.405228","theaterChainName":"AMC Theatres","ticketType":"STANDARD"},{"id":"5495","name":"Cinemark Towson and XD","address":"111 East Joppa Road","city":"Towson","state":"MD","zip":"21286","distance":"18.430795669555664","lon":"-76.600517","lat":"39.402607","theaterChainName":"Cinemark","ticketType":"STANDARD"},{"id":"490","name":"Senator Theatre","address":"5904 York Rd.","city":"Baltimore","state":"MD","zip":"21212","distance":"16.16462516784668","lon":"-76.609901","lat":"39.363602","theaterChainName":"Independent Chains","ticketType":"STANDARD"},{"id":"486","name":"AMC Security Square 8","address":"1717 Rolling Road","city":"Baltimore","state":"MD","zip":"21244","distance":"8.31035327911377","lon":"-76.750938","lat":"39.307598","theaterChainName":"AMC Theatres","ticketType":"STANDARD"},{"id":"135","name":"Rotunda Cinemas","address":"711 W. 40th St.","city":"Baltimore","state":"MD","zip":"21211","distance":"14.081132888793945","lon":"-76.630775","lat":"39.336300","theaterChainName":"Independent Chains","ticketType":"STANDARD"},{"id":"489","name":"Beltway Movies","address":"7660 Bel Air Rd.","city":"Baltimore","state":"MD","zip":"21236","distance":"20.140789031982422","lon":"-76.519447","lat":"39.367477","theaterChainName":"Independent Chains","ticketType":"STANDARD"},{"id":"700","name":"AMC Loews White Marsh 16","address":"8141 Honeygo Blvd","city":"Baltimore","state":"MD","zip":"21236","distance":"22.74492073059082","lon":"-76.464638","lat":"39.370701","theaterChainName":"AMC Theatres","ticketType":"STANDARD"},{"id":"4824","name":"East Point Movies 10","address":"7938 Eastern Avenue","city":"Baltimore","state":"MD","zip":"21224","distance":"18.43739891052246","lon":"-76.509155","lat":"39.297947","theaterChainName":"Independent Chains","ticketType":"STANDARD"},{"id":"485","name":"The Charles","address":"1711 N. Charles St.","city":"Baltimore","state":"MD","zip":"21201","distance":"13.608429908752441","lon":"-76.616310","lat":"39.309231","theaterChainName":"Independent Chains","ticketType":"STANDARD"},{"id":"3898","name":"Regal Gallery Place Stadium 14","address":"707 Seventh Street NW","city":"Washington","state":"DC","zip":"20001","distance":"23.497957229614258","lon":"-77.021729","lat":"38.898533","theaterChainName":"Regal Cinemas","ticketType":"STANDARD"},{"id":"3581","name":"AMC Loews Georgetown 14","address":"3111 K Street N.W.","city":"Washington","state":"DC","zip":"20007","distance":"24.27869987487793","lon":"-77.062653","lat":"38.902721","theaterChainName":"AMC Theatres","ticketType":"STANDARD"},{"id":"5494","name":"Angelika Pop-Up at Union Market","address":"550 Penn St","city":"Washington","state":"DC","zip":"20002","distance":"22.206912994384766","lon":"-76.996208","lat":"38.910027","theaterChainName":"Reading International, Inc","ticketType":"STANDARD"},{"id":"207","name":"AMC Loews Uptown 1","address":"3426 Connecticut Ave. NW","city":"Washington","state":"DC","zip":"20008","distance":"22.264728546142578","lon":"-77.058403","lat":"38.934944","theaterChainName":"AMC Theatres","ticketType":"STANDARD"},{"id":"206","name":"AMC Mazza Gallerie","address":"5300 Wisconsin Ave., NW","city":"Washington","state":"DC","zip":"20015","distance":"21.742502212524414","lon":"-77.084801","lat":"38.959000","theaterChainName":"AMC Theatres","ticketType":"STANDARD"},{"id":"205","name":"The Avalon Theatre","address":"5612 Connecticut Ave. NW","city":"Washington","state":"DC","zip":"20015","distance":"21.109220504760742","lon":"-77.076103","lat":"38.965336","theaterChainName":"Independent Chains","ticketType":"STANDARD"},{"id":"3844","name":"Regal Majestic Cinema 20 & IMAX","address":"900 Ellsworth Drive","city":"Silver Spring","state":"MD","zip":"20910","distance":"17.746644973754883","lon":"-77.025406","lat":"38.996574","theaterChainName":"Regal Cinemas","ticketType":"STANDARD"},{"id":"3859","name":"AFI Silver Theatre Cultural Center","address":"8633 Colesville Rd","city":"Silver Spring","state":"MD","zip":"20910","distance":"17.750516891479492","lon":"-77.025543","lat":"38.996582","theaterChainName":"Independent Chains","ticketType":"STANDARD"},{"id":"4370","name":"Regal Hyattsville Royale Stadium 14","address":"6505 America Blvd","city":"Hyattsville","state":"MD","zip":"20782","distance":"17.560457229614258","lon":"-76.951881","lat":"38.968548","theaterChainName":"Regal Cinemas","ticketType":"STANDARD"},{"id":"502","name":"Regal Bethesda","address":"7272 Wisconsin Ave.","city":"Bethesda","state":"MD","zip":"20814","distance":"20.838294982910156","lon":"-77.093735","lat":"38.982059","theaterChainName":"Regal Cinemas","ticketType":"STANDARD"},{"id":"5977","name":"AMC Wheaton Mall 9","address":"11006 Veirs Mall Road","city":"Wheaton","state":"MD","zip":"20902","distance":"16.615999221801758","lon":"-77.051964","lat":"39.035522","theaterChainName":"AMC Theatres","ticketType":"STANDARD"},{"id":"136","name":"AMC Loews Center Park 8","address":"4001 Powder Mill Rd.","city":"Beltsville","state":"MD","zip":"20705","distance":"12.346686363220215","lon":"-76.937401","lat":"39.046143","theaterChainName":"AMC Theatres","ticketType":"STANDARD"},{"id":"3887","name":"AMC Magic Johnson Capital Center 12","address":"800 Shoppers Way","city":"Largo","state":"MD","zip":"20774","distance":"22.068937301635742","lon":"-76.807297","lat":"38.886299","theaterChainName":"AMC Theatres","ticketType":"STANDARD"},{"id":"479","name":"Old Greenbelt Theatre","address":"129 Centerway","city":"Greenbelt","state":"MD","zip":"20770","distance":"14.271406173706055","lon":"-76.875999","lat":"39.001377","theaterChainName":"Independent Chains","ticketType":"STANDARD"},{"id":"1458","name":"Regal Rockville Center Stadium 13","address":"199 E. Montgomery Ave.","city":"Rockville","state":"MD","zip":"20850","distance":"18.972532272338867","lon":"-77.149925","lat":"39.083973","theaterChainName":"Regal Cinemas","ticketType":"STANDARD"},{"id":"5547","name":"Laurel Mall St. 12","address":"14716 Baltimore Ave","city":"Laurel","state":"MD","zip":"20707","distance":"7.8620734214782715","lon":"-76.855797","lat":"39.092800","theaterChainName":"Regal Cinemas","ticketType":"STANDARD"},{"id":"201","name":"AMC Loews Rio Cinemas 18","address":"9811 Washingtonian Blvd","city":"Gaithersburg","state":"MD","zip":"20878","distance":"20.51444435119629","lon":"-77.197525","lat":"39.116192","theaterChainName":"AMC Theatres","ticketType":"STANDARD"},{"id":"1699","name":"Regal Bowie Stadium 14","address":"15200 Major Lansdale Blvd.","city":"Bowie","state":"MD","zip":"20716","distance":"18.255653381347656","lon":"-76.739601","lat":"38.950867","theaterChainName":"Regal Cinemas","ticketType":"STANDARD"},{"id":"2025","name":"Kentlands Stadium 10","address":"629 Centerpoint Way","city":"Gaithersburg","state":"MD","zip":"20878","distance":"22.297657012939453","lon":"-77.234222","lat":"39.121601","theaterChainName":"Independent Chains","ticketType":"STANDARD"},{"id":"712","name":"United Artists Snowden Square Stadium 14","address":"9161 Commerce Center Drive","city":"Columbia","state":"MD","zip":"21046","distance":"2.0024783611297607","lon":"-76.819672","lat":"39.177795","theaterChainName":"United Artists","ticketType":"STANDARD"},{"id":"3683","name":"AMC Columbia 14","address":"10300 Patuxent Parkway","city":"Columbia","state":"MD","zip":"21044","distance":"1.8698488473892212","lon":"-76.863548","lat":"39.217030","theaterChainName":"AMC Theatres","ticketType":"STANDARD"},{"id":"5212","name":"Waugh Chapel Stadium 12 & IMAX","address":"1419 S. Main Chapel Way","city":"Gambrills","state":"MD","zip":"21054","distance":"14.255322456359863","lon":"-76.678398","lat":"39.036800","theaterChainName":"Regal Cinemas","ticketType":"STANDARD"},{"id":"3115","name":"Cinemark Egyptian 24","address":"7000 Arundel Mills Cir","city":"Hanover","state":"MD","zip":"21076","distance":"6.508513927459717","lon":"-76.725006","lat":"39.160732","theaterChainName":"Cinemark","ticketType":"STANDARD"},{"id":"3515","name":"Regal Germantown Stadium 14","address":"20000 Century Blvd.","city":"Germantown","state":"MD","zip":"20874","distance":"23.041019439697266","lon":"-77.261620","lat":"39.184223","theaterChainName":"Regal Cinemas","ticketType":"STANDARD"},{"id":"477","name":"Bow Tie Cinemas Annapolis Harbour","address":"2474 Solomons Island Rd","city":"Annapolis","state":"MD","zip":"21401","distance":"22.236066818237305","lon":"-76.542465","lat":"38.974907","theaterChainName":"Bow-Tie Cinemas","ticketType":"STANDARD"},{"id":"478","name":"Bow Tie Cinemas Annapolis Mall","address":"Annapolis Mall Route 450","city":"Annapolis","state":"MD","zip":"21401","distance":"21.46211051940918","lon":"-76.545708","lat":"38.988213","theaterChainName":"Bow-Tie Cinemas","ticketType":"STANDARD"},{"id":"872","name":"West Nursery","address":"1591 W. Nursery Road","city":"Linthicum","state":"MD","zip":"21090","distance":"8.274162292480469","lon":"-76.677666","lat":"39.205235","theaterChainName":"Hoyts","ticketType":"STANDARD"},{"id":"866","name":"R\/C Hollywood Cinema 4","address":"5509 Oregon Ave.","city":"Arbutus","state":"MD","zip":"21227","distance":"7.946688175201416","lon":"-76.693703","lat":"39.246525","theaterChainName":"R\/C Theatres","ticketType":"STANDARD"},{"id":"5529","name":"Marley Station Movies","address":"7900 Ritchie Hwy","city":"Glen Burnie","state":"MD","zip":"21061","distance":"12.97097110748291","lon":"-76.605629","lat":"39.138874","theaterChainName":"Independent Chains","ticketType":"STANDARD"},{"id":"5602","name":"Sun Valley Movies","address":"7959 Baltimore Annapolis Blvd.","city":"Glen Burnie","state":"MD","zip":"21060","distance":"14.105669021606445","lon":"-76.584572","lat":"39.135689","theaterChainName":"Independent Chains","ticketType":"STANDARD"}]