[{"id":"3533","tribuneTheaterId":"6842","providerTheaterId":"","name":"Flagship Cinemas 7 Churchville","address":"2408 E.Churchville Rd.","city":"Bel Air","state":"MD","zip":"21015","distance":8.4555769399782,"lon":"-76.275727","lat":"39.556571","theaterChainName":"Carmike Cinemas","ticketType":"STANDARD"},{"id":"685","tribuneTheaterId":"8845","providerTheaterId":"","name":"Regal Bel Air Cinema Stadium 14","address":"409 Constant Friendship Blvd.","city":"Abingdon","state":"MD","zip":"21009","distance":12.570931113488,"lon":"-76.316528","lat":"39.455217","theaterChainName":"Regal Cinemas","ticketType":"STANDARD"},{"id":"5978","tribuneTheaterId":"11414","providerTheaterId":"","name":"Horizon Cinemas Fallston","address":"2315 Belair Road","city":"Fallston","state":"MD","zip":"21047","distance":15.174005872427,"lon":"-76.390931","lat":"39.49218","theaterChainName":"Horizon Cinemas","ticketType":"STANDARD"},{"id":"590","tribuneTheaterId":"7744","providerTheaterId":"","name":"Regal Peoples Plaza Cinema Stadium 17","address":"1100 Peoples Plaza","city":"Newark","state":"DE","zip":"19702","distance":19.934969507503,"lon":"-75.748554","lat":"39.602841","theaterChainName":"Regal Cinemas","ticketType":"STANDARD"},{"id":"725","tribuneTheaterId":"6332","providerTheaterId":"","name":"P and G Chester 5 Theatre","address":"21 Washington Square","city":"Chestertown","state":"MD","zip":"21620","distance":22.382315094166,"lon":"-76.069854","lat":"39.230421","theaterChainName":"Independent Chains","ticketType":"STANDARD"},{"id":"700","tribuneTheaterId":"8817","providerTheaterId":"2817","name":"AMC Loews White Marsh 16","address":"8141 Honeygo Blvd","city":"Baltimore","state":"MD","zip":"21236","distance":22.38586613843,"lon":"-76.46464","lat":"39.370702","theaterChainName":"AMC Theatres","ticketType":"STANDARD"},{"id":"5989","tribuneTheaterId":"11425","providerTheaterId":"","name":"Main Street Movies 5","address":"230 East Main Street","city":"Newark","state":"DE","zip":"19711","distance":21.87066020323,"lon":"-75.744789","lat":"39.686269","theaterChainName":"Independent Chains","ticketType":"STANDARD"},{"id":"489","tribuneTheaterId":"7049","providerTheaterId":"","name":"Beltway Movies","address":"7660 Bel Air Rd.","city":"Baltimore","state":"MD","zip":"21236","distance":24.974737737214,"lon":"-76.519446","lat":"39.367476","theaterChainName":"Independent Chains","ticketType":"STANDARD"}]