[{"id":"590","name":"Regal Peoples Plaza Cinema Stadium 17","address":"1100 Peoples Plaza","city":"Newark","state":"DE","zip":"19702","distance":"19.936580657958984","lon":"-75.748550","lat":"39.602840","theaterChainName":"Regal Cinemas","ticketType":"STANDARD"},{"id":"5989","name":"Main Street Movies 5","address":"230 East Main Street","city":"Newark","state":"DE","zip":"19711","distance":"21.872163772583008","lon":"-75.744789","lat":"39.686268","theaterChainName":"Independent Chains","ticketType":"STANDARD"},{"id":"489","name":"Beltway Movies","address":"7660 Bel Air Rd.","city":"Baltimore","state":"MD","zip":"21236","distance":"24.97611427307129","lon":"-76.519447","lat":"39.367477","theaterChainName":"Independent Chains","ticketType":"STANDARD"},{"id":"5978","name":"Horizon Cinemas Fallston","address":"2315 Belair Road","city":"Fallston","state":"MD","zip":"21047","distance":"15.174714088439941","lon":"-76.390930","lat":"39.492180","theaterChainName":"Horizon Cinemas","ticketType":"STANDARD"},{"id":"3533","name":"Flagship Cinemas 7 Churchville","address":"2408 E.Churchville Rd.","city":"Bel Air","state":"MD","zip":"21015","distance":"8.455877304077148","lon":"-76.275726","lat":"39.556572","theaterChainName":"Carmike Cinemas","ticketType":"STANDARD"},{"id":"685","name":"Regal Bel Air Cinema Stadium 14","address":"409 Constant Friendship Blvd.","city":"Abingdon","state":"MD","zip":"21009","distance":"12.571601867675781","lon":"-76.316528","lat":"39.455215","theaterChainName":"Regal Cinemas","ticketType":"STANDARD"},{"id":"700","name":"AMC Loews White Marsh 16","address":"8141 Honeygo Blvd","city":"Baltimore","state":"MD","zip":"21236","distance":"22.387022018432617","lon":"-76.464638","lat":"39.370701","theaterChainName":"AMC Theatres","ticketType":"STANDARD"},{"id":"725","name":"P and G Chester 5 Theatre","address":"21 Washington Square","city":"Chestertown","state":"MD","zip":"21620","distance":"22.383811950683594","lon":"-76.069855","lat":"39.230419","theaterChainName":"Independent Chains","ticketType":"STANDARD"}]