[{"id":"1444","name":"Regal West Manchester Mall 13","address":"1800 Loucks Road","city":"York","state":"PA","zip":"17408","distance":"18.92399787902832","lon":"-76.771713","lat":"39.971367","theaterChainName":"Regal Cinemas","ticketType":"STANDARD"},{"id":"5881","name":"SMALL STAR Art house","address":"232 West Market Street","city":"York","state":"PA","zip":"17401","distance":"17.644163131713867","lon":"-76.733116","lat":"39.960415","theaterChainName":"Independent Chains","ticketType":"STANDARD"},{"id":"4914","name":"Queensgate Stadium 13","address":"2067 Springwood Road","city":"York","state":"PA","zip":"17403","distance":"16.000425338745117","lon":"-76.693352","lat":"39.941498","theaterChainName":"Frank Theatres","ticketType":"STANDARD"},{"id":"3609","name":"South York Plaza Cinemas 4","address":"217 Pauline Drive","city":"York","state":"PA","zip":"17402","distance":"15.379192352294922","lon":"-76.682617","lat":"39.933262","theaterChainName":"Independent Chains","ticketType":"STANDARD"},{"id":"3121","name":"R\/C Hanover Movies","address":"380 Eisenhower Dr.","city":"Hanover","state":"PA","zip":"17331","distance":"19.141630172729492","lon":"-76.989555","lat":"39.822662","theaterChainName":"R\/C Theatres","ticketType":"STANDARD"},{"id":"1014","name":"Glen Theatre","address":"37 Manchester Street","city":"Glen Rock","state":"PA","zip":"17327","distance":"6.654940605163574","lon":"-76.730080","lat":"39.790970","theaterChainName":"Independent Chains","ticketType":"STANDARD"},{"id":"487","name":"Regal Westminister 9","address":"400 Center St.","city":"Westminster","state":"MD","zip":"21157","distance":"19.584449768066406","lon":"-76.983704","lat":"39.577190","theaterChainName":"Regal Cinemas","ticketType":"STANDARD"},{"id":"1692","name":"Regal Hunt Valley Stadium 12","address":"11511 McCormick Road","city":"Hunt Valley","state":"MD","zip":"21030","distance":"14.646536827087402","lon":"-76.656052","lat":"39.499447","theaterChainName":"Regal Cinemas","ticketType":"STANDARD"},{"id":"5444","name":"The Pikes Theatre","address":"921 Reisterstown Rd.","city":"Pikesville","state":"MD","zip":"21208","distance":"22.20387077331543","lon":"-76.790482","lat":"39.406338","theaterChainName":"Independent Chains","ticketType":"STANDARD"},{"id":"2135","name":"AMC Owings Mills 17","address":"10100 Mill Run Circle","city":"Owings Mills","state":"MD","zip":"21117","distance":"22.2496280670166","lon":"-76.788849","lat":"39.405228","theaterChainName":"AMC Theatres","ticketType":"STANDARD"},{"id":"5495","name":"Cinemark Towson and XD","address":"111 East Joppa Road","city":"Towson","state":"MD","zip":"21286","distance":"21.56692123413086","lon":"-76.600517","lat":"39.402607","theaterChainName":"Cinemark","ticketType":"STANDARD"},{"id":"490","name":"Senator Theatre","address":"5904 York Rd.","city":"Baltimore","state":"MD","zip":"21212","distance":"24.176862716674805","lon":"-76.609901","lat":"39.363602","theaterChainName":"Independent Chains","ticketType":"STANDARD"},{"id":"489","name":"Beltway Movies","address":"7660 Bel Air Rd.","city":"Baltimore","state":"MD","zip":"21236","distance":"24.90845489501953","lon":"-76.519447","lat":"39.367477","theaterChainName":"Independent Chains","ticketType":"STANDARD"},{"id":"5978","name":"Horizon Cinemas Fallston","address":"2315 Belair Road","city":"Fallston","state":"MD","zip":"21047","distance":"20.830080032348633","lon":"-76.390930","lat":"39.492180","theaterChainName":"Horizon Cinemas","ticketType":"STANDARD"},{"id":"3533","name":"Flagship Cinemas 7 Churchville","address":"2408 E.Churchville Rd.","city":"Bel Air","state":"MD","zip":"21015","distance":"23.05473518371582","lon":"-76.275726","lat":"39.556572","theaterChainName":"Carmike Cinemas","ticketType":"STANDARD"}]