[{"id":"1692","name":"Regal Hunt Valley Stadium 12","address":"11511 McCormick Road","city":"Hunt Valley","state":"MD","zip":"21030","distance":"12.883091926574707","lon":"-76.656052","lat":"39.499447","theaterChainName":"Regal Cinemas","ticketType":"STANDARD"},{"id":"5444","name":"The Pikes Theatre","address":"921 Reisterstown Rd.","city":"Pikesville","state":"MD","zip":"21208","distance":"18.12926483154297","lon":"-76.790482","lat":"39.406338","theaterChainName":"Independent Chains","ticketType":"STANDARD"},{"id":"2135","name":"AMC Owings Mills 17","address":"10100 Mill Run Circle","city":"Owings Mills","state":"MD","zip":"21117","distance":"18.040851593017578","lon":"-76.788849","lat":"39.405228","theaterChainName":"AMC Theatres","ticketType":"STANDARD"},{"id":"5495","name":"Cinemark Towson and XD","address":"111 East Joppa Road","city":"Towson","state":"MD","zip":"21286","distance":"7.9840850830078125","lon":"-76.600517","lat":"39.402607","theaterChainName":"Cinemark","ticketType":"STANDARD"},{"id":"490","name":"Senator Theatre","address":"5904 York Rd.","city":"Baltimore","state":"MD","zip":"21212","distance":"8.871453285217285","lon":"-76.609901","lat":"39.363602","theaterChainName":"Independent Chains","ticketType":"STANDARD"},{"id":"486","name":"AMC Security Square 8","address":"1717 Rolling Road","city":"Baltimore","state":"MD","zip":"21244","distance":"17.27635383605957","lon":"-76.750938","lat":"39.307598","theaterChainName":"AMC Theatres","ticketType":"STANDARD"},{"id":"135","name":"Rotunda Cinemas","address":"711 W. 40th St.","city":"Baltimore","state":"MD","zip":"21211","distance":"10.593066215515137","lon":"-76.630775","lat":"39.336300","theaterChainName":"Independent Chains","ticketType":"STANDARD"},{"id":"489","name":"Beltway Movies","address":"7660 Bel Air Rd.","city":"Baltimore","state":"MD","zip":"21236","distance":"4.327794551849365","lon":"-76.519447","lat":"39.367477","theaterChainName":"Independent Chains","ticketType":"STANDARD"},{"id":"5978","name":"Horizon Cinemas Fallston","address":"2315 Belair Road","city":"Fallston","state":"MD","zip":"21047","distance":"7.068612098693848","lon":"-76.390930","lat":"39.492180","theaterChainName":"Horizon Cinemas","ticketType":"STANDARD"},{"id":"3533","name":"Flagship Cinemas 7 Churchville","address":"2408 E.Churchville Rd.","city":"Bel Air","state":"MD","zip":"21015","distance":"14.24551010131836","lon":"-76.275726","lat":"39.556572","theaterChainName":"Carmike Cinemas","ticketType":"STANDARD"},{"id":"685","name":"Regal Bel Air Cinema Stadium 14","address":"409 Constant Friendship Blvd.","city":"Abingdon","state":"MD","zip":"21009","distance":"8.095741271972656","lon":"-76.316528","lat":"39.455215","theaterChainName":"Regal Cinemas","ticketType":"STANDARD"},{"id":"700","name":"AMC Loews White Marsh 16","address":"8141 Honeygo Blvd","city":"Baltimore","state":"MD","zip":"21236","distance":"2.2167935371398926","lon":"-76.464638","lat":"39.370701","theaterChainName":"AMC Theatres","ticketType":"STANDARD"},{"id":"4824","name":"East Point Movies 10","address":"7938 Eastern Avenue","city":"Baltimore","state":"MD","zip":"21224","distance":"7.769340991973877","lon":"-76.509155","lat":"39.297947","theaterChainName":"Independent Chains","ticketType":"STANDARD"},{"id":"485","name":"The Charles","address":"1711 N. Charles St.","city":"Baltimore","state":"MD","zip":"21201","distance":"10.872969627380371","lon":"-76.616310","lat":"39.309231","theaterChainName":"Independent Chains","ticketType":"STANDARD"},{"id":"725","name":"P and G Chester 5 Theatre","address":"21 Washington Square","city":"Chestertown","state":"MD","zip":"21620","distance":"23.538862228393555","lon":"-76.069855","lat":"39.230419","theaterChainName":"Independent Chains","ticketType":"STANDARD"},{"id":"3115","name":"Cinemark Egyptian 24","address":"7000 Arundel Mills Cir","city":"Hanover","state":"MD","zip":"21076","distance":"22.14512825012207","lon":"-76.725006","lat":"39.160732","theaterChainName":"Cinemark","ticketType":"STANDARD"},{"id":"872","name":"West Nursery","address":"1591 W. Nursery Road","city":"Linthicum","state":"MD","zip":"21090","distance":"18.162134170532227","lon":"-76.677666","lat":"39.205235","theaterChainName":"Hoyts","ticketType":"STANDARD"},{"id":"866","name":"R\/C Hollywood Cinema 4","address":"5509 Oregon Ave.","city":"Arbutus","state":"MD","zip":"21227","distance":"16.799903869628906","lon":"-76.693703","lat":"39.246525","theaterChainName":"R\/C Theatres","ticketType":"STANDARD"},{"id":"5529","name":"Marley Station Movies","address":"7900 Ritchie Hwy","city":"Glen Burnie","state":"MD","zip":"21061","distance":"19.911794662475586","lon":"-76.605629","lat":"39.138874","theaterChainName":"Independent Chains","ticketType":"STANDARD"},{"id":"5602","name":"Sun Valley Movies","address":"7959 Baltimore Annapolis Blvd.","city":"Glen Burnie","state":"MD","zip":"21060","distance":"19.675796508789062","lon":"-76.584572","lat":"39.135689","theaterChainName":"Independent Chains","ticketType":"STANDARD"}]