[{"id":"2135","tribuneTheaterId":"5312","providerTheaterId":"804","name":"AMC Owings Mills 17","address":"10100 Mill Run Circle","city":"Owings Mills","state":"MD","zip":"21117","distance":2.2013788632208,"lon":"-76.788847","lat":"39.405229","theaterChainName":"AMC Theatres","ticketType":"STANDARD"},{"id":"5444","tribuneTheaterId":"10884","providerTheaterId":"","name":"The Pikes Theatre","address":"921 Reisterstown Rd.","city":"Pikesville","state":"MD","zip":"21208","distance":2.2533905988112,"lon":"-76.790481","lat":"39.406337","theaterChainName":"Independent Chains","ticketType":"STANDARD"},{"id":"486","tribuneTheaterId":"5310","providerTheaterId":"805","name":"AMC Security Square 8","address":"1717 Rolling Road","city":"Baltimore","state":"MD","zip":"21244","distance":5.3254938594336,"lon":"-76.750939","lat":"39.307597","theaterChainName":"AMC Theatres","ticketType":"STANDARD"},{"id":"490","tribuneTheaterId":"4047","providerTheaterId":"","name":"Senator Theatre","address":"5904 York Rd.","city":"Baltimore","state":"MD","zip":"21212","distance":10.193124796746,"lon":"-76.6099","lat":"39.3636","theaterChainName":"Independent Chains","ticketType":"STANDARD"},{"id":"135","tribuneTheaterId":"2662","providerTheaterId":"","name":"Rotunda Cinemas","address":"711 W. 40th St.","city":"Baltimore","state":"MD","zip":"21211","distance":9.4303809458532,"lon":"-76.630776","lat":"39.336298","theaterChainName":"Independent Chains","ticketType":"STANDARD"},{"id":"866","tribuneTheaterId":"7466","providerTheaterId":"","name":"R\/C Hollywood Cinema 4","address":"5509 Oregon Ave.","city":"Arbutus","state":"MD","zip":"21227","distance":10.522206747199,"lon":"-76.693706","lat":"39.246526","theaterChainName":"R\/C Theatres","ticketType":"STANDARD"},{"id":"3683","tribuneTheaterId":"7972","providerTheaterId":"349","name":"AMC Columbia 14","address":"10300 Patuxent Parkway","city":"Columbia","state":"MD","zip":"21044","distance":11.401938930917,"lon":"-76.863549","lat":"39.217028","theaterChainName":"AMC Theatres","ticketType":"STANDARD"},{"id":"5495","tribuneTheaterId":"10957","providerTheaterId":"","name":"Cinemark Towson and XD","address":"111 East Joppa Road","city":"Towson","state":"MD","zip":"21286","distance":10.83717644436,"lon":"-76.600516","lat":"39.402607","theaterChainName":"Cinemark","ticketType":"STANDARD"},{"id":"1692","tribuneTheaterId":"7424","providerTheaterId":"","name":"Regal Hunt Valley Stadium 12","address":"11511 McCormick Road","city":"Hunt Valley","state":"MD","zip":"21030","distance":11.557535116337,"lon":"-76.656053","lat":"39.499447","theaterChainName":"Regal Cinemas","ticketType":"STANDARD"},{"id":"485","tribuneTheaterId":"2925","providerTheaterId":"","name":"The Charles","address":"1711 N. Charles St.","city":"Baltimore","state":"MD","zip":"21201","distance":10.814317685277,"lon":"-76.616313","lat":"39.309232","theaterChainName":"Independent Chains","ticketType":"STANDARD"},{"id":"712","tribuneTheaterId":"8661","providerTheaterId":"","name":"United Artists Snowden Square Stadium 14","address":"9161 Commerce Center Drive","city":"Columbia","state":"MD","zip":"21046","distance":13.637736185124,"lon":"-76.819673","lat":"39.177795","theaterChainName":"United Artists","ticketType":"STANDARD"},{"id":"872","tribuneTheaterId":"8091","providerTheaterId":"","name":"West Nursery","address":"1591 W. Nursery Road","city":"Linthicum","state":"MD","zip":"21090","distance":13.411585243481,"lon":"-76.677665","lat":"39.205236","theaterChainName":"Hoyts","ticketType":"STANDARD"},{"id":"489","tribuneTheaterId":"7049","providerTheaterId":"","name":"Beltway Movies","address":"7660 Bel Air Rd.","city":"Baltimore","state":"MD","zip":"21236","distance":15.003948658336,"lon":"-76.519446","lat":"39.367476","theaterChainName":"Independent Chains","ticketType":"STANDARD"},{"id":"3115","tribuneTheaterId":"8894","providerTheaterId":"","name":"Cinemark Egyptian 24","address":"7000 Arundel Mills Cir","city":"Hanover","state":"MD","zip":"21076","distance":15.314481306251,"lon":"-76.725007","lat":"39.160732","theaterChainName":"Cinemark","ticketType":"STANDARD"},{"id":"4824","tribuneTheaterId":"10098","providerTheaterId":"","name":"East Point Movies 10","address":"7938 Eastern Avenue","city":"Baltimore","state":"MD","zip":"21224","distance":16.430256747663,"lon":"-76.509156","lat":"39.297946","theaterChainName":"Independent Chains","ticketType":"STANDARD"},{"id":"700","tribuneTheaterId":"8817","providerTheaterId":"2817","name":"AMC Loews White Marsh 16","address":"8141 Honeygo Blvd","city":"Baltimore","state":"MD","zip":"21236","distance":17.924823827066,"lon":"-76.46464","lat":"39.370702","theaterChainName":"AMC Theatres","ticketType":"STANDARD"},{"id":"487","tribuneTheaterId":"7145","providerTheaterId":"","name":"Regal Westminister 9","address":"400 Center St.","city":"Westminster","state":"MD","zip":"21157","distance":17.079646080578,"lon":"-76.983707","lat":"39.577189","theaterChainName":"Regal Cinemas","ticketType":"STANDARD"},{"id":"5602","tribuneTheaterId":"11058","providerTheaterId":"","name":"Sun Valley Movies","address":"7959 Baltimore Annapolis Blvd.","city":"Glen Burnie","state":"MD","zip":"21060","distance":20.139011474064,"lon":"-76.584571","lat":"39.135687","theaterChainName":"Independent Chains","ticketType":"STANDARD"},{"id":"5529","tribuneTheaterId":"10960","providerTheaterId":"","name":"Marley Station Movies","address":"7900 Ritchie Hwy","city":"Glen Burnie","state":"MD","zip":"21061","distance":19.329436680738,"lon":"-76.605628","lat":"39.138875","theaterChainName":"Independent Chains","ticketType":"STANDARD"},{"id":"5547","tribuneTheaterId":"10988","providerTheaterId":"","name":"Laurel Mall St. 12","address":"14716 Baltimore Ave","city":"Laurel","state":"MD","zip":"20707","distance":19.696551986879,"lon":"-76.8558","lat":"39.0928","theaterChainName":"Regal Cinemas","ticketType":"STANDARD"},{"id":"5978","tribuneTheaterId":"11414","providerTheaterId":"","name":"Horizon Cinemas Fallston","address":"2315 Belair Road","city":"Fallston","state":"MD","zip":"21047","distance":23.302663130289,"lon":"-76.390931","lat":"39.49218","theaterChainName":"Horizon Cinemas","ticketType":"STANDARD"},{"id":"136","tribuneTheaterId":"7957","providerTheaterId":"2816","name":"AMC Loews Center Park 8","address":"4001 Powder Mill Rd.","city":"Beltsville","state":"MD","zip":"20705","distance":23.853256705124,"lon":"-76.937399","lat":"39.046142","theaterChainName":"AMC Theatres","ticketType":"STANDARD"},{"id":"5212","tribuneTheaterId":"10636","providerTheaterId":"","name":"Waugh Chapel Stadium 12 & IMAX","address":"1419 S. Main Chapel Way","city":"Gambrills","state":"MD","zip":"21054","distance":24.233578917178,"lon":"-76.6784","lat":"39.0368","theaterChainName":"Regal Cinemas","ticketType":"STANDARD"}]