[{"id":"477","tribuneTheaterId":"8441","providerTheaterId":"","name":"Bow Tie Cinemas Annapolis Harbour","address":"2474 Solomons Island Rd","city":"Annapolis","state":"MD","zip":"21401","distance":2.8612505118665,"lon":"-76.542468","lat":"38.974906","theaterChainName":"Bow-Tie Cinemas","ticketType":"STANDARD"},{"id":"478","tribuneTheaterId":"8607","providerTheaterId":"","name":"Bow Tie Cinemas Annapolis Mall","address":"Annapolis Mall Route 450","city":"Annapolis","state":"MD","zip":"21401","distance":3.3721851429039,"lon":"-76.545707","lat":"38.988211","theaterChainName":"Bow-Tie Cinemas","ticketType":"STANDARD"},{"id":"5212","tribuneTheaterId":"10636","providerTheaterId":"","name":"Waugh Chapel Stadium 12 & IMAX","address":"1419 S. Main Chapel Way","city":"Gambrills","state":"MD","zip":"21054","distance":7.7832051284532,"lon":"-76.6784","lat":"39.0368","theaterChainName":"Regal Cinemas","ticketType":"STANDARD"},{"id":"1699","tribuneTheaterId":"5665","providerTheaterId":"","name":"Regal Bowie Stadium 14","address":"15200 Major Lansdale Blvd.","city":"Bowie","state":"MD","zip":"20716","distance":8.2856406473575,"lon":"-76.739599","lat":"38.950867","theaterChainName":"Regal Cinemas","ticketType":"STANDARD"},{"id":"3887","tribuneTheaterId":"4162","providerTheaterId":"2307","name":"AMC Magic Johnson Capital Center 12","address":"800 Shoppers Way","city":"Largo","state":"MD","zip":"20774","distance":12.7244188555,"lon":"-76.8073","lat":"38.8863","theaterChainName":"AMC Theatres","ticketType":"STANDARD"},{"id":"5602","tribuneTheaterId":"11058","providerTheaterId":"","name":"Sun Valley Movies","address":"7959 Baltimore Annapolis Blvd.","city":"Glen Burnie","state":"MD","zip":"21060","distance":12.802168082928,"lon":"-76.584571","lat":"39.135687","theaterChainName":"Independent Chains","ticketType":"STANDARD"},{"id":"5529","tribuneTheaterId":"10960","providerTheaterId":"","name":"Marley Station Movies","address":"7900 Ritchie Hwy","city":"Glen Burnie","state":"MD","zip":"21061","distance":13.067521005001,"lon":"-76.605628","lat":"39.138875","theaterChainName":"Independent Chains","ticketType":"STANDARD"},{"id":"479","tribuneTheaterId":"4103","providerTheaterId":"","name":"Old Greenbelt Theatre","address":"129 Centerway","city":"Greenbelt","state":"MD","zip":"20770","distance":16.001827712022,"lon":"-76.876002","lat":"39.001379","theaterChainName":"Independent Chains","ticketType":"STANDARD"},{"id":"3115","tribuneTheaterId":"8894","providerTheaterId":"","name":"Cinemark Egyptian 24","address":"7000 Arundel Mills Cir","city":"Hanover","state":"MD","zip":"21076","distance":16.349318705706,"lon":"-76.725007","lat":"39.160732","theaterChainName":"Cinemark","ticketType":"STANDARD"},{"id":"5547","tribuneTheaterId":"10988","providerTheaterId":"","name":"Laurel Mall St. 12","address":"14716 Baltimore Ave","city":"Laurel","state":"MD","zip":"20707","distance":17.535225275114,"lon":"-76.8558","lat":"39.0928","theaterChainName":"Regal Cinemas","ticketType":"STANDARD"},{"id":"872","tribuneTheaterId":"8091","providerTheaterId":"","name":"West Nursery","address":"1591 W. Nursery Road","city":"Linthicum","state":"MD","zip":"21090","distance":18.289693158907,"lon":"-76.677665","lat":"39.205236","theaterChainName":"Hoyts","ticketType":"STANDARD"},{"id":"712","tribuneTheaterId":"8661","providerTheaterId":"","name":"United Artists Snowden Square Stadium 14","address":"9161 Commerce Center Drive","city":"Columbia","state":"MD","zip":"21046","distance":20.119761180345,"lon":"-76.819673","lat":"39.177795","theaterChainName":"United Artists","ticketType":"STANDARD"},{"id":"4370","tribuneTheaterId":"9403","providerTheaterId":"","name":"Regal Hyattsville Royale Stadium 14","address":"6505 America Blvd","city":"Hyattsville","state":"MD","zip":"20782","distance":19.729767880402,"lon":"-76.951885","lat":"38.968549","theaterChainName":"Regal Cinemas","ticketType":"STANDARD"},{"id":"866","tribuneTheaterId":"7466","providerTheaterId":"","name":"R\/C Hollywood Cinema 4","address":"5509 Oregon Ave.","city":"Arbutus","state":"MD","zip":"21227","distance":21.26854728612,"lon":"-76.693706","lat":"39.246526","theaterChainName":"R\/C Theatres","ticketType":"STANDARD"},{"id":"4701","tribuneTheaterId":"9915","providerTheaterId":"","name":"Marlow 6 Theatre","address":"3899 Branch Ave.","city":"Temple Hills","state":"MD","zip":"20748","distance":20.886716673594,"lon":"-76.944863","lat":"38.835906","theaterChainName":"Phoenix Theatres","ticketType":"STANDARD"},{"id":"136","tribuneTheaterId":"7957","providerTheaterId":"2816","name":"AMC Loews Center Park 8","address":"4001 Powder Mill Rd.","city":"Beltsville","state":"MD","zip":"20705","distance":20.025399422594,"lon":"-76.937399","lat":"39.046142","theaterChainName":"AMC Theatres","ticketType":"STANDARD"},{"id":"5494","tribuneTheaterId":"10950","providerTheaterId":"","name":"Angelika Pop-Up at Union Market","address":"550 Penn St","city":"Washington","state":"DC","zip":"20002","distance":22.255926856033,"lon":"-76.99621","lat":"38.910025","theaterChainName":"Reading International, Inc","ticketType":"STANDARD"},{"id":"5343","tribuneTheaterId":"10780","providerTheaterId":"","name":"Xscape 14","address":"7710 Matapeake Business Drive","city":"Brandywine","state":"MD","zip":"20613","distance":24.486462724016,"lon":"-76.8715","lat":"38.6749","theaterChainName":"Independent Chains","ticketType":"STANDARD"},{"id":"5701","tribuneTheaterId":"11138","providerTheaterId":"339","name":"AMC Rivertowne 12","address":"6075 Oxon Hill Rd.","city":"Oxon Hill","state":"MD","zip":"20745","distance":23.505004122752,"lon":"-76.9801","lat":"38.8044","theaterChainName":"AMC Theatres","ticketType":"STANDARD"},{"id":"3898","tribuneTheaterId":"4667","providerTheaterId":"","name":"Regal Gallery Place Stadium 14","address":"707 Seventh Street NW","city":"Washington","state":"DC","zip":"20001","distance":23.726046844946,"lon":"-77.021728","lat":"38.898534","theaterChainName":"Regal Cinemas","ticketType":"STANDARD"},{"id":"485","tribuneTheaterId":"2925","providerTheaterId":"","name":"The Charles","address":"1711 N. Charles St.","city":"Baltimore","state":"MD","zip":"21201","distance":24.848186937682,"lon":"-76.616313","lat":"39.309232","theaterChainName":"Independent Chains","ticketType":"STANDARD"},{"id":"3844","tribuneTheaterId":"4911","providerTheaterId":"","name":"Regal Majestic Cinema 20 & IMAX","address":"900 Ellsworth Drive","city":"Silver Spring","state":"MD","zip":"20910","distance":23.849708138336,"lon":"-77.025409","lat":"38.996574","theaterChainName":"Regal Cinemas","ticketType":"STANDARD"},{"id":"4824","tribuneTheaterId":"10098","providerTheaterId":"","name":"East Point Movies 10","address":"7938 Eastern Avenue","city":"Baltimore","state":"MD","zip":"21224","distance":24.358377750679,"lon":"-76.509156","lat":"39.297946","theaterChainName":"Independent Chains","ticketType":"STANDARD"},{"id":"3859","tribuneTheaterId":"790","providerTheaterId":"","name":"AFI Silver Theatre Cultural Center","address":"8633 Colesville Rd","city":"Silver Spring","state":"MD","zip":"20910","distance":23.856923025833,"lon":"-77.025543","lat":"38.996583","theaterChainName":"Independent Chains","ticketType":"STANDARD"},{"id":"3683","tribuneTheaterId":"7972","providerTheaterId":"349","name":"AMC Columbia 14","address":"10300 Patuxent Parkway","city":"Columbia","state":"MD","zip":"21044","distance":23.704720073792,"lon":"-76.863549","lat":"39.217028","theaterChainName":"AMC Theatres","ticketType":"STANDARD"}]