[{"id":"4824","tribuneTheaterId":"10098","providerTheaterId":"","name":"East Point Movies 10","address":"7938 Eastern Avenue","city":"Baltimore","state":"MD","zip":"21224","distance":5.8219836505456,"lon":"-76.509156","lat":"39.297946","theaterChainName":"Independent Chains","ticketType":"STANDARD"},{"id":"700","tribuneTheaterId":"8817","providerTheaterId":"2817","name":"AMC Loews White Marsh 16","address":"8141 Honeygo Blvd","city":"Baltimore","state":"MD","zip":"21236","distance":9.80276625823,"lon":"-76.46464","lat":"39.370702","theaterChainName":"AMC Theatres","ticketType":"STANDARD"},{"id":"5529","tribuneTheaterId":"10960","providerTheaterId":"","name":"Marley Station Movies","address":"7900 Ritchie Hwy","city":"Glen Burnie","state":"MD","zip":"21061","distance":10.622480599263,"lon":"-76.605628","lat":"39.138875","theaterChainName":"Independent Chains","ticketType":"STANDARD"},{"id":"5602","tribuneTheaterId":"11058","providerTheaterId":"","name":"Sun Valley Movies","address":"7959 Baltimore Annapolis Blvd.","city":"Glen Burnie","state":"MD","zip":"21060","distance":9.8782282146681,"lon":"-76.584571","lat":"39.135687","theaterChainName":"Independent Chains","ticketType":"STANDARD"},{"id":"489","tribuneTheaterId":"7049","providerTheaterId":"","name":"Beltway Movies","address":"7660 Bel Air Rd.","city":"Baltimore","state":"MD","zip":"21236","distance":10.314203460045,"lon":"-76.519446","lat":"39.367476","theaterChainName":"Independent Chains","ticketType":"STANDARD"},{"id":"485","tribuneTheaterId":"2925","providerTheaterId":"","name":"The Charles","address":"1711 N. Charles St.","city":"Baltimore","state":"MD","zip":"21201","distance":10.665593659241,"lon":"-76.616313","lat":"39.309232","theaterChainName":"Independent Chains","ticketType":"STANDARD"},{"id":"866","tribuneTheaterId":"7466","providerTheaterId":"","name":"R\/C Hollywood Cinema 4","address":"5509 Oregon Ave.","city":"Arbutus","state":"MD","zip":"21227","distance":13.333987795218,"lon":"-76.693706","lat":"39.246526","theaterChainName":"R\/C Theatres","ticketType":"STANDARD"},{"id":"135","tribuneTheaterId":"2662","providerTheaterId":"","name":"Rotunda Cinemas","address":"711 W. 40th St.","city":"Baltimore","state":"MD","zip":"21211","distance":12.350234286205,"lon":"-76.630776","lat":"39.336298","theaterChainName":"Independent Chains","ticketType":"STANDARD"},{"id":"872","tribuneTheaterId":"8091","providerTheaterId":"","name":"West Nursery","address":"1591 W. Nursery Road","city":"Linthicum","state":"MD","zip":"21090","distance":12.541326310609,"lon":"-76.677665","lat":"39.205236","theaterChainName":"Hoyts","ticketType":"STANDARD"},{"id":"490","tribuneTheaterId":"4047","providerTheaterId":"","name":"Senator Theatre","address":"5904 York Rd.","city":"Baltimore","state":"MD","zip":"21212","distance":12.766809050793,"lon":"-76.6099","lat":"39.3636","theaterChainName":"Independent Chains","ticketType":"STANDARD"},{"id":"5495","tribuneTheaterId":"10957","providerTheaterId":"","name":"Cinemark Towson and XD","address":"111 East Joppa Road","city":"Towson","state":"MD","zip":"21286","distance":14.544853103944,"lon":"-76.600516","lat":"39.402607","theaterChainName":"Cinemark","ticketType":"STANDARD"},{"id":"3115","tribuneTheaterId":"8894","providerTheaterId":"","name":"Cinemark Egyptian 24","address":"7000 Arundel Mills Cir","city":"Hanover","state":"MD","zip":"21076","distance":15.704986379133,"lon":"-76.725007","lat":"39.160732","theaterChainName":"Cinemark","ticketType":"STANDARD"},{"id":"486","tribuneTheaterId":"5310","providerTheaterId":"805","name":"AMC Security Square 8","address":"1717 Rolling Road","city":"Baltimore","state":"MD","zip":"21244","distance":17.204104969054,"lon":"-76.750939","lat":"39.307597","theaterChainName":"AMC Theatres","ticketType":"STANDARD"},{"id":"477","tribuneTheaterId":"8441","providerTheaterId":"","name":"Bow Tie Cinemas Annapolis Harbour","address":"2474 Solomons Island Rd","city":"Annapolis","state":"MD","zip":"21401","distance":18.349632910566,"lon":"-76.542468","lat":"38.974906","theaterChainName":"Bow-Tie Cinemas","ticketType":"STANDARD"},{"id":"478","tribuneTheaterId":"8607","providerTheaterId":"","name":"Bow Tie Cinemas Annapolis Mall","address":"Annapolis Mall Route 450","city":"Annapolis","state":"MD","zip":"21401","distance":17.522275910158,"lon":"-76.545707","lat":"38.988211","theaterChainName":"Bow-Tie Cinemas","ticketType":"STANDARD"},{"id":"685","tribuneTheaterId":"8845","providerTheaterId":"","name":"Regal Bel Air Cinema Stadium 14","address":"409 Constant Friendship Blvd.","city":"Abingdon","state":"MD","zip":"21009","distance":17.044031097522,"lon":"-76.316528","lat":"39.455217","theaterChainName":"Regal Cinemas","ticketType":"STANDARD"},{"id":"5212","tribuneTheaterId":"10636","providerTheaterId":"","name":"Waugh Chapel Stadium 12 & IMAX","address":"1419 S. Main Chapel Way","city":"Gambrills","state":"MD","zip":"21054","distance":18.255327214026,"lon":"-76.6784","lat":"39.0368","theaterChainName":"Regal Cinemas","ticketType":"STANDARD"},{"id":"5978","tribuneTheaterId":"11414","providerTheaterId":"","name":"Horizon Cinemas Fallston","address":"2315 Belair Road","city":"Fallston","state":"MD","zip":"21047","distance":18.375223466491,"lon":"-76.390931","lat":"39.49218","theaterChainName":"Horizon Cinemas","ticketType":"STANDARD"},{"id":"725","tribuneTheaterId":"6332","providerTheaterId":"","name":"P and G Chester 5 Theatre","address":"21 Washington Square","city":"Chestertown","state":"MD","zip":"21620","distance":20.104862603459,"lon":"-76.069854","lat":"39.230421","theaterChainName":"Independent Chains","ticketType":"STANDARD"},{"id":"712","tribuneTheaterId":"8661","providerTheaterId":"","name":"United Artists Snowden Square Stadium 14","address":"9161 Commerce Center Drive","city":"Columbia","state":"MD","zip":"21046","distance":20.350703515294,"lon":"-76.819673","lat":"39.177795","theaterChainName":"United Artists","ticketType":"STANDARD"},{"id":"2135","tribuneTheaterId":"5312","providerTheaterId":"804","name":"AMC Owings Mills 17","address":"10100 Mill Run Circle","city":"Owings Mills","state":"MD","zip":"21117","distance":22.00210904496,"lon":"-76.788847","lat":"39.405229","theaterChainName":"AMC Theatres","ticketType":"STANDARD"},{"id":"5444","tribuneTheaterId":"10884","providerTheaterId":"","name":"The Pikes Theatre","address":"921 Reisterstown Rd.","city":"Pikesville","state":"MD","zip":"21208","distance":22.117073090699,"lon":"-76.790481","lat":"39.406337","theaterChainName":"Independent Chains","ticketType":"STANDARD"},{"id":"1692","tribuneTheaterId":"7424","providerTheaterId":"","name":"Regal Hunt Valley Stadium 12","address":"11511 McCormick Road","city":"Hunt Valley","state":"MD","zip":"21030","distance":21.774357686713,"lon":"-76.656053","lat":"39.499447","theaterChainName":"Regal Cinemas","ticketType":"STANDARD"},{"id":"3683","tribuneTheaterId":"7972","providerTheaterId":"349","name":"AMC Columbia 14","address":"10300 Patuxent Parkway","city":"Columbia","state":"MD","zip":"21044","distance":22.393199422636,"lon":"-76.863549","lat":"39.217028","theaterChainName":"AMC Theatres","ticketType":"STANDARD"},{"id":"1699","tribuneTheaterId":"5665","providerTheaterId":"","name":"Regal Bowie Stadium 14","address":"15200 Major Lansdale Blvd.","city":"Bowie","state":"MD","zip":"20716","distance":24.89249988081,"lon":"-76.739599","lat":"38.950867","theaterChainName":"Regal Cinemas","ticketType":"STANDARD"},{"id":"3533","tribuneTheaterId":"6842","providerTheaterId":"","name":"Flagship Cinemas 7 Churchville","address":"2408 E.Churchville Rd.","city":"Bel Air","state":"MD","zip":"21015","distance":24.342418007561,"lon":"-76.275727","lat":"39.556571","theaterChainName":"Carmike Cinemas","ticketType":"STANDARD"},{"id":"5547","tribuneTheaterId":"10988","providerTheaterId":"","name":"Laurel Mall St. 12","address":"14716 Baltimore Ave","city":"Laurel","state":"MD","zip":"20707","distance":23.927038435373,"lon":"-76.8558","lat":"39.0928","theaterChainName":"Regal Cinemas","ticketType":"STANDARD"}]