[{"id":"487","name":"Regal Westminister 9","address":"400 Center St.","city":"Westminster","state":"MD","zip":"21157","distance":"24.475053787231445","lon":"-76.983704","lat":"39.577190","theaterChainName":"Regal Cinemas","ticketType":"STANDARD"},{"id":"1692","name":"Regal Hunt Valley Stadium 12","address":"11511 McCormick Road","city":"Hunt Valley","state":"MD","zip":"21030","distance":"7.2669358253479","lon":"-76.656052","lat":"39.499447","theaterChainName":"Regal Cinemas","ticketType":"STANDARD"},{"id":"5444","name":"The Pikes Theatre","address":"921 Reisterstown Rd.","city":"Pikesville","state":"MD","zip":"21208","distance":"11.458040237426758","lon":"-76.790482","lat":"39.406338","theaterChainName":"Independent Chains","ticketType":"STANDARD"},{"id":"2135","name":"AMC Owings Mills 17","address":"10100 Mill Run Circle","city":"Owings Mills","state":"MD","zip":"21117","distance":"11.37503719329834","lon":"-76.788849","lat":"39.405228","theaterChainName":"AMC Theatres","ticketType":"STANDARD"},{"id":"5495","name":"Cinemark Towson and XD","address":"111 East Joppa Road","city":"Towson","state":"MD","zip":"21286","distance":"1.5334795713424683","lon":"-76.600517","lat":"39.402607","theaterChainName":"Cinemark","ticketType":"STANDARD"},{"id":"490","name":"Senator Theatre","address":"5904 York Rd.","city":"Baltimore","state":"MD","zip":"21212","distance":"3.9407033920288086","lon":"-76.609901","lat":"39.363602","theaterChainName":"Independent Chains","ticketType":"STANDARD"},{"id":"486","name":"AMC Security Square 8","address":"1717 Rolling Road","city":"Baltimore","state":"MD","zip":"21244","distance":"11.899596214294434","lon":"-76.750938","lat":"39.307598","theaterChainName":"AMC Theatres","ticketType":"STANDARD"},{"id":"135","name":"Rotunda Cinemas","address":"711 W. 40th St.","city":"Baltimore","state":"MD","zip":"21211","distance":"6.1298322677612305","lon":"-76.630775","lat":"39.336300","theaterChainName":"Independent Chains","ticketType":"STANDARD"},{"id":"489","name":"Beltway Movies","address":"7660 Bel Air Rd.","city":"Baltimore","state":"MD","zip":"21236","distance":"4.429495811462402","lon":"-76.519447","lat":"39.367477","theaterChainName":"Independent Chains","ticketType":"STANDARD"},{"id":"5978","name":"Horizon Cinemas Fallston","address":"2315 Belair Road","city":"Fallston","state":"MD","zip":"21047","distance":"11.25012493133545","lon":"-76.390930","lat":"39.492180","theaterChainName":"Horizon Cinemas","ticketType":"STANDARD"},{"id":"3533","name":"Flagship Cinemas 7 Churchville","address":"2408 E.Churchville Rd.","city":"Bel Air","state":"MD","zip":"21015","distance":"18.7946834564209","lon":"-76.275726","lat":"39.556572","theaterChainName":"Carmike Cinemas","ticketType":"STANDARD"},{"id":"685","name":"Regal Bel Air Cinema Stadium 14","address":"409 Constant Friendship Blvd.","city":"Abingdon","state":"MD","zip":"21009","distance":"14.138395309448242","lon":"-76.316528","lat":"39.455215","theaterChainName":"Regal Cinemas","ticketType":"STANDARD"},{"id":"700","name":"AMC Loews White Marsh 16","address":"8141 Honeygo Blvd","city":"Baltimore","state":"MD","zip":"21236","distance":"6.6711578369140625","lon":"-76.464638","lat":"39.370701","theaterChainName":"AMC Theatres","ticketType":"STANDARD"},{"id":"4824","name":"East Point Movies 10","address":"7938 Eastern Avenue","city":"Baltimore","state":"MD","zip":"21224","distance":"8.799426078796387","lon":"-76.509155","lat":"39.297947","theaterChainName":"Independent Chains","ticketType":"STANDARD"},{"id":"485","name":"The Charles","address":"1711 N. Charles St.","city":"Baltimore","state":"MD","zip":"21201","distance":"7.5710530281066895","lon":"-76.616310","lat":"39.309231","theaterChainName":"Independent Chains","ticketType":"STANDARD"},{"id":"712","name":"United Artists Snowden Square Stadium 14","address":"9161 Commerce Center Drive","city":"Columbia","state":"MD","zip":"21046","distance":"20.897153854370117","lon":"-76.819672","lat":"39.177795","theaterChainName":"United Artists","ticketType":"STANDARD"},{"id":"3683","name":"AMC Columbia 14","address":"10300 Patuxent Parkway","city":"Columbia","state":"MD","zip":"21044","distance":"20.540809631347656","lon":"-76.863548","lat":"39.217030","theaterChainName":"AMC Theatres","ticketType":"STANDARD"},{"id":"3115","name":"Cinemark Egyptian 24","address":"7000 Arundel Mills Cir","city":"Hanover","state":"MD","zip":"21076","distance":"19.245635986328125","lon":"-76.725006","lat":"39.160732","theaterChainName":"Cinemark","ticketType":"STANDARD"},{"id":"872","name":"West Nursery","address":"1591 W. Nursery Road","city":"Linthicum","state":"MD","zip":"21090","distance":"15.432616233825684","lon":"-76.677666","lat":"39.205235","theaterChainName":"Hoyts","ticketType":"STANDARD"},{"id":"866","name":"R\/C Hollywood Cinema 4","address":"5509 Oregon Ave.","city":"Arbutus","state":"MD","zip":"21227","distance":"13.18706226348877","lon":"-76.693703","lat":"39.246525","theaterChainName":"R\/C Theatres","ticketType":"STANDARD"},{"id":"5529","name":"Marley Station Movies","address":"7900 Ritchie Hwy","city":"Glen Burnie","state":"MD","zip":"21061","distance":"19.096614837646484","lon":"-76.605629","lat":"39.138874","theaterChainName":"Independent Chains","ticketType":"STANDARD"},{"id":"5602","name":"Sun Valley Movies","address":"7959 Baltimore Annapolis Blvd.","city":"Glen Burnie","state":"MD","zip":"21060","distance":"19.256622314453125","lon":"-76.584572","lat":"39.135689","theaterChainName":"Independent Chains","ticketType":"STANDARD"}]