[{"id":"4824","name":"East Point Movies 10","address":"7938 Eastern Avenue","city":"Baltimore","state":"MD","zip":"21224","distance":"23.89627456665039","lon":"-76.509155","lat":"39.297947","theaterChainName":"Independent Chains","ticketType":"STANDARD"},{"id":"4370","name":"Regal Hyattsville Royale Stadium 14","address":"6505 America Blvd","city":"Hyattsville","state":"MD","zip":"20782","distance":"24.787891387939453","lon":"-76.951881","lat":"38.968548","theaterChainName":"Regal Cinemas","ticketType":"STANDARD"},{"id":"136","name":"AMC Loews Center Park 8","address":"4001 Powder Mill Rd.","city":"Beltsville","state":"MD","zip":"20705","distance":"24.83130645751953","lon":"-76.937401","lat":"39.046143","theaterChainName":"AMC Theatres","ticketType":"STANDARD"},{"id":"3887","name":"AMC Magic Johnson Capital Center 12","address":"800 Shoppers Way","city":"Largo","state":"MD","zip":"20774","distance":"17.60700035095215","lon":"-76.807297","lat":"38.886299","theaterChainName":"AMC Theatres","ticketType":"STANDARD"},{"id":"479","name":"Old Greenbelt Theatre","address":"129 Centerway","city":"Greenbelt","state":"MD","zip":"20770","distance":"20.955989837646484","lon":"-76.875999","lat":"39.001377","theaterChainName":"Independent Chains","ticketType":"STANDARD"},{"id":"5547","name":"Laurel Mall St. 12","address":"14716 Baltimore Ave","city":"Laurel","state":"MD","zip":"20707","distance":"21.854312896728516","lon":"-76.855797","lat":"39.092800","theaterChainName":"Regal Cinemas","ticketType":"STANDARD"},{"id":"1699","name":"Regal Bowie Stadium 14","address":"15200 Major Lansdale Blvd.","city":"Bowie","state":"MD","zip":"20716","distance":"13.359291076660156","lon":"-76.739601","lat":"38.950867","theaterChainName":"Regal Cinemas","ticketType":"STANDARD"},{"id":"712","name":"United Artists Snowden Square Stadium 14","address":"9161 Commerce Center Drive","city":"Columbia","state":"MD","zip":"21046","distance":"23.526283264160156","lon":"-76.819672","lat":"39.177795","theaterChainName":"United Artists","ticketType":"STANDARD"},{"id":"5212","name":"Waugh Chapel Stadium 12 & IMAX","address":"1419 S. Main Chapel Way","city":"Gambrills","state":"MD","zip":"21054","distance":"11.631604194641113","lon":"-76.678398","lat":"39.036800","theaterChainName":"Regal Cinemas","ticketType":"STANDARD"},{"id":"3115","name":"Cinemark Egyptian 24","address":"7000 Arundel Mills Cir","city":"Hanover","state":"MD","zip":"21076","distance":"19.10169219970703","lon":"-76.725006","lat":"39.160732","theaterChainName":"Cinemark","ticketType":"STANDARD"},{"id":"477","name":"Bow Tie Cinemas Annapolis Harbour","address":"2474 Solomons Island Rd","city":"Annapolis","state":"MD","zip":"21401","distance":"3.1725056171417236","lon":"-76.542465","lat":"38.974907","theaterChainName":"Bow-Tie Cinemas","ticketType":"STANDARD"},{"id":"478","name":"Bow Tie Cinemas Annapolis Mall","address":"Annapolis Mall Route 450","city":"Annapolis","state":"MD","zip":"21401","distance":"3.842111587524414","lon":"-76.545708","lat":"38.988213","theaterChainName":"Bow-Tie Cinemas","ticketType":"STANDARD"},{"id":"872","name":"West Nursery","address":"1591 W. Nursery Road","city":"Linthicum","state":"MD","zip":"21090","distance":"20.136117935180664","lon":"-76.677666","lat":"39.205235","theaterChainName":"Hoyts","ticketType":"STANDARD"},{"id":"866","name":"R\/C Hollywood Cinema 4","address":"5509 Oregon Ave.","city":"Arbutus","state":"MD","zip":"21227","distance":"23.04749298095703","lon":"-76.693703","lat":"39.246525","theaterChainName":"R\/C Theatres","ticketType":"STANDARD"},{"id":"5529","name":"Marley Station Movies","address":"7900 Ritchie Hwy","city":"Glen Burnie","state":"MD","zip":"21061","distance":"14.278053283691406","lon":"-76.605629","lat":"39.138874","theaterChainName":"Independent Chains","ticketType":"STANDARD"},{"id":"5602","name":"Sun Valley Movies","address":"7959 Baltimore Annapolis Blvd.","city":"Glen Burnie","state":"MD","zip":"21060","distance":"13.624049186706543","lon":"-76.584572","lat":"39.135689","theaterChainName":"Independent Chains","ticketType":"STANDARD"}]