[{"id":"478","tribuneTheaterId":"8607","providerTheaterId":"","name":"Bow Tie Cinemas Annapolis Mall","address":"Annapolis Mall Route 450","city":"Annapolis","state":"MD","zip":"21401","distance":2.9383930241516,"lon":"-76.545707","lat":"38.988211","theaterChainName":"Bow-Tie Cinemas","ticketType":"STANDARD"},{"id":"477","tribuneTheaterId":"8441","providerTheaterId":"","name":"Bow Tie Cinemas Annapolis Harbour","address":"2474 Solomons Island Rd","city":"Annapolis","state":"MD","zip":"21401","distance":3.8716658808176,"lon":"-76.542468","lat":"38.974906","theaterChainName":"Bow-Tie Cinemas","ticketType":"STANDARD"},{"id":"5212","tribuneTheaterId":"10636","providerTheaterId":"","name":"Waugh Chapel Stadium 12 & IMAX","address":"1419 S. Main Chapel Way","city":"Gambrills","state":"MD","zip":"21054","distance":6.8246227716772,"lon":"-76.6784","lat":"39.0368","theaterChainName":"Regal Cinemas","ticketType":"STANDARD"},{"id":"5529","tribuneTheaterId":"10960","providerTheaterId":"","name":"Marley Station Movies","address":"7900 Ritchie Hwy","city":"Glen Burnie","state":"MD","zip":"21061","distance":8.0310067822315,"lon":"-76.605628","lat":"39.138875","theaterChainName":"Independent Chains","ticketType":"STANDARD"},{"id":"5602","tribuneTheaterId":"11058","providerTheaterId":"","name":"Sun Valley Movies","address":"7959 Baltimore Annapolis Blvd.","city":"Glen Burnie","state":"MD","zip":"21060","distance":7.4810192665717,"lon":"-76.584571","lat":"39.135687","theaterChainName":"Independent Chains","ticketType":"STANDARD"},{"id":"1699","tribuneTheaterId":"5665","providerTheaterId":"","name":"Regal Bowie Stadium 14","address":"15200 Major Lansdale Blvd.","city":"Bowie","state":"MD","zip":"20716","distance":11.50268140233,"lon":"-76.739599","lat":"38.950867","theaterChainName":"Regal Cinemas","ticketType":"STANDARD"},{"id":"3115","tribuneTheaterId":"8894","providerTheaterId":"","name":"Cinemark Egyptian 24","address":"7000 Arundel Mills Cir","city":"Hanover","state":"MD","zip":"21076","distance":12.943350651057,"lon":"-76.725007","lat":"39.160732","theaterChainName":"Cinemark","ticketType":"STANDARD"},{"id":"872","tribuneTheaterId":"8091","providerTheaterId":"","name":"West Nursery","address":"1591 W. Nursery Road","city":"Linthicum","state":"MD","zip":"21090","distance":13.838361267499,"lon":"-76.677665","lat":"39.205236","theaterChainName":"Hoyts","ticketType":"STANDARD"},{"id":"712","tribuneTheaterId":"8661","providerTheaterId":"","name":"United Artists Snowden Square Stadium 14","address":"9161 Commerce Center Drive","city":"Columbia","state":"MD","zip":"21046","distance":17.615722569761,"lon":"-76.819673","lat":"39.177795","theaterChainName":"United Artists","ticketType":"STANDARD"},{"id":"866","tribuneTheaterId":"7466","providerTheaterId":"","name":"R\/C Hollywood Cinema 4","address":"5509 Oregon Ave.","city":"Arbutus","state":"MD","zip":"21227","distance":16.758917508836,"lon":"-76.693706","lat":"39.246526","theaterChainName":"R\/C Theatres","ticketType":"STANDARD"},{"id":"5547","tribuneTheaterId":"10988","providerTheaterId":"","name":"Laurel Mall St. 12","address":"14716 Baltimore Ave","city":"Laurel","state":"MD","zip":"20707","distance":16.883262089267,"lon":"-76.8558","lat":"39.0928","theaterChainName":"Regal Cinemas","ticketType":"STANDARD"},{"id":"479","tribuneTheaterId":"4103","providerTheaterId":"","name":"Old Greenbelt Theatre","address":"129 Centerway","city":"Greenbelt","state":"MD","zip":"20770","distance":17.536200196098,"lon":"-76.876002","lat":"39.001379","theaterChainName":"Independent Chains","ticketType":"STANDARD"},{"id":"3887","tribuneTheaterId":"4162","providerTheaterId":"2307","name":"AMC Magic Johnson Capital Center 12","address":"800 Shoppers Way","city":"Largo","state":"MD","zip":"20774","distance":16.974896383841,"lon":"-76.8073","lat":"38.8863","theaterChainName":"AMC Theatres","ticketType":"STANDARD"},{"id":"485","tribuneTheaterId":"2925","providerTheaterId":"","name":"The Charles","address":"1711 N. Charles St.","city":"Baltimore","state":"MD","zip":"21201","distance":19.568947645871,"lon":"-76.616313","lat":"39.309232","theaterChainName":"Independent Chains","ticketType":"STANDARD"},{"id":"4824","tribuneTheaterId":"10098","providerTheaterId":"","name":"East Point Movies 10","address":"7938 Eastern Avenue","city":"Baltimore","state":"MD","zip":"21224","distance":18.617437377594,"lon":"-76.509156","lat":"39.297946","theaterChainName":"Independent Chains","ticketType":"STANDARD"},{"id":"136","tribuneTheaterId":"7957","providerTheaterId":"2816","name":"AMC Loews Center Park 8","address":"4001 Powder Mill Rd.","city":"Beltsville","state":"MD","zip":"20705","distance":20.738008966772,"lon":"-76.937399","lat":"39.046142","theaterChainName":"AMC Theatres","ticketType":"STANDARD"},{"id":"486","tribuneTheaterId":"5310","providerTheaterId":"805","name":"AMC Security Square 8","address":"1717 Rolling Road","city":"Baltimore","state":"MD","zip":"21244","distance":21.924539688116,"lon":"-76.750939","lat":"39.307597","theaterChainName":"AMC Theatres","ticketType":"STANDARD"},{"id":"135","tribuneTheaterId":"2662","providerTheaterId":"","name":"Rotunda Cinemas","address":"711 W. 40th St.","city":"Baltimore","state":"MD","zip":"21211","distance":21.550949989099,"lon":"-76.630776","lat":"39.336298","theaterChainName":"Independent Chains","ticketType":"STANDARD"},{"id":"4370","tribuneTheaterId":"9403","providerTheaterId":"","name":"Regal Hyattsville Royale Stadium 14","address":"6505 America Blvd","city":"Hyattsville","state":"MD","zip":"20782","distance":21.920996315877,"lon":"-76.951885","lat":"38.968549","theaterChainName":"Regal Cinemas","ticketType":"STANDARD"},{"id":"3683","tribuneTheaterId":"7972","providerTheaterId":"349","name":"AMC Columbia 14","address":"10300 Patuxent Parkway","city":"Columbia","state":"MD","zip":"21044","distance":21.115504907085,"lon":"-76.863549","lat":"39.217028","theaterChainName":"AMC Theatres","ticketType":"STANDARD"},{"id":"490","tribuneTheaterId":"4047","providerTheaterId":"","name":"Senator Theatre","address":"5904 York Rd.","city":"Baltimore","state":"MD","zip":"21212","distance":23.226445067608,"lon":"-76.6099","lat":"39.3636","theaterChainName":"Independent Chains","ticketType":"STANDARD"},{"id":"489","tribuneTheaterId":"7049","providerTheaterId":"","name":"Beltway Movies","address":"7660 Bel Air Rd.","city":"Baltimore","state":"MD","zip":"21236","distance":23.345957953684,"lon":"-76.519446","lat":"39.367476","theaterChainName":"Independent Chains","ticketType":"STANDARD"},{"id":"700","tribuneTheaterId":"8817","providerTheaterId":"2817","name":"AMC Loews White Marsh 16","address":"8141 Honeygo Blvd","city":"Baltimore","state":"MD","zip":"21236","distance":23.96134871249,"lon":"-76.46464","lat":"39.370702","theaterChainName":"AMC Theatres","ticketType":"STANDARD"}]