[{"id":"2383","name":"Premier Cinemas at Easton","address":"210 Marlboro Ave","city":"Easton","state":"MD","zip":"21601","distance":"10.782726287841797","lon":"-76.079697","lat":"38.780300","theaterChainName":"Independent Chains","ticketType":"STANDARD"},{"id":"843","name":"Premier Cinemas Cambridge 4","address":"2759 Dorchester Square","city":"Cambridge","state":"MD","zip":"21613","distance":"18.179147720336914","lon":"-76.054771","lat":"38.553352","theaterChainName":"Independent Chains","ticketType":"STANDARD"},{"id":"1683","name":"Calvert Village V","address":"200 W. Dares Beach Rd.","city":"Prince Frederick","state":"MD","zip":"20678","distance":"22.23570442199707","lon":"-76.591469","lat":"38.544121","theaterChainName":"Independent Chains","ticketType":"STANDARD"},{"id":"477","name":"Bow Tie Cinemas Annapolis Harbour","address":"2474 Solomons Island Rd","city":"Annapolis","state":"MD","zip":"21401","distance":"21.052806854248047","lon":"-76.542465","lat":"38.974907","theaterChainName":"Bow-Tie Cinemas","ticketType":"STANDARD"},{"id":"478","name":"Bow Tie Cinemas Annapolis Mall","address":"Annapolis Mall Route 450","city":"Annapolis","state":"MD","zip":"21401","distance":"21.850326538085938","lon":"-76.545708","lat":"38.988213","theaterChainName":"Bow-Tie Cinemas","ticketType":"STANDARD"}]