[{"id":"725","tribuneTheaterId":"6332","providerTheaterId":"","name":"P and G Chester 5 Theatre","address":"21 Washington Square","city":"Chestertown","state":"MD","zip":"21620","distance":6.6227688463815,"lon":"-76.069854","lat":"39.230421","theaterChainName":"Independent Chains","ticketType":"STANDARD"},{"id":"5464","tribuneTheaterId":"10905","providerTheaterId":"","name":"Westown Movies","address":"150 Commerce Drive","city":"Middletown","state":"DE","zip":"19709","distance":16.809114519798,"lon":"-75.6923","lat":"39.393","theaterChainName":"Independent Chains","ticketType":"STANDARD"},{"id":"685","tribuneTheaterId":"8845","providerTheaterId":"","name":"Regal Bel Air Cinema Stadium 14","address":"409 Constant Friendship Blvd.","city":"Abingdon","state":"MD","zip":"21009","distance":20.925995595722,"lon":"-76.316528","lat":"39.455217","theaterChainName":"Regal Cinemas","ticketType":"STANDARD"},{"id":"590","tribuneTheaterId":"7744","providerTheaterId":"","name":"Regal Peoples Plaza Cinema Stadium 17","address":"1100 Peoples Plaza","city":"Newark","state":"DE","zip":"19702","distance":24.475834573826,"lon":"-75.748554","lat":"39.602841","theaterChainName":"Regal Cinemas","ticketType":"STANDARD"},{"id":"2867","tribuneTheaterId":"8207","providerTheaterId":"","name":"Carmike 14 Theatre","address":"1365 N. Dupont Hwy, Suite 3020","city":"Dover","state":"DE","zip":"19901","distance":24.665957231609,"lon":"-75.540318","lat":"39.195079","theaterChainName":"Carmike Cinemas","ticketType":"STANDARD"},{"id":"3533","tribuneTheaterId":"6842","providerTheaterId":"","name":"Flagship Cinemas 7 Churchville","address":"2408 E.Churchville Rd.","city":"Bel Air","state":"MD","zip":"21015","distance":23.78543321683,"lon":"-76.275727","lat":"39.556571","theaterChainName":"Carmike Cinemas","ticketType":"STANDARD"}]