[{"id":"2383","name":"Premier Cinemas at Easton","address":"210 Marlboro Ave","city":"Easton","state":"MD","zip":"21601","distance":"11.581218719482422","lon":"-76.079697","lat":"38.780300","theaterChainName":"Independent Chains","ticketType":"STANDARD"},{"id":"843","name":"Premier Cinemas Cambridge 4","address":"2759 Dorchester Square","city":"Cambridge","state":"MD","zip":"21613","distance":"17.057392120361328","lon":"-76.054771","lat":"38.553352","theaterChainName":"Independent Chains","ticketType":"STANDARD"},{"id":"1683","name":"Calvert Village V","address":"200 W. Dares Beach Rd.","city":"Prince Frederick","state":"MD","zip":"20678","distance":"20.82806396484375","lon":"-76.591469","lat":"38.544121","theaterChainName":"Independent Chains","ticketType":"STANDARD"},{"id":"477","name":"Bow Tie Cinemas Annapolis Harbour","address":"2474 Solomons Island Rd","city":"Annapolis","state":"MD","zip":"21401","distance":"22.248252868652344","lon":"-76.542465","lat":"38.974907","theaterChainName":"Bow-Tie Cinemas","ticketType":"STANDARD"},{"id":"478","name":"Bow Tie Cinemas Annapolis Mall","address":"Annapolis Mall Route 450","city":"Annapolis","state":"MD","zip":"21401","distance":"23.076160430908203","lon":"-76.545708","lat":"38.988213","theaterChainName":"Bow-Tie Cinemas","ticketType":"STANDARD"}]