[{"id":"843","tribuneTheaterId":"6461","providerTheaterId":"","name":"Premier Cinemas Cambridge 4","address":"2759 Dorchester Square","city":"Cambridge","state":"MD","zip":"21613","distance":18.282600666197,"lon":"-76.054772","lat":"38.553352","theaterChainName":"Independent Chains","ticketType":"STANDARD"},{"id":"134","tribuneTheaterId":"7793","providerTheaterId":"2830","name":"AMC Loews Lexington Park 6","address":"21882 FDR Boulevard","city":"Lexington Park","state":"MD","zip":"20653","distance":20.286075657791,"lon":"-76.459227","lat":"38.267521","theaterChainName":"AMC Theatres","ticketType":"STANDARD"},{"id":"5750","tribuneTheaterId":"11192","providerTheaterId":"","name":"Lexington Exchange Movies 12","address":"23326 Three Notch Road","city":"California","state":"MD","zip":"20619","distance":23.945291338905,"lon":"-76.527071","lat":"38.311296","theaterChainName":"R\/C Theatres","ticketType":"STANDARD"},{"id":"1108","tribuneTheaterId":"241","providerTheaterId":"","name":"Clinton Street Theater","address":"2522 S.E. Clinton St.","city":"Portland","state":"OR","zip":"97202","distance":23.945291338905,"lon":"-76.527071","lat":"38.311296","theaterChainName":"Independent Chains","ticketType":"STANDARD"}]