[{"id":"725","tribuneTheaterId":"6332","providerTheaterId":"","name":"P and G Chester 5 Theatre","address":"21 Washington Square","city":"Chestertown","state":"MD","zip":"21620","distance":4.8434917307889,"lon":"-76.069854","lat":"39.230421","theaterChainName":"Independent Chains","ticketType":"STANDARD"},{"id":"685","tribuneTheaterId":"8845","providerTheaterId":"","name":"Regal Bel Air Cinema Stadium 14","address":"409 Constant Friendship Blvd.","city":"Abingdon","state":"MD","zip":"21009","distance":15.915899699253,"lon":"-76.316528","lat":"39.455217","theaterChainName":"Regal Cinemas","ticketType":"STANDARD"},{"id":"700","tribuneTheaterId":"8817","providerTheaterId":"2817","name":"AMC Loews White Marsh 16","address":"8141 Honeygo Blvd","city":"Baltimore","state":"MD","zip":"21236","distance":20.112240346116,"lon":"-76.46464","lat":"39.370702","theaterChainName":"AMC Theatres","ticketType":"STANDARD"},{"id":"3533","tribuneTheaterId":"6842","providerTheaterId":"","name":"Flagship Cinemas 7 Churchville","address":"2408 E.Churchville Rd.","city":"Bel Air","state":"MD","zip":"21015","distance":20.261957375226,"lon":"-76.275727","lat":"39.556571","theaterChainName":"Carmike Cinemas","ticketType":"STANDARD"},{"id":"5978","tribuneTheaterId":"11414","providerTheaterId":"","name":"Horizon Cinemas Fallston","address":"2315 Belair Road","city":"Fallston","state":"MD","zip":"21047","distance":20.570785245838,"lon":"-76.390931","lat":"39.49218","theaterChainName":"Horizon Cinemas","ticketType":"STANDARD"},{"id":"5464","tribuneTheaterId":"10905","providerTheaterId":"","name":"Westown Movies","address":"150 Commerce Drive","city":"Middletown","state":"DE","zip":"19709","distance":22.827055362111,"lon":"-75.6923","lat":"39.393","theaterChainName":"Independent Chains","ticketType":"STANDARD"},{"id":"4824","tribuneTheaterId":"10098","providerTheaterId":"","name":"East Point Movies 10","address":"7938 Eastern Avenue","city":"Baltimore","state":"MD","zip":"21224","distance":21.834817035101,"lon":"-76.509156","lat":"39.297946","theaterChainName":"Independent Chains","ticketType":"STANDARD"},{"id":"489","tribuneTheaterId":"7049","providerTheaterId":"","name":"Beltway Movies","address":"7660 Bel Air Rd.","city":"Baltimore","state":"MD","zip":"21236","distance":22.907692189469,"lon":"-76.519446","lat":"39.367476","theaterChainName":"Independent Chains","ticketType":"STANDARD"}]