[{"id":"3579","tribuneTheaterId":"4665","providerTheaterId":"","name":"Westview Stadium 16 & IMAX","address":"5243 Buckeystown Pike","city":"Frederick","state":"MD","zip":"21704","distance":5.8628490994566,"lon":"-77.413058","lat":"39.374027","theaterChainName":"Regal Cinemas","ticketType":"STANDARD"},{"id":"3515","tribuneTheaterId":"8202","providerTheaterId":"","name":"Regal Germantown Stadium 14","address":"20000 Century Blvd.","city":"Germantown","state":"MD","zip":"20874","distance":20.868937593425,"lon":"-77.261623","lat":"39.184225","theaterChainName":"Regal Cinemas","ticketType":"STANDARD"},{"id":"3027","tribuneTheaterId":"4664","providerTheaterId":"","name":"Regal Valley Mall Stadium 16","address":"17301 Valley Mall Rd.","city":"Hagerstown","state":"MD","zip":"21740","distance":20.025199861618,"lon":"-77.772582","lat":"39.62384","theaterChainName":"Regal Cinemas","ticketType":"STANDARD"},{"id":"4946","tribuneTheaterId":"10301","providerTheaterId":"","name":"Leitersburg Cinemas","address":"20145 Leitersburg pike","city":"Hagerstown","state":"MD","zip":"21742","distance":20.187537105367,"lon":"-77.667407","lat":"39.68432","theaterChainName":"Independent Chains","ticketType":"STANDARD"},{"id":"5063","tribuneTheaterId":"10446","providerTheaterId":"","name":"Cobb Village 12 Cinemas","address":"1600 Village Market Blvd.","city":"Leesburg","state":"VA","zip":"20175","distance":22.796916419004,"lon":"-77.526795","lat":"39.090784","theaterChainName":"Cobb Theatres","ticketType":"STANDARD"}]