[{"id":"3579","tribuneTheaterId":"4665","providerTheaterId":"","name":"Westview Stadium 16 & IMAX","address":"5243 Buckeystown Pike","city":"Frederick","state":"MD","zip":"21704","distance":7.0253913448966,"lon":"-77.413058","lat":"39.374027","theaterChainName":"Regal Cinemas","ticketType":"STANDARD"},{"id":"5063","tribuneTheaterId":"10446","providerTheaterId":"","name":"Cobb Village 12 Cinemas","address":"1600 Village Market Blvd.","city":"Leesburg","state":"VA","zip":"20175","distance":18.989817424742,"lon":"-77.526795","lat":"39.090784","theaterChainName":"Cobb Theatres","ticketType":"STANDARD"},{"id":"3515","tribuneTheaterId":"8202","providerTheaterId":"","name":"Regal Germantown Stadium 14","address":"20000 Century Blvd.","city":"Germantown","state":"MD","zip":"20874","distance":19.616285528536,"lon":"-77.261623","lat":"39.184225","theaterChainName":"Regal Cinemas","ticketType":"STANDARD"},{"id":"3027","tribuneTheaterId":"4664","providerTheaterId":"","name":"Regal Valley Mall Stadium 16","address":"17301 Valley Mall Rd.","city":"Hagerstown","state":"MD","zip":"21740","distance":21.62191227376,"lon":"-77.772582","lat":"39.62384","theaterChainName":"Regal Cinemas","ticketType":"STANDARD"},{"id":"5321","tribuneTheaterId":"10758","providerTheaterId":"","name":"Alamo Drafthouse Loudoun","address":"20575 E. Hampton Plaza","city":"Ashburn","state":"VA","zip":"20147","distance":22.146069482288,"lon":"-77.454425","lat":"39.052398","theaterChainName":"Alamo Drafthouse","ticketType":"STANDARD"},{"id":"5546","tribuneTheaterId":"10987","providerTheaterId":"","name":"Dulles Town Center St. 10","address":"21010 Dulles Town Circle","city":"Sterling","state":"VA","zip":"20164","distance":24.093377049999,"lon":"-77.4242","lat":"39.0292","theaterChainName":"Regal Cinemas","ticketType":"STANDARD"},{"id":"501","tribuneTheaterId":"7566","providerTheaterId":"","name":"Regal Countryside Stadium 20","address":"45980 Regal Plaza","city":"Sterling","state":"VA","zip":"20165","distance":23.797295737908,"lon":"-77.409014","lat":"39.037171","theaterChainName":"Regal Cinemas","ticketType":"STANDARD"},{"id":"4946","tribuneTheaterId":"10301","providerTheaterId":"","name":"Leitersburg Cinemas","address":"20145 Leitersburg pike","city":"Hagerstown","state":"MD","zip":"21742","distance":23.000922985735,"lon":"-77.667407","lat":"39.68432","theaterChainName":"Independent Chains","ticketType":"STANDARD"},{"id":"1845","tribuneTheaterId":"5662","providerTheaterId":"","name":"Regal Martinsburg Stadium 10","address":"950 Foxcroft Ave.","city":"Martinsburg","state":"WV","zip":"25401","distance":24.203475666365,"lon":"-77.984938","lat":"39.447088","theaterChainName":"Regal Cinemas","ticketType":"STANDARD"},{"id":"2025","tribuneTheaterId":"3153","providerTheaterId":"","name":"Kentlands Stadium 10","address":"629 Centerpoint Way","city":"Gaithersburg","state":"MD","zip":"20878","distance":23.631858308112,"lon":"-77.234225","lat":"39.1216","theaterChainName":"Independent Chains","ticketType":"STANDARD"},{"id":"5704","tribuneTheaterId":"11141","providerTheaterId":"","name":"Starplex Loudoun Station Luxury Cinemas 11","address":"43751 Central Station Drive","city":"Ashburn","state":"VA","zip":"20147","distance":24.974039781383,"lon":"-77.48762","lat":"39.006507","theaterChainName":"AMC Theatres","ticketType":"STANDARD"}]