[{"id":"4946","name":"Leitersburg Cinemas","address":"20145 Leitersburg pike","city":"Hagerstown","state":"MD","zip":"21742","distance":"23.00229263305664","lon":"-77.667404","lat":"39.684319","theaterChainName":"Independent Chains","ticketType":"STANDARD"},{"id":"1845","name":"Regal Martinsburg Stadium 10","address":"950 Foxcroft Ave.","city":"Martinsburg","state":"WV","zip":"25401","distance":"24.20515251159668","lon":"-77.984940","lat":"39.447086","theaterChainName":"Regal Cinemas","ticketType":"STANDARD"},{"id":"3027","name":"Regal Valley Mall Stadium 16","address":"17301 Valley Mall Rd.","city":"Hagerstown","state":"MD","zip":"21740","distance":"21.623409271240234","lon":"-77.772583","lat":"39.623840","theaterChainName":"Regal Cinemas","ticketType":"STANDARD"},{"id":"3579","name":"Westview Stadium 16 & IMAX","address":"5243 Buckeystown Pike","city":"Frederick","state":"MD","zip":"21704","distance":"7.025858402252197","lon":"-77.413055","lat":"39.374027","theaterChainName":"Regal Cinemas","ticketType":"STANDARD"},{"id":"2025","name":"Kentlands Stadium 10","address":"629 Centerpoint Way","city":"Gaithersburg","state":"MD","zip":"20878","distance":"23.633249282836914","lon":"-77.234222","lat":"39.121601","theaterChainName":"Independent Chains","ticketType":"STANDARD"},{"id":"501","name":"Regal Countryside Stadium 20","address":"45980 Regal Plaza","city":"Sterling","state":"VA","zip":"20165","distance":"23.79875946044922","lon":"-77.409012","lat":"39.037170","theaterChainName":"Regal Cinemas","ticketType":"STANDARD"},{"id":"5546","name":"Dulles Town Center St. 10","address":"21010 Dulles Town Circle","city":"Sterling","state":"VA","zip":"20164","distance":"24.09465980529785","lon":"-77.424202","lat":"39.029202","theaterChainName":"Regal Cinemas","ticketType":"STANDARD"},{"id":"5704","name":"Starplex Loudoun Station Luxury Cinemas 11","address":"43751 Central Station Drive","city":"Ashburn","state":"VA","zip":"20147","distance":"24.97547721862793","lon":"-77.487617","lat":"39.006508","theaterChainName":"AMC Theatres","ticketType":"STANDARD"},{"id":"5321","name":"Alamo Drafthouse Loudoun","address":"20575 E. Hampton Plaza","city":"Ashburn","state":"VA","zip":"20147","distance":"22.147354125976562","lon":"-77.454422","lat":"39.052399","theaterChainName":"Alamo Drafthouse","ticketType":"STANDARD"},{"id":"5063","name":"Cobb Village 12 Cinemas","address":"1600 Village Market Blvd.","city":"Leesburg","state":"VA","zip":"20175","distance":"18.991064071655273","lon":"-77.526794","lat":"39.090782","theaterChainName":"Cobb Theatres","ticketType":"STANDARD"},{"id":"3515","name":"Regal Germantown Stadium 14","address":"20000 Century Blvd.","city":"Germantown","state":"MD","zip":"20874","distance":"19.617603302001953","lon":"-77.261620","lat":"39.184223","theaterChainName":"Regal Cinemas","ticketType":"STANDARD"}]