[{"id":"4946","name":"Leitersburg Cinemas","address":"20145 Leitersburg pike","city":"Hagerstown","state":"MD","zip":"21742","distance":"16.675151824951172","lon":"-77.667404","lat":"39.684319","theaterChainName":"Independent Chains","ticketType":"STANDARD"},{"id":"1845","name":"Regal Martinsburg Stadium 10","address":"950 Foxcroft Ave.","city":"Martinsburg","state":"WV","zip":"25401","distance":"17.447647094726562","lon":"-77.984940","lat":"39.447086","theaterChainName":"Regal Cinemas","ticketType":"STANDARD"},{"id":"3027","name":"Regal Valley Mall Stadium 16","address":"17301 Valley Mall Rd.","city":"Hagerstown","state":"MD","zip":"21740","distance":"13.90169620513916","lon":"-77.772583","lat":"39.623840","theaterChainName":"Regal Cinemas","ticketType":"STANDARD"},{"id":"3579","name":"Westview Stadium 16 & IMAX","address":"5243 Buckeystown Pike","city":"Frederick","state":"MD","zip":"21704","distance":"13.920568466186523","lon":"-77.413055","lat":"39.374027","theaterChainName":"Regal Cinemas","ticketType":"STANDARD"}]