[{"id":"3579","tribuneTheaterId":"4665","providerTheaterId":"","name":"Westview Stadium 16 & IMAX","address":"5243 Buckeystown Pike","city":"Frederick","state":"MD","zip":"21704","distance":12.894440736284,"lon":"-77.413058","lat":"39.374027","theaterChainName":"Regal Cinemas","ticketType":"STANDARD"},{"id":"3515","tribuneTheaterId":"8202","providerTheaterId":"","name":"Regal Germantown Stadium 14","address":"20000 Century Blvd.","city":"Germantown","state":"MD","zip":"20874","distance":14.874281675088,"lon":"-77.261623","lat":"39.184225","theaterChainName":"Regal Cinemas","ticketType":"STANDARD"},{"id":"487","tribuneTheaterId":"7145","providerTheaterId":"","name":"Regal Westminister 9","address":"400 Center St.","city":"Westminster","state":"MD","zip":"21157","distance":16.487419835186,"lon":"-76.983707","lat":"39.577189","theaterChainName":"Regal Cinemas","ticketType":"STANDARD"},{"id":"2025","tribuneTheaterId":"3153","providerTheaterId":"","name":"Kentlands Stadium 10","address":"629 Centerpoint Way","city":"Gaithersburg","state":"MD","zip":"20878","distance":18.709049112268,"lon":"-77.234225","lat":"39.1216","theaterChainName":"Independent Chains","ticketType":"STANDARD"},{"id":"201","tribuneTheaterId":"9086","providerTheaterId":"2777","name":"AMC Loews Rio Cinemas 18","address":"9811 Washingtonian Blvd","city":"Gaithersburg","state":"MD","zip":"20878","distance":18.835582330093,"lon":"-77.197527","lat":"39.11619","theaterChainName":"AMC Theatres","ticketType":"STANDARD"},{"id":"3683","tribuneTheaterId":"7972","providerTheaterId":"349","name":"AMC Columbia 14","address":"10300 Patuxent Parkway","city":"Columbia","state":"MD","zip":"21044","distance":20.302842496458,"lon":"-76.863549","lat":"39.217028","theaterChainName":"AMC Theatres","ticketType":"STANDARD"},{"id":"1458","tribuneTheaterId":"9073","providerTheaterId":"","name":"Regal Rockville Center Stadium 13","address":"199 E. Montgomery Ave.","city":"Rockville","state":"MD","zip":"20850","distance":21.047303193433,"lon":"-77.149923","lat":"39.083972","theaterChainName":"Regal Cinemas","ticketType":"STANDARD"},{"id":"5444","tribuneTheaterId":"10884","providerTheaterId":"","name":"The Pikes Theatre","address":"921 Reisterstown Rd.","city":"Pikesville","state":"MD","zip":"21208","distance":20.425290738865,"lon":"-76.790481","lat":"39.406337","theaterChainName":"Independent Chains","ticketType":"STANDARD"},{"id":"2135","tribuneTheaterId":"5312","providerTheaterId":"804","name":"AMC Owings Mills 17","address":"10100 Mill Run Circle","city":"Owings Mills","state":"MD","zip":"21117","distance":20.507970962716,"lon":"-76.788847","lat":"39.405229","theaterChainName":"AMC Theatres","ticketType":"STANDARD"},{"id":"712","tribuneTheaterId":"8661","providerTheaterId":"","name":"United Artists Snowden Square Stadium 14","address":"9161 Commerce Center Drive","city":"Columbia","state":"MD","zip":"21046","distance":23.807225556362,"lon":"-76.819673","lat":"39.177795","theaterChainName":"United Artists","ticketType":"STANDARD"},{"id":"486","tribuneTheaterId":"5310","providerTheaterId":"805","name":"AMC Security Square 8","address":"1717 Rolling Road","city":"Baltimore","state":"MD","zip":"21244","distance":23.190476172187,"lon":"-76.750939","lat":"39.307597","theaterChainName":"AMC Theatres","ticketType":"STANDARD"}]