[{"id":"487","tribuneTheaterId":"7145","providerTheaterId":"","name":"Regal Westminister 9","address":"400 Center St.","city":"Westminster","state":"MD","zip":"21157","distance":8.3588708579114,"lon":"-76.983707","lat":"39.577189","theaterChainName":"Regal Cinemas","ticketType":"STANDARD"},{"id":"5444","tribuneTheaterId":"10884","providerTheaterId":"","name":"The Pikes Theatre","address":"921 Reisterstown Rd.","city":"Pikesville","state":"MD","zip":"21208","distance":10.172633271729,"lon":"-76.790481","lat":"39.406337","theaterChainName":"Independent Chains","ticketType":"STANDARD"},{"id":"2135","tribuneTheaterId":"5312","providerTheaterId":"804","name":"AMC Owings Mills 17","address":"10100 Mill Run Circle","city":"Owings Mills","state":"MD","zip":"21117","distance":10.28091919932,"lon":"-76.788847","lat":"39.405229","theaterChainName":"AMC Theatres","ticketType":"STANDARD"},{"id":"486","tribuneTheaterId":"5310","providerTheaterId":"805","name":"AMC Security Square 8","address":"1717 Rolling Road","city":"Baltimore","state":"MD","zip":"21244","distance":15.572226216398,"lon":"-76.750939","lat":"39.307597","theaterChainName":"AMC Theatres","ticketType":"STANDARD"},{"id":"1692","tribuneTheaterId":"7424","providerTheaterId":"","name":"Regal Hunt Valley Stadium 12","address":"11511 McCormick Road","city":"Hunt Valley","state":"MD","zip":"21030","distance":16.980571235004,"lon":"-76.656053","lat":"39.499447","theaterChainName":"Regal Cinemas","ticketType":"STANDARD"},{"id":"3683","tribuneTheaterId":"7972","providerTheaterId":"349","name":"AMC Columbia 14","address":"10300 Patuxent Parkway","city":"Columbia","state":"MD","zip":"21044","distance":17.502638475841,"lon":"-76.863549","lat":"39.217028","theaterChainName":"AMC Theatres","ticketType":"STANDARD"},{"id":"866","tribuneTheaterId":"7466","providerTheaterId":"","name":"R\/C Hollywood Cinema 4","address":"5509 Oregon Ave.","city":"Arbutus","state":"MD","zip":"21227","distance":20.691919737637,"lon":"-76.693706","lat":"39.246526","theaterChainName":"R\/C Theatres","ticketType":"STANDARD"},{"id":"712","tribuneTheaterId":"8661","providerTheaterId":"","name":"United Artists Snowden Square Stadium 14","address":"9161 Commerce Center Drive","city":"Columbia","state":"MD","zip":"21046","distance":20.870502918854,"lon":"-76.819673","lat":"39.177795","theaterChainName":"United Artists","ticketType":"STANDARD"},{"id":"135","tribuneTheaterId":"2662","providerTheaterId":"","name":"Rotunda Cinemas","address":"711 W. 40th St.","city":"Baltimore","state":"MD","zip":"21211","distance":19.911993953458,"lon":"-76.630776","lat":"39.336298","theaterChainName":"Independent Chains","ticketType":"STANDARD"},{"id":"490","tribuneTheaterId":"4047","providerTheaterId":"","name":"Senator Theatre","address":"5904 York Rd.","city":"Baltimore","state":"MD","zip":"21212","distance":20.250636948303,"lon":"-76.6099","lat":"39.3636","theaterChainName":"Independent Chains","ticketType":"STANDARD"},{"id":"5495","tribuneTheaterId":"10957","providerTheaterId":"","name":"Cinemark Towson and XD","address":"111 East Joppa Road","city":"Towson","state":"MD","zip":"21286","distance":20.048710537083,"lon":"-76.600516","lat":"39.402607","theaterChainName":"Cinemark","ticketType":"STANDARD"},{"id":"485","tribuneTheaterId":"2925","providerTheaterId":"","name":"The Charles","address":"1711 N. Charles St.","city":"Baltimore","state":"MD","zip":"21201","distance":21.442336091856,"lon":"-76.616313","lat":"39.309232","theaterChainName":"Independent Chains","ticketType":"STANDARD"},{"id":"3579","tribuneTheaterId":"4665","providerTheaterId":"","name":"Westview Stadium 16 & IMAX","address":"5243 Buckeystown Pike","city":"Frederick","state":"MD","zip":"21704","distance":24.350745677231,"lon":"-77.413058","lat":"39.374027","theaterChainName":"Regal Cinemas","ticketType":"STANDARD"},{"id":"872","tribuneTheaterId":"8091","providerTheaterId":"","name":"West Nursery","address":"1591 W. Nursery Road","city":"Linthicum","state":"MD","zip":"21090","distance":23.351542227554,"lon":"-76.677665","lat":"39.205236","theaterChainName":"Hoyts","ticketType":"STANDARD"},{"id":"3115","tribuneTheaterId":"8894","providerTheaterId":"","name":"Cinemark Egyptian 24","address":"7000 Arundel Mills Cir","city":"Hanover","state":"MD","zip":"21076","distance":24.272629639664,"lon":"-76.725007","lat":"39.160732","theaterChainName":"Cinemark","ticketType":"STANDARD"},{"id":"489","tribuneTheaterId":"7049","providerTheaterId":"","name":"Beltway Movies","address":"7660 Bel Air Rd.","city":"Baltimore","state":"MD","zip":"21236","distance":24.808023314578,"lon":"-76.519446","lat":"39.367476","theaterChainName":"Independent Chains","ticketType":"STANDARD"},{"id":"3515","tribuneTheaterId":"8202","providerTheaterId":"","name":"Regal Germantown Stadium 14","address":"20000 Century Blvd.","city":"Germantown","state":"MD","zip":"20874","distance":24.455418679743,"lon":"-77.261623","lat":"39.184225","theaterChainName":"Regal Cinemas","ticketType":"STANDARD"}]