[{"id":"4193","name":"R\/C Gateway Theatre 8","address":"20 Presidential Circle","city":"Gettysburg","state":"PA","zip":"17325","distance":"19.522809982299805","lon":"-77.191071","lat":"39.843880","theaterChainName":"R\/C Theatres","ticketType":"STANDARD"},{"id":"4200","name":"Gettysburg Village Cinema","address":"1865 Gettysburg Drive","city":"Gettysburg","state":"PA","zip":"17325","distance":"16.28760528564453","lon":"-77.200821","lat":"39.790726","theaterChainName":"Frank Theatres","ticketType":"STANDARD"},{"id":"4946","name":"Leitersburg Cinemas","address":"20145 Leitersburg pike","city":"Hagerstown","state":"MD","zip":"21742","distance":"15.159347534179688","lon":"-77.667404","lat":"39.684319","theaterChainName":"Independent Chains","ticketType":"STANDARD"},{"id":"3027","name":"Regal Valley Mall Stadium 16","address":"17301 Valley Mall Rd.","city":"Hagerstown","state":"MD","zip":"21740","distance":"19.9100341796875","lon":"-77.772583","lat":"39.623840","theaterChainName":"Regal Cinemas","ticketType":"STANDARD"},{"id":"3579","name":"Westview Stadium 16 & IMAX","address":"5243 Buckeystown Pike","city":"Frederick","state":"MD","zip":"21704","distance":"16.384784698486328","lon":"-77.413055","lat":"39.374027","theaterChainName":"Regal Cinemas","ticketType":"STANDARD"},{"id":"487","name":"Regal Westminister 9","address":"400 Center St.","city":"Westminster","state":"MD","zip":"21157","distance":"22.229713439941406","lon":"-76.983704","lat":"39.577190","theaterChainName":"Regal Cinemas","ticketType":"STANDARD"}]