[{"id":"3579","tribuneTheaterId":"4665","providerTheaterId":"","name":"Westview Stadium 16 & IMAX","address":"5243 Buckeystown Pike","city":"Frederick","state":"MD","zip":"21704","distance":12.489458432759,"lon":"-77.413058","lat":"39.374027","theaterChainName":"Regal Cinemas","ticketType":"STANDARD"},{"id":"487","tribuneTheaterId":"7145","providerTheaterId":"","name":"Regal Westminister 9","address":"400 Center St.","city":"Westminster","state":"MD","zip":"21157","distance":17.00144923961,"lon":"-76.983707","lat":"39.577189","theaterChainName":"Regal Cinemas","ticketType":"STANDARD"},{"id":"4200","tribuneTheaterId":"2275","providerTheaterId":"","name":"Gettysburg Village Cinema","address":"1865 Gettysburg Drive","city":"Gettysburg","state":"PA","zip":"17325","distance":18.656438464539,"lon":"-77.20082","lat":"39.790724","theaterChainName":"Frank Theatres","ticketType":"STANDARD"},{"id":"4946","tribuneTheaterId":"10301","providerTheaterId":"","name":"Leitersburg Cinemas","address":"20145 Leitersburg pike","city":"Hagerstown","state":"MD","zip":"21742","distance":22.370145933753,"lon":"-77.667407","lat":"39.68432","theaterChainName":"Independent Chains","ticketType":"STANDARD"},{"id":"4193","tribuneTheaterId":"4985","providerTheaterId":"","name":"R\/C Gateway Theatre 8","address":"20 Presidential Circle","city":"Gettysburg","state":"PA","zip":"17325","distance":22.335681620231,"lon":"-77.191067","lat":"39.843881","theaterChainName":"R\/C Theatres","ticketType":"STANDARD"},{"id":"3515","tribuneTheaterId":"8202","providerTheaterId":"","name":"Regal Germantown Stadium 14","address":"20000 Century Blvd.","city":"Germantown","state":"MD","zip":"20874","distance":24.041983549465,"lon":"-77.261623","lat":"39.184225","theaterChainName":"Regal Cinemas","ticketType":"STANDARD"}]