[{"id":"4193","name":"R\/C Gateway Theatre 8","address":"20 Presidential Circle","city":"Gettysburg","state":"PA","zip":"17325","distance":"22.336891174316406","lon":"-77.191071","lat":"39.843880","theaterChainName":"R\/C Theatres","ticketType":"STANDARD"},{"id":"4200","name":"Gettysburg Village Cinema","address":"1865 Gettysburg Drive","city":"Gettysburg","state":"PA","zip":"17325","distance":"18.657657623291016","lon":"-77.200821","lat":"39.790726","theaterChainName":"Frank Theatres","ticketType":"STANDARD"},{"id":"4946","name":"Leitersburg Cinemas","address":"20145 Leitersburg pike","city":"Hagerstown","state":"MD","zip":"21742","distance":"22.37116813659668","lon":"-77.667404","lat":"39.684319","theaterChainName":"Independent Chains","ticketType":"STANDARD"},{"id":"3579","name":"Westview Stadium 16 & IMAX","address":"5243 Buckeystown Pike","city":"Frederick","state":"MD","zip":"21704","distance":"12.490141868591309","lon":"-77.413055","lat":"39.374027","theaterChainName":"Regal Cinemas","ticketType":"STANDARD"},{"id":"487","name":"Regal Westminister 9","address":"400 Center St.","city":"Westminster","state":"MD","zip":"21157","distance":"17.00284194946289","lon":"-76.983704","lat":"39.577190","theaterChainName":"Regal Cinemas","ticketType":"STANDARD"},{"id":"3515","name":"Regal Germantown Stadium 14","address":"20000 Century Blvd.","city":"Germantown","state":"MD","zip":"20874","distance":"24.043710708618164","lon":"-77.261620","lat":"39.184223","theaterChainName":"Regal Cinemas","ticketType":"STANDARD"}]