[{"id":"5464","tribuneTheaterId":"10905","providerTheaterId":"","name":"Westown Movies","address":"150 Commerce Drive","city":"Middletown","state":"DE","zip":"19709","distance":9.2609363301586,"lon":"-75.6923","lat":"39.393","theaterChainName":"Independent Chains","ticketType":"STANDARD"},{"id":"590","tribuneTheaterId":"7744","providerTheaterId":"","name":"Regal Peoples Plaza Cinema Stadium 17","address":"1100 Peoples Plaza","city":"Newark","state":"DE","zip":"19702","distance":15.242351276953,"lon":"-75.748554","lat":"39.602841","theaterChainName":"Regal Cinemas","ticketType":"STANDARD"},{"id":"725","tribuneTheaterId":"6332","providerTheaterId":"","name":"P and G Chester 5 Theatre","address":"21 Washington Square","city":"Chestertown","state":"MD","zip":"21620","distance":16.098656799807,"lon":"-76.069854","lat":"39.230421","theaterChainName":"Independent Chains","ticketType":"STANDARD"},{"id":"5989","tribuneTheaterId":"11425","providerTheaterId":"","name":"Main Street Movies 5","address":"230 East Main Street","city":"Newark","state":"DE","zip":"19711","distance":20.698460748102,"lon":"-75.744789","lat":"39.686269","theaterChainName":"Independent Chains","ticketType":"STANDARD"},{"id":"5574","tribuneTheaterId":"11021","providerTheaterId":"","name":"Cinemark Christiana and XD","address":"1200 Christiana Mall","city":"Christiana","state":"DE","zip":"19702","distance":22.40552355208,"lon":"-75.6513","lat":"39.6806","theaterChainName":"Cinemark","ticketType":"STANDARD"},{"id":"2867","tribuneTheaterId":"8207","providerTheaterId":"","name":"Carmike 14 Theatre","address":"1365 N. Dupont Hwy, Suite 3020","city":"Dover","state":"DE","zip":"19901","distance":22.484074131688,"lon":"-75.540318","lat":"39.195079","theaterChainName":"Carmike Cinemas","ticketType":"STANDARD"},{"id":"685","tribuneTheaterId":"8845","providerTheaterId":"","name":"Regal Bel Air Cinema Stadium 14","address":"409 Constant Friendship Blvd.","city":"Abingdon","state":"MD","zip":"21009","distance":24.360616792901,"lon":"-76.316528","lat":"39.455217","theaterChainName":"Regal Cinemas","ticketType":"STANDARD"},{"id":"1323","tribuneTheaterId":"5218","providerTheaterId":"","name":"Cinemark Movies 10 Wilmington","address":"1796 W. Newport Pike","city":"Wilmington","state":"DE","zip":"19804","distance":24.955969251797,"lon":"-75.631315","lat":"39.714372","theaterChainName":"Cinemark","ticketType":"STANDARD"},{"id":"3533","tribuneTheaterId":"6842","providerTheaterId":"","name":"Flagship Cinemas 7 Churchville","address":"2408 E.Churchville Rd.","city":"Bel Air","state":"MD","zip":"21015","distance":24.365000317921,"lon":"-76.275727","lat":"39.556571","theaterChainName":"Carmike Cinemas","ticketType":"STANDARD"}]