[{"id":"1323","name":"Cinemark Movies 10 Wilmington","address":"1796 W. Newport Pike","city":"Wilmington","state":"DE","zip":"19804","distance":"24.957399368286133","lon":"-75.631317","lat":"39.714371","theaterChainName":"Cinemark","ticketType":"STANDARD"},{"id":"5574","name":"Cinemark Christiana and XD","address":"1200 Christiana Mall","city":"Christiana","state":"DE","zip":"19702","distance":"22.406923294067383","lon":"-75.651299","lat":"39.680599","theaterChainName":"Cinemark","ticketType":"STANDARD"},{"id":"2867","name":"Carmike 14 Theatre","address":"1365 N. Dupont Hwy, Suite 3020","city":"Dover","state":"DE","zip":"19901","distance":"22.485416412353516","lon":"-75.540321","lat":"39.195080","theaterChainName":"Carmike Cinemas","ticketType":"STANDARD"},{"id":"5464","name":"Westown Movies","address":"150 Commerce Drive","city":"Middletown","state":"DE","zip":"19709","distance":"9.26168441772461","lon":"-75.692299","lat":"39.393002","theaterChainName":"Independent Chains","ticketType":"STANDARD"},{"id":"590","name":"Regal Peoples Plaza Cinema Stadium 17","address":"1100 Peoples Plaza","city":"Newark","state":"DE","zip":"19702","distance":"15.243341445922852","lon":"-75.748550","lat":"39.602840","theaterChainName":"Regal Cinemas","ticketType":"STANDARD"},{"id":"5989","name":"Main Street Movies 5","address":"230 East Main Street","city":"Newark","state":"DE","zip":"19711","distance":"20.699657440185547","lon":"-75.744789","lat":"39.686268","theaterChainName":"Independent Chains","ticketType":"STANDARD"},{"id":"3533","name":"Flagship Cinemas 7 Churchville","address":"2408 E.Churchville Rd.","city":"Bel Air","state":"MD","zip":"21015","distance":"24.366378784179688","lon":"-76.275726","lat":"39.556572","theaterChainName":"Carmike Cinemas","ticketType":"STANDARD"},{"id":"685","name":"Regal Bel Air Cinema Stadium 14","address":"409 Constant Friendship Blvd.","city":"Abingdon","state":"MD","zip":"21009","distance":"24.362003326416016","lon":"-76.316528","lat":"39.455215","theaterChainName":"Regal Cinemas","ticketType":"STANDARD"},{"id":"725","name":"P and G Chester 5 Theatre","address":"21 Washington Square","city":"Chestertown","state":"MD","zip":"21620","distance":"16.099729537963867","lon":"-76.069855","lat":"39.230419","theaterChainName":"Independent Chains","ticketType":"STANDARD"}]