[{"id":"4135","tribuneTheaterId":"4910","providerTheaterId":"","name":"Regal Kingstowne Stadium 16","address":"5910 Kingstowne Towne Center","city":"Alexandria","state":"VA","zip":"22315","distance":3.4231626993552,"lon":"-77.138325","lat":"38.772012","theaterChainName":"Regal Cinemas","ticketType":"STANDARD"},{"id":"5506","tribuneTheaterId":"10970","providerTheaterId":"","name":"Springfield Town Center 12","address":"6859 Springfield Town Center","city":"Springfield","state":"VA","zip":"22150","distance":2.479944086698,"lon":"-77.1774","lat":"38.7738","theaterChainName":"Regal Cinemas","ticketType":"STANDARD"},{"id":"3225","tribuneTheaterId":"8913","providerTheaterId":"337","name":"AMC Hoffman Center 22","address":"206 Swamp Fox Rd.","city":"Alexandria","state":"VA","zip":"22314","distance":7.586909591223,"lon":"-77.070537","lat":"38.802379","theaterChainName":"AMC Theatres","ticketType":"STANDARD"},{"id":"5222","tribuneTheaterId":"10646","providerTheaterId":"","name":"Angelika Film Center-Mosaic","address":"2911 District Avenue","city":"Fairfax","state":"VA","zip":"22031","distance":9.5381046979592,"lon":"-77.229466","lat":"38.872027","theaterChainName":"Reading International, Inc","ticketType":"STANDARD"},{"id":"2670","tribuneTheaterId":"6528","providerTheaterId":"","name":"Cinema Arts Theatre","address":"9650 Main St","city":"Fairfax","state":"VA","zip":"22031","distance":8.6574968784969,"lon":"-77.2758","lat":"38.8418","theaterChainName":"Independent Chains","ticketType":"STANDARD"},{"id":"600","tribuneTheaterId":"6459","providerTheaterId":"","name":"University Mall Theatres","address":"10659 Braddock Road","city":"Fairfax","state":"VA","zip":"22032","distance":9.1863648216479,"lon":"-77.314361","lat":"38.82505","theaterChainName":"Independent Chains","ticketType":"STANDARD"},{"id":"204","tribuneTheaterId":"7322","providerTheaterId":"2798","name":"AMC Loews Shirlington 7","address":"2772 South Randolph St.","city":"Arlington","state":"VA","zip":"22206","distance":8.7863769235416,"lon":"-77.089101","lat":"38.841279","theaterChainName":"AMC Theatres","ticketType":"STANDARD"},{"id":"371","tribuneTheaterId":"5314","providerTheaterId":"364","name":"AMC Potomac Mills 18","address":"2700 Potomac Mills Circle","city":"Woodbridge","state":"VA","zip":"22192","distance":8.9857032804177,"lon":"-77.29738","lat":"38.642383","theaterChainName":"AMC Theatres","ticketType":"STANDARD"},{"id":"2532","tribuneTheaterId":"8881","providerTheaterId":"","name":"Regal Ballston Common Stadium 12","address":"671 N. Glebe Road","city":"Arlington","state":"VA","zip":"22203","distance":10.475573709299,"lon":"-77.111583","lat":"38.878807","theaterChainName":"Regal Cinemas","ticketType":"STANDARD"},{"id":"1606","tribuneTheaterId":"5629","providerTheaterId":"","name":"Regal Potomac Yard Stadium 16","address":"3575 Jefferson Davis Hwy.","city":"Alexandria","state":"VA","zip":"22305","distance":10.054705014381,"lon":"-77.048128","lat":"38.837369","theaterChainName":"Regal Cinemas","ticketType":"STANDARD"},{"id":"5701","tribuneTheaterId":"11138","providerTheaterId":"339","name":"AMC Rivertowne 12","address":"6075 Oxon Hill Rd.","city":"Oxon Hill","state":"MD","zip":"20745","distance":11.942588388808,"lon":"-76.9801","lat":"38.8044","theaterChainName":"AMC Theatres","ticketType":"STANDARD"},{"id":"369","tribuneTheaterId":"5313","providerTheaterId":"362","name":"AMC Courthouse Plaza 8","address":"2150 Clarendon Blvd","city":"Arlington","state":"VA","zip":"22201","distance":11.784019457413,"lon":"-77.085165","lat":"38.890179","theaterChainName":"AMC Theatres","ticketType":"STANDARD"},{"id":"503","tribuneTheaterId":"7139","providerTheaterId":"","name":"Regal Fairfax Town Center","address":"4110 W Ox Road","city":"Fairfax","state":"VA","zip":"22033","distance":13.255187409685,"lon":"-77.367276","lat":"38.867344","theaterChainName":"Regal Cinemas","ticketType":"STANDARD"},{"id":"4108","tribuneTheaterId":"9046","providerTheaterId":"366","name":"AMC Tysons Corner 16","address":"7850 Tysons Corner Center","city":"West McLean","state":"VA","zip":"22102","distance":12.524694343529,"lon":"-77.218936","lat":"38.917734","theaterChainName":"AMC Theatres","ticketType":"STANDARD"},{"id":"3657","tribuneTheaterId":"5147","providerTheaterId":"","name":"Fairfax Corner 14","address":"11900 Palace Way","city":"Fairfax","state":"VA","zip":"22030","distance":12.449799890096,"lon":"-77.356731","lat":"38.859044","theaterChainName":"Cinemark","ticketType":"STANDARD"},{"id":"3581","tribuneTheaterId":"7640","providerTheaterId":"2654","name":"AMC Loews Georgetown 14","address":"3111 K Street N.W.","city":"Washington","state":"DC","zip":"20007","distance":13.125568795367,"lon":"-77.06265","lat":"38.902721","theaterChainName":"AMC Theatres","ticketType":"STANDARD"},{"id":"3898","tribuneTheaterId":"4667","providerTheaterId":"","name":"Regal Gallery Place Stadium 14","address":"707 Seventh Street NW","city":"Washington","state":"DC","zip":"20001","distance":14.130471224503,"lon":"-77.021728","lat":"38.898534","theaterChainName":"Regal Cinemas","ticketType":"STANDARD"},{"id":"4701","tribuneTheaterId":"9915","providerTheaterId":"","name":"Marlow 6 Theatre","address":"3899 Branch Ave.","city":"Temple Hills","state":"MD","zip":"20748","distance":14.582506506054,"lon":"-76.944863","lat":"38.835906","theaterChainName":"Phoenix Theatres","ticketType":"STANDARD"},{"id":"206","tribuneTheaterId":"7810","providerTheaterId":"886","name":"AMC Mazza Gallerie","address":"5300 Wisconsin Ave., NW","city":"Washington","state":"DC","zip":"20015","distance":16.167537071196,"lon":"-77.0848","lat":"38.959","theaterChainName":"AMC Theatres","ticketType":"STANDARD"},{"id":"203","tribuneTheaterId":"8757","providerTheaterId":"2794","name":"AMC Loews St. Charles Town Center 9","address":"11115 Mall Circle","city":"Waldorf","state":"MD","zip":"20601","distance":16.08352098735,"lon":"-76.928201","lat":"38.620089","theaterChainName":"AMC Theatres","ticketType":"STANDARD"},{"id":"5494","tribuneTheaterId":"10950","providerTheaterId":"","name":"Angelika Pop-Up at Union Market","address":"550 Penn St","city":"Washington","state":"DC","zip":"20002","distance":15.616915737105,"lon":"-76.99621","lat":"38.910025","theaterChainName":"Reading International, Inc","ticketType":"STANDARD"},{"id":"207","tribuneTheaterId":"8452","providerTheaterId":"2767","name":"AMC Loews Uptown 1","address":"3426 Connecticut Ave. NW","city":"Washington","state":"DC","zip":"20008","distance":15.193260701552,"lon":"-77.058405","lat":"38.934945","theaterChainName":"AMC Theatres","ticketType":"STANDARD"},{"id":"278","tribuneTheaterId":"9190","providerTheaterId":"","name":"Rave Motion Pictures Centreville 12","address":"6201 Multiplex Dr","city":"Centreville","state":"VA","zip":"20121","distance":15.018450659491,"lon":"-77.4377","lat":"38.8303","theaterChainName":"Cinemark","ticketType":"STANDARD"},{"id":"599","tribuneTheaterId":"6735","providerTheaterId":"","name":"Manassas Cinemas","address":"8890 Mathis Ave.","city":"Manassas","state":"VA","zip":"20110","distance":15.071805349851,"lon":"-77.463014","lat":"38.762356","theaterChainName":"Independent Chains","ticketType":"STANDARD"},{"id":"5343","tribuneTheaterId":"10780","providerTheaterId":"","name":"Xscape 14","address":"7710 Matapeake Business Drive","city":"Brandywine","state":"MD","zip":"20613","distance":17.463251334721,"lon":"-76.8715","lat":"38.6749","theaterChainName":"Independent Chains","ticketType":"STANDARD"},{"id":"502","tribuneTheaterId":"7741","providerTheaterId":"","name":"Regal Bethesda","address":"7272 Wisconsin Ave.","city":"Bethesda","state":"MD","zip":"20814","distance":17.536774442681,"lon":"-77.093731","lat":"38.98206","theaterChainName":"Regal Cinemas","ticketType":"STANDARD"},{"id":"205","tribuneTheaterId":"6579","providerTheaterId":"","name":"The Avalon Theatre","address":"5612 Connecticut Ave. NW","city":"Washington","state":"DC","zip":"20015","distance":16.738832855441,"lon":"-77.076103","lat":"38.965336","theaterChainName":"Independent Chains","ticketType":"STANDARD"},{"id":"277","tribuneTheaterId":"9264","providerTheaterId":"","name":"Bow Tie Cinemas Reston Town Center 13","address":"11940 Market St","city":"Reston","state":"VA","zip":"20190","distance":17.853897534593,"lon":"-77.358103","lat":"38.958848","theaterChainName":"Bow-Tie Cinemas","ticketType":"STANDARD"},{"id":"5345","tribuneTheaterId":"10783","providerTheaterId":"367","name":"AMC Worldgate 9","address":"13025 Worldgate Dr.","city":"Herndon","state":"VA","zip":"20170","distance":19.048721295959,"lon":"-77.3997","lat":"38.9576","theaterChainName":"AMC Theatres","ticketType":"STANDARD"},{"id":"3844","tribuneTheaterId":"4911","providerTheaterId":"","name":"Regal Majestic Cinema 20 & IMAX","address":"900 Ellsworth Drive","city":"Silver Spring","state":"MD","zip":"20910","distance":19.796605531403,"lon":"-77.025409","lat":"38.996574","theaterChainName":"Regal Cinemas","ticketType":"STANDARD"},{"id":"2481","tribuneTheaterId":"5666","providerTheaterId":"","name":"Regal Manassas Stadium 14 & IMAX","address":"11380 Bulloch Dr","city":"Manassas","state":"VA","zip":"20109","distance":19.094196998231,"lon":"-77.529927","lat":"38.802038","theaterChainName":"Regal Cinemas","ticketType":"STANDARD"},{"id":"4370","tribuneTheaterId":"9403","providerTheaterId":"","name":"Regal Hyattsville Royale Stadium 14","address":"6505 America Blvd","city":"Hyattsville","state":"MD","zip":"20782","distance":20.25327405349,"lon":"-76.951885","lat":"38.968549","theaterChainName":"Regal Cinemas","ticketType":"STANDARD"},{"id":"3859","tribuneTheaterId":"790","providerTheaterId":"","name":"AFI Silver Theatre Cultural Center","address":"8633 Colesville Rd","city":"Silver Spring","state":"MD","zip":"20910","distance":19.794040547736,"lon":"-77.025543","lat":"38.996583","theaterChainName":"Independent Chains","ticketType":"STANDARD"},{"id":"5977","tribuneTheaterId":"11413","providerTheaterId":"","name":"AMC Wheaton Mall 9","address":"11006 Veirs Mall Road","city":"Wheaton","state":"MD","zip":"20902","distance":21.740217255793,"lon":"-77.051964","lat":"39.035522","theaterChainName":"AMC Theatres","ticketType":"STANDARD"},{"id":"5394","tribuneTheaterId":"10831","providerTheaterId":"","name":"Regal Virginia Gateway Stadium 16 & RPX","address":"8001 Gateway Promenade Place","city":"Gainesville","state":"VA","zip":"20155","distance":23.652268932127,"lon":"-77.6168","lat":"38.8004","theaterChainName":"Regal Cinemas","ticketType":"STANDARD"},{"id":"3887","tribuneTheaterId":"4162","providerTheaterId":"2307","name":"AMC Magic Johnson Capital Center 12","address":"800 Shoppers Way","city":"Largo","state":"MD","zip":"20774","distance":22.757779238763,"lon":"-76.8073","lat":"38.8863","theaterChainName":"AMC Theatres","ticketType":"STANDARD"},{"id":"670","tribuneTheaterId":"8504","providerTheaterId":"","name":"Regal Aquia 10","address":"2850 Jefferson Davis Hwy","city":"Stafford","state":"VA","zip":"22554","distance":22.396914647105,"lon":"-77.400908","lat":"38.461625","theaterChainName":"Regal Cinemas","ticketType":"STANDARD"},{"id":"479","tribuneTheaterId":"4103","providerTheaterId":"","name":"Old Greenbelt Theatre","address":"129 Centerway","city":"Greenbelt","state":"MD","zip":"20770","distance":24.62622764707,"lon":"-76.876002","lat":"39.001379","theaterChainName":"Independent Chains","ticketType":"STANDARD"},{"id":"1458","tribuneTheaterId":"9073","providerTheaterId":"","name":"Regal Rockville Center Stadium 13","address":"199 E. Montgomery Ave.","city":"Rockville","state":"MD","zip":"20850","distance":23.951068605635,"lon":"-77.149923","lat":"39.083972","theaterChainName":"Regal Cinemas","ticketType":"STANDARD"},{"id":"501","tribuneTheaterId":"7566","providerTheaterId":"","name":"Regal Countryside Stadium 20","address":"45980 Regal Plaza","city":"Sterling","state":"VA","zip":"20165","distance":23.901476004267,"lon":"-77.409014","lat":"39.037171","theaterChainName":"Regal Cinemas","ticketType":"STANDARD"},{"id":"5546","tribuneTheaterId":"10987","providerTheaterId":"","name":"Dulles Town Center St. 10","address":"21010 Dulles Town Circle","city":"Sterling","state":"VA","zip":"20164","distance":23.858126467415,"lon":"-77.4242","lat":"39.0292","theaterChainName":"Regal Cinemas","ticketType":"STANDARD"},{"id":"5704","tribuneTheaterId":"11141","providerTheaterId":"","name":"Starplex Loudoun Station Luxury Cinemas 11","address":"43751 Central Station Drive","city":"Ashburn","state":"VA","zip":"20147","distance":24.660591167353,"lon":"-77.48762","lat":"39.006507","theaterChainName":"AMC Theatres","ticketType":"STANDARD"}]