[{"id":"4108","tribuneTheaterId":"9046","providerTheaterId":"366","name":"AMC Tysons Corner 16","address":"7850 Tysons Corner Center","city":"West McLean","state":"VA","zip":"22102","distance":2.4895027601812,"lon":"-77.218936","lat":"38.917734","theaterChainName":"AMC Theatres","ticketType":"STANDARD"},{"id":"5222","tribuneTheaterId":"10646","providerTheaterId":"","name":"Angelika Film Center-Mosaic","address":"2911 District Avenue","city":"Fairfax","state":"VA","zip":"22031","distance":1.9572153865202,"lon":"-77.229466","lat":"38.872027","theaterChainName":"Reading International, Inc","ticketType":"STANDARD"},{"id":"2670","tribuneTheaterId":"6528","providerTheaterId":"","name":"Cinema Arts Theatre","address":"9650 Main St","city":"Fairfax","state":"VA","zip":"22031","distance":3.773354670897,"lon":"-77.2758","lat":"38.8418","theaterChainName":"Independent Chains","ticketType":"STANDARD"},{"id":"600","tribuneTheaterId":"6459","providerTheaterId":"","name":"University Mall Theatres","address":"10659 Braddock Road","city":"Fairfax","state":"VA","zip":"22032","distance":5.7615620023627,"lon":"-77.314361","lat":"38.82505","theaterChainName":"Independent Chains","ticketType":"STANDARD"},{"id":"3657","tribuneTheaterId":"5147","providerTheaterId":"","name":"Fairfax Corner 14","address":"11900 Palace Way","city":"Fairfax","state":"VA","zip":"22030","distance":6.0563924039452,"lon":"-77.356731","lat":"38.859044","theaterChainName":"Cinemark","ticketType":"STANDARD"},{"id":"277","tribuneTheaterId":"9264","providerTheaterId":"","name":"Bow Tie Cinemas Reston Town Center 13","address":"11940 Market St","city":"Reston","state":"VA","zip":"20190","distance":7.2236512452523,"lon":"-77.358103","lat":"38.958848","theaterChainName":"Bow-Tie Cinemas","ticketType":"STANDARD"},{"id":"503","tribuneTheaterId":"7139","providerTheaterId":"","name":"Regal Fairfax Town Center","address":"4110 W Ox Road","city":"Fairfax","state":"VA","zip":"22033","distance":6.3963263639409,"lon":"-77.367276","lat":"38.867344","theaterChainName":"Regal Cinemas","ticketType":"STANDARD"},{"id":"2532","tribuneTheaterId":"8881","providerTheaterId":"","name":"Regal Ballston Common Stadium 12","address":"671 N. Glebe Road","city":"Arlington","state":"VA","zip":"22203","distance":7.6837857004124,"lon":"-77.111583","lat":"38.878807","theaterChainName":"Regal Cinemas","ticketType":"STANDARD"},{"id":"5345","tribuneTheaterId":"10783","providerTheaterId":"367","name":"AMC Worldgate 9","address":"13025 Worldgate Dr.","city":"Herndon","state":"VA","zip":"20170","distance":9.0346793590451,"lon":"-77.3997","lat":"38.9576","theaterChainName":"AMC Theatres","ticketType":"STANDARD"},{"id":"5506","tribuneTheaterId":"10970","providerTheaterId":"","name":"Springfield Town Center 12","address":"6859 Springfield Town Center","city":"Springfield","state":"VA","zip":"22150","distance":9.2219517028499,"lon":"-77.1774","lat":"38.7738","theaterChainName":"Regal Cinemas","ticketType":"STANDARD"},{"id":"369","tribuneTheaterId":"5313","providerTheaterId":"362","name":"AMC Courthouse Plaza 8","address":"2150 Clarendon Blvd","city":"Arlington","state":"VA","zip":"22201","distance":9.0394252459949,"lon":"-77.085165","lat":"38.890179","theaterChainName":"AMC Theatres","ticketType":"STANDARD"},{"id":"4135","tribuneTheaterId":"4910","providerTheaterId":"","name":"Regal Kingstowne Stadium 16","address":"5910 Kingstowne Towne Center","city":"Alexandria","state":"VA","zip":"22315","distance":10.425293370706,"lon":"-77.138325","lat":"38.772012","theaterChainName":"Regal Cinemas","ticketType":"STANDARD"},{"id":"206","tribuneTheaterId":"7810","providerTheaterId":"886","name":"AMC Mazza Gallerie","address":"5300 Wisconsin Ave., NW","city":"Washington","state":"DC","zip":"20015","distance":10.120046967725,"lon":"-77.0848","lat":"38.959","theaterChainName":"AMC Theatres","ticketType":"STANDARD"},{"id":"502","tribuneTheaterId":"7741","providerTheaterId":"","name":"Regal Bethesda","address":"7272 Wisconsin Ave.","city":"Bethesda","state":"MD","zip":"20814","distance":10.530481824099,"lon":"-77.093731","lat":"38.98206","theaterChainName":"Regal Cinemas","ticketType":"STANDARD"},{"id":"3581","tribuneTheaterId":"7640","providerTheaterId":"2654","name":"AMC Loews Georgetown 14","address":"3111 K Street N.W.","city":"Washington","state":"DC","zip":"20007","distance":10.266197251968,"lon":"-77.06265","lat":"38.902721","theaterChainName":"AMC Theatres","ticketType":"STANDARD"},{"id":"204","tribuneTheaterId":"7322","providerTheaterId":"2798","name":"AMC Loews Shirlington 7","address":"2772 South Randolph St.","city":"Arlington","state":"VA","zip":"22206","distance":9.5367713101197,"lon":"-77.089101","lat":"38.841279","theaterChainName":"AMC Theatres","ticketType":"STANDARD"},{"id":"3225","tribuneTheaterId":"8913","providerTheaterId":"337","name":"AMC Hoffman Center 22","address":"206 Swamp Fox Rd.","city":"Alexandria","state":"VA","zip":"22314","distance":11.672686672918,"lon":"-77.070537","lat":"38.802379","theaterChainName":"AMC Theatres","ticketType":"STANDARD"},{"id":"205","tribuneTheaterId":"6579","providerTheaterId":"","name":"The Avalon Theatre","address":"5612 Connecticut Ave. NW","city":"Washington","state":"DC","zip":"20015","distance":10.735119746306,"lon":"-77.076103","lat":"38.965336","theaterChainName":"Independent Chains","ticketType":"STANDARD"},{"id":"207","tribuneTheaterId":"8452","providerTheaterId":"2767","name":"AMC Loews Uptown 1","address":"3426 Connecticut Ave. NW","city":"Washington","state":"DC","zip":"20008","distance":10.856751148063,"lon":"-77.058405","lat":"38.934945","theaterChainName":"AMC Theatres","ticketType":"STANDARD"},{"id":"278","tribuneTheaterId":"9190","providerTheaterId":"","name":"Rave Motion Pictures Centreville 12","address":"6201 Multiplex Dr","city":"Centreville","state":"VA","zip":"20121","distance":10.84418179025,"lon":"-77.4377","lat":"38.8303","theaterChainName":"Cinemark","ticketType":"STANDARD"},{"id":"1606","tribuneTheaterId":"5629","providerTheaterId":"","name":"Regal Potomac Yard Stadium 16","address":"3575 Jefferson Davis Hwy.","city":"Alexandria","state":"VA","zip":"22305","distance":11.69419437974,"lon":"-77.048128","lat":"38.837369","theaterChainName":"Regal Cinemas","ticketType":"STANDARD"},{"id":"3898","tribuneTheaterId":"4667","providerTheaterId":"","name":"Regal Gallery Place Stadium 14","address":"707 Seventh Street NW","city":"Washington","state":"DC","zip":"20001","distance":12.452124432468,"lon":"-77.021728","lat":"38.898534","theaterChainName":"Regal Cinemas","ticketType":"STANDARD"},{"id":"5546","tribuneTheaterId":"10987","providerTheaterId":"","name":"Dulles Town Center St. 10","address":"21010 Dulles Town Circle","city":"Sterling","state":"VA","zip":"20164","distance":13.126640986349,"lon":"-77.4242","lat":"39.0292","theaterChainName":"Regal Cinemas","ticketType":"STANDARD"},{"id":"501","tribuneTheaterId":"7566","providerTheaterId":"","name":"Regal Countryside Stadium 20","address":"45980 Regal Plaza","city":"Sterling","state":"VA","zip":"20165","distance":12.984861038073,"lon":"-77.409014","lat":"39.037171","theaterChainName":"Regal Cinemas","ticketType":"STANDARD"},{"id":"5494","tribuneTheaterId":"10950","providerTheaterId":"","name":"Angelika Pop-Up at Union Market","address":"550 Penn St","city":"Washington","state":"DC","zip":"20002","distance":13.865451694738,"lon":"-76.99621","lat":"38.910025","theaterChainName":"Reading International, Inc","ticketType":"STANDARD"},{"id":"5704","tribuneTheaterId":"11141","providerTheaterId":"","name":"Starplex Loudoun Station Luxury Cinemas 11","address":"43751 Central Station Drive","city":"Ashburn","state":"VA","zip":"20147","distance":14.819901989279,"lon":"-77.48762","lat":"39.006507","theaterChainName":"AMC Theatres","ticketType":"STANDARD"},{"id":"3844","tribuneTheaterId":"4911","providerTheaterId":"","name":"Regal Majestic Cinema 20 & IMAX","address":"900 Ellsworth Drive","city":"Silver Spring","state":"MD","zip":"20910","distance":14.16183401998,"lon":"-77.025409","lat":"38.996574","theaterChainName":"Regal Cinemas","ticketType":"STANDARD"},{"id":"5977","tribuneTheaterId":"11413","providerTheaterId":"","name":"AMC Wheaton Mall 9","address":"11006 Veirs Mall Road","city":"Wheaton","state":"MD","zip":"20902","distance":14.600198889564,"lon":"-77.051964","lat":"39.035522","theaterChainName":"AMC Theatres","ticketType":"STANDARD"},{"id":"5321","tribuneTheaterId":"10758","providerTheaterId":"","name":"Alamo Drafthouse Loudoun","address":"20575 E. Hampton Plaza","city":"Ashburn","state":"VA","zip":"20147","distance":15.406767608709,"lon":"-77.454425","lat":"39.052398","theaterChainName":"Alamo Drafthouse","ticketType":"STANDARD"},{"id":"599","tribuneTheaterId":"6735","providerTheaterId":"","name":"Manassas Cinemas","address":"8890 Mathis Ave.","city":"Manassas","state":"VA","zip":"20110","distance":14.479165649195,"lon":"-77.463014","lat":"38.762356","theaterChainName":"Independent Chains","ticketType":"STANDARD"},{"id":"1458","tribuneTheaterId":"9073","providerTheaterId":"","name":"Regal Rockville Center Stadium 13","address":"199 E. Montgomery Ave.","city":"Rockville","state":"MD","zip":"20850","distance":14.281352078616,"lon":"-77.149923","lat":"39.083972","theaterChainName":"Regal Cinemas","ticketType":"STANDARD"},{"id":"3859","tribuneTheaterId":"790","providerTheaterId":"","name":"AFI Silver Theatre Cultural Center","address":"8633 Colesville Rd","city":"Silver Spring","state":"MD","zip":"20910","distance":14.155922632762,"lon":"-77.025543","lat":"38.996583","theaterChainName":"Independent Chains","ticketType":"STANDARD"},{"id":"4381","tribuneTheaterId":"9423","providerTheaterId":"","name":"Fox Stadium 16 & IMAX","address":"22875 Brambleton Plaza","city":"Ashburn","state":"VA","zip":"20148","distance":16.511799340445,"lon":"-77.537361","lat":"38.984377","theaterChainName":"Regal Cinemas","ticketType":"STANDARD"},{"id":"2481","tribuneTheaterId":"5666","providerTheaterId":"","name":"Regal Manassas Stadium 14 & IMAX","address":"11380 Bulloch Dr","city":"Manassas","state":"VA","zip":"20109","distance":16.176358762643,"lon":"-77.529927","lat":"38.802038","theaterChainName":"Regal Cinemas","ticketType":"STANDARD"},{"id":"2025","tribuneTheaterId":"3153","providerTheaterId":"","name":"Kentlands Stadium 10","address":"629 Centerpoint Way","city":"Gaithersburg","state":"MD","zip":"20878","distance":15.793075252533,"lon":"-77.234225","lat":"39.1216","theaterChainName":"Independent Chains","ticketType":"STANDARD"},{"id":"5701","tribuneTheaterId":"11138","providerTheaterId":"339","name":"AMC Rivertowne 12","address":"6075 Oxon Hill Rd.","city":"Oxon Hill","state":"MD","zip":"20745","distance":15.932888277023,"lon":"-76.9801","lat":"38.8044","theaterChainName":"AMC Theatres","ticketType":"STANDARD"},{"id":"201","tribuneTheaterId":"9086","providerTheaterId":"2777","name":"AMC Loews Rio Cinemas 18","address":"9811 Washingtonian Blvd","city":"Gaithersburg","state":"MD","zip":"20878","distance":15.674059545302,"lon":"-77.197527","lat":"39.11619","theaterChainName":"AMC Theatres","ticketType":"STANDARD"},{"id":"4701","tribuneTheaterId":"9915","providerTheaterId":"","name":"Marlow 6 Theatre","address":"3899 Branch Ave.","city":"Temple Hills","state":"MD","zip":"20748","distance":17.058574714906,"lon":"-76.944863","lat":"38.835906","theaterChainName":"Phoenix Theatres","ticketType":"STANDARD"},{"id":"371","tribuneTheaterId":"5314","providerTheaterId":"364","name":"AMC Potomac Mills 18","address":"2700 Potomac Mills Circle","city":"Woodbridge","state":"VA","zip":"22192","distance":17.512980213206,"lon":"-77.29738","lat":"38.642383","theaterChainName":"AMC Theatres","ticketType":"STANDARD"},{"id":"4370","tribuneTheaterId":"9403","providerTheaterId":"","name":"Regal Hyattsville Royale Stadium 14","address":"6505 America Blvd","city":"Hyattsville","state":"MD","zip":"20782","distance":17.004920676837,"lon":"-76.951885","lat":"38.968549","theaterChainName":"Regal Cinemas","ticketType":"STANDARD"},{"id":"5063","tribuneTheaterId":"10446","providerTheaterId":"","name":"Cobb Village 12 Cinemas","address":"1600 Village Market Blvd.","city":"Leesburg","state":"VA","zip":"20175","distance":20.041762473264,"lon":"-77.526795","lat":"39.090784","theaterChainName":"Cobb Theatres","ticketType":"STANDARD"},{"id":"136","tribuneTheaterId":"7957","providerTheaterId":"2816","name":"AMC Loews Center Park 8","address":"4001 Powder Mill Rd.","city":"Beltsville","state":"MD","zip":"20705","distance":19.975430821325,"lon":"-76.937399","lat":"39.046142","theaterChainName":"AMC Theatres","ticketType":"STANDARD"},{"id":"3515","tribuneTheaterId":"8202","providerTheaterId":"","name":"Regal Germantown Stadium 14","address":"20000 Century Blvd.","city":"Germantown","state":"MD","zip":"20874","distance":20.092235870634,"lon":"-77.261623","lat":"39.184225","theaterChainName":"Regal Cinemas","ticketType":"STANDARD"},{"id":"5394","tribuneTheaterId":"10831","providerTheaterId":"","name":"Regal Virginia Gateway Stadium 16 & RPX","address":"8001 Gateway Promenade Place","city":"Gainesville","state":"VA","zip":"20155","distance":20.596138151427,"lon":"-77.6168","lat":"38.8004","theaterChainName":"Regal Cinemas","ticketType":"STANDARD"},{"id":"479","tribuneTheaterId":"4103","providerTheaterId":"","name":"Old Greenbelt Theatre","address":"129 Centerway","city":"Greenbelt","state":"MD","zip":"20770","distance":21.595957363626,"lon":"-76.876002","lat":"39.001379","theaterChainName":"Independent Chains","ticketType":"STANDARD"},{"id":"3887","tribuneTheaterId":"4162","providerTheaterId":"2307","name":"AMC Magic Johnson Capital Center 12","address":"800 Shoppers Way","city":"Largo","state":"MD","zip":"20774","distance":23.985208236184,"lon":"-76.8073","lat":"38.8863","theaterChainName":"AMC Theatres","ticketType":"STANDARD"}]