[{"id":"3898","name":"Regal Gallery Place Stadium 14","address":"707 Seventh Street NW","city":"Washington","state":"DC","zip":"20001","distance":"8.750901222229004","lon":"-77.021729","lat":"38.898533","theaterChainName":"Regal Cinemas","ticketType":"STANDARD"},{"id":"3581","name":"AMC Loews Georgetown 14","address":"3111 K Street N.W.","city":"Washington","state":"DC","zip":"20007","distance":"7.393981456756592","lon":"-77.062653","lat":"38.902721","theaterChainName":"AMC Theatres","ticketType":"STANDARD"},{"id":"5494","name":"Angelika Pop-Up at Union Market","address":"550 Penn St","city":"Washington","state":"DC","zip":"20002","distance":"10.320823669433594","lon":"-76.996208","lat":"38.910027","theaterChainName":"Reading International, Inc","ticketType":"STANDARD"},{"id":"207","name":"AMC Loews Uptown 1","address":"3426 Connecticut Ave. NW","city":"Washington","state":"DC","zip":"20008","distance":"9.354659080505371","lon":"-77.058403","lat":"38.934944","theaterChainName":"AMC Theatres","ticketType":"STANDARD"},{"id":"369","name":"AMC Courthouse Plaza 8","address":"2150 Clarendon Blvd","city":"Arlington","state":"VA","zip":"22201","distance":"5.974842548370361","lon":"-77.085167","lat":"38.890179","theaterChainName":"AMC Theatres","ticketType":"STANDARD"},{"id":"1606","name":"Regal Potomac Yard Stadium 16","address":"3575 Jefferson Davis Hwy.","city":"Alexandria","state":"VA","zip":"22305","distance":"5.543246269226074","lon":"-77.048126","lat":"38.837368","theaterChainName":"Regal Cinemas","ticketType":"STANDARD"},{"id":"204","name":"AMC Loews Shirlington 7","address":"2772 South Randolph St.","city":"Arlington","state":"VA","zip":"22206","distance":"3.540583610534668","lon":"-77.089104","lat":"38.841278","theaterChainName":"AMC Theatres","ticketType":"STANDARD"},{"id":"2532","name":"Regal Ballston Common Stadium 12","address":"671 N. Glebe Road","city":"Arlington","state":"VA","zip":"22203","distance":"4.576776027679443","lon":"-77.111580","lat":"38.878807","theaterChainName":"Regal Cinemas","ticketType":"STANDARD"},{"id":"206","name":"AMC Mazza Gallerie","address":"5300 Wisconsin Ave., NW","city":"Washington","state":"DC","zip":"20015","distance":"10.25408935546875","lon":"-77.084801","lat":"38.959000","theaterChainName":"AMC Theatres","ticketType":"STANDARD"},{"id":"205","name":"The Avalon Theatre","address":"5612 Connecticut Ave. NW","city":"Washington","state":"DC","zip":"20015","distance":"10.826825141906738","lon":"-77.076103","lat":"38.965336","theaterChainName":"Independent Chains","ticketType":"STANDARD"},{"id":"3225","name":"AMC Hoffman Center 22","address":"206 Swamp Fox Rd.","city":"Alexandria","state":"VA","zip":"22314","distance":"4.348727703094482","lon":"-77.070534","lat":"38.802380","theaterChainName":"AMC Theatres","ticketType":"STANDARD"},{"id":"5701","name":"AMC Rivertowne 12","address":"6075 Oxon Hill Rd.","city":"Oxon Hill","state":"MD","zip":"20745","distance":"9.118086814880371","lon":"-76.980103","lat":"38.804401","theaterChainName":"AMC Theatres","ticketType":"STANDARD"},{"id":"4701","name":"Marlow 6 Theatre","address":"3899 Branch Ave.","city":"Temple Hills","state":"MD","zip":"20748","distance":"11.017688751220703","lon":"-76.944862","lat":"38.835907","theaterChainName":"Phoenix Theatres","ticketType":"STANDARD"},{"id":"3844","name":"Regal Majestic Cinema 20 & IMAX","address":"900 Ellsworth Drive","city":"Silver Spring","state":"MD","zip":"20910","distance":"13.932619094848633","lon":"-77.025406","lat":"38.996574","theaterChainName":"Regal Cinemas","ticketType":"STANDARD"},{"id":"3859","name":"AFI Silver Theatre Cultural Center","address":"8633 Colesville Rd","city":"Silver Spring","state":"MD","zip":"20910","distance":"13.92957878112793","lon":"-77.025543","lat":"38.996582","theaterChainName":"Independent Chains","ticketType":"STANDARD"},{"id":"4370","name":"Regal Hyattsville Royale Stadium 14","address":"6505 America Blvd","city":"Hyattsville","state":"MD","zip":"20782","distance":"14.776079177856445","lon":"-76.951881","lat":"38.968548","theaterChainName":"Regal Cinemas","ticketType":"STANDARD"},{"id":"502","name":"Regal Bethesda","address":"7272 Wisconsin Ave.","city":"Bethesda","state":"MD","zip":"20814","distance":"11.637517929077148","lon":"-77.093735","lat":"38.982059","theaterChainName":"Regal Cinemas","ticketType":"STANDARD"},{"id":"5977","name":"AMC Wheaton Mall 9","address":"11006 Veirs Mall Road","city":"Wheaton","state":"MD","zip":"20902","distance":"15.827287673950195","lon":"-77.051964","lat":"39.035522","theaterChainName":"AMC Theatres","ticketType":"STANDARD"},{"id":"4135","name":"Regal Kingstowne Stadium 16","address":"5910 Kingstowne Towne Center","city":"Alexandria","state":"VA","zip":"22315","distance":"3.2986016273498535","lon":"-77.138329","lat":"38.772011","theaterChainName":"Regal Cinemas","ticketType":"STANDARD"},{"id":"136","name":"AMC Loews Center Park 8","address":"4001 Powder Mill Rd.","city":"Beltsville","state":"MD","zip":"20705","distance":"19.35818099975586","lon":"-76.937401","lat":"39.046143","theaterChainName":"AMC Theatres","ticketType":"STANDARD"},{"id":"3887","name":"AMC Magic Johnson Capital Center 12","address":"800 Shoppers Way","city":"Largo","state":"MD","zip":"20774","distance":"18.93311309814453","lon":"-76.807297","lat":"38.886299","theaterChainName":"AMC Theatres","ticketType":"STANDARD"},{"id":"5506","name":"Springfield Town Center 12","address":"6859 Springfield Town Center","city":"Springfield","state":"VA","zip":"22150","distance":"3.498051643371582","lon":"-77.177399","lat":"38.773800","theaterChainName":"Regal Cinemas","ticketType":"STANDARD"},{"id":"479","name":"Old Greenbelt Theatre","address":"129 Centerway","city":"Greenbelt","state":"MD","zip":"20770","distance":"19.316850662231445","lon":"-76.875999","lat":"39.001377","theaterChainName":"Independent Chains","ticketType":"STANDARD"},{"id":"4108","name":"AMC Tysons Corner 16","address":"7850 Tysons Corner Center","city":"West McLean","state":"VA","zip":"22102","distance":"7.800467491149902","lon":"-77.218933","lat":"38.917732","theaterChainName":"AMC Theatres","ticketType":"STANDARD"},{"id":"5222","name":"Angelika Film Center-Mosaic","address":"2911 District Avenue","city":"Fairfax","state":"VA","zip":"22031","distance":"5.692982196807861","lon":"-77.229469","lat":"38.872028","theaterChainName":"Reading International, Inc","ticketType":"STANDARD"},{"id":"1458","name":"Regal Rockville Center Stadium 13","address":"199 E. Montgomery Ave.","city":"Rockville","state":"MD","zip":"20850","distance":"18.302303314208984","lon":"-77.149925","lat":"39.083973","theaterChainName":"Regal Cinemas","ticketType":"STANDARD"},{"id":"2670","name":"Cinema Arts Theatre","address":"9650 Main St","city":"Fairfax","state":"VA","zip":"22031","distance":"7.03488826751709","lon":"-77.275803","lat":"38.841801","theaterChainName":"Independent Chains","ticketType":"STANDARD"},{"id":"5343","name":"Xscape 14","address":"7710 Matapeake Business Drive","city":"Brandywine","state":"MD","zip":"20613","distance":"17.94304656982422","lon":"-76.871498","lat":"38.674900","theaterChainName":"Independent Chains","ticketType":"STANDARD"},{"id":"5547","name":"Laurel Mall St. 12","address":"14716 Baltimore Ave","city":"Laurel","state":"MD","zip":"20707","distance":"24.593746185302734","lon":"-76.855797","lat":"39.092800","theaterChainName":"Regal Cinemas","ticketType":"STANDARD"},{"id":"201","name":"AMC Loews Rio Cinemas 18","address":"9811 Washingtonian Blvd","city":"Gaithersburg","state":"MD","zip":"20878","distance":"20.69732666015625","lon":"-77.197525","lat":"39.116192","theaterChainName":"AMC Theatres","ticketType":"STANDARD"},{"id":"203","name":"AMC Loews St. Charles Town Center 9","address":"11115 Mall Circle","city":"Waldorf","state":"MD","zip":"20601","distance":"18.166337966918945","lon":"-76.928200","lat":"38.620090","theaterChainName":"AMC Theatres","ticketType":"STANDARD"},{"id":"600","name":"University Mall Theatres","address":"10659 Braddock Road","city":"Fairfax","state":"VA","zip":"22032","distance":"8.943814277648926","lon":"-77.314362","lat":"38.825050","theaterChainName":"Independent Chains","ticketType":"STANDARD"},{"id":"1699","name":"Regal Bowie Stadium 14","address":"15200 Major Lansdale Blvd.","city":"Bowie","state":"MD","zip":"20716","distance":"23.798173904418945","lon":"-76.739601","lat":"38.950867","theaterChainName":"Regal Cinemas","ticketType":"STANDARD"},{"id":"2025","name":"Kentlands Stadium 10","address":"629 Centerpoint Way","city":"Gaithersburg","state":"MD","zip":"20878","distance":"21.404582977294922","lon":"-77.234222","lat":"39.121601","theaterChainName":"Independent Chains","ticketType":"STANDARD"},{"id":"3657","name":"Fairfax Corner 14","address":"11900 Palace Way","city":"Fairfax","state":"VA","zip":"22030","distance":"11.547100067138672","lon":"-77.356728","lat":"38.859043","theaterChainName":"Cinemark","ticketType":"STANDARD"},{"id":"277","name":"Bow Tie Cinemas Reston Town Center 13","address":"11940 Market St","city":"Reston","state":"VA","zip":"20190","distance":"14.84737491607666","lon":"-77.358101","lat":"38.958847","theaterChainName":"Bow-Tie Cinemas","ticketType":"STANDARD"},{"id":"503","name":"Regal Fairfax Town Center","address":"4110 W Ox Road","city":"Fairfax","state":"VA","zip":"22033","distance":"12.242207527160645","lon":"-77.367279","lat":"38.867344","theaterChainName":"Regal Cinemas","ticketType":"STANDARD"},{"id":"371","name":"AMC Potomac Mills 18","address":"2700 Potomac Mills Circle","city":"Woodbridge","state":"VA","zip":"22192","distance":"14.61459732055664","lon":"-77.297379","lat":"38.642384","theaterChainName":"AMC Theatres","ticketType":"STANDARD"},{"id":"5345","name":"AMC Worldgate 9","address":"13025 Worldgate Dr.","city":"Herndon","state":"VA","zip":"20170","distance":"16.560728073120117","lon":"-77.399696","lat":"38.957600","theaterChainName":"AMC Theatres","ticketType":"STANDARD"},{"id":"278","name":"Rave Motion Pictures Centreville 12","address":"6201 Multiplex Dr","city":"Centreville","state":"VA","zip":"20121","distance":"15.592667579650879","lon":"-77.437698","lat":"38.830299","theaterChainName":"Cinemark","ticketType":"STANDARD"},{"id":"501","name":"Regal Countryside Stadium 20","address":"45980 Regal Plaza","city":"Sterling","state":"VA","zip":"20165","distance":"20.574155807495117","lon":"-77.409012","lat":"39.037170","theaterChainName":"Regal Cinemas","ticketType":"STANDARD"},{"id":"5546","name":"Dulles Town Center St. 10","address":"21010 Dulles Town Circle","city":"Sterling","state":"VA","zip":"20164","distance":"20.750261306762695","lon":"-77.424202","lat":"39.029202","theaterChainName":"Regal Cinemas","ticketType":"STANDARD"},{"id":"5704","name":"Starplex Loudoun Station Luxury Cinemas 11","address":"43751 Central Station Drive","city":"Ashburn","state":"VA","zip":"20147","distance":"22.367717742919922","lon":"-77.487617","lat":"39.006508","theaterChainName":"AMC Theatres","ticketType":"STANDARD"},{"id":"5321","name":"Alamo Drafthouse Loudoun","address":"20575 E. Hampton Plaza","city":"Ashburn","state":"VA","zip":"20147","distance":"23.030479431152344","lon":"-77.454422","lat":"39.052399","theaterChainName":"Alamo Drafthouse","ticketType":"STANDARD"},{"id":"599","name":"Manassas Cinemas","address":"8890 Mathis Ave.","city":"Manassas","state":"VA","zip":"20110","distance":"17.39196014404297","lon":"-77.463013","lat":"38.762356","theaterChainName":"Independent Chains","ticketType":"STANDARD"},{"id":"4381","name":"Fox Stadium 16 & IMAX","address":"22875 Brambleton Plaza","city":"Ashburn","state":"VA","zip":"20148","distance":"23.830543518066406","lon":"-77.537361","lat":"38.984379","theaterChainName":"Regal Cinemas","ticketType":"STANDARD"},{"id":"2481","name":"Regal Manassas Stadium 14 & IMAX","address":"11380 Bulloch Dr","city":"Manassas","state":"VA","zip":"20109","distance":"20.576316833496094","lon":"-77.529930","lat":"38.802036","theaterChainName":"Regal Cinemas","ticketType":"STANDARD"}]