[{"id":"371","name":"AMC Potomac Mills 18","address":"2700 Potomac Mills Circle","city":"Woodbridge","state":"VA","zip":"22192","distance":"22.43709945678711","lon":"-77.297379","lat":"38.642384","theaterChainName":"AMC Theatres","ticketType":"STANDARD"},{"id":"670","name":"Regal Aquia 10","address":"2850 Jefferson Davis Hwy","city":"Stafford","state":"VA","zip":"22554","distance":"8.859280586242676","lon":"-77.400909","lat":"38.461624","theaterChainName":"Regal Cinemas","ticketType":"STANDARD"},{"id":"675","name":"Regal Fredericksburg 15","address":"3301 Plank Road Route 3W","city":"Fredericksburg","state":"VA","zip":"22401","distance":"5.147284984588623","lon":"-77.515701","lat":"38.295300","theaterChainName":"Regal Cinemas","ticketType":"STANDARD"},{"id":"4913","name":"Paragon Village 12","address":"51 Towne Centre Blvd.","city":"Fredericksburg","state":"VA","zip":"22407","distance":"5.170746326446533","lon":"-77.510239","lat":"38.288944","theaterChainName":"Paragon Theaters","ticketType":"STANDARD"},{"id":"1651","name":"Southpoint 9","address":"5800 Southpoint Blvd.","city":"Fredericksburg","state":"VA","zip":"22407","distance":"7.809443950653076","lon":"-77.552399","lat":"38.269299","theaterChainName":"Marquee Cinemas","ticketType":"STANDARD"}]