[{"id":"675","tribuneTheaterId":"8505","providerTheaterId":"","name":"Regal Fredericksburg 15","address":"3301 Plank Road Route 3W","city":"Fredericksburg","state":"VA","zip":"22401","distance":8.019272577549,"lon":"-77.5157","lat":"38.2953","theaterChainName":"Regal Cinemas","ticketType":"STANDARD"},{"id":"4913","tribuneTheaterId":"10230","providerTheaterId":"","name":"Paragon Village 12","address":"51 Towne Centre Blvd.","city":"Fredericksburg","state":"VA","zip":"22407","distance":8.5445538457579,"lon":"-77.51024","lat":"38.288943","theaterChainName":"Paragon Theaters","ticketType":"STANDARD"},{"id":"1651","tribuneTheaterId":"3121","providerTheaterId":"","name":"Southpoint 9","address":"5800 Southpoint Blvd.","city":"Fredericksburg","state":"VA","zip":"22407","distance":9.1186040501893,"lon":"-77.5524","lat":"38.2693","theaterChainName":"Marquee Cinemas","ticketType":"STANDARD"},{"id":"670","tribuneTheaterId":"8504","providerTheaterId":"","name":"Regal Aquia 10","address":"2850 Jefferson Davis Hwy","city":"Stafford","state":"VA","zip":"22554","distance":10.676143714634,"lon":"-77.400908","lat":"38.461625","theaterChainName":"Regal Cinemas","ticketType":"STANDARD"},{"id":"3229","tribuneTheaterId":"4640","providerTheaterId":"","name":"Regal Culpeper Stadium 4","address":"210 S. Main St.","city":"Culpeper","state":"VA","zip":"22701","distance":23.024824809525,"lon":"-77.996475","lat":"38.472383","theaterChainName":"Regal Cinemas","ticketType":"STANDARD"},{"id":"371","tribuneTheaterId":"5314","providerTheaterId":"364","name":"AMC Potomac Mills 18","address":"2700 Potomac Mills Circle","city":"Woodbridge","state":"VA","zip":"22192","distance":22.755444905222,"lon":"-77.29738","lat":"38.642383","theaterChainName":"AMC Theatres","ticketType":"STANDARD"}]