[{"id":"371","name":"AMC Potomac Mills 18","address":"2700 Potomac Mills Circle","city":"Woodbridge","state":"VA","zip":"22192","distance":"22.75688362121582","lon":"-77.297379","lat":"38.642384","theaterChainName":"AMC Theatres","ticketType":"STANDARD"},{"id":"3229","name":"Regal Culpeper Stadium 4","address":"210 S. Main St.","city":"Culpeper","state":"VA","zip":"22701","distance":"23.02635383605957","lon":"-77.996475","lat":"38.472382","theaterChainName":"Regal Cinemas","ticketType":"STANDARD"},{"id":"670","name":"Regal Aquia 10","address":"2850 Jefferson Davis Hwy","city":"Stafford","state":"VA","zip":"22554","distance":"10.676623344421387","lon":"-77.400909","lat":"38.461624","theaterChainName":"Regal Cinemas","ticketType":"STANDARD"},{"id":"675","name":"Regal Fredericksburg 15","address":"3301 Plank Road Route 3W","city":"Fredericksburg","state":"VA","zip":"22401","distance":"8.019696235656738","lon":"-77.515701","lat":"38.295300","theaterChainName":"Regal Cinemas","ticketType":"STANDARD"},{"id":"4913","name":"Paragon Village 12","address":"51 Towne Centre Blvd.","city":"Fredericksburg","state":"VA","zip":"22407","distance":"8.544967651367188","lon":"-77.510239","lat":"38.288944","theaterChainName":"Paragon Theaters","ticketType":"STANDARD"},{"id":"1651","name":"Southpoint 9","address":"5800 Southpoint Blvd.","city":"Fredericksburg","state":"VA","zip":"22407","distance":"9.11923599243164","lon":"-77.552399","lat":"38.269299","theaterChainName":"Marquee Cinemas","ticketType":"STANDARD"}]