[{"id":"1651","tribuneTheaterId":"3121","providerTheaterId":"","name":"Southpoint 9","address":"5800 Southpoint Blvd.","city":"Fredericksburg","state":"VA","zip":"22407","distance":12.692154120175,"lon":"-77.5524","lat":"38.2693","theaterChainName":"Marquee Cinemas","ticketType":"STANDARD"},{"id":"4913","tribuneTheaterId":"10230","providerTheaterId":"","name":"Paragon Village 12","address":"51 Towne Centre Blvd.","city":"Fredericksburg","state":"VA","zip":"22407","distance":14.488268430693,"lon":"-77.51024","lat":"38.288943","theaterChainName":"Paragon Theaters","ticketType":"STANDARD"},{"id":"675","tribuneTheaterId":"8505","providerTheaterId":"","name":"Regal Fredericksburg 15","address":"3301 Plank Road Route 3W","city":"Fredericksburg","state":"VA","zip":"22401","distance":14.106741539235,"lon":"-77.5157","lat":"38.2953","theaterChainName":"Regal Cinemas","ticketType":"STANDARD"},{"id":"3229","tribuneTheaterId":"4640","providerTheaterId":"","name":"Regal Culpeper Stadium 4","address":"210 S. Main St.","city":"Culpeper","state":"VA","zip":"22701","distance":15.460171263757,"lon":"-77.996475","lat":"38.472383","theaterChainName":"Regal Cinemas","ticketType":"STANDARD"},{"id":"670","tribuneTheaterId":"8504","providerTheaterId":"","name":"Regal Aquia 10","address":"2850 Jefferson Davis Hwy","city":"Stafford","state":"VA","zip":"22554","distance":21.856183386704,"lon":"-77.400908","lat":"38.461625","theaterChainName":"Regal Cinemas","ticketType":"STANDARD"}]