[{"id":"675","tribuneTheaterId":"8505","providerTheaterId":"","name":"Regal Fredericksburg 15","address":"3301 Plank Road Route 3W","city":"Fredericksburg","state":"VA","zip":"22401","distance":20.233789502821,"lon":"-77.5157","lat":"38.2953","theaterChainName":"Regal Cinemas","ticketType":"STANDARD"},{"id":"4913","tribuneTheaterId":"10230","providerTheaterId":"","name":"Paragon Village 12","address":"51 Towne Centre Blvd.","city":"Fredericksburg","state":"VA","zip":"22407","distance":19.772449720522,"lon":"-77.51024","lat":"38.288943","theaterChainName":"Paragon Theaters","ticketType":"STANDARD"},{"id":"1651","tribuneTheaterId":"3121","providerTheaterId":"","name":"Southpoint 9","address":"5800 Southpoint Blvd.","city":"Fredericksburg","state":"VA","zip":"22407","distance":21.341652886155,"lon":"-77.5524","lat":"38.2693","theaterChainName":"Marquee Cinemas","ticketType":"STANDARD"},{"id":"3501","tribuneTheaterId":"1871","providerTheaterId":"","name":"Essex 5 Cinemas","address":"1653 Tappahannock Blvd.","city":"Tappahannock","state":"VA","zip":"22560","distance":24.79108539794,"lon":"-76.864899","lat":"37.9058","theaterChainName":"Independent Chains","ticketType":"STANDARD"},{"id":"670","tribuneTheaterId":"8504","providerTheaterId":"","name":"Regal Aquia 10","address":"2850 Jefferson Davis Hwy","city":"Stafford","state":"VA","zip":"22554","distance":23.810842435801,"lon":"-77.400908","lat":"38.461625","theaterChainName":"Regal Cinemas","ticketType":"STANDARD"}]