[{"id":"1917","name":"Royal Cinemas","address":"117 E. Main St.","city":"Front Royal","state":"VA","zip":"22630","distance":"8.318537712097168","lon":"-78.192383","lat":"38.917793","theaterChainName":"Independent Chains","ticketType":"STANDARD"},{"id":"5354","name":"Apple Blossom 12","address":"1850 Apple Blossom Drive","city":"Winchester","state":"VA","zip":"22601","distance":"24.340740203857422","lon":"-78.163101","lat":"39.163300","theaterChainName":"Carmike Cinemas","ticketType":"STANDARD"},{"id":"4844","name":"Alamo Winchester","address":"181 Kerstown Commons Blvd.","city":"Winchester","state":"VA","zip":"22602","distance":"21.620296478271484","lon":"-78.194901","lat":"39.119801","theaterChainName":"Alamo Drafthouse","ticketType":"STANDARD"},{"id":"3229","name":"Regal Culpeper Stadium 4","address":"210 S. Main St.","city":"Culpeper","state":"VA","zip":"22701","distance":"24.404415130615234","lon":"-77.996475","lat":"38.472382","theaterChainName":"Regal Cinemas","ticketType":"STANDARD"},{"id":"3975","name":"Community Theatre - Woodstock","address":"136 N. Main St.","city":"Woodstock","state":"VA","zip":"22664","distance":"21.4442138671875","lon":"-78.504852","lat":"38.882446","theaterChainName":"Independent Chains","ticketType":"STANDARD"}]