[{"id":"2361","tribuneTheaterId":"7893","providerTheaterId":"","name":"Regal Harrisonburg Stadium 14","address":"381 University Blvd","city":"Harrisonburg","state":"VA","zip":"22801","distance":3.7718997256406,"lon":"-78.852814","lat":"38.430153","theaterChainName":"Regal Cinemas","ticketType":"STANDARD"},{"id":"4161","tribuneTheaterId":"1054","providerTheaterId":"","name":"Visulite Cinema","address":"12 North Augusta St.","city":"Staunton","state":"VA","zip":"24401","distance":18.989202636988,"lon":"-79.0727","lat":"38.1496","theaterChainName":"Independent Chains","ticketType":"STANDARD"},{"id":"3188","tribuneTheaterId":"1726","providerTheaterId":"","name":"The Dixie Theater","address":"125 E. Beverley Street","city":"Staunton","state":"VA","zip":"24401","distance":18.928037749921,"lon":"-79.070656","lat":"38.149667","theaterChainName":"Independent Chains","ticketType":"STANDARD"},{"id":"4962","tribuneTheaterId":"10322","providerTheaterId":"","name":"Zeus Digital Theaters","address":"120 Osage Ln.","city":"Waynesboro","state":"VA","zip":"22980","distance":21.443834380913,"lon":"-78.93492","lat":"38.076228","theaterChainName":"Independent Chains","ticketType":"STANDARD"}]