[{"id":"2361","name":"Regal Harrisonburg Stadium 14","address":"381 University Blvd","city":"Harrisonburg","state":"VA","zip":"22801","distance":"19.423154830932617","lon":"-78.852814","lat":"38.430153","theaterChainName":"Regal Cinemas","ticketType":"STANDARD"},{"id":"5233","name":"Stonefield Stadium 14 + IMAX","address":"1954 Swanson Drive","city":"Charlottesville","state":"VA","zip":"22901","distance":"14.728711128234863","lon":"-78.492477","lat":"38.063622","theaterChainName":"Regal Cinemas","ticketType":"STANDARD"},{"id":"5797","name":"Violet Crown Charlottesville","address":"200 W. Main Street","city":"Charlottesville","state":"VA","zip":"22902","distance":"17.053382873535156","lon":"-78.482506","lat":"38.030907","theaterChainName":"Independent Chains","ticketType":"STANDARD"},{"id":"4962","name":"Zeus Digital Theaters","address":"120 Osage Ln.","city":"Waynesboro","state":"VA","zip":"22980","distance":"24.491779327392578","lon":"-78.934921","lat":"38.076229","theaterChainName":"Independent Chains","ticketType":"STANDARD"}]