[{"id":"3501","name":"Essex 5 Cinemas","address":"1653 Tappahannock Blvd.","city":"Tappahannock","state":"VA","zip":"22560","distance":"18.5757999420166","lon":"-76.864899","lat":"37.905800","theaterChainName":"Independent Chains","ticketType":"STANDARD"},{"id":"662","name":"Regal Virginia Center Stadium 20","address":"10091 Jeb Stuart Parkway","city":"Glen Allen","state":"VA","zip":"23059","distance":"17.84090232849121","lon":"-77.454926","lat":"37.672817","theaterChainName":"Regal Cinemas","ticketType":"STANDARD"},{"id":"115","name":"United Artists West Tower Cinemas 10","address":"8998 West Broad Street","city":"Richmond","state":"VA","zip":"23229","distance":"23.292037963867188","lon":"-77.544960","lat":"37.637314","theaterChainName":"United Artists","ticketType":"STANDARD"},{"id":"4702","name":"Movieland at Boulevard Square","address":"1301 North Boulevard at West Leigh St.","city":"Richmond","state":"VA","zip":"23230","distance":"23.27202796936035","lon":"-77.466934","lat":"37.567360","theaterChainName":"Bow-Tie Cinemas","ticketType":"STANDARD"},{"id":"5282","name":"Criterion Cinemas at Movieland","address":"1331 N. Boulevard","city":"Richmond","state":"VA","zip":"23220","distance":"23.279142379760742","lon":"-77.466927","lat":"37.567219","theaterChainName":"Bow-Tie Cinemas","ticketType":"STANDARD"},{"id":"663","name":"Regal Westhampton Cinema 2","address":"5706 Grove Avenue","city":"Richmond","state":"VA","zip":"23226","distance":"24.879663467407227","lon":"-77.517303","lat":"37.573181","theaterChainName":"Regal Cinemas","ticketType":"STANDARD"}]