[{"id":"662","tribuneTheaterId":"8506","providerTheaterId":"","name":"Regal Virginia Center Stadium 20","address":"10091 Jeb Stuart Parkway","city":"Glen Allen","state":"VA","zip":"23059","distance":4.7827568369949,"lon":"-77.454922","lat":"37.672817","theaterChainName":"Regal Cinemas","ticketType":"STANDARD"},{"id":"115","tribuneTheaterId":"8318","providerTheaterId":"","name":"United Artists West Tower Cinemas 10","address":"8998 West Broad Street","city":"Richmond","state":"VA","zip":"23229","distance":7.9432207826284,"lon":"-77.544959","lat":"37.637312","theaterChainName":"United Artists","ticketType":"STANDARD"},{"id":"3158","tribuneTheaterId":"8304","providerTheaterId":"","name":"Short Pump Stadium 14","address":"11650 West Broad Street","city":"Richmond","state":"VA","zip":"23233","distance":9.4948192487162,"lon":"-77.613607","lat":"37.653252","theaterChainName":"Regal Cinemas","ticketType":"STANDARD"},{"id":"663","tribuneTheaterId":"7563","providerTheaterId":"","name":"Regal Westhampton Cinema 2","address":"5706 Grove Avenue","city":"Richmond","state":"VA","zip":"23226","distance":11.686873118472,"lon":"-77.517307","lat":"37.573182","theaterChainName":"Regal Cinemas","ticketType":"STANDARD"},{"id":"5282","tribuneTheaterId":"10716","providerTheaterId":"","name":"Criterion Cinemas at Movieland","address":"1331 N. Boulevard","city":"Richmond","state":"VA","zip":"23220","distance":11.920057142447,"lon":"-77.46693","lat":"37.567218","theaterChainName":"Bow-Tie Cinemas","ticketType":"STANDARD"},{"id":"4702","tribuneTheaterId":"9916","providerTheaterId":"","name":"Movieland at Boulevard Square","address":"1301 North Boulevard at West Leigh St.","city":"Richmond","state":"VA","zip":"23230","distance":11.910305426131,"lon":"-77.466938","lat":"37.567359","theaterChainName":"Bow-Tie Cinemas","ticketType":"STANDARD"},{"id":"5626","tribuneTheaterId":"11089","providerTheaterId":"","name":"Ovation 10","address":"1100 Alverser Drive","city":"Midlothian","state":"VA","zip":"23113","distance":17.827252826544,"lon":"-77.6178","lat":"37.5063","theaterChainName":"Carmike Cinemas","ticketType":"STANDARD"},{"id":"4689","tribuneTheaterId":"9897","providerTheaterId":"","name":"Regal Westchester Commons Stadium 16","address":"361 Perimeter Drive","city":"Midlothian","state":"VA","zip":"23114","distance":19.401190620952,"lon":"-77.689291","lat":"37.513781","theaterChainName":"Regal Cinemas","ticketType":"STANDARD"},{"id":"3051","tribuneTheaterId":"5866","providerTheaterId":"","name":"Regal Commonwealth Stadium 20 & IMAX","address":"5001 Commonwealth Center Parkway","city":"Midlothian","state":"VA","zip":"23112","distance":23.623408248987,"lon":"-77.628888","lat":"37.419069","theaterChainName":"Regal Cinemas","ticketType":"STANDARD"}]