[{"id":"662","name":"Regal Virginia Center Stadium 20","address":"10091 Jeb Stuart Parkway","city":"Glen Allen","state":"VA","zip":"23059","distance":"24.05321502685547","lon":"-77.454926","lat":"37.672817","theaterChainName":"Regal Cinemas","ticketType":"STANDARD"},{"id":"115","name":"United Artists West Tower Cinemas 10","address":"8998 West Broad Street","city":"Richmond","state":"VA","zip":"23229","distance":"19.912853240966797","lon":"-77.544960","lat":"37.637314","theaterChainName":"United Artists","ticketType":"STANDARD"},{"id":"3158","name":"Short Pump Stadium 14","address":"11650 West Broad Street","city":"Richmond","state":"VA","zip":"23233","distance":"16.006887435913086","lon":"-77.613609","lat":"37.653252","theaterChainName":"Regal Cinemas","ticketType":"STANDARD"},{"id":"663","name":"Regal Westhampton Cinema 2","address":"5706 Grove Avenue","city":"Richmond","state":"VA","zip":"23226","distance":"23.12232780456543","lon":"-77.517303","lat":"37.573181","theaterChainName":"Regal Cinemas","ticketType":"STANDARD"},{"id":"4689","name":"Regal Westchester Commons Stadium 16","address":"361 Perimeter Drive","city":"Midlothian","state":"VA","zip":"23114","distance":"18.69488525390625","lon":"-77.689293","lat":"37.513783","theaterChainName":"Regal Cinemas","ticketType":"STANDARD"},{"id":"5626","name":"Ovation 10","address":"1100 Alverser Drive","city":"Midlothian","state":"VA","zip":"23113","distance":"21.586042404174805","lon":"-77.617798","lat":"37.506302","theaterChainName":"Carmike Cinemas","ticketType":"STANDARD"}]