[{"id":"1190","name":"Hillside 2 Cinema","address":"7321 John Clayton Memorial Hwy.","city":"Gloucester","state":"VA","zip":"23061","distance":"17.461694717407227","lon":"-76.519897","lat":"37.412601","theaterChainName":"Independent Chains","ticketType":"STANDARD"},{"id":"3157","name":"York River Crossing","address":"2226 York Crossing Dr","city":"Hayes","state":"VA","zip":"23072","distance":"22.52830696105957","lon":"-76.496727","lat":"37.273933","theaterChainName":"Independent Chains","ticketType":"STANDARD"},{"id":"704","name":"Kimball Theatre","address":"424 Duke Of Gloucester St.","city":"Williamsburg","state":"VA","zip":"23185","distance":"15.618589401245117","lon":"-76.712303","lat":"37.256699","theaterChainName":"Independent Chains","ticketType":"STANDARD"},{"id":"4719","name":"Movie Tavern at High Street","address":"1430 Richmond Road","city":"Williamsburg","state":"VA","zip":"23185","distance":"13.339612007141113","lon":"-76.724876","lat":"37.288467","theaterChainName":"Movie Tavern","ticketType":"STANDARD"},{"id":"4139","name":"Regal New Town Stadium 12","address":"4911 Courthouse Street","city":"Williamsburg","state":"VA","zip":"23188","distance":"13.56464958190918","lon":"-76.741348","lat":"37.279118","theaterChainName":"Regal Cinemas","ticketType":"STANDARD"}]