[{"id":"4702","name":"Movieland at Boulevard Square","address":"1301 North Boulevard at West Leigh St.","city":"Richmond","state":"VA","zip":"23230","distance":"24.08485221862793","lon":"-77.466934","lat":"37.567360","theaterChainName":"Bow-Tie Cinemas","ticketType":"STANDARD"},{"id":"5282","name":"Criterion Cinemas at Movieland","address":"1331 N. Boulevard","city":"Richmond","state":"VA","zip":"23220","distance":"24.078901290893555","lon":"-77.466927","lat":"37.567219","theaterChainName":"Bow-Tie Cinemas","ticketType":"STANDARD"},{"id":"704","name":"Kimball Theatre","address":"424 Duke Of Gloucester St.","city":"Williamsburg","state":"VA","zip":"23185","distance":"23.03756332397461","lon":"-76.712303","lat":"37.256699","theaterChainName":"Independent Chains","ticketType":"STANDARD"},{"id":"4719","name":"Movie Tavern at High Street","address":"1430 Richmond Road","city":"Williamsburg","state":"VA","zip":"23185","distance":"21.737573623657227","lon":"-76.724876","lat":"37.288467","theaterChainName":"Movie Tavern","ticketType":"STANDARD"},{"id":"4139","name":"Regal New Town Stadium 12","address":"4911 Courthouse Street","city":"Williamsburg","state":"VA","zip":"23188","distance":"21.038869857788086","lon":"-76.741348","lat":"37.279118","theaterChainName":"Regal Cinemas","ticketType":"STANDARD"},{"id":"5628","name":"Destination Theater","address":"5246 Oaklawn Blvd.","city":"Hopewell","state":"VA","zip":"23860","distance":"14.264021873474121","lon":"-77.329399","lat":"37.258301","theaterChainName":"Independent Chains","ticketType":"STANDARD"},{"id":"4378","name":"Regal Southpark Mall Stadium","address":"300 Southpark Circle","city":"Colonial Heights","state":"VA","zip":"23834","distance":"17.534822463989258","lon":"-77.394318","lat":"37.253998","theaterChainName":"Regal Cinemas","ticketType":"STANDARD"}]