[{"id":"5628","tribuneTheaterId":"11091","providerTheaterId":"","name":"Destination Theater","address":"5246 Oaklawn Blvd.","city":"Hopewell","state":"VA","zip":"23860","distance":14.263259248726,"lon":"-77.3294","lat":"37.2583","theaterChainName":"Independent Chains","ticketType":"STANDARD"},{"id":"4378","tribuneTheaterId":"9420","providerTheaterId":"","name":"Regal Southpark Mall Stadium","address":"300 Southpark Circle","city":"Colonial Heights","state":"VA","zip":"23834","distance":17.533675757879,"lon":"-77.394315","lat":"37.253997","theaterChainName":"Regal Cinemas","ticketType":"STANDARD"},{"id":"4139","tribuneTheaterId":"4902","providerTheaterId":"","name":"Regal New Town Stadium 12","address":"4911 Courthouse Street","city":"Williamsburg","state":"VA","zip":"23188","distance":21.037738124237,"lon":"-76.741346","lat":"37.279116","theaterChainName":"Regal Cinemas","ticketType":"STANDARD"},{"id":"4719","tribuneTheaterId":"9934","providerTheaterId":"","name":"Movie Tavern at High Street","address":"1430 Richmond Road","city":"Williamsburg","state":"VA","zip":"23185","distance":21.73611326978,"lon":"-76.724879","lat":"37.288467","theaterChainName":"Movie Tavern","ticketType":"STANDARD"},{"id":"704","tribuneTheaterId":"6727","providerTheaterId":"","name":"Kimball Theatre","address":"424 Duke Of Gloucester St.","city":"Williamsburg","state":"VA","zip":"23185","distance":23.036293128495,"lon":"-76.7123","lat":"37.2567","theaterChainName":"Independent Chains","ticketType":"STANDARD"},{"id":"5282","tribuneTheaterId":"10716","providerTheaterId":"","name":"Criterion Cinemas at Movieland","address":"1331 N. Boulevard","city":"Richmond","state":"VA","zip":"23220","distance":24.077482142912,"lon":"-77.46693","lat":"37.567218","theaterChainName":"Bow-Tie Cinemas","ticketType":"STANDARD"},{"id":"4702","tribuneTheaterId":"9916","providerTheaterId":"","name":"Movieland at Boulevard Square","address":"1301 North Boulevard at West Leigh St.","city":"Richmond","state":"VA","zip":"23230","distance":24.083443572508,"lon":"-77.466938","lat":"37.567359","theaterChainName":"Bow-Tie Cinemas","ticketType":"STANDARD"}]