[{"id":"662","tribuneTheaterId":"8506","providerTheaterId":"","name":"Regal Virginia Center Stadium 20","address":"10091 Jeb Stuart Parkway","city":"Glen Allen","state":"VA","zip":"23059","distance":15.035909912829,"lon":"-77.454922","lat":"37.672817","theaterChainName":"Regal Cinemas","ticketType":"STANDARD"},{"id":"5282","tribuneTheaterId":"10716","providerTheaterId":"","name":"Criterion Cinemas at Movieland","address":"1331 N. Boulevard","city":"Richmond","state":"VA","zip":"23220","distance":18.583374714146,"lon":"-77.46693","lat":"37.567218","theaterChainName":"Bow-Tie Cinemas","ticketType":"STANDARD"},{"id":"4702","tribuneTheaterId":"9916","providerTheaterId":"","name":"Movieland at Boulevard Square","address":"1301 North Boulevard at West Leigh St.","city":"Richmond","state":"VA","zip":"23230","distance":18.578250476235,"lon":"-77.466938","lat":"37.567359","theaterChainName":"Bow-Tie Cinemas","ticketType":"STANDARD"},{"id":"115","tribuneTheaterId":"8318","providerTheaterId":"","name":"United Artists West Tower Cinemas 10","address":"8998 West Broad Street","city":"Richmond","state":"VA","zip":"23229","distance":20.413401003077,"lon":"-77.544959","lat":"37.637312","theaterChainName":"United Artists","ticketType":"STANDARD"},{"id":"663","tribuneTheaterId":"7563","providerTheaterId":"","name":"Regal Westhampton Cinema 2","address":"5706 Grove Avenue","city":"Richmond","state":"VA","zip":"23226","distance":20.717029961884,"lon":"-77.517307","lat":"37.573182","theaterChainName":"Regal Cinemas","ticketType":"STANDARD"},{"id":"3501","tribuneTheaterId":"1871","providerTheaterId":"","name":"Essex 5 Cinemas","address":"1653 Tappahannock Blvd.","city":"Tappahannock","state":"VA","zip":"22560","distance":21.791359717848,"lon":"-76.864899","lat":"37.9058","theaterChainName":"Independent Chains","ticketType":"STANDARD"},{"id":"3158","tribuneTheaterId":"8304","providerTheaterId":"","name":"Short Pump Stadium 14","address":"11650 West Broad Street","city":"Richmond","state":"VA","zip":"23233","distance":23.810320956963,"lon":"-77.613607","lat":"37.653252","theaterChainName":"Regal Cinemas","ticketType":"STANDARD"}]