[{"id":"3501","name":"Essex 5 Cinemas","address":"1653 Tappahannock Blvd.","city":"Tappahannock","state":"VA","zip":"22560","distance":"21.096105575561523","lon":"-76.864899","lat":"37.905800","theaterChainName":"Independent Chains","ticketType":"STANDARD"},{"id":"1190","name":"Hillside 2 Cinema","address":"7321 John Clayton Memorial Hwy.","city":"Gloucester","state":"VA","zip":"23061","distance":"18.028974533081055","lon":"-76.519897","lat":"37.412601","theaterChainName":"Independent Chains","ticketType":"STANDARD"},{"id":"4719","name":"Movie Tavern at High Street","address":"1430 Richmond Road","city":"Williamsburg","state":"VA","zip":"23185","distance":"23.41890525817871","lon":"-76.724876","lat":"37.288467","theaterChainName":"Movie Tavern","ticketType":"STANDARD"},{"id":"4139","name":"Regal New Town Stadium 12","address":"4911 Courthouse Street","city":"Williamsburg","state":"VA","zip":"23188","distance":"24.11772918701172","lon":"-76.741348","lat":"37.279118","theaterChainName":"Regal Cinemas","ticketType":"STANDARD"}]