[{"id":"3501","name":"Essex 5 Cinemas","address":"1653 Tappahannock Blvd.","city":"Tappahannock","state":"VA","zip":"22560","distance":"21.792627334594727","lon":"-76.864899","lat":"37.905800","theaterChainName":"Independent Chains","ticketType":"STANDARD"},{"id":"662","name":"Regal Virginia Center Stadium 20","address":"10091 Jeb Stuart Parkway","city":"Glen Allen","state":"VA","zip":"23059","distance":"15.037174224853516","lon":"-77.454926","lat":"37.672817","theaterChainName":"Regal Cinemas","ticketType":"STANDARD"},{"id":"115","name":"United Artists West Tower Cinemas 10","address":"8998 West Broad Street","city":"Richmond","state":"VA","zip":"23229","distance":"20.414823532104492","lon":"-77.544960","lat":"37.637314","theaterChainName":"United Artists","ticketType":"STANDARD"},{"id":"3158","name":"Short Pump Stadium 14","address":"11650 West Broad Street","city":"Richmond","state":"VA","zip":"23233","distance":"23.812074661254883","lon":"-77.613609","lat":"37.653252","theaterChainName":"Regal Cinemas","ticketType":"STANDARD"},{"id":"4702","name":"Movieland at Boulevard Square","address":"1301 North Boulevard at West Leigh St.","city":"Richmond","state":"VA","zip":"23230","distance":"18.57929229736328","lon":"-77.466934","lat":"37.567360","theaterChainName":"Bow-Tie Cinemas","ticketType":"STANDARD"},{"id":"5282","name":"Criterion Cinemas at Movieland","address":"1331 N. Boulevard","city":"Richmond","state":"VA","zip":"23220","distance":"18.584440231323242","lon":"-77.466927","lat":"37.567219","theaterChainName":"Bow-Tie Cinemas","ticketType":"STANDARD"},{"id":"663","name":"Regal Westhampton Cinema 2","address":"5706 Grove Avenue","city":"Richmond","state":"VA","zip":"23226","distance":"20.718284606933594","lon":"-77.517303","lat":"37.573181","theaterChainName":"Regal Cinemas","ticketType":"STANDARD"}]