[{"id":"662","name":"Regal Virginia Center Stadium 20","address":"10091 Jeb Stuart Parkway","city":"Glen Allen","state":"VA","zip":"23059","distance":"6.87022066116333","lon":"-77.454926","lat":"37.672817","theaterChainName":"Regal Cinemas","ticketType":"STANDARD"},{"id":"115","name":"United Artists West Tower Cinemas 10","address":"8998 West Broad Street","city":"Richmond","state":"VA","zip":"23229","distance":"11.995311737060547","lon":"-77.544960","lat":"37.637314","theaterChainName":"United Artists","ticketType":"STANDARD"},{"id":"3158","name":"Short Pump Stadium 14","address":"11650 West Broad Street","city":"Richmond","state":"VA","zip":"23233","distance":"15.584894180297852","lon":"-77.613609","lat":"37.653252","theaterChainName":"Regal Cinemas","ticketType":"STANDARD"},{"id":"4702","name":"Movieland at Boulevard Square","address":"1301 North Boulevard at West Leigh St.","city":"Richmond","state":"VA","zip":"23230","distance":"10.299830436706543","lon":"-77.466934","lat":"37.567360","theaterChainName":"Bow-Tie Cinemas","ticketType":"STANDARD"},{"id":"5282","name":"Criterion Cinemas at Movieland","address":"1331 N. Boulevard","city":"Richmond","state":"VA","zip":"23220","distance":"10.30618953704834","lon":"-77.466927","lat":"37.567219","theaterChainName":"Bow-Tie Cinemas","ticketType":"STANDARD"},{"id":"663","name":"Regal Westhampton Cinema 2","address":"5706 Grove Avenue","city":"Richmond","state":"VA","zip":"23226","distance":"12.234723091125488","lon":"-77.517303","lat":"37.573181","theaterChainName":"Regal Cinemas","ticketType":"STANDARD"},{"id":"4689","name":"Regal Westchester Commons Stadium 16","address":"361 Perimeter Drive","city":"Midlothian","state":"VA","zip":"23114","distance":"22.437829971313477","lon":"-77.689293","lat":"37.513783","theaterChainName":"Regal Cinemas","ticketType":"STANDARD"},{"id":"5626","name":"Ovation 10","address":"1100 Alverser Drive","city":"Midlothian","state":"VA","zip":"23113","distance":"19.388126373291016","lon":"-77.617798","lat":"37.506302","theaterChainName":"Carmike Cinemas","ticketType":"STANDARD"},{"id":"3051","name":"Regal Commonwealth Stadium 20 & IMAX","address":"5001 Commonwealth Center Parkway","city":"Midlothian","state":"VA","zip":"23112","distance":"23.826679229736328","lon":"-77.628891","lat":"37.419067","theaterChainName":"Regal Cinemas","ticketType":"STANDARD"}]