[{"id":"662","tribuneTheaterId":"8506","providerTheaterId":"","name":"Regal Virginia Center Stadium 20","address":"10091 Jeb Stuart Parkway","city":"Glen Allen","state":"VA","zip":"23059","distance":22.422057095941,"lon":"-77.454922","lat":"37.672817","theaterChainName":"Regal Cinemas","ticketType":"STANDARD"},{"id":"5282","tribuneTheaterId":"10716","providerTheaterId":"","name":"Criterion Cinemas at Movieland","address":"1331 N. Boulevard","city":"Richmond","state":"VA","zip":"23220","distance":21.532716126205,"lon":"-77.46693","lat":"37.567218","theaterChainName":"Bow-Tie Cinemas","ticketType":"STANDARD"},{"id":"4702","tribuneTheaterId":"9916","providerTheaterId":"","name":"Movieland at Boulevard Square","address":"1301 North Boulevard at West Leigh St.","city":"Richmond","state":"VA","zip":"23230","distance":21.533580151814,"lon":"-77.466938","lat":"37.567359","theaterChainName":"Bow-Tie Cinemas","ticketType":"STANDARD"},{"id":"5628","tribuneTheaterId":"11091","providerTheaterId":"","name":"Destination Theater","address":"5246 Oaklawn Blvd.","city":"Hopewell","state":"VA","zip":"23860","distance":24.714061128328,"lon":"-77.3294","lat":"37.2583","theaterChainName":"Independent Chains","ticketType":"STANDARD"},{"id":"663","tribuneTheaterId":"7563","providerTheaterId":"","name":"Regal Westhampton Cinema 2","address":"5706 Grove Avenue","city":"Richmond","state":"VA","zip":"23226","distance":24.308556691026,"lon":"-77.517307","lat":"37.573182","theaterChainName":"Regal Cinemas","ticketType":"STANDARD"}]