[{"id":"4719","tribuneTheaterId":"9934","providerTheaterId":"","name":"Movie Tavern at High Street","address":"1430 Richmond Road","city":"Williamsburg","state":"VA","zip":"23185","distance":18.153152811132,"lon":"-76.724879","lat":"37.288467","theaterChainName":"Movie Tavern","ticketType":"STANDARD"},{"id":"4139","tribuneTheaterId":"4902","providerTheaterId":"","name":"Regal New Town Stadium 12","address":"4911 Courthouse Street","city":"Williamsburg","state":"VA","zip":"23188","distance":17.553812239781,"lon":"-76.741346","lat":"37.279116","theaterChainName":"Regal Cinemas","ticketType":"STANDARD"},{"id":"5628","tribuneTheaterId":"11091","providerTheaterId":"","name":"Destination Theater","address":"5246 Oaklawn Blvd.","city":"Hopewell","state":"VA","zip":"23860","distance":18.228613713583,"lon":"-77.3294","lat":"37.2583","theaterChainName":"Independent Chains","ticketType":"STANDARD"},{"id":"704","tribuneTheaterId":"6727","providerTheaterId":"","name":"Kimball Theatre","address":"424 Duke Of Gloucester St.","city":"Williamsburg","state":"VA","zip":"23185","distance":19.650381080053,"lon":"-76.7123","lat":"37.2567","theaterChainName":"Independent Chains","ticketType":"STANDARD"},{"id":"4378","tribuneTheaterId":"9420","providerTheaterId":"","name":"Regal Southpark Mall Stadium","address":"300 Southpark Circle","city":"Colonial Heights","state":"VA","zip":"23834","distance":21.577320418187,"lon":"-77.394315","lat":"37.253997","theaterChainName":"Regal Cinemas","ticketType":"STANDARD"}]