[{"id":"4719","tribuneTheaterId":"9934","providerTheaterId":"","name":"Movie Tavern at High Street","address":"1430 Richmond Road","city":"Williamsburg","state":"VA","zip":"23185","distance":1.9414188370993,"lon":"-76.724879","lat":"37.288467","theaterChainName":"Movie Tavern","ticketType":"STANDARD"},{"id":"4139","tribuneTheaterId":"4902","providerTheaterId":"","name":"Regal New Town Stadium 12","address":"4911 Courthouse Street","city":"Williamsburg","state":"VA","zip":"23188","distance":2.189048495761,"lon":"-76.741346","lat":"37.279116","theaterChainName":"Regal Cinemas","ticketType":"STANDARD"},{"id":"704","tribuneTheaterId":"6727","providerTheaterId":"","name":"Kimball Theatre","address":"424 Duke Of Gloucester St.","city":"Williamsburg","state":"VA","zip":"23185","distance":4.1731052807587,"lon":"-76.7123","lat":"37.2567","theaterChainName":"Independent Chains","ticketType":"STANDARD"},{"id":"3157","tribuneTheaterId":"3103","providerTheaterId":"","name":"York River Crossing","address":"2226 York Crossing Dr","city":"Hayes","state":"VA","zip":"23072","distance":13.97597842281,"lon":"-76.49673","lat":"37.273935","theaterChainName":"Independent Chains","ticketType":"STANDARD"},{"id":"1190","tribuneTheaterId":"2689","providerTheaterId":"","name":"Hillside 2 Cinema","address":"7321 John Clayton Memorial Hwy.","city":"Gloucester","state":"VA","zip":"23061","distance":14.31894867803,"lon":"-76.5199","lat":"37.4126","theaterChainName":"Independent Chains","ticketType":"STANDARD"},{"id":"660","tribuneTheaterId":"8844","providerTheaterId":"","name":"Regal Kiln Creek Cinema Stadium 20","address":"100 Regal Way","city":"Newport News","state":"VA","zip":"23602","distance":20.644666999452,"lon":"-76.468288","lat":"37.110307","theaterChainName":"Regal Cinemas","ticketType":"STANDARD"},{"id":"5518","tribuneTheaterId":"10942","providerTheaterId":"","name":"Paragon City Center 12","address":"11810 Fountain Way","city":"Newport News","state":"VA","zip":"23606","distance":21.684315162105,"lon":"-76.471973","lat":"37.085615","theaterChainName":"Paragon Theaters","ticketType":"STANDARD"},{"id":"802","tribuneTheaterId":"7069","providerTheaterId":"369","name":"AMC Hampton Towne Centre 24","address":"1 Towne Centre Way","city":"Hampton","state":"VA","zip":"23666","distance":24.741375749369,"lon":"-76.423452","lat":"37.06177","theaterChainName":"AMC Theatres","ticketType":"STANDARD"}]