[{"id":"1190","name":"Hillside 2 Cinema","address":"7321 John Clayton Memorial Hwy.","city":"Gloucester","state":"VA","zip":"23061","distance":"14.3201265335083","lon":"-76.519897","lat":"37.412601","theaterChainName":"Independent Chains","ticketType":"STANDARD"},{"id":"3157","name":"York River Crossing","address":"2226 York Crossing Dr","city":"Hayes","state":"VA","zip":"23072","distance":"13.977218627929688","lon":"-76.496727","lat":"37.273933","theaterChainName":"Independent Chains","ticketType":"STANDARD"},{"id":"660","name":"Regal Kiln Creek Cinema Stadium 20","address":"100 Regal Way","city":"Newport News","state":"VA","zip":"23602","distance":"20.646326065063477","lon":"-76.468285","lat":"37.110306","theaterChainName":"Regal Cinemas","ticketType":"STANDARD"},{"id":"5518","name":"Paragon City Center 12","address":"11810 Fountain Way","city":"Newport News","state":"VA","zip":"23606","distance":"21.68605613708496","lon":"-76.471970","lat":"37.085613","theaterChainName":"Paragon Theaters","ticketType":"STANDARD"},{"id":"802","name":"AMC Hampton Towne Centre 24","address":"1 Towne Centre Way","city":"Hampton","state":"VA","zip":"23666","distance":"24.742935180664062","lon":"-76.423454","lat":"37.061771","theaterChainName":"AMC Theatres","ticketType":"STANDARD"},{"id":"704","name":"Kimball Theatre","address":"424 Duke Of Gloucester St.","city":"Williamsburg","state":"VA","zip":"23185","distance":"4.173520088195801","lon":"-76.712303","lat":"37.256699","theaterChainName":"Independent Chains","ticketType":"STANDARD"},{"id":"4719","name":"Movie Tavern at High Street","address":"1430 Richmond Road","city":"Williamsburg","state":"VA","zip":"23185","distance":"1.941777229309082","lon":"-76.724876","lat":"37.288467","theaterChainName":"Movie Tavern","ticketType":"STANDARD"},{"id":"4139","name":"Regal New Town Stadium 12","address":"4911 Courthouse Street","city":"Williamsburg","state":"VA","zip":"23188","distance":"2.1891586780548096","lon":"-76.741348","lat":"37.279118","theaterChainName":"Regal Cinemas","ticketType":"STANDARD"}]