[{"id":"660","name":"Regal Kiln Creek Cinema Stadium 20","address":"100 Regal Way","city":"Newport News","state":"VA","zip":"23602","distance":"20.61492156982422","lon":"-76.468285","lat":"37.110306","theaterChainName":"Regal Cinemas","ticketType":"STANDARD"},{"id":"5518","name":"Paragon City Center 12","address":"11810 Fountain Way","city":"Newport News","state":"VA","zip":"23606","distance":"19.577333450317383","lon":"-76.471970","lat":"37.085613","theaterChainName":"Paragon Theaters","ticketType":"STANDARD"},{"id":"802","name":"AMC Hampton Towne Centre 24","address":"1 Towne Centre Way","city":"Hampton","state":"VA","zip":"23666","distance":"16.496681213378906","lon":"-76.423454","lat":"37.061771","theaterChainName":"AMC Theatres","ticketType":"STANDARD"},{"id":"4157","name":"Cinema Cafe - Hampton","address":"1044 Von Schilling Drive","city":"Hampton","state":"VA","zip":"23666","distance":"14.268037796020508","lon":"-76.386276","lat":"37.045788","theaterChainName":"Cinema Cafe","ticketType":"STANDARD"},{"id":"4919","name":"Peninsula Movie Bistro","address":"4401 West Claiborne Square","city":"Hampton","state":"VA","zip":"23666","distance":"15.159350395202637","lon":"-76.402100","lat":"37.051498","theaterChainName":"Cobb Theatres","ticketType":"STANDARD"},{"id":"681","name":"Big Cinemas Main Gate 10","address":"Navy Exchange Mall Complex","city":"Norfolk","state":"VA","zip":"23511","distance":"6.775722026824951","lon":"-76.316071","lat":"36.943020","theaterChainName":"Phoenix Theatres","ticketType":"STANDARD"},{"id":"3119","name":"Regal Harbour View Grande Stadium 16","address":"5860 Harbour View Blvd.","city":"Suffolk","state":"VA","zip":"23435","distance":"12.661205291748047","lon":"-76.436111","lat":"36.875072","theaterChainName":"Regal Cinemas","ticketType":"STANDARD"},{"id":"706","name":"Naro Expanded Cinema","address":"1507 Colley Ave.","city":"Norfolk","state":"VA","zip":"23517","distance":"5.303422451019287","lon":"-76.297958","lat":"36.868130","theaterChainName":"Independent Chains","ticketType":"STANDARD"},{"id":"5102","name":"Cinemark Chesapeake Square","address":"2413 Chesapeake Square Ring Rd.","city":"Chesapeake","state":"VA","zip":"23321","distance":"12.208725929260254","lon":"-76.412575","lat":"36.828369","theaterChainName":"Cinemark","ticketType":"STANDARD"},{"id":"2277","name":"Regal MacArthur Center Stadium 18","address":"300 Monticello Ave Ste 330","city":"Norfolk","state":"VA","zip":"23510","distance":"5.5024590492248535","lon":"-76.289345","lat":"36.849434","theaterChainName":"Regal Cinemas","ticketType":"STANDARD"},{"id":"705","name":"Commodore Theatre","address":"421 High St.","city":"Portsmouth","state":"VA","zip":"23704","distance":"6.646714687347412","lon":"-76.301712","lat":"36.835136","theaterChainName":"Independent Chains","ticketType":"STANDARD"},{"id":"2976","name":"Cinemark 18 Norfolk","address":"880 N. Military Highway","city":"Norfolk","state":"VA","zip":"23502","distance":"3.1837053298950195","lon":"-76.206230","lat":"36.849861","theaterChainName":"Cinemark","ticketType":"STANDARD"},{"id":"708","name":"Cinema Cafe - Pembroke Meadows","address":"758 Independence Blvd.","city":"Virginia Beach","state":"VA","zip":"23455","distance":"4.761965751647949","lon":"-76.131554","lat":"36.864902","theaterChainName":"Cinema Cafe","ticketType":"STANDARD"},{"id":"672","name":"Regal Columbus 12","address":"104 Constitution Dr","city":"Virginia Beach","state":"VA","zip":"23462","distance":"5.791144847869873","lon":"-76.130058","lat":"36.840351","theaterChainName":"Regal Cinemas","ticketType":"STANDARD"},{"id":"116","name":"Cinema Cafe - Kemps River","address":"1220 Fordham Rd","city":"Virginia Beach","state":"VA","zip":"23464","distance":"6.787415027618408","lon":"-76.174507","lat":"36.801514","theaterChainName":"Cinema Cafe","ticketType":"STANDARD"},{"id":"3222","name":"Beach Movie Bistro","address":"941 Laskin Rd.","city":"Virginia Beach","state":"VA","zip":"23451","distance":"12.45068359375","lon":"-75.988663","lat":"36.856628","theaterChainName":"Independent Chains","ticketType":"STANDARD"},{"id":"370","name":"AMC Lynnhaven 18","address":"1001 Lynnhaven Mall Loop","city":"Virginia Beach","state":"VA","zip":"23452","distance":"9.32202434539795","lon":"-76.072754","lat":"36.815884","theaterChainName":"AMC Theatres","ticketType":"STANDARD"},{"id":"661","name":"Regal Strawbridge Marketplace Stadium 12","address":"2133 General Booth Blvd","city":"Virginia Beach","state":"VA","zip":"23454","distance":"13.869388580322266","lon":"-76.015434","lat":"36.767803","theaterChainName":"Regal Cinemas","ticketType":"STANDARD"},{"id":"659","name":"Cinema Cafe - Greenbrier","address":"1401 Greenbriar Pkwy Ste 1112","city":"Chesapeake","state":"VA","zip":"23320","distance":"8.110173225402832","lon":"-76.226578","lat":"36.779423","theaterChainName":"Cinema Cafe","ticketType":"STANDARD"},{"id":"658","name":"Regal Greenbrier Cinema 13","address":"600 Jarman Road","city":"Chesapeake","state":"VA","zip":"23320","distance":"8.234884262084961","lon":"-76.233398","lat":"36.778400","theaterChainName":"Regal Cinemas","ticketType":"STANDARD"},{"id":"5861","name":"Cinema Cafe - Edinburgh","address":"1864 Edinburgh Lane","city":"Chesapeake","state":"VA","zip":"23322","distance":"16.76286506652832","lon":"-76.229248","lat":"36.653873","theaterChainName":"Cinema Cafe","ticketType":"STANDARD"}]