[{"id":"3157","tribuneTheaterId":"3103","providerTheaterId":"","name":"York River Crossing","address":"2226 York Crossing Dr","city":"Hayes","state":"VA","zip":"23072","distance":6.9950797747524,"lon":"-76.49673","lat":"37.273935","theaterChainName":"Independent Chains","ticketType":"STANDARD"},{"id":"704","tribuneTheaterId":"6727","providerTheaterId":"","name":"Kimball Theatre","address":"424 Duke Of Gloucester St.","city":"Williamsburg","state":"VA","zip":"23185","distance":8.2009711673278,"lon":"-76.7123","lat":"37.2567","theaterChainName":"Independent Chains","ticketType":"STANDARD"},{"id":"660","tribuneTheaterId":"8844","providerTheaterId":"","name":"Regal Kiln Creek Cinema Stadium 20","address":"100 Regal Way","city":"Newport News","state":"VA","zip":"23602","distance":8.7606561389562,"lon":"-76.468288","lat":"37.110307","theaterChainName":"Regal Cinemas","ticketType":"STANDARD"},{"id":"4139","tribuneTheaterId":"4902","providerTheaterId":"","name":"Regal New Town Stadium 12","address":"4911 Courthouse Street","city":"Williamsburg","state":"VA","zip":"23188","distance":10.365703120373,"lon":"-76.741346","lat":"37.279116","theaterChainName":"Regal Cinemas","ticketType":"STANDARD"},{"id":"4719","tribuneTheaterId":"9934","providerTheaterId":"","name":"Movie Tavern at High Street","address":"1430 Richmond Road","city":"Williamsburg","state":"VA","zip":"23185","distance":9.9985588170387,"lon":"-76.724879","lat":"37.288467","theaterChainName":"Movie Tavern","ticketType":"STANDARD"},{"id":"5518","tribuneTheaterId":"10942","providerTheaterId":"","name":"Paragon City Center 12","address":"11810 Fountain Way","city":"Newport News","state":"VA","zip":"23606","distance":9.9022911406351,"lon":"-76.471973","lat":"37.085615","theaterChainName":"Paragon Theaters","ticketType":"STANDARD"},{"id":"802","tribuneTheaterId":"7069","providerTheaterId":"369","name":"AMC Hampton Towne Centre 24","address":"1 Towne Centre Way","city":"Hampton","state":"VA","zip":"23666","distance":12.889728970712,"lon":"-76.423452","lat":"37.06177","theaterChainName":"AMC Theatres","ticketType":"STANDARD"},{"id":"1190","tribuneTheaterId":"2689","providerTheaterId":"","name":"Hillside 2 Cinema","address":"7321 John Clayton Memorial Hwy.","city":"Gloucester","state":"VA","zip":"23061","distance":15.155773828309,"lon":"-76.5199","lat":"37.4126","theaterChainName":"Independent Chains","ticketType":"STANDARD"},{"id":"4919","tribuneTheaterId":"10236","providerTheaterId":"","name":"Peninsula Movie Bistro","address":"4401 West Claiborne Square","city":"Hampton","state":"VA","zip":"23666","distance":14.214416813629,"lon":"-76.4021","lat":"37.0515","theaterChainName":"Cobb Theatres","ticketType":"STANDARD"},{"id":"4157","tribuneTheaterId":"2274","providerTheaterId":"","name":"Cinema Cafe - Hampton","address":"1044 Von Schilling Drive","city":"Hampton","state":"VA","zip":"23666","distance":15.10963831916,"lon":"-76.386276","lat":"37.045788","theaterChainName":"Cinema Cafe","ticketType":"STANDARD"},{"id":"3119","tribuneTheaterId":"4906","providerTheaterId":"","name":"Regal Harbour View Grande Stadium 16","address":"5860 Harbour View Blvd.","city":"Suffolk","state":"VA","zip":"23435","distance":23.778885330384,"lon":"-76.436112","lat":"36.875074","theaterChainName":"Regal Cinemas","ticketType":"STANDARD"},{"id":"681","tribuneTheaterId":"8614","providerTheaterId":"","name":"Big Cinemas Main Gate 10","address":"Navy Exchange Mall Complex","city":"Norfolk","state":"VA","zip":"23511","distance":22.970927031904,"lon":"-76.316067","lat":"36.943019","theaterChainName":"Phoenix Theatres","ticketType":"STANDARD"}]