[{"id":"3051","tribuneTheaterId":"5866","providerTheaterId":"","name":"Regal Commonwealth Stadium 20 & IMAX","address":"5001 Commonwealth Center Parkway","city":"Midlothian","state":"VA","zip":"23112","distance":15.605571660462,"lon":"-77.628888","lat":"37.419069","theaterChainName":"Regal Cinemas","ticketType":"STANDARD"},{"id":"4378","tribuneTheaterId":"9420","providerTheaterId":"","name":"Regal Southpark Mall Stadium","address":"300 Southpark Circle","city":"Colonial Heights","state":"VA","zip":"23834","distance":15.418853838777,"lon":"-77.394315","lat":"37.253997","theaterChainName":"Regal Cinemas","ticketType":"STANDARD"},{"id":"5628","tribuneTheaterId":"11091","providerTheaterId":"","name":"Destination Theater","address":"5246 Oaklawn Blvd.","city":"Hopewell","state":"VA","zip":"23860","distance":18.95270470116,"lon":"-77.3294","lat":"37.2583","theaterChainName":"Independent Chains","ticketType":"STANDARD"},{"id":"4689","tribuneTheaterId":"9897","providerTheaterId":"","name":"Regal Westchester Commons Stadium 16","address":"361 Perimeter Drive","city":"Midlothian","state":"VA","zip":"23114","distance":22.067338239286,"lon":"-77.689291","lat":"37.513781","theaterChainName":"Regal Cinemas","ticketType":"STANDARD"},{"id":"5626","tribuneTheaterId":"11089","providerTheaterId":"","name":"Ovation 10","address":"1100 Alverser Drive","city":"Midlothian","state":"VA","zip":"23113","distance":21.661797182871,"lon":"-77.6178","lat":"37.5063","theaterChainName":"Carmike Cinemas","ticketType":"STANDARD"}]