[{"id":"4378","tribuneTheaterId":"9420","providerTheaterId":"","name":"Regal Southpark Mall Stadium","address":"300 Southpark Circle","city":"Colonial Heights","state":"VA","zip":"23834","distance":1.2225445311777,"lon":"-77.394315","lat":"37.253997","theaterChainName":"Regal Cinemas","ticketType":"STANDARD"},{"id":"5628","tribuneTheaterId":"11091","providerTheaterId":"","name":"Destination Theater","address":"5246 Oaklawn Blvd.","city":"Hopewell","state":"VA","zip":"23860","distance":4.1702159597718,"lon":"-77.3294","lat":"37.2583","theaterChainName":"Independent Chains","ticketType":"STANDARD"},{"id":"3051","tribuneTheaterId":"5866","providerTheaterId":"","name":"Regal Commonwealth Stadium 20 & IMAX","address":"5001 Commonwealth Center Parkway","city":"Midlothian","state":"VA","zip":"23112","distance":16.091914716244,"lon":"-77.628888","lat":"37.419069","theaterChainName":"Regal Cinemas","ticketType":"STANDARD"},{"id":"5626","tribuneTheaterId":"11089","providerTheaterId":"","name":"Ovation 10","address":"1100 Alverser Drive","city":"Midlothian","state":"VA","zip":"23113","distance":20.114140641212,"lon":"-77.6178","lat":"37.5063","theaterChainName":"Carmike Cinemas","ticketType":"STANDARD"},{"id":"5282","tribuneTheaterId":"10716","providerTheaterId":"","name":"Criterion Cinemas at Movieland","address":"1331 N. Boulevard","city":"Richmond","state":"VA","zip":"23220","distance":20.825922307279,"lon":"-77.46693","lat":"37.567218","theaterChainName":"Bow-Tie Cinemas","ticketType":"STANDARD"},{"id":"4702","tribuneTheaterId":"9916","providerTheaterId":"","name":"Movieland at Boulevard Square","address":"1301 North Boulevard at West Leigh St.","city":"Richmond","state":"VA","zip":"23230","distance":20.835601248608,"lon":"-77.466938","lat":"37.567359","theaterChainName":"Bow-Tie Cinemas","ticketType":"STANDARD"},{"id":"663","tribuneTheaterId":"7563","providerTheaterId":"","name":"Regal Westhampton Cinema 2","address":"5706 Grove Avenue","city":"Richmond","state":"VA","zip":"23226","distance":21.854191708478,"lon":"-77.517307","lat":"37.573182","theaterChainName":"Regal Cinemas","ticketType":"STANDARD"},{"id":"4689","tribuneTheaterId":"9897","providerTheaterId":"","name":"Regal Westchester Commons Stadium 16","address":"361 Perimeter Drive","city":"Midlothian","state":"VA","zip":"23114","distance":23.006875667906,"lon":"-77.689291","lat":"37.513781","theaterChainName":"Regal Cinemas","ticketType":"STANDARD"}]