[{"id":"5628","name":"Destination Theater","address":"5246 Oaklawn Blvd.","city":"Hopewell","state":"VA","zip":"23860","distance":"13.818656921386719","lon":"-77.329399","lat":"37.258301","theaterChainName":"Independent Chains","ticketType":"STANDARD"},{"id":"4378","name":"Regal Southpark Mall Stadium","address":"300 Southpark Circle","city":"Colonial Heights","state":"VA","zip":"23834","distance":"10.402188301086426","lon":"-77.394318","lat":"37.253998","theaterChainName":"Regal Cinemas","ticketType":"STANDARD"},{"id":"4689","name":"Regal Westchester Commons Stadium 16","address":"361 Perimeter Drive","city":"Midlothian","state":"VA","zip":"23114","distance":"23.376359939575195","lon":"-77.689293","lat":"37.513783","theaterChainName":"Regal Cinemas","ticketType":"STANDARD"},{"id":"5626","name":"Ovation 10","address":"1100 Alverser Drive","city":"Midlothian","state":"VA","zip":"23113","distance":"22.036731719970703","lon":"-77.617798","lat":"37.506302","theaterChainName":"Carmike Cinemas","ticketType":"STANDARD"},{"id":"3051","name":"Regal Commonwealth Stadium 20 & IMAX","address":"5001 Commonwealth Center Parkway","city":"Midlothian","state":"VA","zip":"23112","distance":"16.200090408325195","lon":"-77.628891","lat":"37.419067","theaterChainName":"Regal Cinemas","ticketType":"STANDARD"}]