[{"id":"2421","tribuneTheaterId":"408","providerTheaterId":"","name":"Lyric Theatre Blacksburg","address":"135 College Ave.","city":"Blacksburg","state":"VA","zip":"24060","distance":0.10331081653954,"lon":"-80.415656","lat":"37.23013","theaterChainName":"Independent Chains","ticketType":"STANDARD"},{"id":"5635","tribuneTheaterId":"11098","providerTheaterId":"","name":"Cinebowl Grille + IMAX","address":"1614 S. Main St.","city":"Blacksburg","state":"VA","zip":"24060","distance":1.4315871506689,"lon":"-80.401286","lat":"37.211478","theaterChainName":"Frank Theatres","ticketType":"STANDARD"},{"id":"4340","tribuneTheaterId":"9325","providerTheaterId":"","name":"Regal New River Valley Stadium 14","address":"110 New River Road","city":"Christiansburg","state":"VA","zip":"24073","distance":4.6227264635104,"lon":"-80.428698","lat":"37.163741","theaterChainName":"Regal Cinemas","ticketType":"STANDARD"},{"id":"2424","tribuneTheaterId":"6392","providerTheaterId":"","name":"Radford Plaza Cinema Twin","address":"7472 Lee Highway","city":"Radford","state":"VA","zip":"24141","distance":10.91956125782,"lon":"-80.579472","lat":"37.142552","theaterChainName":"Independent Chains","ticketType":"STANDARD"},{"id":"2423","tribuneTheaterId":"410","providerTheaterId":"","name":"Radford Theatre","address":"1043 Norwood Street","city":"Radford","state":"VA","zip":"24141","distance":9.9295777426942,"lon":"-80.555828","lat":"37.140898","theaterChainName":"Independent Chains","ticketType":"STANDARD"},{"id":"2261","tribuneTheaterId":"4794","providerTheaterId":"","name":"Carmike Valley 8","address":"1700 Apperson Dr","city":"Salem","state":"VA","zip":"24153","distance":21.161699069329,"lon":"-80.032434","lat":"37.269637","theaterChainName":"Carmike Cinemas","ticketType":"STANDARD"},{"id":"1644","tribuneTheaterId":"4795","providerTheaterId":"","name":"Carmike 10 Roanoke","address":"4494 Electric Rd SW","city":"Roanoke","state":"VA","zip":"24014","distance":24.039953130545,"lon":"-79.976939","lat":"37.234123","theaterChainName":"Carmike Cinemas","ticketType":"STANDARD"},{"id":"2425","tribuneTheaterId":"1702","providerTheaterId":"","name":"Grandin Theatre","address":"1310 Grandin Road S.W.","city":"Roanoke","state":"VA","zip":"24015","distance":24.159059422855,"lon":"-79.976959","lat":"37.265438","theaterChainName":"Independent Chains","ticketType":"STANDARD"}]