[{"id":"694","tribuneTheaterId":"4984","providerTheaterId":"","name":"R\/C Covington Movies 3","address":"139 N. Maple Ave.","city":"Covington","state":"VA","zip":"24426","distance":22.787387939452,"lon":"-79.995089","lat":"37.790112","theaterChainName":"R\/C Theatres","ticketType":"STANDARD"},{"id":"867","tribuneTheaterId":"7303","providerTheaterId":"","name":"R\/C State Cinema 3","address":"12 W. Nelson St.","city":"Lexington","state":"VA","zip":"24450","distance":21.97366815117,"lon":"-79.443602","lat":"37.784337","theaterChainName":"R\/C Theatres","ticketType":"STANDARD"},{"id":"3081","tribuneTheaterId":"4905","providerTheaterId":"","name":"Regal Valley View Grande Stadium 16","address":"4730 Valley View Blvd.","city":"Roanoke","state":"VA","zip":"24012","distance":21.707422232934,"lon":"-79.954753","lat":"37.299642","theaterChainName":"Regal Cinemas","ticketType":"STANDARD"},{"id":"2425","tribuneTheaterId":"1702","providerTheaterId":"","name":"Grandin Theatre","address":"1310 Grandin Road S.W.","city":"Roanoke","state":"VA","zip":"24015","distance":24.328425083433,"lon":"-79.976959","lat":"37.265438","theaterChainName":"Independent Chains","ticketType":"STANDARD"},{"id":"2947","tribuneTheaterId":"1233","providerTheaterId":"","name":"Valley Cinema","address":"2275 Beech Ave","city":"Buena Vista","state":"VA","zip":"24416","distance":23.522501675653,"lon":"-79.354797","lat":"37.737021","theaterChainName":"Independent Chains","ticketType":"STANDARD"}]