[{"id":"2425","name":"Grandin Theatre","address":"1310 Grandin Road S.W.","city":"Roanoke","state":"VA","zip":"24015","distance":"24.160676956176758","lon":"-79.976959","lat":"37.265438","theaterChainName":"Independent Chains","ticketType":"STANDARD"},{"id":"1644","name":"Carmike 10 Roanoke","address":"4494 Electric Rd SW","city":"Roanoke","state":"VA","zip":"24014","distance":"24.041715621948242","lon":"-79.976936","lat":"37.234123","theaterChainName":"Carmike Cinemas","ticketType":"STANDARD"},{"id":"2261","name":"Carmike Valley 8","address":"1700 Apperson Dr","city":"Salem","state":"VA","zip":"24153","distance":"21.163232803344727","lon":"-80.032433","lat":"37.269638","theaterChainName":"Carmike Cinemas","ticketType":"STANDARD"},{"id":"5635","name":"Cinebowl Grille + IMAX","address":"1614 S. Main St.","city":"Blacksburg","state":"VA","zip":"24060","distance":"1.4316775798797607","lon":"-80.401283","lat":"37.211479","theaterChainName":"Frank Theatres","ticketType":"STANDARD"},{"id":"2421","name":"Lyric Theatre Blacksburg","address":"135 College Ave.","city":"Blacksburg","state":"VA","zip":"24060","distance":"0.10325942933559418","lon":"-80.415657","lat":"37.230129","theaterChainName":"Independent Chains","ticketType":"STANDARD"},{"id":"4340","name":"Regal New River Valley Stadium 14","address":"110 New River Road","city":"Christiansburg","state":"VA","zip":"24073","distance":"4.622828006744385","lon":"-80.428696","lat":"37.163742","theaterChainName":"Regal Cinemas","ticketType":"STANDARD"},{"id":"2423","name":"Radford Theatre","address":"1043 Norwood Street","city":"Radford","state":"VA","zip":"24141","distance":"9.92982006072998","lon":"-80.555824","lat":"37.140900","theaterChainName":"Independent Chains","ticketType":"STANDARD"},{"id":"2424","name":"Radford Plaza Cinema Twin","address":"7472 Lee Highway","city":"Radford","state":"VA","zip":"24141","distance":"10.920273780822754","lon":"-80.579475","lat":"37.142551","theaterChainName":"Independent Chains","ticketType":"STANDARD"}]