[{"id":"2425","name":"Grandin Theatre","address":"1310 Grandin Road S.W.","city":"Roanoke","state":"VA","zip":"24015","distance":"7.92468786239624","lon":"-79.976959","lat":"37.265438","theaterChainName":"Independent Chains","ticketType":"STANDARD"},{"id":"3081","name":"Regal Valley View Grande Stadium 16","address":"4730 Valley View Blvd.","city":"Roanoke","state":"VA","zip":"24012","distance":"5.267868995666504","lon":"-79.954750","lat":"37.299641","theaterChainName":"Regal Cinemas","ticketType":"STANDARD"},{"id":"1644","name":"Carmike 10 Roanoke","address":"4494 Electric Rd SW","city":"Roanoke","state":"VA","zip":"24014","distance":"9.863099098205566","lon":"-79.976936","lat":"37.234123","theaterChainName":"Carmike Cinemas","ticketType":"STANDARD"},{"id":"2261","name":"Carmike Valley 8","address":"1700 Apperson Dr","city":"Salem","state":"VA","zip":"24153","distance":"9.596203804016113","lon":"-80.032433","lat":"37.269638","theaterChainName":"Carmike Cinemas","ticketType":"STANDARD"},{"id":"5053","name":"Westlake Cinemas","address":"84 Westlake Rd. Suite 117","city":"Hardy","state":"VA","zip":"24101","distance":"19.860321044921875","lon":"-79.720436","lat":"37.118355","theaterChainName":"Independent Chains","ticketType":"STANDARD"}]