[{"id":"2425","name":"Grandin Theatre","address":"1310 Grandin Road S.W.","city":"Roanoke","state":"VA","zip":"24015","distance":"22.345918655395508","lon":"-79.976959","lat":"37.265438","theaterChainName":"Independent Chains","ticketType":"STANDARD"},{"id":"3081","name":"Regal Valley View Grande Stadium 16","address":"4730 Valley View Blvd.","city":"Roanoke","state":"VA","zip":"24012","distance":"23.878372192382812","lon":"-79.954750","lat":"37.299641","theaterChainName":"Regal Cinemas","ticketType":"STANDARD"},{"id":"1644","name":"Carmike 10 Roanoke","address":"4494 Electric Rd SW","city":"Roanoke","state":"VA","zip":"24014","distance":"20.50506591796875","lon":"-79.976936","lat":"37.234123","theaterChainName":"Carmike Cinemas","ticketType":"STANDARD"},{"id":"2261","name":"Carmike Valley 8","address":"1700 Apperson Dr","city":"Salem","state":"VA","zip":"24153","distance":"24.261995315551758","lon":"-80.032433","lat":"37.269638","theaterChainName":"Carmike Cinemas","ticketType":"STANDARD"},{"id":"5053","name":"Westlake Cinemas","address":"84 Westlake Rd. Suite 117","city":"Hardy","state":"VA","zip":"24101","distance":"9.60035514831543","lon":"-79.720436","lat":"37.118355","theaterChainName":"Independent Chains","ticketType":"STANDARD"},{"id":"4080","name":"Eagle Cinema","address":"460 Tanyard Rd.","city":"Rocky Mount","state":"VA","zip":"24151","distance":"6.068559646606445","lon":"-79.880966","lat":"37.002567","theaterChainName":"Independent Chains","ticketType":"STANDARD"},{"id":"1872","name":"Movie Town 5","address":"67 Veteran Rd","city":"Martinsville","state":"VA","zip":"24112","distance":"23.630887985229492","lon":"-79.877823","lat":"36.654362","theaterChainName":"Independent Chains","ticketType":"STANDARD"},{"id":"4700","name":"Hollywood Cinema","address":"6 Hollywood Blvd.","city":"Martinsville","state":"VA","zip":"24112","distance":"22.937698364257812","lon":"-79.967979","lat":"36.692902","theaterChainName":"Independent Chains","ticketType":"STANDARD"}]