[{"id":"2425","name":"Grandin Theatre","address":"1310 Grandin Road S.W.","city":"Roanoke","state":"VA","zip":"24015","distance":"17.055566787719727","lon":"-79.976959","lat":"37.265438","theaterChainName":"Independent Chains","ticketType":"STANDARD"},{"id":"3081","name":"Regal Valley View Grande Stadium 16","address":"4730 Valley View Blvd.","city":"Roanoke","state":"VA","zip":"24012","distance":"14.401180267333984","lon":"-79.954750","lat":"37.299641","theaterChainName":"Regal Cinemas","ticketType":"STANDARD"},{"id":"1644","name":"Carmike 10 Roanoke","address":"4494 Electric Rd SW","city":"Roanoke","state":"VA","zip":"24014","distance":"19.05400848388672","lon":"-79.976936","lat":"37.234123","theaterChainName":"Carmike Cinemas","ticketType":"STANDARD"},{"id":"2261","name":"Carmike Valley 8","address":"1700 Apperson Dr","city":"Salem","state":"VA","zip":"24153","distance":"18.256454467773438","lon":"-80.032433","lat":"37.269638","theaterChainName":"Carmike Cinemas","ticketType":"STANDARD"},{"id":"694","name":"R\/C Covington Movies 3","address":"139 N. Maple Ave.","city":"Covington","state":"VA","zip":"24426","distance":"22.112091064453125","lon":"-79.995087","lat":"37.790112","theaterChainName":"R\/C Theatres","ticketType":"STANDARD"}]