[{"id":"3081","tribuneTheaterId":"4905","providerTheaterId":"","name":"Regal Valley View Grande Stadium 16","address":"4730 Valley View Blvd.","city":"Roanoke","state":"VA","zip":"24012","distance":14.400183184276,"lon":"-79.954753","lat":"37.299642","theaterChainName":"Regal Cinemas","ticketType":"STANDARD"},{"id":"2425","tribuneTheaterId":"1702","providerTheaterId":"","name":"Grandin Theatre","address":"1310 Grandin Road S.W.","city":"Roanoke","state":"VA","zip":"24015","distance":17.054425277115,"lon":"-79.976959","lat":"37.265438","theaterChainName":"Independent Chains","ticketType":"STANDARD"},{"id":"2261","tribuneTheaterId":"4794","providerTheaterId":"","name":"Carmike Valley 8","address":"1700 Apperson Dr","city":"Salem","state":"VA","zip":"24153","distance":18.255323891666,"lon":"-80.032434","lat":"37.269637","theaterChainName":"Carmike Cinemas","ticketType":"STANDARD"},{"id":"1644","tribuneTheaterId":"4795","providerTheaterId":"","name":"Carmike 10 Roanoke","address":"4494 Electric Rd SW","city":"Roanoke","state":"VA","zip":"24014","distance":19.052817490615,"lon":"-79.976939","lat":"37.234123","theaterChainName":"Carmike Cinemas","ticketType":"STANDARD"},{"id":"694","tribuneTheaterId":"4984","providerTheaterId":"","name":"R\/C Covington Movies 3","address":"139 N. Maple Ave.","city":"Covington","state":"VA","zip":"24426","distance":22.110758943844,"lon":"-79.995089","lat":"37.790112","theaterChainName":"R\/C Theatres","ticketType":"STANDARD"}]