[{"id":"2246","tribuneTheaterId":"6722","providerTheaterId":"","name":"Carmike 8 Bluefield","address":"Mercer Mall","city":"Bluefield","state":"WV","zip":"24701","distance":20.431818201831,"lon":"-81.221802","lat":"37.2728","theaterChainName":"Carmike Cinemas","ticketType":"STANDARD"},{"id":"2424","tribuneTheaterId":"6392","providerTheaterId":"","name":"Radford Plaza Cinema Twin","address":"7472 Lee Highway","city":"Radford","state":"VA","zip":"24141","distance":19.478005757081,"lon":"-80.579472","lat":"37.142552","theaterChainName":"Independent Chains","ticketType":"STANDARD"},{"id":"2423","tribuneTheaterId":"410","providerTheaterId":"","name":"Radford Theatre","address":"1043 Norwood Street","city":"Radford","state":"VA","zip":"24141","distance":20.57436509163,"lon":"-80.555828","lat":"37.140898","theaterChainName":"Independent Chains","ticketType":"STANDARD"},{"id":"2426","tribuneTheaterId":"411","providerTheaterId":"","name":"The Ritz Theatre","address":"211 Ballengee St.","city":"Hinton","state":"WV","zip":"25951","distance":24.476599064902,"lon":"-80.8908","lat":"37.672901","theaterChainName":"Independent Chains","ticketType":"STANDARD"},{"id":"2421","tribuneTheaterId":"408","providerTheaterId":"","name":"Lyric Theatre Blacksburg","address":"135 College Ave.","city":"Blacksburg","state":"VA","zip":"24060","distance":24.926435900475,"lon":"-80.415656","lat":"37.23013","theaterChainName":"Independent Chains","ticketType":"STANDARD"}]