[{"id":"2424","tribuneTheaterId":"6392","providerTheaterId":"","name":"Radford Plaza Cinema Twin","address":"7472 Lee Highway","city":"Radford","state":"VA","zip":"24141","distance":4.8579728260625,"lon":"-80.579472","lat":"37.142552","theaterChainName":"Independent Chains","ticketType":"STANDARD"},{"id":"2423","tribuneTheaterId":"410","providerTheaterId":"","name":"Radford Theatre","address":"1043 Norwood Street","city":"Radford","state":"VA","zip":"24141","distance":5.671959013314,"lon":"-80.555828","lat":"37.140898","theaterChainName":"Independent Chains","ticketType":"STANDARD"},{"id":"4340","tribuneTheaterId":"9325","providerTheaterId":"","name":"Regal New River Valley Stadium 14","address":"110 New River Road","city":"Christiansburg","state":"VA","zip":"24073","distance":10.932489267775,"lon":"-80.428698","lat":"37.163741","theaterChainName":"Regal Cinemas","ticketType":"STANDARD"},{"id":"2421","tribuneTheaterId":"408","providerTheaterId":"","name":"Lyric Theatre Blacksburg","address":"135 College Ave.","city":"Blacksburg","state":"VA","zip":"24060","distance":11.406023612099,"lon":"-80.415656","lat":"37.23013","theaterChainName":"Independent Chains","ticketType":"STANDARD"},{"id":"5635","tribuneTheaterId":"11098","providerTheaterId":"","name":"Cinebowl Grille + IMAX","address":"1614 S. Main St.","city":"Blacksburg","state":"VA","zip":"24060","distance":12.071934110277,"lon":"-80.401286","lat":"37.211478","theaterChainName":"Frank Theatres","ticketType":"STANDARD"}]