[{"id":"5635","name":"Cinebowl Grille + IMAX","address":"1614 S. Main St.","city":"Blacksburg","state":"VA","zip":"24060","distance":"12.072762489318848","lon":"-80.401283","lat":"37.211479","theaterChainName":"Frank Theatres","ticketType":"STANDARD"},{"id":"2421","name":"Lyric Theatre Blacksburg","address":"135 College Ave.","city":"Blacksburg","state":"VA","zip":"24060","distance":"11.406596183776855","lon":"-80.415657","lat":"37.230129","theaterChainName":"Independent Chains","ticketType":"STANDARD"},{"id":"4340","name":"Regal New River Valley Stadium 14","address":"110 New River Road","city":"Christiansburg","state":"VA","zip":"24073","distance":"10.93319320678711","lon":"-80.428696","lat":"37.163742","theaterChainName":"Regal Cinemas","ticketType":"STANDARD"},{"id":"2423","name":"Radford Theatre","address":"1043 Norwood Street","city":"Radford","state":"VA","zip":"24141","distance":"5.6722846031188965","lon":"-80.555824","lat":"37.140900","theaterChainName":"Independent Chains","ticketType":"STANDARD"},{"id":"2424","name":"Radford Plaza Cinema Twin","address":"7472 Lee Highway","city":"Radford","state":"VA","zip":"24141","distance":"4.858166694641113","lon":"-80.579475","lat":"37.142551","theaterChainName":"Independent Chains","ticketType":"STANDARD"}]