[{"id":"5635","name":"Cinebowl Grille + IMAX","address":"1614 S. Main St.","city":"Blacksburg","state":"VA","zip":"24060","distance":"18.322853088378906","lon":"-80.401283","lat":"37.211479","theaterChainName":"Frank Theatres","ticketType":"STANDARD"},{"id":"2421","name":"Lyric Theatre Blacksburg","address":"135 College Ave.","city":"Blacksburg","state":"VA","zip":"24060","distance":"16.937015533447266","lon":"-80.415657","lat":"37.230129","theaterChainName":"Independent Chains","ticketType":"STANDARD"},{"id":"4340","name":"Regal New River Valley Stadium 14","address":"110 New River Road","city":"Christiansburg","state":"VA","zip":"24073","distance":"19.361106872558594","lon":"-80.428696","lat":"37.163742","theaterChainName":"Regal Cinemas","ticketType":"STANDARD"},{"id":"2423","name":"Radford Theatre","address":"1043 Norwood Street","city":"Radford","state":"VA","zip":"24141","distance":"16.840923309326172","lon":"-80.555824","lat":"37.140900","theaterChainName":"Independent Chains","ticketType":"STANDARD"},{"id":"2424","name":"Radford Plaza Cinema Twin","address":"7472 Lee Highway","city":"Radford","state":"VA","zip":"24141","distance":"16.284439086914062","lon":"-80.579475","lat":"37.142551","theaterChainName":"Independent Chains","ticketType":"STANDARD"},{"id":"2426","name":"The Ritz Theatre","address":"211 Ballengee St.","city":"Hinton","state":"WV","zip":"25951","distance":"24.339611053466797","lon":"-80.890800","lat":"37.672901","theaterChainName":"Independent Chains","ticketType":"STANDARD"}]