[{"id":"4080","tribuneTheaterId":"1894","providerTheaterId":"","name":"Eagle Cinema","address":"460 Tanyard Rd.","city":"Rocky Mount","state":"VA","zip":"24151","distance":0.94531543716321,"lon":"-79.88097","lat":"37.002566","theaterChainName":"Independent Chains","ticketType":"STANDARD"},{"id":"5053","tribuneTheaterId":"10433","providerTheaterId":"","name":"Westlake Cinemas","address":"84 Westlake Rd. Suite 117","city":"Hardy","state":"VA","zip":"24101","distance":12.692356438949,"lon":"-79.720439","lat":"37.118353","theaterChainName":"Independent Chains","ticketType":"STANDARD"},{"id":"1644","tribuneTheaterId":"4795","providerTheaterId":"","name":"Carmike 10 Roanoke","address":"4494 Electric Rd SW","city":"Roanoke","state":"VA","zip":"24014","distance":17.68698450987,"lon":"-79.976939","lat":"37.234123","theaterChainName":"Carmike Cinemas","ticketType":"STANDARD"},{"id":"2425","tribuneTheaterId":"1702","providerTheaterId":"","name":"Grandin Theatre","address":"1310 Grandin Road S.W.","city":"Roanoke","state":"VA","zip":"24015","distance":19.767910135855,"lon":"-79.976959","lat":"37.265438","theaterChainName":"Independent Chains","ticketType":"STANDARD"},{"id":"4700","tribuneTheaterId":"9914","providerTheaterId":"","name":"Hollywood Cinema","address":"6 Hollywood Blvd.","city":"Martinsville","state":"VA","zip":"24112","distance":20.985519804328,"lon":"-79.967982","lat":"36.6929025","theaterChainName":"Independent Chains","ticketType":"STANDARD"},{"id":"2261","tribuneTheaterId":"4794","providerTheaterId":"","name":"Carmike Valley 8","address":"1700 Apperson Dr","city":"Salem","state":"VA","zip":"24153","distance":21.037284303665,"lon":"-80.032434","lat":"37.269637","theaterChainName":"Carmike Cinemas","ticketType":"STANDARD"},{"id":"3081","tribuneTheaterId":"4905","providerTheaterId":"","name":"Regal Valley View Grande Stadium 16","address":"4730 Valley View Blvd.","city":"Roanoke","state":"VA","zip":"24012","distance":21.807349292026,"lon":"-79.954753","lat":"37.299642","theaterChainName":"Regal Cinemas","ticketType":"STANDARD"},{"id":"1872","tribuneTheaterId":"1828","providerTheaterId":"","name":"Movie Town 5","address":"67 Veteran Rd","city":"Martinsville","state":"VA","zip":"24112","distance":23.130812928804,"lon":"-79.877826","lat":"36.65436","theaterChainName":"Independent Chains","ticketType":"STANDARD"}]