[{"id":"2880","tribuneTheaterId":"2234","providerTheaterId":"","name":"Abingdon Cinemall","address":"721 East Main Street","city":"Abingdon","state":"VA","zip":"24210","distance":4.1115258670495,"lon":"-81.95381","lat":"36.718527","theaterChainName":"Independent Chains","ticketType":"STANDARD"},{"id":"1580","tribuneTheaterId":"4238","providerTheaterId":"","name":"Cinemark Tinseltown USA 14 Bristol","address":"3004 Linden Drive","city":"Bristol","state":"VA","zip":"24202","distance":7.5354207033304,"lon":"-82.1308","lat":"36.6284","theaterChainName":"Cinemark","ticketType":"STANDARD"},{"id":"5855","tribuneTheaterId":"11268","providerTheaterId":"","name":"Marquee Pinnacle 12","address":"680 Pinnacle Parkway","city":"Bristol","state":"TN","zip":"37620","distance":15.223346929663,"lon":"-82.2643","lat":"36.591","theaterChainName":"Marquee Cinemas","ticketType":"STANDARD"},{"id":"4825","tribuneTheaterId":"10099","providerTheaterId":"","name":"Tri-Cities 7 Cinemas","address":"354 Shadowtown Road","city":"Blountville","state":"TN","zip":"37617","distance":23.576256594679,"lon":"-82.395036","lat":"36.530952","theaterChainName":"Independent Chains","ticketType":"STANDARD"}]