[{"id":"1580","name":"Cinemark Tinseltown USA 14 Bristol","address":"3004 Linden Drive","city":"Bristol","state":"VA","zip":"24202","distance":"19.209613800048828","lon":"-82.130798","lat":"36.628399","theaterChainName":"Cinemark","ticketType":"STANDARD"},{"id":"5855","name":"Marquee Pinnacle 12","address":"680 Pinnacle Parkway","city":"Bristol","state":"TN","zip":"37620","distance":"19.762643814086914","lon":"-82.264297","lat":"36.591000","theaterChainName":"Marquee Cinemas","ticketType":"STANDARD"},{"id":"2880","name":"Abingdon Cinemall","address":"721 East Main Street","city":"Abingdon","state":"VA","zip":"24210","distance":"21.449506759643555","lon":"-81.953812","lat":"36.718529","theaterChainName":"Independent Chains","ticketType":"STANDARD"},{"id":"4825","name":"Tri-Cities 7 Cinemas","address":"354 Shadowtown Road","city":"Blountville","state":"TN","zip":"37617","distance":"24.60042953491211","lon":"-82.395035","lat":"36.530952","theaterChainName":"Independent Chains","ticketType":"STANDARD"},{"id":"5137","name":"Cinema City 9","address":"206 Coeburn Avenue SW","city":"Norton","state":"VA","zip":"24273","distance":"18.84131622314453","lon":"-82.620232","lat":"36.936462","theaterChainName":"Independent Chains","ticketType":"STANDARD"}]