[{"id":"1580","tribuneTheaterId":"4238","providerTheaterId":"","name":"Cinemark Tinseltown USA 14 Bristol","address":"3004 Linden Drive","city":"Bristol","state":"VA","zip":"24202","distance":19.208372835785,"lon":"-82.1308","lat":"36.6284","theaterChainName":"Cinemark","ticketType":"STANDARD"},{"id":"5855","tribuneTheaterId":"11268","providerTheaterId":"","name":"Marquee Pinnacle 12","address":"680 Pinnacle Parkway","city":"Bristol","state":"TN","zip":"37620","distance":19.761390693502,"lon":"-82.2643","lat":"36.591","theaterChainName":"Marquee Cinemas","ticketType":"STANDARD"},{"id":"5137","tribuneTheaterId":"10543","providerTheaterId":"","name":"Cinema City 9","address":"206 Coeburn Avenue SW","city":"Norton","state":"VA","zip":"24273","distance":18.840074026393,"lon":"-82.620233","lat":"36.936461","theaterChainName":"Independent Chains","ticketType":"STANDARD"},{"id":"2880","tribuneTheaterId":"2234","providerTheaterId":"","name":"Abingdon Cinemall","address":"721 East Main Street","city":"Abingdon","state":"VA","zip":"24210","distance":21.448429648673,"lon":"-81.95381","lat":"36.718527","theaterChainName":"Independent Chains","ticketType":"STANDARD"},{"id":"4825","tribuneTheaterId":"10099","providerTheaterId":"","name":"Tri-Cities 7 Cinemas","address":"354 Shadowtown Road","city":"Blountville","state":"TN","zip":"37617","distance":24.59892126978,"lon":"-82.395036","lat":"36.530952","theaterChainName":"Independent Chains","ticketType":"STANDARD"}]