[{"id":"1580","name":"Cinemark Tinseltown USA 14 Bristol","address":"3004 Linden Drive","city":"Bristol","state":"VA","zip":"24202","distance":"24.333492279052734","lon":"-82.130798","lat":"36.628399","theaterChainName":"Cinemark","ticketType":"STANDARD"},{"id":"5855","name":"Marquee Pinnacle 12","address":"680 Pinnacle Parkway","city":"Bristol","state":"TN","zip":"37620","distance":"20.600784301757812","lon":"-82.264297","lat":"36.591000","theaterChainName":"Marquee Cinemas","ticketType":"STANDARD"},{"id":"4825","name":"Tri-Cities 7 Cinemas","address":"354 Shadowtown Road","city":"Blountville","state":"TN","zip":"37617","distance":"21.021018981933594","lon":"-82.395035","lat":"36.530952","theaterChainName":"Independent Chains","ticketType":"STANDARD"},{"id":"5386","name":"Kingsport Town Center","address":"2101 Fort Henry Drive","city":"Kingsport","state":"TN","zip":"37664","distance":"20.39811897277832","lon":"-82.520943","lat":"36.529671","theaterChainName":"Frank Theatres","ticketType":"STANDARD"},{"id":"5137","name":"Cinema City 9","address":"206 Coeburn Avenue SW","city":"Norton","state":"VA","zip":"24273","distance":"10.359408378601074","lon":"-82.620232","lat":"36.936462","theaterChainName":"Independent Chains","ticketType":"STANDARD"}]