[{"id":"5137","tribuneTheaterId":"10543","providerTheaterId":"","name":"Cinema City 9","address":"206 Coeburn Avenue SW","city":"Norton","state":"VA","zip":"24273","distance":10.35880767263,"lon":"-82.620233","lat":"36.936461","theaterChainName":"Independent Chains","ticketType":"STANDARD"},{"id":"5386","tribuneTheaterId":"10823","providerTheaterId":"","name":"Kingsport Town Center","address":"2101 Fort Henry Drive","city":"Kingsport","state":"TN","zip":"37664","distance":20.396794221488,"lon":"-82.520942","lat":"36.529672","theaterChainName":"Frank Theatres","ticketType":"STANDARD"},{"id":"4825","tribuneTheaterId":"10099","providerTheaterId":"","name":"Tri-Cities 7 Cinemas","address":"354 Shadowtown Road","city":"Blountville","state":"TN","zip":"37617","distance":21.019717277252,"lon":"-82.395036","lat":"36.530952","theaterChainName":"Independent Chains","ticketType":"STANDARD"},{"id":"5855","tribuneTheaterId":"11268","providerTheaterId":"","name":"Marquee Pinnacle 12","address":"680 Pinnacle Parkway","city":"Bristol","state":"TN","zip":"37620","distance":20.599341864233,"lon":"-82.2643","lat":"36.591","theaterChainName":"Marquee Cinemas","ticketType":"STANDARD"},{"id":"1580","tribuneTheaterId":"4238","providerTheaterId":"","name":"Cinemark Tinseltown USA 14 Bristol","address":"3004 Linden Drive","city":"Bristol","state":"VA","zip":"24202","distance":24.331776709216,"lon":"-82.1308","lat":"36.6284","theaterChainName":"Cinemark","ticketType":"STANDARD"}]