[{"id":"5386","tribuneTheaterId":"10823","providerTheaterId":"","name":"Kingsport Town Center","address":"2101 Fort Henry Drive","city":"Kingsport","state":"TN","zip":"37664","distance":9.4696667941528,"lon":"-82.520942","lat":"36.529672","theaterChainName":"Frank Theatres","ticketType":"STANDARD"},{"id":"4825","tribuneTheaterId":"10099","providerTheaterId":"","name":"Tri-Cities 7 Cinemas","address":"354 Shadowtown Road","city":"Blountville","state":"TN","zip":"37617","distance":14.387544006426,"lon":"-82.395036","lat":"36.530952","theaterChainName":"Independent Chains","ticketType":"STANDARD"},{"id":"5137","tribuneTheaterId":"10543","providerTheaterId":"","name":"Cinema City 9","address":"206 Coeburn Avenue SW","city":"Norton","state":"VA","zip":"24273","distance":20.075132608638,"lon":"-82.620233","lat":"36.936461","theaterChainName":"Independent Chains","ticketType":"STANDARD"},{"id":"5855","tribuneTheaterId":"11268","providerTheaterId":"","name":"Marquee Pinnacle 12","address":"680 Pinnacle Parkway","city":"Bristol","state":"TN","zip":"37620","distance":19.609415842018,"lon":"-82.2643","lat":"36.591","theaterChainName":"Marquee Cinemas","ticketType":"STANDARD"},{"id":"2679","tribuneTheaterId":"1204","providerTheaterId":"","name":"Real to Reel","address":"130 W. Springbrook Dr.","city":"Johnson City","state":"TN","zip":"37604","distance":24.090034108543,"lon":"-82.3818","lat":"36.3501","theaterChainName":"Independent Chains","ticketType":"STANDARD"}]