[{"id":"2880","tribuneTheaterId":"2234","providerTheaterId":"","name":"Abingdon Cinemall","address":"721 East Main Street","city":"Abingdon","state":"VA","zip":"24210","distance":13.689442235206,"lon":"-81.95381","lat":"36.718527","theaterChainName":"Independent Chains","ticketType":"STANDARD"},{"id":"1580","tribuneTheaterId":"4238","providerTheaterId":"","name":"Cinemark Tinseltown USA 14 Bristol","address":"3004 Linden Drive","city":"Bristol","state":"VA","zip":"24202","distance":17.554543376381,"lon":"-82.1308","lat":"36.6284","theaterChainName":"Cinemark","ticketType":"STANDARD"},{"id":"4358","tribuneTheaterId":"9385","providerTheaterId":"","name":"Broadway Cinema - Cedar Bluff","address":"6 Claypool Hill Mall","city":"Cedar Bluff","state":"VA","zip":"24609","distance":22.702650545601,"lon":"-81.756897","lat":"37.067299","theaterChainName":"Independent Chains","ticketType":"STANDARD"},{"id":"5855","tribuneTheaterId":"11268","providerTheaterId":"","name":"Marquee Pinnacle 12","address":"680 Pinnacle Parkway","city":"Bristol","state":"TN","zip":"37620","distance":22.101211127763,"lon":"-82.2643","lat":"36.591","theaterChainName":"Marquee Cinemas","ticketType":"STANDARD"}]