[{"id":"694","tribuneTheaterId":"4984","providerTheaterId":"","name":"R\/C Covington Movies 3","address":"139 N. Maple Ave.","city":"Covington","state":"VA","zip":"24426","distance":0.81493859412094,"lon":"-79.995089","lat":"37.790112","theaterChainName":"R\/C Theatres","ticketType":"STANDARD"},{"id":"5648","tribuneTheaterId":"11114","providerTheaterId":"","name":"Lewisburg Cinema 8","address":"257 Grand Avenue","city":"Lewisburg","state":"WV","zip":"24901","distance":24.594751297994,"lon":"-80.435549","lat":"37.813119","theaterChainName":"Independent Chains","ticketType":"STANDARD"},{"id":"5721","tribuneTheaterId":"11163","providerTheaterId":"","name":"Flagship Wells","address":"75 Wells Plaza","city":"Wells","state":"ME","zip":"04090","distance":24.594751297994,"lon":"-80.435549","lat":"37.813119","theaterChainName":"Flagship Cinemas","ticketType":"STANDARD"},{"id":"5736","tribuneTheaterId":"11178","providerTheaterId":"","name":"Moviehouse & Eatery Flower Mound","address":"951 Long Prairie Road","city":"Flower Mound","state":"TX","zip":"75022","distance":24.594751297994,"lon":"-80.435549","lat":"37.813119","theaterChainName":"Independent Chains","ticketType":"STANDARD"},{"id":"2150","tribuneTheaterId":"1160","providerTheaterId":"","name":"Marquee-Seneca Showcase","address":"Greenbrier Valley Mall","city":"Lewisburg","state":"WV","zip":"24901","distance":24.994146752575,"lon":"-80.444","lat":"37.800999","theaterChainName":"Marquee Cinemas","ticketType":"STANDARD"}]