[{"id":"2361","name":"Regal Harrisonburg Stadium 14","address":"381 University Blvd","city":"Harrisonburg","state":"VA","zip":"22801","distance":"12.645512580871582","lon":"-78.852814","lat":"38.430153","theaterChainName":"Regal Cinemas","ticketType":"STANDARD"},{"id":"5233","name":"Stonefield Stadium 14 + IMAX","address":"1954 Swanson Drive","city":"Charlottesville","state":"VA","zip":"22901","distance":"22.14548110961914","lon":"-78.492477","lat":"38.063622","theaterChainName":"Regal Cinemas","ticketType":"STANDARD"},{"id":"5797","name":"Violet Crown Charlottesville","address":"200 W. Main Street","city":"Charlottesville","state":"VA","zip":"22902","distance":"23.943933486938477","lon":"-78.482506","lat":"38.030907","theaterChainName":"Independent Chains","ticketType":"STANDARD"},{"id":"3188","name":"The Dixie Theater","address":"125 E. Beverley Street","city":"Staunton","state":"VA","zip":"24401","distance":"14.958697319030762","lon":"-79.070656","lat":"38.149666","theaterChainName":"Independent Chains","ticketType":"STANDARD"},{"id":"4161","name":"Visulite Cinema","address":"12 North Augusta St.","city":"Staunton","state":"VA","zip":"24401","distance":"15.059626579284668","lon":"-79.072701","lat":"38.149601","theaterChainName":"Independent Chains","ticketType":"STANDARD"},{"id":"4962","name":"Zeus Digital Theaters","address":"120 Osage Ln.","city":"Waynesboro","state":"VA","zip":"22980","distance":"13.299291610717773","lon":"-78.934921","lat":"38.076229","theaterChainName":"Independent Chains","ticketType":"STANDARD"}]