[{"id":"867","tribuneTheaterId":"7303","providerTheaterId":"","name":"R\/C State Cinema 3","address":"12 W. Nelson St.","city":"Lexington","state":"VA","zip":"24450","distance":8.3344036728175,"lon":"-79.443602","lat":"37.784337","theaterChainName":"R\/C Theatres","ticketType":"STANDARD"},{"id":"2947","tribuneTheaterId":"1233","providerTheaterId":"","name":"Valley Cinema","address":"2275 Beech Ave","city":"Buena Vista","state":"VA","zip":"24416","distance":11.161701753997,"lon":"-79.354797","lat":"37.737021","theaterChainName":"Independent Chains","ticketType":"STANDARD"},{"id":"4161","tribuneTheaterId":"1054","providerTheaterId":"","name":"Visulite Cinema","address":"12 North Augusta St.","city":"Staunton","state":"VA","zip":"24401","distance":24.478748926069,"lon":"-79.0727","lat":"38.1496","theaterChainName":"Independent Chains","ticketType":"STANDARD"},{"id":"3188","tribuneTheaterId":"1726","providerTheaterId":"","name":"The Dixie Theater","address":"125 E. Beverley Street","city":"Staunton","state":"VA","zip":"24401","distance":24.560017041989,"lon":"-79.070656","lat":"38.149667","theaterChainName":"Independent Chains","ticketType":"STANDARD"}]