[{"id":"5053","tribuneTheaterId":"10433","providerTheaterId":"","name":"Westlake Cinemas","address":"84 Westlake Rd. Suite 117","city":"Hardy","state":"VA","zip":"24101","distance":17.071089665848,"lon":"-79.720439","lat":"37.118353","theaterChainName":"Independent Chains","ticketType":"STANDARD"},{"id":"4794","tribuneTheaterId":"10049","providerTheaterId":"","name":"River Ridge Stadium 14","address":"3411 Candlers Mtn. Rd","city":"Lynchburg","state":"VA","zip":"24502","distance":19.751046698071,"lon":"-79.179156","lat":"37.365594","theaterChainName":"Regal Cinemas","ticketType":"STANDARD"},{"id":"1337","tribuneTheaterId":"4237","providerTheaterId":"","name":"Cinemark Movies 10 Lynchburg","address":"3700 Candlers Mountain Rd. #700","city":"Lynchburg","state":"VA","zip":"24502","distance":20.237269633392,"lon":"-79.168811","lat":"37.358869","theaterChainName":"Cinemark","ticketType":"STANDARD"},{"id":"6033","tribuneTheaterId":"11436","providerTheaterId":"","name":"Venue Cinemas","address":"901 Lakeside Drive","city":"Lynchburg","state":"VA","zip":"24501","distance":20.77334253284,"lon":"-79.172378","lat":"37.405797","theaterChainName":"Independent Chains","ticketType":"STANDARD"},{"id":"3081","tribuneTheaterId":"4905","providerTheaterId":"","name":"Regal Valley View Grande Stadium 16","address":"4730 Valley View Blvd.","city":"Roanoke","state":"VA","zip":"24012","distance":23.197765080668,"lon":"-79.954753","lat":"37.299642","theaterChainName":"Regal Cinemas","ticketType":"STANDARD"},{"id":"2425","tribuneTheaterId":"1702","providerTheaterId":"","name":"Grandin Theatre","address":"1310 Grandin Road S.W.","city":"Roanoke","state":"VA","zip":"24015","distance":24.640459412008,"lon":"-79.976959","lat":"37.265438","theaterChainName":"Independent Chains","ticketType":"STANDARD"}]