[{"id":"5053","name":"Westlake Cinemas","address":"84 Westlake Rd. Suite 117","city":"Hardy","state":"VA","zip":"24101","distance":"24.95509147644043","lon":"-79.720436","lat":"37.118355","theaterChainName":"Independent Chains","ticketType":"STANDARD"},{"id":"4080","name":"Eagle Cinema","address":"460 Tanyard Rd.","city":"Rocky Mount","state":"VA","zip":"24151","distance":"21.5493106842041","lon":"-79.880966","lat":"37.002567","theaterChainName":"Independent Chains","ticketType":"STANDARD"},{"id":"1872","name":"Movie Town 5","address":"67 Veteran Rd","city":"Martinsville","state":"VA","zip":"24112","distance":"15.761139869689941","lon":"-79.877823","lat":"36.654362","theaterChainName":"Independent Chains","ticketType":"STANDARD"},{"id":"4700","name":"Hollywood Cinema","address":"6 Hollywood Blvd.","city":"Martinsville","state":"VA","zip":"24112","distance":"19.427915573120117","lon":"-79.967979","lat":"36.692902","theaterChainName":"Independent Chains","ticketType":"STANDARD"},{"id":"4468","name":"Danville Stadium Cinemas","address":"3601 Riverside Dr","city":"Danville","state":"VA","zip":"24541","distance":"16.812454223632812","lon":"-79.430038","lat":"36.580887","theaterChainName":"Georgia Theatre Company","ticketType":"STANDARD"}]