[{"id":"6033","name":"Venue Cinemas","address":"901 Lakeside Drive","city":"Lynchburg","state":"VA","zip":"24501","distance":"9.370658874511719","lon":"-79.172379","lat":"37.405796","theaterChainName":"Independent Chains","ticketType":"STANDARD"},{"id":"1337","name":"Cinemark Movies 10 Lynchburg","address":"3700 Candlers Mountain Rd. #700","city":"Lynchburg","state":"VA","zip":"24502","distance":"12.612874031066895","lon":"-79.168808","lat":"37.358868","theaterChainName":"Cinemark","ticketType":"STANDARD"},{"id":"4794","name":"River Ridge Stadium 14","address":"3411 Candlers Mtn. Rd","city":"Lynchburg","state":"VA","zip":"24502","distance":"12.157601356506348","lon":"-79.179153","lat":"37.365593","theaterChainName":"Regal Cinemas","ticketType":"STANDARD"},{"id":"2947","name":"Valley Cinema","address":"2275 Beech Ave","city":"Buena Vista","state":"VA","zip":"24416","distance":"16.87051773071289","lon":"-79.354797","lat":"37.737022","theaterChainName":"Independent Chains","ticketType":"STANDARD"},{"id":"867","name":"R\/C State Cinema 3","address":"12 W. Nelson St.","city":"Lexington","state":"VA","zip":"24450","distance":"22.47791290283203","lon":"-79.443604","lat":"37.784336","theaterChainName":"R\/C Theatres","ticketType":"STANDARD"}]