[{"id":"2246","tribuneTheaterId":"6722","providerTheaterId":"","name":"Carmike 8 Bluefield","address":"Mercer Mall","city":"Bluefield","state":"WV","zip":"24701","distance":15.093574944023,"lon":"-81.221802","lat":"37.2728","theaterChainName":"Carmike Cinemas","ticketType":"STANDARD"},{"id":"4244","tribuneTheaterId":"2358","providerTheaterId":"","name":"Marquee Cinemas-Galleria 14","address":"200 Galleria Plaza","city":"Beckley","state":"WV","zip":"25801","distance":21.431754921716,"lon":"-81.176434","lat":"37.800189","theaterChainName":"Marquee Cinemas","ticketType":"STANDARD"},{"id":"2426","tribuneTheaterId":"411","providerTheaterId":"","name":"The Ritz Theatre","address":"211 Ballengee St.","city":"Hinton","state":"WV","zip":"25951","distance":21.362977493099,"lon":"-80.8908","lat":"37.672901","theaterChainName":"Independent Chains","ticketType":"STANDARD"},{"id":"4018","tribuneTheaterId":"1429","providerTheaterId":"","name":"Marquee McDowell Cinemas 2","address":"60 McDowell Street","city":"Welch","state":"WV","zip":"24801","distance":21.200695827298,"lon":"-81.585503","lat":"37.431702","theaterChainName":"Marquee Cinemas","ticketType":"STANDARD"}]