[{"id":"2246","tribuneTheaterId":"6722","providerTheaterId":"","name":"Carmike 8 Bluefield","address":"Mercer Mall","city":"Bluefield","state":"WV","zip":"24701","distance":16.900268810633,"lon":"-81.221802","lat":"37.2728","theaterChainName":"Carmike Cinemas","ticketType":"STANDARD"},{"id":"2426","tribuneTheaterId":"411","providerTheaterId":"","name":"The Ritz Theatre","address":"211 Ballengee St.","city":"Hinton","state":"WV","zip":"25951","distance":22.76059450457,"lon":"-80.8908","lat":"37.672901","theaterChainName":"Independent Chains","ticketType":"STANDARD"},{"id":"2424","tribuneTheaterId":"6392","providerTheaterId":"","name":"Radford Plaza Cinema Twin","address":"7472 Lee Highway","city":"Radford","state":"VA","zip":"24141","distance":23.71818630286,"lon":"-80.579472","lat":"37.142552","theaterChainName":"Independent Chains","ticketType":"STANDARD"},{"id":"2423","tribuneTheaterId":"410","providerTheaterId":"","name":"Radford Theatre","address":"1043 Norwood Street","city":"Radford","state":"VA","zip":"24141","distance":24.845649194012,"lon":"-80.555828","lat":"37.140898","theaterChainName":"Independent Chains","ticketType":"STANDARD"}]