[{"id":"2150","name":"Marquee-Seneca Showcase","address":"Greenbrier Valley Mall","city":"Lewisburg","state":"WV","zip":"24901","distance":"23.5500545501709","lon":"-80.444000","lat":"37.800999","theaterChainName":"Marquee Cinemas","ticketType":"STANDARD"},{"id":"5736","name":"Moviehouse & Eatery Flower Mound","address":"951 Long Prairie Road","city":"Flower Mound","state":"TX","zip":"75022","distance":"22.596725463867188","lon":"-80.435547","lat":"37.813118","theaterChainName":"Independent Chains","ticketType":"STANDARD"},{"id":"5721","name":"Flagship Wells","address":"75 Wells Plaza","city":"Wells","state":"ME","zip":"04090","distance":"22.596725463867188","lon":"-80.435547","lat":"37.813118","theaterChainName":"Flagship Cinemas","ticketType":"STANDARD"},{"id":"5648","name":"Lewisburg Cinema 8","address":"257 Grand Avenue","city":"Lewisburg","state":"WV","zip":"24901","distance":"22.596725463867188","lon":"-80.435547","lat":"37.813118","theaterChainName":"Independent Chains","ticketType":"STANDARD"},{"id":"2427","name":"Lewis Theatre","address":"113 N. Court Street","city":"Lewisburg","state":"WV","zip":"24901","distance":"23.48268699645996","lon":"-80.445999","lat":"37.802799","theaterChainName":"Independent Chains","ticketType":"STANDARD"}]