[{"id":"2426","tribuneTheaterId":"411","providerTheaterId":"","name":"The Ritz Theatre","address":"211 Ballengee St.","city":"Hinton","state":"WV","zip":"25951","distance":19.054669471955,"lon":"-80.8908","lat":"37.672901","theaterChainName":"Independent Chains","ticketType":"STANDARD"},{"id":"2424","tribuneTheaterId":"6392","providerTheaterId":"","name":"Radford Plaza Cinema Twin","address":"7472 Lee Highway","city":"Radford","state":"VA","zip":"24141","distance":21.486946824127,"lon":"-80.579472","lat":"37.142552","theaterChainName":"Independent Chains","ticketType":"STANDARD"},{"id":"2423","tribuneTheaterId":"410","providerTheaterId":"","name":"Radford Theatre","address":"1043 Norwood Street","city":"Radford","state":"VA","zip":"24141","distance":22.242395605163,"lon":"-80.555828","lat":"37.140898","theaterChainName":"Independent Chains","ticketType":"STANDARD"},{"id":"2421","tribuneTheaterId":"408","providerTheaterId":"","name":"Lyric Theatre Blacksburg","address":"135 College Ave.","city":"Blacksburg","state":"VA","zip":"24060","distance":23.209965912219,"lon":"-80.415656","lat":"37.23013","theaterChainName":"Independent Chains","ticketType":"STANDARD"},{"id":"5635","tribuneTheaterId":"11098","providerTheaterId":"","name":"Cinebowl Grille + IMAX","address":"1614 S. Main St.","city":"Blacksburg","state":"VA","zip":"24060","distance":24.588214337315,"lon":"-80.401286","lat":"37.211478","theaterChainName":"Frank Theatres","ticketType":"STANDARD"}]