[{"id":"5635","name":"Cinebowl Grille + IMAX","address":"1614 S. Main St.","city":"Blacksburg","state":"VA","zip":"24060","distance":"24.589818954467773","lon":"-80.401283","lat":"37.211479","theaterChainName":"Frank Theatres","ticketType":"STANDARD"},{"id":"2421","name":"Lyric Theatre Blacksburg","address":"135 College Ave.","city":"Blacksburg","state":"VA","zip":"24060","distance":"23.211389541625977","lon":"-80.415657","lat":"37.230129","theaterChainName":"Independent Chains","ticketType":"STANDARD"},{"id":"2423","name":"Radford Theatre","address":"1043 Norwood Street","city":"Radford","state":"VA","zip":"24141","distance":"22.243770599365234","lon":"-80.555824","lat":"37.140900","theaterChainName":"Independent Chains","ticketType":"STANDARD"},{"id":"2424","name":"Radford Plaza Cinema Twin","address":"7472 Lee Highway","city":"Radford","state":"VA","zip":"24141","distance":"21.488208770751953","lon":"-80.579475","lat":"37.142551","theaterChainName":"Independent Chains","ticketType":"STANDARD"},{"id":"2426","name":"The Ritz Theatre","address":"211 Ballengee St.","city":"Hinton","state":"WV","zip":"25951","distance":"19.055889129638672","lon":"-80.890800","lat":"37.672901","theaterChainName":"Independent Chains","ticketType":"STANDARD"}]