[{"id":"2421","tribuneTheaterId":"408","providerTheaterId":"","name":"Lyric Theatre Blacksburg","address":"135 College Ave.","city":"Blacksburg","state":"VA","zip":"24060","distance":16.404369218752,"lon":"-80.415656","lat":"37.23013","theaterChainName":"Independent Chains","ticketType":"STANDARD"},{"id":"5635","tribuneTheaterId":"11098","providerTheaterId":"","name":"Cinebowl Grille + IMAX","address":"1614 S. Main St.","city":"Blacksburg","state":"VA","zip":"24060","distance":17.812007800027,"lon":"-80.401286","lat":"37.211478","theaterChainName":"Frank Theatres","ticketType":"STANDARD"},{"id":"4340","tribuneTheaterId":"9325","providerTheaterId":"","name":"Regal New River Valley Stadium 14","address":"110 New River Road","city":"Christiansburg","state":"VA","zip":"24073","distance":20.867743951634,"lon":"-80.428698","lat":"37.163741","theaterChainName":"Regal Cinemas","ticketType":"STANDARD"},{"id":"5648","tribuneTheaterId":"11114","providerTheaterId":"","name":"Lewisburg Cinema 8","address":"257 Grand Avenue","city":"Lewisburg","state":"WV","zip":"24901","distance":24.135390017547,"lon":"-80.435549","lat":"37.813119","theaterChainName":"Independent Chains","ticketType":"STANDARD"},{"id":"5721","tribuneTheaterId":"11163","providerTheaterId":"","name":"Flagship Wells","address":"75 Wells Plaza","city":"Wells","state":"ME","zip":"04090","distance":24.135390017547,"lon":"-80.435549","lat":"37.813119","theaterChainName":"Flagship Cinemas","ticketType":"STANDARD"},{"id":"2427","tribuneTheaterId":"412","providerTheaterId":"","name":"Lewis Theatre","address":"113 N. Court Street","city":"Lewisburg","state":"WV","zip":"24901","distance":23.393579302181,"lon":"-80.445999","lat":"37.802799","theaterChainName":"Independent Chains","ticketType":"STANDARD"},{"id":"2424","tribuneTheaterId":"6392","providerTheaterId":"","name":"Radford Plaza Cinema Twin","address":"7472 Lee Highway","city":"Radford","state":"VA","zip":"24141","distance":23.141088035915,"lon":"-80.579472","lat":"37.142552","theaterChainName":"Independent Chains","ticketType":"STANDARD"},{"id":"2423","tribuneTheaterId":"410","providerTheaterId":"","name":"Radford Theatre","address":"1043 Norwood Street","city":"Radford","state":"VA","zip":"24141","distance":22.928527786435,"lon":"-80.555828","lat":"37.140898","theaterChainName":"Independent Chains","ticketType":"STANDARD"},{"id":"2150","tribuneTheaterId":"1160","providerTheaterId":"","name":"Marquee-Seneca Showcase","address":"Greenbrier Valley Mall","city":"Lewisburg","state":"WV","zip":"24901","distance":23.274047692056,"lon":"-80.444","lat":"37.800999","theaterChainName":"Marquee Cinemas","ticketType":"STANDARD"},{"id":"5736","tribuneTheaterId":"11178","providerTheaterId":"","name":"Moviehouse & Eatery Flower Mound","address":"951 Long Prairie Road","city":"Flower Mound","state":"TX","zip":"75022","distance":24.135390017547,"lon":"-80.435549","lat":"37.813119","theaterChainName":"Independent Chains","ticketType":"STANDARD"}]