[{"id":"5635","name":"Cinebowl Grille + IMAX","address":"1614 S. Main St.","city":"Blacksburg","state":"VA","zip":"24060","distance":"24.726009368896484","lon":"-80.401283","lat":"37.211479","theaterChainName":"Frank Theatres","ticketType":"STANDARD"},{"id":"2421","name":"Lyric Theatre Blacksburg","address":"135 College Ave.","city":"Blacksburg","state":"VA","zip":"24060","distance":"23.259605407714844","lon":"-80.415657","lat":"37.230129","theaterChainName":"Independent Chains","ticketType":"STANDARD"},{"id":"2426","name":"The Ritz Theatre","address":"211 Ballengee St.","city":"Hinton","state":"WV","zip":"25951","distance":"20.954957962036133","lon":"-80.890800","lat":"37.672901","theaterChainName":"Independent Chains","ticketType":"STANDARD"},{"id":"2150","name":"Marquee-Seneca Showcase","address":"Greenbrier Valley Mall","city":"Lewisburg","state":"WV","zip":"24901","distance":"17.98380470275879","lon":"-80.444000","lat":"37.800999","theaterChainName":"Marquee Cinemas","ticketType":"STANDARD"},{"id":"5736","name":"Moviehouse & Eatery Flower Mound","address":"951 Long Prairie Road","city":"Flower Mound","state":"TX","zip":"75022","distance":"18.92041778564453","lon":"-80.435547","lat":"37.813118","theaterChainName":"Independent Chains","ticketType":"STANDARD"},{"id":"5721","name":"Flagship Wells","address":"75 Wells Plaza","city":"Wells","state":"ME","zip":"04090","distance":"18.92041778564453","lon":"-80.435547","lat":"37.813118","theaterChainName":"Flagship Cinemas","ticketType":"STANDARD"},{"id":"5648","name":"Lewisburg Cinema 8","address":"257 Grand Avenue","city":"Lewisburg","state":"WV","zip":"24901","distance":"18.92041778564453","lon":"-80.435547","lat":"37.813118","theaterChainName":"Independent Chains","ticketType":"STANDARD"},{"id":"2427","name":"Lewis Theatre","address":"113 N. Court Street","city":"Lewisburg","state":"WV","zip":"24901","distance":"18.071548461914062","lon":"-80.445999","lat":"37.802799","theaterChainName":"Independent Chains","ticketType":"STANDARD"}]