[{"id":"3993","tribuneTheaterId":"2266","providerTheaterId":"","name":"Teays Valley Cinemas","address":"170 Erskine Lane","city":"Scott Depot","state":"WV","zip":"25560","distance":8.0880238364718,"lon":"-81.9289","lat":"38.4539","theaterChainName":"Frank Theatres","ticketType":"STANDARD"},{"id":"4111","tribuneTheaterId":"2323","providerTheaterId":"","name":"Great Escape Nitro 12","address":"12 JW Drive","city":"Nitro","state":"WV","zip":"25313","distance":14.97008966533,"lon":"-81.805551","lat":"38.406609","theaterChainName":"Regal Cinemas","ticketType":"STANDARD"},{"id":"4749","tribuneTheaterId":"9978","providerTheaterId":"","name":"Cinemark Huntington Mall","address":"Unit 700, 500 Mall Road","city":"Barboursville","state":"WV","zip":"25504","distance":16.506168297083,"lon":"-82.266288","lat":"38.42066","theaterChainName":"Cinemark","ticketType":"STANDARD"},{"id":"2474","tribuneTheaterId":"2298","providerTheaterId":"","name":"Marquee Cinemas Southridge 12","address":"331 Southridge Blvd","city":"South Charleston","state":"WV","zip":"25309","distance":22.787759369188,"lon":"-81.712967","lat":"38.318807","theaterChainName":"Marquee Cinemas","ticketType":"STANDARD"},{"id":"5195","tribuneTheaterId":"10613","providerTheaterId":"","name":"Silver Screen VII","address":"1284 Jackson Pike","city":"Gallipolis","state":"OH","zip":"45631","distance":24.144319689956,"lon":"-82.258641","lat":"38.842883","theaterChainName":"Independent Chains","ticketType":"STANDARD"},{"id":"2227","tribuneTheaterId":"2281","providerTheaterId":"","name":"Park Place Stadium Cinema","address":"600 Washington St. East","city":"Charleston","state":"WV","zip":"25301","distance":24.652826585505,"lon":"-81.633098","lat":"38.352502","theaterChainName":"GHTC Theatres","ticketType":"STANDARD"}]