[{"id":"2227","name":"Park Place Stadium Cinema","address":"600 Washington St. East","city":"Charleston","state":"WV","zip":"25301","distance":"24.654598236083984","lon":"-81.633095","lat":"38.352501","theaterChainName":"GHTC Theatres","ticketType":"STANDARD"},{"id":"2474","name":"Marquee Cinemas Southridge 12","address":"331 Southridge Blvd","city":"South Charleston","state":"WV","zip":"25309","distance":"22.789297103881836","lon":"-81.712967","lat":"38.318806","theaterChainName":"Marquee Cinemas","ticketType":"STANDARD"},{"id":"4111","name":"Great Escape Nitro 12","address":"12 JW Drive","city":"Nitro","state":"WV","zip":"25313","distance":"14.971150398254395","lon":"-81.805550","lat":"38.406609","theaterChainName":"Regal Cinemas","ticketType":"STANDARD"},{"id":"3993","name":"Teays Valley Cinemas","address":"170 Erskine Lane","city":"Scott Depot","state":"WV","zip":"25560","distance":"8.088567733764648","lon":"-81.928902","lat":"38.453899","theaterChainName":"Frank Theatres","ticketType":"STANDARD"},{"id":"4749","name":"Cinemark Huntington Mall","address":"Unit 700, 500 Mall Road","city":"Barboursville","state":"WV","zip":"25504","distance":"16.50728416442871","lon":"-82.266289","lat":"38.420658","theaterChainName":"Cinemark","ticketType":"STANDARD"},{"id":"5195","name":"Silver Screen VII","address":"1284 Jackson Pike","city":"Gallipolis","state":"OH","zip":"45631","distance":"24.145912170410156","lon":"-82.258644","lat":"38.842884","theaterChainName":"Independent Chains","ticketType":"STANDARD"}]