[{"id":"5195","tribuneTheaterId":"10613","providerTheaterId":"","name":"Silver Screen VII","address":"1284 Jackson Pike","city":"Gallipolis","state":"OH","zip":"45631","distance":16.763048480447,"lon":"-82.258641","lat":"38.842883","theaterChainName":"Independent Chains","ticketType":"STANDARD"},{"id":"3993","tribuneTheaterId":"2266","providerTheaterId":"","name":"Teays Valley Cinemas","address":"170 Erskine Lane","city":"Scott Depot","state":"WV","zip":"25560","distance":18.20399157927,"lon":"-81.9289","lat":"38.4539","theaterChainName":"Frank Theatres","ticketType":"STANDARD"},{"id":"4111","tribuneTheaterId":"2323","providerTheaterId":"","name":"Great Escape Nitro 12","address":"12 JW Drive","city":"Nitro","state":"WV","zip":"25313","distance":23.489880406831,"lon":"-81.805551","lat":"38.406609","theaterChainName":"Regal Cinemas","ticketType":"STANDARD"},{"id":"4749","tribuneTheaterId":"9978","providerTheaterId":"","name":"Cinemark Huntington Mall","address":"Unit 700, 500 Mall Road","city":"Barboursville","state":"WV","zip":"25504","distance":24.848910185362,"lon":"-82.266288","lat":"38.42066","theaterChainName":"Cinemark","ticketType":"STANDARD"}]