[{"id":"5600","name":"Robey Theatre","address":"318 Main St.","city":"Spencer","state":"WV","zip":"25276","distance":"19.127593994140625","lon":"-81.351334","lat":"38.802433","theaterChainName":"Independent Chains","ticketType":"STANDARD"},{"id":"2227","name":"Park Place Stadium Cinema","address":"600 Washington St. East","city":"Charleston","state":"WV","zip":"25301","distance":"18.714773178100586","lon":"-81.633095","lat":"38.352501","theaterChainName":"GHTC Theatres","ticketType":"STANDARD"},{"id":"2474","name":"Marquee Cinemas Southridge 12","address":"331 Southridge Blvd","city":"South Charleston","state":"WV","zip":"25309","distance":"21.60465431213379","lon":"-81.712967","lat":"38.318806","theaterChainName":"Marquee Cinemas","ticketType":"STANDARD"},{"id":"4111","name":"Great Escape Nitro 12","address":"12 JW Drive","city":"Nitro","state":"WV","zip":"25313","distance":"17.966150283813477","lon":"-81.805550","lat":"38.406609","theaterChainName":"Regal Cinemas","ticketType":"STANDARD"},{"id":"3993","name":"Teays Valley Cinemas","address":"170 Erskine Lane","city":"Scott Depot","state":"WV","zip":"25560","distance":"20.310794830322266","lon":"-81.928902","lat":"38.453899","theaterChainName":"Frank Theatres","ticketType":"STANDARD"}]