[{"id":"2821","name":"Star Movie Theatre","address":"137 N. Washington St.","city":"Berkeley Springs","state":"WV","zip":"25411","distance":"15.281054496765137","lon":"-78.227264","lat":"39.627632","theaterChainName":"Independent Chains","ticketType":"STANDARD"},{"id":"4946","name":"Leitersburg Cinemas","address":"20145 Leitersburg pike","city":"Hagerstown","state":"MD","zip":"21742","distance":"19.807912826538086","lon":"-77.667404","lat":"39.684319","theaterChainName":"Independent Chains","ticketType":"STANDARD"},{"id":"1845","name":"Regal Martinsburg Stadium 10","address":"950 Foxcroft Ave.","city":"Martinsburg","state":"WV","zip":"25401","distance":"5.253262042999268","lon":"-77.984940","lat":"39.447086","theaterChainName":"Regal Cinemas","ticketType":"STANDARD"},{"id":"3027","name":"Regal Valley Mall Stadium 16","address":"17301 Valley Mall Rd.","city":"Hagerstown","state":"MD","zip":"21740","distance":"12.834501266479492","lon":"-77.772583","lat":"39.623840","theaterChainName":"Regal Cinemas","ticketType":"STANDARD"}]