[{"id":"2821","name":"Star Movie Theatre","address":"137 N. Washington St.","city":"Berkeley Springs","state":"WV","zip":"25411","distance":"20.829906463623047","lon":"-78.227264","lat":"39.627632","theaterChainName":"Independent Chains","ticketType":"STANDARD"},{"id":"1845","name":"Regal Martinsburg Stadium 10","address":"950 Foxcroft Ave.","city":"Martinsburg","state":"WV","zip":"25401","distance":"5.717742443084717","lon":"-77.984940","lat":"39.447086","theaterChainName":"Regal Cinemas","ticketType":"STANDARD"},{"id":"3027","name":"Regal Valley Mall Stadium 16","address":"17301 Valley Mall Rd.","city":"Hagerstown","state":"MD","zip":"21740","distance":"22.07708740234375","lon":"-77.772583","lat":"39.623840","theaterChainName":"Regal Cinemas","ticketType":"STANDARD"},{"id":"5354","name":"Apple Blossom 12","address":"1850 Apple Blossom Drive","city":"Winchester","state":"VA","zip":"22601","distance":"16.10582160949707","lon":"-78.163101","lat":"39.163300","theaterChainName":"Carmike Cinemas","ticketType":"STANDARD"},{"id":"4844","name":"Alamo Winchester","address":"181 Kerstown Commons Blvd.","city":"Winchester","state":"VA","zip":"22602","distance":"19.55903434753418","lon":"-78.194901","lat":"39.119801","theaterChainName":"Alamo Drafthouse","ticketType":"STANDARD"}]