[{"id":"1845","tribuneTheaterId":"5662","providerTheaterId":"","name":"Regal Martinsburg Stadium 10","address":"950 Foxcroft Ave.","city":"Martinsburg","state":"WV","zip":"25401","distance":8.3859925351635,"lon":"-77.984938","lat":"39.447088","theaterChainName":"Regal Cinemas","ticketType":"STANDARD"},{"id":"5354","tribuneTheaterId":"10791","providerTheaterId":"","name":"Apple Blossom 12","address":"1850 Apple Blossom Drive","city":"Winchester","state":"VA","zip":"22601","distance":15.064095452323,"lon":"-78.1631","lat":"39.1633","theaterChainName":"Carmike Cinemas","ticketType":"STANDARD"},{"id":"4844","tribuneTheaterId":"10124","providerTheaterId":"","name":"Alamo Winchester","address":"181 Kerstown Commons Blvd.","city":"Winchester","state":"VA","zip":"22602","distance":18.356266698243,"lon":"-78.1949","lat":"39.1198","theaterChainName":"Alamo Drafthouse","ticketType":"STANDARD"},{"id":"2821","tribuneTheaterId":"2586","providerTheaterId":"","name":"Star Movie Theatre","address":"137 N. Washington St.","city":"Berkeley Springs","state":"WV","zip":"25411","distance":18.272618221234,"lon":"-78.227263","lat":"39.627633","theaterChainName":"Independent Chains","ticketType":"STANDARD"},{"id":"3027","tribuneTheaterId":"4664","providerTheaterId":"","name":"Regal Valley Mall Stadium 16","address":"17301 Valley Mall Rd.","city":"Hagerstown","state":"MD","zip":"21740","distance":24.900424228957,"lon":"-77.772582","lat":"39.62384","theaterChainName":"Regal Cinemas","ticketType":"STANDARD"}]