[{"id":"4749","tribuneTheaterId":"9978","providerTheaterId":"","name":"Cinemark Huntington Mall","address":"Unit 700, 500 Mall Road","city":"Barboursville","state":"WV","zip":"25504","distance":4.2054952489831,"lon":"-82.266288","lat":"38.42066","theaterChainName":"Cinemark","ticketType":"STANDARD"},{"id":"3922","tribuneTheaterId":"2383","providerTheaterId":"","name":"Marquee Pullman Square 16","address":"26 Pullman Square","city":"Huntington","state":"WV","zip":"25701","distance":8.8410386425543,"lon":"-82.443595","lat":"38.422613","theaterChainName":"Marquee Cinemas","ticketType":"STANDARD"},{"id":"3993","tribuneTheaterId":"2266","providerTheaterId":"","name":"Teays Valley Cinemas","address":"170 Erskine Lane","city":"Scott Depot","state":"WV","zip":"25560","distance":19.907550016521,"lon":"-81.9289","lat":"38.4539","theaterChainName":"Frank Theatres","ticketType":"STANDARD"},{"id":"1351","tribuneTheaterId":"4182","providerTheaterId":"","name":"Cinemark Movies 10 Ashland","address":"400 Winchester Ave.","city":"Ashland","state":"KY","zip":"41101","distance":19.328114208321,"lon":"-82.65286","lat":"38.486215","theaterChainName":"Cinemark","ticketType":"STANDARD"},{"id":"4720","tribuneTheaterId":"9936","providerTheaterId":"","name":"KYOVA 10 Theatre","address":"10699 US Rt. 60","city":"Ashland","state":"KY","zip":"41102","distance":23.186436014933,"lon":"-82.713318","lat":"38.402052","theaterChainName":"Independent Chains","ticketType":"STANDARD"}]