[{"id":"2474","name":"Marquee Cinemas Southridge 12","address":"331 Southridge Blvd","city":"South Charleston","state":"WV","zip":"25309","distance":"24.35433006286621","lon":"-81.712967","lat":"38.318806","theaterChainName":"Marquee Cinemas","ticketType":"STANDARD"},{"id":"4111","name":"Great Escape Nitro 12","address":"12 JW Drive","city":"Nitro","state":"WV","zip":"25313","distance":"18.42932891845703","lon":"-81.805550","lat":"38.406609","theaterChainName":"Regal Cinemas","ticketType":"STANDARD"},{"id":"3993","name":"Teays Valley Cinemas","address":"170 Erskine Lane","city":"Scott Depot","state":"WV","zip":"25560","distance":"12.059041023254395","lon":"-81.928902","lat":"38.453899","theaterChainName":"Frank Theatres","ticketType":"STANDARD"},{"id":"4749","name":"Cinemark Huntington Mall","address":"Unit 700, 500 Mall Road","city":"Barboursville","state":"WV","zip":"25504","distance":"6.539380073547363","lon":"-82.266289","lat":"38.420658","theaterChainName":"Cinemark","ticketType":"STANDARD"},{"id":"3922","name":"Marquee Pullman Square 16","address":"26 Pullman Square","city":"Huntington","state":"WV","zip":"25701","distance":"16.133045196533203","lon":"-82.443596","lat":"38.422611","theaterChainName":"Marquee Cinemas","ticketType":"STANDARD"}]