[{"id":"4749","tribuneTheaterId":"9978","providerTheaterId":"","name":"Cinemark Huntington Mall","address":"Unit 700, 500 Mall Road","city":"Barboursville","state":"WV","zip":"25504","distance":21.360396616046,"lon":"-82.266288","lat":"38.42066","theaterChainName":"Cinemark","ticketType":"STANDARD"},{"id":"3993","tribuneTheaterId":"2266","providerTheaterId":"","name":"Teays Valley Cinemas","address":"170 Erskine Lane","city":"Scott Depot","state":"WV","zip":"25560","distance":21.397918147872,"lon":"-81.9289","lat":"38.4539","theaterChainName":"Frank Theatres","ticketType":"STANDARD"},{"id":"4111","tribuneTheaterId":"2323","providerTheaterId":"","name":"Great Escape Nitro 12","address":"12 JW Drive","city":"Nitro","state":"WV","zip":"25313","distance":21.715664659411,"lon":"-81.805551","lat":"38.406609","theaterChainName":"Regal Cinemas","ticketType":"STANDARD"},{"id":"2474","tribuneTheaterId":"2298","providerTheaterId":"","name":"Marquee Cinemas Southridge 12","address":"331 Southridge Blvd","city":"South Charleston","state":"WV","zip":"25309","distance":21.51297163935,"lon":"-81.712967","lat":"38.318807","theaterChainName":"Marquee Cinemas","ticketType":"STANDARD"},{"id":"4179","tribuneTheaterId":"2171","providerTheaterId":"","name":"Fountain Place Cinema 8","address":"102 George Kostas Drive","city":"Logan","state":"WV","zip":"25601","distance":22.057429013069,"lon":"-82.008978","lat":"37.842945","theaterChainName":"GHTC Theatres","ticketType":"STANDARD"}]