[{"id":"3993","tribuneTheaterId":"2266","providerTheaterId":"","name":"Teays Valley Cinemas","address":"170 Erskine Lane","city":"Scott Depot","state":"WV","zip":"25560","distance":3.0104536721872,"lon":"-81.9289","lat":"38.4539","theaterChainName":"Frank Theatres","ticketType":"STANDARD"},{"id":"4111","tribuneTheaterId":"2323","providerTheaterId":"","name":"Great Escape Nitro 12","address":"12 JW Drive","city":"Nitro","state":"WV","zip":"25313","distance":6.2483903671694,"lon":"-81.805551","lat":"38.406609","theaterChainName":"Regal Cinemas","ticketType":"STANDARD"},{"id":"2474","tribuneTheaterId":"2298","providerTheaterId":"","name":"Marquee Cinemas Southridge 12","address":"331 Southridge Blvd","city":"South Charleston","state":"WV","zip":"25309","distance":14.11956142263,"lon":"-81.712967","lat":"38.318807","theaterChainName":"Marquee Cinemas","ticketType":"STANDARD"},{"id":"2227","tribuneTheaterId":"2281","providerTheaterId":"","name":"Park Place Stadium Cinema","address":"600 Washington St. East","city":"Charleston","state":"WV","zip":"25301","distance":15.858627418334,"lon":"-81.633098","lat":"38.352502","theaterChainName":"GHTC Theatres","ticketType":"STANDARD"},{"id":"4749","tribuneTheaterId":"9978","providerTheaterId":"","name":"Cinemark Huntington Mall","address":"Unit 700, 500 Mall Road","city":"Barboursville","state":"WV","zip":"25504","distance":21.215583881569,"lon":"-82.266288","lat":"38.42066","theaterChainName":"Cinemark","ticketType":"STANDARD"}]