[{"id":"2227","name":"Park Place Stadium Cinema","address":"600 Washington St. East","city":"Charleston","state":"WV","zip":"25301","distance":"19.82305335998535","lon":"-81.633095","lat":"38.352501","theaterChainName":"GHTC Theatres","ticketType":"STANDARD"},{"id":"2474","name":"Marquee Cinemas Southridge 12","address":"331 Southridge Blvd","city":"South Charleston","state":"WV","zip":"25309","distance":"14.90810489654541","lon":"-81.712967","lat":"38.318806","theaterChainName":"Marquee Cinemas","ticketType":"STANDARD"},{"id":"4111","name":"Great Escape Nitro 12","address":"12 JW Drive","city":"Nitro","state":"WV","zip":"25313","distance":"15.321800231933594","lon":"-81.805550","lat":"38.406609","theaterChainName":"Regal Cinemas","ticketType":"STANDARD"},{"id":"3993","name":"Teays Valley Cinemas","address":"170 Erskine Lane","city":"Scott Depot","state":"WV","zip":"25560","distance":"16.280677795410156","lon":"-81.928902","lat":"38.453899","theaterChainName":"Frank Theatres","ticketType":"STANDARD"},{"id":"4749","name":"Cinemark Huntington Mall","address":"Unit 700, 500 Mall Road","city":"Barboursville","state":"WV","zip":"25504","distance":"21.796117782592773","lon":"-82.266289","lat":"38.420658","theaterChainName":"Cinemark","ticketType":"STANDARD"}]