[{"id":"2426","name":"The Ritz Theatre","address":"211 Ballengee St.","city":"Hinton","state":"WV","zip":"25951","distance":"23.726634979248047","lon":"-80.890800","lat":"37.672901","theaterChainName":"Independent Chains","ticketType":"STANDARD"},{"id":"2150","name":"Marquee-Seneca Showcase","address":"Greenbrier Valley Mall","city":"Lewisburg","state":"WV","zip":"24901","distance":"16.891450881958008","lon":"-80.444000","lat":"37.800999","theaterChainName":"Marquee Cinemas","ticketType":"STANDARD"},{"id":"5736","name":"Moviehouse & Eatery Flower Mound","address":"951 Long Prairie Road","city":"Flower Mound","state":"TX","zip":"75022","distance":"16.67835807800293","lon":"-80.435547","lat":"37.813118","theaterChainName":"Independent Chains","ticketType":"STANDARD"},{"id":"5721","name":"Flagship Wells","address":"75 Wells Plaza","city":"Wells","state":"ME","zip":"04090","distance":"16.67835807800293","lon":"-80.435547","lat":"37.813118","theaterChainName":"Flagship Cinemas","ticketType":"STANDARD"},{"id":"5648","name":"Lewisburg Cinema 8","address":"257 Grand Avenue","city":"Lewisburg","state":"WV","zip":"24901","distance":"16.67835807800293","lon":"-80.435547","lat":"37.813118","theaterChainName":"Independent Chains","ticketType":"STANDARD"},{"id":"2427","name":"Lewis Theatre","address":"113 N. Court Street","city":"Lewisburg","state":"WV","zip":"24901","distance":"16.72670555114746","lon":"-80.445999","lat":"37.802799","theaterChainName":"Independent Chains","ticketType":"STANDARD"},{"id":"2151","name":"Marquee-Nicholas Showplace","address":"300 Merchants Walk Plaza","city":"Summersville","state":"WV","zip":"26651","distance":"24.64865493774414","lon":"-80.835236","lat":"38.300579","theaterChainName":"Marquee Cinemas","ticketType":"STANDARD"}]