[{"id":"4803","name":"Cinemark Robinson Township","address":"2100 Settlers Ridge Center Drive","city":"Pittsburgh","state":"PA","zip":"15205","distance":"24.270814895629883","lon":"-80.146751","lat":"40.438889","theaterChainName":"Cinemark","ticketType":"STANDARD"},{"id":"3063","name":"Regal Crown Center Stadium 14 ","address":"1500 West Chestnut St.","city":"Washington","state":"PA","zip":"15301","distance":"20.173095703125","lon":"-80.275810","lat":"40.157738","theaterChainName":"Regal Cinemas","ticketType":"STANDARD"},{"id":"2235","name":"Carmike 6 Steubenville","address":"100 Mall Dr","city":"Steubenville","state":"OH","zip":"43952","distance":"5.17287540435791","lon":"-80.667702","lat":"40.369999","theaterChainName":"Carmike Cinemas","ticketType":"STANDARD"},{"id":"4646","name":"Marquee Cinemas Highlands 14","address":"150 Sims Circle","city":"Triadelphia","state":"WV","zip":"26059","distance":"17.7387638092041","lon":"-80.613403","lat":"40.073799","theaterChainName":"Marquee Cinemas","ticketType":"STANDARD"},{"id":"1670","name":"Carmike Ohio Valley Mall 9","address":"700 Banfield Rd","city":"Saint Clairsville","state":"OH","zip":"43950","distance":"23.986072540283203","lon":"-80.903702","lat":"40.082100","theaterChainName":"Carmike Cinemas","ticketType":"STANDARD"}]