[{"id":"2235","name":"Carmike 6 Steubenville","address":"100 Mall Dr","city":"Steubenville","state":"OH","zip":"43952","distance":"24.56732177734375","lon":"-80.667702","lat":"40.369999","theaterChainName":"Carmike Cinemas","ticketType":"STANDARD"},{"id":"4646","name":"Marquee Cinemas Highlands 14","address":"150 Sims Circle","city":"Triadelphia","state":"WV","zip":"26059","distance":"7.459197521209717","lon":"-80.613403","lat":"40.073799","theaterChainName":"Marquee Cinemas","ticketType":"STANDARD"},{"id":"1670","name":"Carmike Ohio Valley Mall 9","address":"700 Banfield Rd","city":"Saint Clairsville","state":"OH","zip":"43950","distance":"9.996772766113281","lon":"-80.903702","lat":"40.082100","theaterChainName":"Carmike Cinemas","ticketType":"STANDARD"},{"id":"1925","name":"Valley Cinema 3","address":"3 New Martinsville Plaza","city":"New Martinsville","state":"WV","zip":"26155","distance":"24.5201473236084","lon":"-80.854904","lat":"39.675552","theaterChainName":"Independent Chains","ticketType":"STANDARD"}]