[{"id":"3879","tribuneTheaterId":"4203","providerTheaterId":"","name":"Cinemark Center Township Marketplace","address":"99 Wagner Road","city":"Monaca","state":"PA","zip":"15061","distance":16.070354761001,"lon":"-80.307827","lat":"40.681714","theaterChainName":"Cinemark","ticketType":"STANDARD"},{"id":"2235","tribuneTheaterId":"5752","providerTheaterId":"","name":"Carmike 6 Steubenville","address":"100 Mall Dr","city":"Steubenville","state":"OH","zip":"43952","distance":17.218233838252,"lon":"-80.667702","lat":"40.369999","theaterChainName":"Carmike Cinemas","ticketType":"STANDARD"},{"id":"1589","tribuneTheaterId":"5735","providerTheaterId":"","name":"Carmike Plaza 6 Beaver Falls","address":"6800 Big Beaver Blvd.","city":"Beaver Falls","state":"PA","zip":"15010","distance":18.618650921956,"lon":"-80.333533","lat":"40.791396","theaterChainName":"Carmike Cinemas","ticketType":"STANDARD"},{"id":"1180","tribuneTheaterId":"2466","providerTheaterId":"","name":"Ambridge Family Theatre","address":"645 Merchant Street","city":"Ambridge","state":"PA","zip":"15003","distance":19.650137693447,"lon":"-80.22819","lat":"40.587227","theaterChainName":"Independent Chains","ticketType":"STANDARD"},{"id":"2649","tribuneTheaterId":"2750","providerTheaterId":"","name":"Salem Twin Cinema","address":"2350 East State Street","city":"Salem","state":"OH","zip":"44460","distance":23.227793550832,"lon":"-80.827711","lat":"40.903056","theaterChainName":"Independent Chains","ticketType":"STANDARD"},{"id":"6085","tribuneTheaterId":"11497","providerTheaterId":"","name":"The Tull Family Theater","address":"418 Walnut Street","city":"Sewickley","state":"PA","zip":"15143","distance":22.562540139688,"lon":"-80.182237","lat":"40.540354","theaterChainName":"Independent Chains","ticketType":"STANDARD"},{"id":"5589","tribuneTheaterId":"11042","providerTheaterId":"","name":"Salem Twin Cinema","address":"2350 E State Street","city":"Salem","state":"OH","zip":"44460","distance":23.230501304476,"lon":"-80.827579","lat":"40.903161","theaterChainName":"Independent Chains","ticketType":"STANDARD"}]