[{"id":"1663","name":"Carmike 6 Uniontown","address":"1372 W Main St","city":"Uniontown","state":"PA","zip":"15401","distance":"24.066408157348633","lon":"-79.746696","lat":"39.907795","theaterChainName":"Carmike Cinemas","ticketType":"STANDARD"},{"id":"4124","name":"Regal Stadium 12 Morgantown","address":"1001 Mountaineer Dr.","city":"Morgantown","state":"WV","zip":"26501","distance":"20.2293758392334","lon":"-80.000412","lat":"39.652637","theaterChainName":"Regal Cinemas","ticketType":"STANDARD"},{"id":"2247","name":"Carmike Morgantown Mall 12","address":"1001 Mountaineer Dr.","city":"Morgantown","state":"WV","zip":"26501","distance":"19.726303100585938","lon":"-79.998901","lat":"39.626896","theaterChainName":"Carmike Cinemas","ticketType":"STANDARD"},{"id":"1898","name":"Garrett 8","address":"19741 Garrett Highway","city":"Oakland","state":"MD","zip":"21550","distance":"17.070621490478516","lon":"-79.327209","lat":"39.503811","theaterChainName":"Independent Chains","ticketType":"STANDARD"}]