[{"id":"1663","name":"Carmike 6 Uniontown","address":"1372 W Main St","city":"Uniontown","state":"PA","zip":"15401","distance":"22.351900100708008","lon":"-79.746696","lat":"39.907795","theaterChainName":"Carmike Cinemas","ticketType":"STANDARD"},{"id":"4124","name":"Regal Stadium 12 Morgantown","address":"1001 Mountaineer Dr.","city":"Morgantown","state":"WV","zip":"26501","distance":"6.457112789154053","lon":"-80.000412","lat":"39.652637","theaterChainName":"Regal Cinemas","ticketType":"STANDARD"},{"id":"1916","name":"Tygart Valley Cinema 8","address":"7 Tygart Valley Mall","city":"Fairmont","state":"WV","zip":"26554","distance":"20.187685012817383","lon":"-80.194000","lat":"39.425201","theaterChainName":"Independent Chains","ticketType":"STANDARD"},{"id":"2247","name":"Carmike Morgantown Mall 12","address":"1001 Mountaineer Dr.","city":"Morgantown","state":"WV","zip":"26501","distance":"5.687262058258057","lon":"-79.998901","lat":"39.626896","theaterChainName":"Carmike Cinemas","ticketType":"STANDARD"}]