[{"id":"4124","name":"Regal Stadium 12 Morgantown","address":"1001 Mountaineer Dr.","city":"Morgantown","state":"WV","zip":"26501","distance":"22.115108489990234","lon":"-80.000412","lat":"39.652637","theaterChainName":"Regal Cinemas","ticketType":"STANDARD"},{"id":"1925","name":"Valley Cinema 3","address":"3 New Martinsville Plaza","city":"New Martinsville","state":"WV","zip":"26155","distance":"23.401897430419922","lon":"-80.854904","lat":"39.675552","theaterChainName":"Independent Chains","ticketType":"STANDARD"},{"id":"1916","name":"Tygart Valley Cinema 8","address":"7 Tygart Valley Mall","city":"Fairmont","state":"WV","zip":"26554","distance":"19.588651657104492","lon":"-80.194000","lat":"39.425201","theaterChainName":"Independent Chains","ticketType":"STANDARD"},{"id":"2247","name":"Carmike Morgantown Mall 12","address":"1001 Mountaineer Dr.","city":"Morgantown","state":"WV","zip":"26501","distance":"22.26226043701172","lon":"-79.998901","lat":"39.626896","theaterChainName":"Carmike Cinemas","ticketType":"STANDARD"},{"id":"4181","name":"Cinemark Meadowbrook Mall","address":"2399 Meadowbrook Rd.","city":"Bridgeport","state":"WV","zip":"26330","distance":"24.540164947509766","lon":"-80.270210","lat":"39.314270","theaterChainName":"Cinemark","ticketType":"STANDARD"}]