[{"id":"3975","tribuneTheaterId":"1420","providerTheaterId":"","name":"Community Theatre - Woodstock","address":"136 N. Main St.","city":"Woodstock","state":"VA","zip":"22664","distance":13.444197507958,"lon":"-78.504851","lat":"38.882445","theaterChainName":"Independent Chains","ticketType":"STANDARD"},{"id":"4079","tribuneTheaterId":"2011","providerTheaterId":"","name":"South Branch Cinema 6","address":"149 Hyde Street","city":"Moorefield","state":"WV","zip":"26836","distance":18.359735164048,"lon":"-78.958016","lat":"39.082989","theaterChainName":"Independent Chains","ticketType":"STANDARD"},{"id":"4844","tribuneTheaterId":"10124","providerTheaterId":"","name":"Alamo Winchester","address":"181 Kerstown Commons Blvd.","city":"Winchester","state":"VA","zip":"22602","distance":23.085568400406,"lon":"-78.1949","lat":"39.1198","theaterChainName":"Alamo Drafthouse","ticketType":"STANDARD"},{"id":"1917","tribuneTheaterId":"1484","providerTheaterId":"","name":"Royal Cinemas","address":"117 E. Main St.","city":"Front Royal","state":"VA","zip":"22630","distance":24.753143242572,"lon":"-78.192379","lat":"38.917793","theaterChainName":"Independent Chains","ticketType":"STANDARD"}]