[{"id":"1917","name":"Royal Cinemas","address":"117 E. Main St.","city":"Front Royal","state":"VA","zip":"22630","distance":"24.9721622467041","lon":"-78.192383","lat":"38.917793","theaterChainName":"Independent Chains","ticketType":"STANDARD"},{"id":"5354","name":"Apple Blossom 12","address":"1850 Apple Blossom Drive","city":"Winchester","state":"VA","zip":"22601","distance":"18.602027893066406","lon":"-78.163101","lat":"39.163300","theaterChainName":"Carmike Cinemas","ticketType":"STANDARD"},{"id":"4844","name":"Alamo Winchester","address":"181 Kerstown Commons Blvd.","city":"Winchester","state":"VA","zip":"22602","distance":"17.401826858520508","lon":"-78.194901","lat":"39.119801","theaterChainName":"Alamo Drafthouse","ticketType":"STANDARD"},{"id":"3975","name":"Community Theatre - Woodstock","address":"136 N. Main St.","city":"Woodstock","state":"VA","zip":"22664","distance":"20.720706939697266","lon":"-78.504852","lat":"38.882446","theaterChainName":"Independent Chains","ticketType":"STANDARD"},{"id":"4079","name":"South Branch Cinema 6","address":"149 Hyde Street","city":"Moorefield","state":"WV","zip":"26836","distance":"24.999858856201172","lon":"-78.958015","lat":"39.082989","theaterChainName":"Independent Chains","ticketType":"STANDARD"}]