[{"id":"3912","name":"Creekside Cinema 10","address":"605 Bluemont Road","city":"Mount Airy","state":"NC","zip":"27030","distance":"20.934480667114258","lon":"-80.618973","lat":"36.497257","theaterChainName":"Frank Theatres","ticketType":"STANDARD"},{"id":"4282","name":"The Grand 18 - Winston-Salem","address":"5601 University Parkway","city":"Winston Salem","state":"NC","zip":"27105","distance":"14.345211029052734","lon":"-80.273689","lat":"36.174171","theaterChainName":"Southern Theatres","ticketType":"STANDARD"},{"id":"2226","name":"Carmike 10 Winston Salem","address":"3640 Reynolda Rd.","city":"Winston Salem","state":"NC","zip":"27106","distance":"12.264198303222656","lon":"-80.316612","lat":"36.155449","theaterChainName":"Carmike Cinemas","ticketType":"STANDARD"},{"id":"1867","name":"Starmount Crossing 5","address":"209 Winston Road","city":"Jonesville","state":"NC","zip":"28642","distance":"17.739517211914062","lon":"-80.843323","lat":"36.240124","theaterChainName":"Independent Chains","ticketType":"STANDARD"},{"id":"1674","name":"Carmike Wynnsong 12 Winston Salem","address":"1501 Hanes Mall Blvd","city":"Winston Salem","state":"NC","zip":"27103","distance":"14.29444408416748","lon":"-80.334030","lat":"36.068459","theaterChainName":"Carmike Cinemas","ticketType":"STANDARD"},{"id":"1235","name":"Marketplace Mall Theatres","address":"2095 Peters Creek Parkway","city":"Winston Salem","state":"NC","zip":"27127","distance":"17.71853256225586","lon":"-80.257156","lat":"36.069901","theaterChainName":"Independent Chains","ticketType":"STANDARD"},{"id":"5052","name":"Aperture Cinema","address":"311 W. 4th St.","city":"Winston Salem","state":"NC","zip":"27103","distance":"17.28842544555664","lon":"-80.247200","lat":"36.098099","theaterChainName":"Independent Chains","ticketType":"STANDARD"}]