[{"id":"4282","tribuneTheaterId":"5095","providerTheaterId":"","name":"The Grand 18 - Winston-Salem","address":"5601 University Parkway","city":"Winston Salem","state":"NC","zip":"27105","distance":19.698874040742,"lon":"-80.273693","lat":"36.174171","theaterChainName":"Southern Theatres","ticketType":"STANDARD"},{"id":"2226","tribuneTheaterId":"7024","providerTheaterId":"","name":"Carmike 10 Winston Salem","address":"3640 Reynolda Rd.","city":"Winston Salem","state":"NC","zip":"27106","distance":21.453172793469,"lon":"-80.316609","lat":"36.155449","theaterChainName":"Carmike Cinemas","ticketType":"STANDARD"},{"id":"3912","tribuneTheaterId":"2263","providerTheaterId":"","name":"Creekside Cinema 10","address":"605 Bluemont Road","city":"Mount Airy","state":"NC","zip":"27030","distance":22.382376404971,"lon":"-80.618969","lat":"36.497259","theaterChainName":"Frank Theatres","ticketType":"STANDARD"},{"id":"4700","tribuneTheaterId":"9914","providerTheaterId":"","name":"Hollywood Cinema","address":"6 Hollywood Blvd.","city":"Martinsville","state":"VA","zip":"24112","distance":21.512057686537,"lon":"-79.967982","lat":"36.6929025","theaterChainName":"Independent Chains","ticketType":"STANDARD"},{"id":"1872","tribuneTheaterId":"1828","providerTheaterId":"","name":"Movie Town 5","address":"67 Veteran Rd","city":"Martinsville","state":"VA","zip":"24112","distance":23.397140459243,"lon":"-79.877826","lat":"36.65436","theaterChainName":"Independent Chains","ticketType":"STANDARD"},{"id":"5052","tribuneTheaterId":"10432","providerTheaterId":"","name":"Aperture Cinema","address":"311 W. 4th St.","city":"Winston Salem","state":"NC","zip":"27103","distance":24.770031632189,"lon":"-80.2472","lat":"36.0981","theaterChainName":"Independent Chains","ticketType":"STANDARD"}]