[{"id":"1350","name":"Cinemark Brassfield Cinema 10","address":"2101 New Garden Rd. #160","city":"Greensboro","state":"NC","zip":"27410","distance":"22.73566246032715","lon":"-79.858322","lat":"36.129246","theaterChainName":"Cinemark","ticketType":"STANDARD"},{"id":"4282","name":"The Grand 18 - Winston-Salem","address":"5601 University Parkway","city":"Winston Salem","state":"NC","zip":"27105","distance":"7.307933807373047","lon":"-80.273689","lat":"36.174171","theaterChainName":"Southern Theatres","ticketType":"STANDARD"},{"id":"2226","name":"Carmike 10 Winston Salem","address":"3640 Reynolda Rd.","city":"Winston Salem","state":"NC","zip":"27106","distance":"9.553503036499023","lon":"-80.316612","lat":"36.155449","theaterChainName":"Carmike Cinemas","ticketType":"STANDARD"},{"id":"1674","name":"Carmike Wynnsong 12 Winston Salem","address":"1501 Hanes Mall Blvd","city":"Winston Salem","state":"NC","zip":"27103","distance":"15.345611572265625","lon":"-80.334030","lat":"36.068459","theaterChainName":"Carmike Cinemas","ticketType":"STANDARD"},{"id":"1235","name":"Marketplace Mall Theatres","address":"2095 Peters Creek Parkway","city":"Winston Salem","state":"NC","zip":"27127","distance":"14.110674858093262","lon":"-80.257156","lat":"36.069901","theaterChainName":"Independent Chains","ticketType":"STANDARD"},{"id":"5052","name":"Aperture Cinema","address":"311 W. 4th St.","city":"Winston Salem","state":"NC","zip":"27103","distance":"12.111799240112305","lon":"-80.247200","lat":"36.098099","theaterChainName":"Independent Chains","ticketType":"STANDARD"},{"id":"1233","name":"Carmike 8 High Point","address":"2705 N Main Street","city":"High Point","state":"NC","zip":"27265","distance":"22.08983039855957","lon":"-80.032318","lat":"35.993423","theaterChainName":"Carmike Cinemas","ticketType":"STANDARD"},{"id":"3914","name":"Regal Palladium Stadium 14 & IMAX","address":"5830 Samet Drive","city":"High Point","state":"NC","zip":"27265","distance":"22.143695831298828","lon":"-79.959213","lat":"36.034790","theaterChainName":"Regal Cinemas","ticketType":"STANDARD"},{"id":"1231","name":"Carmike 18 Greensboro","address":"4822 Koger Blvd","city":"Greensboro","state":"NC","zip":"27407","distance":"24.636882781982422","lon":"-79.879456","lat":"36.050869","theaterChainName":"Carmike Cinemas","ticketType":"STANDARD"}]