[{"id":"4282","name":"The Grand 18 - Winston-Salem","address":"5601 University Parkway","city":"Winston Salem","state":"NC","zip":"27105","distance":"5.94007682800293","lon":"-80.273689","lat":"36.174171","theaterChainName":"Southern Theatres","ticketType":"STANDARD"},{"id":"2226","name":"Carmike 10 Winston Salem","address":"3640 Reynolda Rd.","city":"Winston Salem","state":"NC","zip":"27106","distance":"3.6126937866210938","lon":"-80.316612","lat":"36.155449","theaterChainName":"Carmike Cinemas","ticketType":"STANDARD"},{"id":"1674","name":"Carmike Wynnsong 12 Winston Salem","address":"1501 Hanes Mall Blvd","city":"Winston Salem","state":"NC","zip":"27103","distance":"7.2660298347473145","lon":"-80.334030","lat":"36.068459","theaterChainName":"Carmike Cinemas","ticketType":"STANDARD"},{"id":"1235","name":"Marketplace Mall Theatres","address":"2095 Peters Creek Parkway","city":"Winston Salem","state":"NC","zip":"27127","distance":"9.580429077148438","lon":"-80.257156","lat":"36.069901","theaterChainName":"Independent Chains","ticketType":"STANDARD"},{"id":"5052","name":"Aperture Cinema","address":"311 W. 4th St.","city":"Winston Salem","state":"NC","zip":"27103","distance":"8.795464515686035","lon":"-80.247200","lat":"36.098099","theaterChainName":"Independent Chains","ticketType":"STANDARD"},{"id":"1233","name":"Carmike 8 High Point","address":"2705 N Main Street","city":"High Point","state":"NC","zip":"27265","distance":"22.80854606628418","lon":"-80.032318","lat":"35.993423","theaterChainName":"Carmike Cinemas","ticketType":"STANDARD"}]