[{"id":"1872","name":"Movie Town 5","address":"67 Veteran Rd","city":"Martinsville","state":"VA","zip":"24112","distance":"23.20466423034668","lon":"-79.877823","lat":"36.654362","theaterChainName":"Independent Chains","ticketType":"STANDARD"},{"id":"4700","name":"Hollywood Cinema","address":"6 Hollywood Blvd.","city":"Martinsville","state":"VA","zip":"24112","distance":"24.244285583496094","lon":"-79.967979","lat":"36.692902","theaterChainName":"Independent Chains","ticketType":"STANDARD"},{"id":"1260","name":"Rockingham Theatre","address":"205 Gilmer St.","city":"Reidsville","state":"NC","zip":"27320","distance":"21.43326187133789","lon":"-79.664627","lat":"36.359993","theaterChainName":"Independent Chains","ticketType":"STANDARD"},{"id":"1350","name":"Cinemark Brassfield Cinema 10","address":"2101 New Garden Rd. #160","city":"Greensboro","state":"NC","zip":"27410","distance":"18.504497528076172","lon":"-79.858322","lat":"36.129246","theaterChainName":"Cinemark","ticketType":"STANDARD"},{"id":"2857","name":"Red Cinemas","address":"1305 Battleground Ave","city":"Greensboro","state":"NC","zip":"27408","distance":"22.58078956604004","lon":"-79.807487","lat":"36.086147","theaterChainName":"Independent Chains","ticketType":"STANDARD"},{"id":"3080","name":"Regal Greensboro Grande Stadium 16","address":"3205 Northline Ave.","city":"Greensboro","state":"NC","zip":"27408","distance":"21.59408950805664","lon":"-79.835846","lat":"36.087521","theaterChainName":"Regal Cinemas","ticketType":"STANDARD"},{"id":"4282","name":"The Grand 18 - Winston-Salem","address":"5601 University Parkway","city":"Winston Salem","state":"NC","zip":"27105","distance":"17.338472366333008","lon":"-80.273689","lat":"36.174171","theaterChainName":"Southern Theatres","ticketType":"STANDARD"},{"id":"2226","name":"Carmike 10 Winston Salem","address":"3640 Reynolda Rd.","city":"Winston Salem","state":"NC","zip":"27106","distance":"19.97308921813965","lon":"-80.316612","lat":"36.155449","theaterChainName":"Carmike Cinemas","ticketType":"STANDARD"},{"id":"1235","name":"Marketplace Mall Theatres","address":"2095 Peters Creek Parkway","city":"Winston Salem","state":"NC","zip":"27127","distance":"22.446073532104492","lon":"-80.257156","lat":"36.069901","theaterChainName":"Independent Chains","ticketType":"STANDARD"},{"id":"5052","name":"Aperture Cinema","address":"311 W. 4th St.","city":"Winston Salem","state":"NC","zip":"27103","distance":"20.49628448486328","lon":"-80.247200","lat":"36.098099","theaterChainName":"Independent Chains","ticketType":"STANDARD"},{"id":"1233","name":"Carmike 8 High Point","address":"2705 N Main Street","city":"High Point","state":"NC","zip":"27265","distance":"24.533048629760742","lon":"-80.032318","lat":"35.993423","theaterChainName":"Carmike Cinemas","ticketType":"STANDARD"},{"id":"3914","name":"Regal Palladium Stadium 14 & IMAX","address":"5830 Samet Drive","city":"High Point","state":"NC","zip":"27265","distance":"22.23356056213379","lon":"-79.959213","lat":"36.034790","theaterChainName":"Regal Cinemas","ticketType":"STANDARD"},{"id":"1231","name":"Carmike 18 Greensboro","address":"4822 Koger Blvd","city":"Greensboro","state":"NC","zip":"27407","distance":"22.627307891845703","lon":"-79.879456","lat":"36.050869","theaterChainName":"Carmike Cinemas","ticketType":"STANDARD"},{"id":"5227","name":"Movie Tavern Greensboro (Four Seasons Station)","address":"2700 Vanstory St","city":"Greensboro","state":"NC","zip":"27407","distance":"24.36568260192871","lon":"-79.843765","lat":"36.037109","theaterChainName":"Movie Tavern","ticketType":"STANDARD"},{"id":"4421","name":"The Grand Theatre - Four Seasons Station","address":"2700 Vanstory Street","city":"Greensboro","state":"NC","zip":"27407","distance":"24.36004066467285","lon":"-79.843697","lat":"36.037231","theaterChainName":"Southern Theatres","ticketType":"STANDARD"}]