[{"id":"4282","tribuneTheaterId":"5095","providerTheaterId":"","name":"The Grand 18 - Winston-Salem","address":"5601 University Parkway","city":"Winston Salem","state":"NC","zip":"27105","distance":17.337465748529,"lon":"-80.273693","lat":"36.174171","theaterChainName":"Southern Theatres","ticketType":"STANDARD"},{"id":"1350","tribuneTheaterId":"4190","providerTheaterId":"","name":"Cinemark Brassfield Cinema 10","address":"2101 New Garden Rd. #160","city":"Greensboro","state":"NC","zip":"27410","distance":18.503290449607,"lon":"-79.858321","lat":"36.129246","theaterChainName":"Cinemark","ticketType":"STANDARD"},{"id":"5052","tribuneTheaterId":"10432","providerTheaterId":"","name":"Aperture Cinema","address":"311 W. 4th St.","city":"Winston Salem","state":"NC","zip":"27103","distance":20.494824542218,"lon":"-80.2472","lat":"36.0981","theaterChainName":"Independent Chains","ticketType":"STANDARD"},{"id":"2226","tribuneTheaterId":"7024","providerTheaterId":"","name":"Carmike 10 Winston Salem","address":"3640 Reynolda Rd.","city":"Winston Salem","state":"NC","zip":"27106","distance":19.971610988051,"lon":"-80.316609","lat":"36.155449","theaterChainName":"Carmike Cinemas","ticketType":"STANDARD"},{"id":"3914","tribuneTheaterId":"8077","providerTheaterId":"","name":"Regal Palladium Stadium 14 & IMAX","address":"5830 Samet Drive","city":"High Point","state":"NC","zip":"27265","distance":22.232157406984,"lon":"-79.959212","lat":"36.034789","theaterChainName":"Regal Cinemas","ticketType":"STANDARD"},{"id":"1260","tribuneTheaterId":"5030","providerTheaterId":"","name":"Rockingham Theatre","address":"205 Gilmer St.","city":"Reidsville","state":"NC","zip":"27320","distance":21.432023372072,"lon":"-79.664626","lat":"36.359992","theaterChainName":"Independent Chains","ticketType":"STANDARD"},{"id":"1231","tribuneTheaterId":"4763","providerTheaterId":"","name":"Carmike 18 Greensboro","address":"4822 Koger Blvd","city":"Greensboro","state":"NC","zip":"27407","distance":22.625709898421,"lon":"-79.879457","lat":"36.05087","theaterChainName":"Carmike Cinemas","ticketType":"STANDARD"},{"id":"2857","tribuneTheaterId":"5039","providerTheaterId":"","name":"Red Cinemas","address":"1305 Battleground Ave","city":"Greensboro","state":"NC","zip":"27408","distance":22.579253602567,"lon":"-79.807488","lat":"36.086148","theaterChainName":"Independent Chains","ticketType":"STANDARD"},{"id":"1235","tribuneTheaterId":"5036","providerTheaterId":"","name":"Marketplace Mall Theatres","address":"2095 Peters Creek Parkway","city":"Winston Salem","state":"NC","zip":"27127","distance":22.444615072023,"lon":"-80.257155","lat":"36.069899","theaterChainName":"Independent Chains","ticketType":"STANDARD"},{"id":"3080","tribuneTheaterId":"5865","providerTheaterId":"","name":"Regal Greensboro Grande Stadium 16","address":"3205 Northline Ave.","city":"Greensboro","state":"NC","zip":"27408","distance":21.592643852888,"lon":"-79.835844","lat":"36.087522","theaterChainName":"Regal Cinemas","ticketType":"STANDARD"},{"id":"1872","tribuneTheaterId":"1828","providerTheaterId":"","name":"Movie Town 5","address":"67 Veteran Rd","city":"Martinsville","state":"VA","zip":"24112","distance":23.203168450222,"lon":"-79.877826","lat":"36.65436","theaterChainName":"Independent Chains","ticketType":"STANDARD"},{"id":"4421","tribuneTheaterId":"9490","providerTheaterId":"","name":"The Grand Theatre - Four Seasons Station","address":"2700 Vanstory Street","city":"Greensboro","state":"NC","zip":"27407","distance":24.35830557005,"lon":"-79.843698","lat":"36.037233","theaterChainName":"Southern Theatres","ticketType":"STANDARD"},{"id":"5227","tribuneTheaterId":"10653","providerTheaterId":"","name":"Movie Tavern Greensboro (Four Seasons Station)","address":"2700 Vanstory St","city":"Greensboro","state":"NC","zip":"27407","distance":24.3641258356,"lon":"-79.843762","lat":"36.03711","theaterChainName":"Movie Tavern","ticketType":"STANDARD"},{"id":"4700","tribuneTheaterId":"9914","providerTheaterId":"","name":"Hollywood Cinema","address":"6 Hollywood Blvd.","city":"Martinsville","state":"VA","zip":"24112","distance":24.242941076104,"lon":"-79.967982","lat":"36.6929025","theaterChainName":"Independent Chains","ticketType":"STANDARD"},{"id":"1233","tribuneTheaterId":"4752","providerTheaterId":"","name":"Carmike 8 High Point","address":"2705 N Main Street","city":"High Point","state":"NC","zip":"27265","distance":24.531300908856,"lon":"-80.032319","lat":"35.993425","theaterChainName":"Carmike Cinemas","ticketType":"STANDARD"}]