[{"id":"4282","tribuneTheaterId":"5095","providerTheaterId":"","name":"The Grand 18 - Winston-Salem","address":"5601 University Parkway","city":"Winston Salem","state":"NC","zip":"27105","distance":3.9674553350976,"lon":"-80.273693","lat":"36.174171","theaterChainName":"Southern Theatres","ticketType":"STANDARD"},{"id":"2226","tribuneTheaterId":"7024","providerTheaterId":"","name":"Carmike 10 Winston Salem","address":"3640 Reynolda Rd.","city":"Winston Salem","state":"NC","zip":"27106","distance":5.2614374091824,"lon":"-80.316609","lat":"36.155449","theaterChainName":"Carmike Cinemas","ticketType":"STANDARD"},{"id":"5052","tribuneTheaterId":"10432","providerTheaterId":"","name":"Aperture Cinema","address":"311 W. 4th St.","city":"Winston Salem","state":"NC","zip":"27103","distance":9.4273028705613,"lon":"-80.2472","lat":"36.0981","theaterChainName":"Independent Chains","ticketType":"STANDARD"},{"id":"1235","tribuneTheaterId":"5036","providerTheaterId":"","name":"Marketplace Mall Theatres","address":"2095 Peters Creek Parkway","city":"Winston Salem","state":"NC","zip":"27127","distance":11.199664058038,"lon":"-80.257155","lat":"36.069899","theaterChainName":"Independent Chains","ticketType":"STANDARD"},{"id":"1674","tribuneTheaterId":"4756","providerTheaterId":"","name":"Carmike Wynnsong 12 Winston Salem","address":"1501 Hanes Mall Blvd","city":"Winston Salem","state":"NC","zip":"27103","distance":11.339613837996,"lon":"-80.334027","lat":"36.068459","theaterChainName":"Carmike Cinemas","ticketType":"STANDARD"},{"id":"1233","tribuneTheaterId":"4752","providerTheaterId":"","name":"Carmike 8 High Point","address":"2705 N Main Street","city":"High Point","state":"NC","zip":"27265","distance":21.870227640862,"lon":"-80.032319","lat":"35.993425","theaterChainName":"Carmike Cinemas","ticketType":"STANDARD"},{"id":"3914","tribuneTheaterId":"8077","providerTheaterId":"","name":"Regal Palladium Stadium 14 & IMAX","address":"5830 Samet Drive","city":"High Point","state":"NC","zip":"27265","distance":22.996042824589,"lon":"-79.959212","lat":"36.034789","theaterChainName":"Regal Cinemas","ticketType":"STANDARD"}]