[{"id":"1867","tribuneTheaterId":"5035","providerTheaterId":"","name":"Starmount Crossing 5","address":"209 Winston Road","city":"Jonesville","state":"NC","zip":"28642","distance":13.152630104539,"lon":"-80.843325","lat":"36.240124","theaterChainName":"Independent Chains","ticketType":"STANDARD"},{"id":"2226","tribuneTheaterId":"7024","providerTheaterId":"","name":"Carmike 10 Winston Salem","address":"3640 Reynolda Rd.","city":"Winston Salem","state":"NC","zip":"27106","distance":18.867312362746,"lon":"-80.316609","lat":"36.155449","theaterChainName":"Carmike Cinemas","ticketType":"STANDARD"},{"id":"1674","tribuneTheaterId":"4756","providerTheaterId":"","name":"Carmike Wynnsong 12 Winston Salem","address":"1501 Hanes Mall Blvd","city":"Winston Salem","state":"NC","zip":"27103","distance":18.271991746426,"lon":"-80.334027","lat":"36.068459","theaterChainName":"Carmike Cinemas","ticketType":"STANDARD"},{"id":"4282","tribuneTheaterId":"5095","providerTheaterId":"","name":"The Grand 18 - Winston-Salem","address":"5601 University Parkway","city":"Winston Salem","state":"NC","zip":"27105","distance":21.403905217109,"lon":"-80.273693","lat":"36.174171","theaterChainName":"Southern Theatres","ticketType":"STANDARD"},{"id":"5052","tribuneTheaterId":"10432","providerTheaterId":"","name":"Aperture Cinema","address":"311 W. 4th St.","city":"Winston Salem","state":"NC","zip":"27103","distance":22.742876209754,"lon":"-80.2472","lat":"36.0981","theaterChainName":"Independent Chains","ticketType":"STANDARD"},{"id":"1235","tribuneTheaterId":"5036","providerTheaterId":"","name":"Marketplace Mall Theatres","address":"2095 Peters Creek Parkway","city":"Winston Salem","state":"NC","zip":"27127","distance":22.456997240059,"lon":"-80.257155","lat":"36.069899","theaterChainName":"Independent Chains","ticketType":"STANDARD"}]