[{"id":"1374","tribuneTheaterId":"4191","providerTheaterId":"","name":"Cinemark Tinseltown USA Salisbury","address":"305 Faith Rd.","city":"Salisbury","state":"NC","zip":"28146","distance":12.503078793484,"lon":"-80.462397","lat":"35.651091","theaterChainName":"Cinemark","ticketType":"STANDARD"},{"id":"3983","tribuneTheaterId":"3167","providerTheaterId":"","name":"Marquee Statesville 10","address":"1515 Cinema Way","city":"Statesville","state":"NC","zip":"28625","distance":14.354572367516,"lon":"-80.861084","lat":"35.78357","theaterChainName":"Marquee Cinemas","ticketType":"STANDARD"},{"id":"2903","tribuneTheaterId":"6540","providerTheaterId":"","name":"AmStar Cinemas 14","address":"206 Norman Station Blvd.","city":"Mooresville","state":"NC","zip":"28117","distance":19.894726022708,"lon":"-80.857202","lat":"35.587654","theaterChainName":"Southern Theatres","ticketType":"STANDARD"},{"id":"935","tribuneTheaterId":"217","providerTheaterId":"","name":"Gem Theatre - Kannapolis","address":"111 West 1st Street","city":"Kannapolis","state":"NC","zip":"28081","distance":20.198585455034,"lon":"-80.624532","lat":"35.498189","theaterChainName":"Independent Chains","ticketType":"STANDARD"},{"id":"932","tribuneTheaterId":"3073","providerTheaterId":"","name":"Carolina Mall 8","address":"120 Country Club Drive NE","city":"Concord","state":"NC","zip":"28025","distance":24.166246056228,"lon":"-80.602688","lat":"35.440343","theaterChainName":"Southeast Cinemas","ticketType":"STANDARD"},{"id":"4873","tribuneTheaterId":"10178","providerTheaterId":"","name":"Our Town Cinemas","address":"227 Griffith St.","city":"Davidson","state":"NC","zip":"28036","distance":24.137974408606,"lon":"-80.8488","lat":"35.5023","theaterChainName":"Independent Chains","ticketType":"STANDARD"},{"id":"1674","tribuneTheaterId":"4756","providerTheaterId":"","name":"Carmike Wynnsong 12 Winston Salem","address":"1501 Hanes Mall Blvd","city":"Winston Salem","state":"NC","zip":"27103","distance":24.492902422927,"lon":"-80.334027","lat":"36.068459","theaterChainName":"Carmike Cinemas","ticketType":"STANDARD"}]