[{"id":"855","tribuneTheaterId":"7417","providerTheaterId":"","name":"Regal Movies @ Timberlyne","address":"120 Banks Street","city":"Chapel Hill","state":"NC","zip":"27514","distance":11.599388087673,"lon":"-79.055792","lat":"35.962041","theaterChainName":"Regal Cinemas","ticketType":"STANDARD"},{"id":"4858","tribuneTheaterId":"10154","providerTheaterId":"","name":"Varsity Theatre","address":"123 E. Franklin Street","city":"Chapel Hill","state":"NC","zip":"27514","distance":14.367650011515,"lon":"-79.0549","lat":"35.9135","theaterChainName":"Independent Chains","ticketType":"STANDARD"},{"id":"4411","tribuneTheaterId":"9470","providerTheaterId":"","name":"Northgate Stadium 10","address":"1058 West Club Blvd.","city":"Durham","state":"NC","zip":"27701","distance":16.446609274234,"lon":"-78.907778","lat":"36.019151","theaterChainName":"Independent Chains","ticketType":"STANDARD"},{"id":"1040","tribuneTheaterId":"5747","providerTheaterId":"","name":"Carmike Wynnsong 15 Durham","address":"1807 Martin Luther King Pkwy","city":"Durham","state":"NC","zip":"27707","distance":15.808322597442,"lon":"-78.957172","lat":"35.959381","theaterChainName":"Carmike Cinemas","ticketType":"STANDARD"},{"id":"3033","tribuneTheaterId":"1722","providerTheaterId":"","name":"Lumina Theatre","address":"620 Market St","city":"Chapel Hill","state":"NC","zip":"27516","distance":16.04815244131,"lon":"-79.066501","lat":"35.880916","theaterChainName":"Independent Chains","ticketType":"STANDARD"},{"id":"1031","tribuneTheaterId":"2676","providerTheaterId":"","name":"Carolina Theatre - Durham","address":"309 W Morgan St.","city":"Durham","state":"NC","zip":"27701","distance":17.260216207621,"lon":"-78.9017","lat":"35.9981","theaterChainName":"Independent Chains","ticketType":"STANDARD"},{"id":"5290","tribuneTheaterId":"10724","providerTheaterId":"465","name":"AMC Southpoint 17","address":"8030 Renaissance Pky.","city":"Durham","state":"NC","zip":"27713","distance":18.90809390048,"lon":"-78.939882","lat":"35.905552","theaterChainName":"AMC Theatres","ticketType":"STANDARD"},{"id":"4542","tribuneTheaterId":"9675","providerTheaterId":"","name":"Carousel Cinemas at Alamance Crossing","address":"1090 Piper Lane","city":"Burlington","state":"NC","zip":"27215","distance":18.040187881825,"lon":"-79.5104","lat":"36.07","theaterChainName":"Southeast Cinemas","ticketType":"STANDARD"},{"id":"3543","tribuneTheaterId":"2127","providerTheaterId":"","name":"Palace Pointe Theater","address":"5050 Durham Rd.","city":"Roxboro","state":"NC","zip":"27573","distance":19.978042499842,"lon":"-78.975306","lat":"36.323668","theaterChainName":"Independent Chains","ticketType":"STANDARD"}]