[{"id":"4542","tribuneTheaterId":"9675","providerTheaterId":"","name":"Carousel Cinemas at Alamance Crossing","address":"1090 Piper Lane","city":"Burlington","state":"NC","zip":"27215","distance":8.2979119885441,"lon":"-79.5104","lat":"36.07","theaterChainName":"Southeast Cinemas","ticketType":"STANDARD"},{"id":"855","tribuneTheaterId":"7417","providerTheaterId":"","name":"Regal Movies @ Timberlyne","address":"120 Banks Street","city":"Chapel Hill","state":"NC","zip":"27514","distance":19.41646456305,"lon":"-79.055792","lat":"35.962041","theaterChainName":"Regal Cinemas","ticketType":"STANDARD"},{"id":"4858","tribuneTheaterId":"10154","providerTheaterId":"","name":"Varsity Theatre","address":"123 E. Franklin Street","city":"Chapel Hill","state":"NC","zip":"27514","distance":21.216749706541,"lon":"-79.0549","lat":"35.9135","theaterChainName":"Independent Chains","ticketType":"STANDARD"},{"id":"3033","tribuneTheaterId":"1722","providerTheaterId":"","name":"Lumina Theatre","address":"620 Market St","city":"Chapel Hill","state":"NC","zip":"27516","distance":22.106759414948,"lon":"-79.066501","lat":"35.880916","theaterChainName":"Independent Chains","ticketType":"STANDARD"},{"id":"1040","tribuneTheaterId":"5747","providerTheaterId":"","name":"Carmike Wynnsong 15 Durham","address":"1807 Martin Luther King Pkwy","city":"Durham","state":"NC","zip":"27707","distance":24.508045389851,"lon":"-78.957172","lat":"35.959381","theaterChainName":"Carmike Cinemas","ticketType":"STANDARD"},{"id":"1260","tribuneTheaterId":"5030","providerTheaterId":"","name":"Rockingham Theatre","address":"205 Gilmer St.","city":"Reidsville","state":"NC","zip":"27320","distance":24.990596688041,"lon":"-79.664626","lat":"36.359992","theaterChainName":"Independent Chains","ticketType":"STANDARD"},{"id":"2857","tribuneTheaterId":"5039","providerTheaterId":"","name":"Red Cinemas","address":"1305 Battleground Ave","city":"Greensboro","state":"NC","zip":"27408","distance":24.753561961395,"lon":"-79.807488","lat":"36.086148","theaterChainName":"Independent Chains","ticketType":"STANDARD"}]