[{"id":"1260","tribuneTheaterId":"5030","providerTheaterId":"","name":"Rockingham Theatre","address":"205 Gilmer St.","city":"Reidsville","state":"NC","zip":"27320","distance":6.4292667248864,"lon":"-79.664626","lat":"36.359992","theaterChainName":"Independent Chains","ticketType":"STANDARD"},{"id":"1872","tribuneTheaterId":"1828","providerTheaterId":"","name":"Movie Town 5","address":"67 Veteran Rd","city":"Martinsville","state":"VA","zip":"24112","distance":19.030544277721,"lon":"-79.877826","lat":"36.65436","theaterChainName":"Independent Chains","ticketType":"STANDARD"},{"id":"1350","tribuneTheaterId":"4190","providerTheaterId":"","name":"Cinemark Brassfield Cinema 10","address":"2101 New Garden Rd. #160","city":"Greensboro","state":"NC","zip":"27410","distance":18.771796942754,"lon":"-79.858321","lat":"36.129246","theaterChainName":"Cinemark","ticketType":"STANDARD"},{"id":"2857","tribuneTheaterId":"5039","providerTheaterId":"","name":"Red Cinemas","address":"1305 Battleground Ave","city":"Greensboro","state":"NC","zip":"27408","distance":21.225919218371,"lon":"-79.807488","lat":"36.086148","theaterChainName":"Independent Chains","ticketType":"STANDARD"},{"id":"3080","tribuneTheaterId":"5865","providerTheaterId":"","name":"Regal Greensboro Grande Stadium 16","address":"3205 Northline Ave.","city":"Greensboro","state":"NC","zip":"27408","distance":21.332799237189,"lon":"-79.835844","lat":"36.087522","theaterChainName":"Regal Cinemas","ticketType":"STANDARD"},{"id":"4468","tribuneTheaterId":"9562","providerTheaterId":"","name":"Danville Stadium Cinemas","address":"3601 Riverside Dr","city":"Danville","state":"VA","zip":"24541","distance":23.093858542634,"lon":"-79.430037","lat":"36.580886","theaterChainName":"Georgia Theatre Company","ticketType":"STANDARD"},{"id":"4421","tribuneTheaterId":"9490","providerTheaterId":"","name":"The Grand Theatre - Four Seasons Station","address":"2700 Vanstory Street","city":"Greensboro","state":"NC","zip":"27407","distance":24.83276170798,"lon":"-79.843698","lat":"36.037233","theaterChainName":"Southern Theatres","ticketType":"STANDARD"},{"id":"5227","tribuneTheaterId":"10653","providerTheaterId":"","name":"Movie Tavern Greensboro (Four Seasons Station)","address":"2700 Vanstory St","city":"Greensboro","state":"NC","zip":"27407","distance":24.841718769361,"lon":"-79.843762","lat":"36.03711","theaterChainName":"Movie Tavern","ticketType":"STANDARD"},{"id":"1231","tribuneTheaterId":"4763","providerTheaterId":"","name":"Carmike 18 Greensboro","address":"4822 Koger Blvd","city":"Greensboro","state":"NC","zip":"27407","distance":24.310622961477,"lon":"-79.879457","lat":"36.05087","theaterChainName":"Carmike Cinemas","ticketType":"STANDARD"},{"id":"4700","tribuneTheaterId":"9914","providerTheaterId":"","name":"Hollywood Cinema","address":"6 Hollywood Blvd.","city":"Martinsville","state":"VA","zip":"24112","distance":23.430325212291,"lon":"-79.967982","lat":"36.6929025","theaterChainName":"Independent Chains","ticketType":"STANDARD"}]