[{"id":"1374","tribuneTheaterId":"4191","providerTheaterId":"","name":"Cinemark Tinseltown USA Salisbury","address":"305 Faith Rd.","city":"Salisbury","state":"NC","zip":"28146","distance":8.7659311080778,"lon":"-80.462397","lat":"35.651091","theaterChainName":"Cinemark","ticketType":"STANDARD"},{"id":"1674","tribuneTheaterId":"4756","providerTheaterId":"","name":"Carmike Wynnsong 12 Winston Salem","address":"1501 Hanes Mall Blvd","city":"Winston Salem","state":"NC","zip":"27103","distance":21.695905399785,"lon":"-80.334027","lat":"36.068459","theaterChainName":"Carmike Cinemas","ticketType":"STANDARD"},{"id":"1235","tribuneTheaterId":"5036","providerTheaterId":"","name":"Marketplace Mall Theatres","address":"2095 Peters Creek Parkway","city":"Winston Salem","state":"NC","zip":"27127","distance":22.653863150982,"lon":"-80.257155","lat":"36.069899","theaterChainName":"Independent Chains","ticketType":"STANDARD"},{"id":"935","tribuneTheaterId":"217","providerTheaterId":"","name":"Gem Theatre - Kannapolis","address":"111 West 1st Street","city":"Kannapolis","state":"NC","zip":"28081","distance":22.67910358884,"lon":"-80.624532","lat":"35.498189","theaterChainName":"Independent Chains","ticketType":"STANDARD"},{"id":"5052","tribuneTheaterId":"10432","providerTheaterId":"","name":"Aperture Cinema","address":"311 W. 4th St.","city":"Winston Salem","state":"NC","zip":"27103","distance":24.679804516501,"lon":"-80.2472","lat":"36.0981","theaterChainName":"Independent Chains","ticketType":"STANDARD"}]