[{"id":"855","name":"Regal Movies @ Timberlyne","address":"120 Banks Street","city":"Chapel Hill","state":"NC","zip":"27514","distance":"14.903327941894531","lon":"-79.055794","lat":"35.962040","theaterChainName":"Regal Cinemas","ticketType":"STANDARD"},{"id":"3033","name":"Lumina Theatre","address":"620 Market St","city":"Chapel Hill","state":"NC","zip":"27516","distance":"9.831891059875488","lon":"-79.066498","lat":"35.880917","theaterChainName":"Independent Chains","ticketType":"STANDARD"},{"id":"4858","name":"Varsity Theatre","address":"123 E. Franklin Street","city":"Chapel Hill","state":"NC","zip":"27514","distance":"12.03214168548584","lon":"-79.054901","lat":"35.913502","theaterChainName":"Independent Chains","ticketType":"STANDARD"},{"id":"1040","name":"Carmike Wynnsong 15 Durham","address":"1807 Martin Luther King Pkwy","city":"Durham","state":"NC","zip":"27707","distance":"17.938587188720703","lon":"-78.957169","lat":"35.959381","theaterChainName":"Carmike Cinemas","ticketType":"STANDARD"},{"id":"5290","name":"AMC Southpoint 17","address":"8030 Renaissance Pky.","city":"Durham","state":"NC","zip":"27713","distance":"16.208099365234375","lon":"-78.939880","lat":"35.905552","theaterChainName":"AMC Theatres","ticketType":"STANDARD"},{"id":"4411","name":"Northgate Stadium 10","address":"1058 West Club Blvd.","city":"Durham","state":"NC","zip":"27701","distance":"22.855741500854492","lon":"-78.907776","lat":"36.019150","theaterChainName":"Independent Chains","ticketType":"STANDARD"},{"id":"1031","name":"Carolina Theatre - Durham","address":"309 W Morgan St.","city":"Durham","state":"NC","zip":"27701","distance":"22.01517105102539","lon":"-78.901703","lat":"35.998100","theaterChainName":"Independent Chains","ticketType":"STANDARD"},{"id":"3737","name":"Spring Lane Cinema","address":"1351 Douglas Drive","city":"Sanford","state":"NC","zip":"27330","distance":"19.442617416381836","lon":"-79.197701","lat":"35.488602","theaterChainName":"Frank Theatres","ticketType":"STANDARD"},{"id":"4230","name":"Regal Beaver Creek Stadium 12","address":"1441 Beaver Creek Commons Dr.","city":"Apex","state":"NC","zip":"27502","distance":"16.498485565185547","lon":"-78.882805","lat":"35.745007","theaterChainName":"Regal Cinemas","ticketType":"STANDARD"},{"id":"5291","name":"Park West Village 14","address":"3400 Village Market Place Drive","city":"Morrisville","state":"NC","zip":"27560","distance":"20.236825942993164","lon":"-78.817482","lat":"35.807251","theaterChainName":"Stone Theatres","ticketType":"STANDARD"},{"id":"1036","name":"Carmike Park Place 16","address":"9525 Chapel Hill Road","city":"Morrisville","state":"NC","zip":"27560","distance":"20.68178367614746","lon":"-78.808952","lat":"35.803684","theaterChainName":"Carmike Cinemas","ticketType":"STANDARD"},{"id":"5724","name":"The Cary","address":"122 E. Chatham St.","city":"Cary","state":"NC","zip":"27511","distance":"22.186389923095703","lon":"-78.780327","lat":"35.787144","theaterChainName":"Independent Chains","ticketType":"STANDARD"},{"id":"3612","name":"Regal Brier Creek Stadium 14","address":"8611 Brier Creek Pkwy","city":"Raleigh","state":"NC","zip":"27617","distance":"23.785930633544922","lon":"-78.784790","lat":"35.904209","theaterChainName":"Regal Cinemas","ticketType":"STANDARD"},{"id":"1035","name":"Mission Valley Cinema","address":"2109 Avent Ferry Rd.","city":"Raleigh","state":"NC","zip":"27606","distance":"24.08018684387207","lon":"-78.746132","lat":"35.779243","theaterChainName":"Independent Chains","ticketType":"STANDARD"},{"id":"2941","name":"Regal Crossroads Stadium 20","address":"501 Catiboo Dr","city":"Cary","state":"NC","zip":"27518","distance":"24.655664443969727","lon":"-78.736000","lat":"35.757500","theaterChainName":"Regal Cinemas","ticketType":"STANDARD"}]