[{"id":"3033","tribuneTheaterId":"1722","providerTheaterId":"","name":"Lumina Theatre","address":"620 Market St","city":"Chapel Hill","state":"NC","zip":"27516","distance":9.8312583657199,"lon":"-79.066501","lat":"35.880916","theaterChainName":"Independent Chains","ticketType":"STANDARD"},{"id":"4858","tribuneTheaterId":"10154","providerTheaterId":"","name":"Varsity Theatre","address":"123 E. Franklin Street","city":"Chapel Hill","state":"NC","zip":"27514","distance":12.031452729965,"lon":"-79.0549","lat":"35.9135","theaterChainName":"Independent Chains","ticketType":"STANDARD"},{"id":"855","tribuneTheaterId":"7417","providerTheaterId":"","name":"Regal Movies @ Timberlyne","address":"120 Banks Street","city":"Chapel Hill","state":"NC","zip":"27514","distance":14.90263532336,"lon":"-79.055792","lat":"35.962041","theaterChainName":"Regal Cinemas","ticketType":"STANDARD"},{"id":"5290","tribuneTheaterId":"10724","providerTheaterId":"465","name":"AMC Southpoint 17","address":"8030 Renaissance Pky.","city":"Durham","state":"NC","zip":"27713","distance":16.207133504548,"lon":"-78.939882","lat":"35.905552","theaterChainName":"AMC Theatres","ticketType":"STANDARD"},{"id":"4230","tribuneTheaterId":"4903","providerTheaterId":"","name":"Regal Beaver Creek Stadium 12","address":"1441 Beaver Creek Commons Dr.","city":"Apex","state":"NC","zip":"27502","distance":16.497394781568,"lon":"-78.882807","lat":"35.745006","theaterChainName":"Regal Cinemas","ticketType":"STANDARD"},{"id":"1040","tribuneTheaterId":"5747","providerTheaterId":"","name":"Carmike Wynnsong 15 Durham","address":"1807 Martin Luther King Pkwy","city":"Durham","state":"NC","zip":"27707","distance":17.937457262681,"lon":"-78.957172","lat":"35.959381","theaterChainName":"Carmike Cinemas","ticketType":"STANDARD"},{"id":"5291","tribuneTheaterId":"10725","providerTheaterId":"","name":"Park West Village 14","address":"3400 Village Market Place Drive","city":"Morrisville","state":"NC","zip":"27560","distance":20.235532205835,"lon":"-78.817484","lat":"35.807251","theaterChainName":"Stone Theatres","ticketType":"STANDARD"},{"id":"3737","tribuneTheaterId":"2303","providerTheaterId":"","name":"Spring Lane Cinema","address":"1351 Douglas Drive","city":"Sanford","state":"NC","zip":"27330","distance":19.441415885262,"lon":"-79.1977","lat":"35.4886","theaterChainName":"Frank Theatres","ticketType":"STANDARD"},{"id":"1036","tribuneTheaterId":"4761","providerTheaterId":"","name":"Carmike Park Place 16","address":"9525 Chapel Hill Road","city":"Morrisville","state":"NC","zip":"27560","distance":20.680414654486,"lon":"-78.808955","lat":"35.803683","theaterChainName":"Carmike Cinemas","ticketType":"STANDARD"},{"id":"1031","tribuneTheaterId":"2676","providerTheaterId":"","name":"Carolina Theatre - Durham","address":"309 W Morgan St.","city":"Durham","state":"NC","zip":"27701","distance":22.014022382338,"lon":"-78.9017","lat":"35.9981","theaterChainName":"Independent Chains","ticketType":"STANDARD"},{"id":"5724","tribuneTheaterId":"11166","providerTheaterId":"","name":"The Cary","address":"122 E. Chatham St.","city":"Cary","state":"NC","zip":"27511","distance":22.184959909721,"lon":"-78.780329","lat":"35.787144","theaterChainName":"Independent Chains","ticketType":"STANDARD"},{"id":"2941","tribuneTheaterId":"7032","providerTheaterId":"","name":"Regal Crossroads Stadium 20","address":"501 Catiboo Dr","city":"Cary","state":"NC","zip":"27518","distance":24.654194488923,"lon":"-78.736","lat":"35.7575","theaterChainName":"Regal Cinemas","ticketType":"STANDARD"},{"id":"1035","tribuneTheaterId":"2930","providerTheaterId":"","name":"Mission Valley Cinema","address":"2109 Avent Ferry Rd.","city":"Raleigh","state":"NC","zip":"27606","distance":24.078851911212,"lon":"-78.7461302","lat":"35.7792443","theaterChainName":"Independent Chains","ticketType":"STANDARD"},{"id":"3612","tribuneTheaterId":"7015","providerTheaterId":"","name":"Regal Brier Creek Stadium 14","address":"8611 Brier Creek Pkwy","city":"Raleigh","state":"NC","zip":"27617","distance":23.784603480851,"lon":"-78.78479","lat":"35.904211","theaterChainName":"Regal Cinemas","ticketType":"STANDARD"},{"id":"4411","tribuneTheaterId":"9470","providerTheaterId":"","name":"Northgate Stadium 10","address":"1058 West Club Blvd.","city":"Durham","state":"NC","zip":"27701","distance":22.854430302404,"lon":"-78.907778","lat":"36.019151","theaterChainName":"Independent Chains","ticketType":"STANDARD"}]