[{"id":"1872","name":"Movie Town 5","address":"67 Veteran Rd","city":"Martinsville","state":"VA","zip":"24112","distance":"19.03166961669922","lon":"-79.877823","lat":"36.654362","theaterChainName":"Independent Chains","ticketType":"STANDARD"},{"id":"4700","name":"Hollywood Cinema","address":"6 Hollywood Blvd.","city":"Martinsville","state":"VA","zip":"24112","distance":"23.43153190612793","lon":"-79.967979","lat":"36.692902","theaterChainName":"Independent Chains","ticketType":"STANDARD"},{"id":"4468","name":"Danville Stadium Cinemas","address":"3601 Riverside Dr","city":"Danville","state":"VA","zip":"24541","distance":"23.09528923034668","lon":"-79.430038","lat":"36.580887","theaterChainName":"Georgia Theatre Company","ticketType":"STANDARD"},{"id":"1260","name":"Rockingham Theatre","address":"205 Gilmer St.","city":"Reidsville","state":"NC","zip":"27320","distance":"6.429710865020752","lon":"-79.664627","lat":"36.359993","theaterChainName":"Independent Chains","ticketType":"STANDARD"},{"id":"1350","name":"Cinemark Brassfield Cinema 10","address":"2101 New Garden Rd. #160","city":"Greensboro","state":"NC","zip":"27410","distance":"18.773054122924805","lon":"-79.858322","lat":"36.129246","theaterChainName":"Cinemark","ticketType":"STANDARD"},{"id":"2857","name":"Red Cinemas","address":"1305 Battleground Ave","city":"Greensboro","state":"NC","zip":"27408","distance":"21.227359771728516","lon":"-79.807487","lat":"36.086147","theaterChainName":"Independent Chains","ticketType":"STANDARD"},{"id":"3080","name":"Regal Greensboro Grande Stadium 16","address":"3205 Northline Ave.","city":"Greensboro","state":"NC","zip":"27408","distance":"21.334306716918945","lon":"-79.835846","lat":"36.087521","theaterChainName":"Regal Cinemas","ticketType":"STANDARD"},{"id":"1231","name":"Carmike 18 Greensboro","address":"4822 Koger Blvd","city":"Greensboro","state":"NC","zip":"27407","distance":"24.312240600585938","lon":"-79.879456","lat":"36.050869","theaterChainName":"Carmike Cinemas","ticketType":"STANDARD"},{"id":"5227","name":"Movie Tavern Greensboro (Four Seasons Station)","address":"2700 Vanstory St","city":"Greensboro","state":"NC","zip":"27407","distance":"24.843400955200195","lon":"-79.843765","lat":"36.037109","theaterChainName":"Movie Tavern","ticketType":"STANDARD"},{"id":"4421","name":"The Grand Theatre - Four Seasons Station","address":"2700 Vanstory Street","city":"Greensboro","state":"NC","zip":"27407","distance":"24.8344669342041","lon":"-79.843697","lat":"36.037231","theaterChainName":"Southern Theatres","ticketType":"STANDARD"}]