[{"id":"3675","tribuneTheaterId":"5230","providerTheaterId":"","name":"Cinemark Asheboro","address":"400 Randolph Mall","city":"Asheboro","state":"NC","zip":"27203","distance":14.61881438371,"lon":"-79.785504","lat":"35.702894","theaterChainName":"Cinemark","ticketType":"STANDARD"},{"id":"4542","tribuneTheaterId":"9675","providerTheaterId":"","name":"Carousel Cinemas at Alamance Crossing","address":"1090 Piper Lane","city":"Burlington","state":"NC","zip":"27215","distance":19.070013433282,"lon":"-79.5104","lat":"36.07","theaterChainName":"Southeast Cinemas","ticketType":"STANDARD"},{"id":"4421","tribuneTheaterId":"9490","providerTheaterId":"","name":"The Grand Theatre - Four Seasons Station","address":"2700 Vanstory Street","city":"Greensboro","state":"NC","zip":"27407","distance":23.352236124382,"lon":"-79.843698","lat":"36.037233","theaterChainName":"Southern Theatres","ticketType":"STANDARD"},{"id":"5227","tribuneTheaterId":"10653","providerTheaterId":"","name":"Movie Tavern Greensboro (Four Seasons Station)","address":"2700 Vanstory St","city":"Greensboro","state":"NC","zip":"27407","distance":23.348689146806,"lon":"-79.843762","lat":"36.03711","theaterChainName":"Movie Tavern","ticketType":"STANDARD"},{"id":"2857","tribuneTheaterId":"5039","providerTheaterId":"","name":"Red Cinemas","address":"1305 Battleground Ave","city":"Greensboro","state":"NC","zip":"27408","distance":24.639594845169,"lon":"-79.807488","lat":"36.086148","theaterChainName":"Independent Chains","ticketType":"STANDARD"}]