[{"id":"4468","tribuneTheaterId":"9562","providerTheaterId":"","name":"Danville Stadium Cinemas","address":"3601 Riverside Dr","city":"Danville","state":"VA","zip":"24541","distance":13.935918939522,"lon":"-79.430037","lat":"36.580886","theaterChainName":"Georgia Theatre Company","ticketType":"STANDARD"},{"id":"1260","tribuneTheaterId":"5030","providerTheaterId":"","name":"Rockingham Theatre","address":"205 Gilmer St.","city":"Reidsville","state":"NC","zip":"27320","distance":17.824201329834,"lon":"-79.664626","lat":"36.359992","theaterChainName":"Independent Chains","ticketType":"STANDARD"},{"id":"3543","tribuneTheaterId":"2127","providerTheaterId":"","name":"Palace Pointe Theater","address":"5050 Durham Rd.","city":"Roxboro","state":"NC","zip":"27573","distance":21.167378771381,"lon":"-78.975306","lat":"36.323668","theaterChainName":"Independent Chains","ticketType":"STANDARD"},{"id":"4542","tribuneTheaterId":"9675","providerTheaterId":"","name":"Carousel Cinemas at Alamance Crossing","address":"1090 Piper Lane","city":"Burlington","state":"NC","zip":"27215","distance":23.967282493513,"lon":"-79.5104","lat":"36.07","theaterChainName":"Southeast Cinemas","ticketType":"STANDARD"}]