[{"id":"1260","name":"Rockingham Theatre","address":"205 Gilmer St.","city":"Reidsville","state":"NC","zip":"27320","distance":"20.87322235107422","lon":"-79.664627","lat":"36.359993","theaterChainName":"Independent Chains","ticketType":"STANDARD"},{"id":"1350","name":"Cinemark Brassfield Cinema 10","address":"2101 New Garden Rd. #160","city":"Greensboro","state":"NC","zip":"27410","distance":"6.499565601348877","lon":"-79.858322","lat":"36.129246","theaterChainName":"Cinemark","ticketType":"STANDARD"},{"id":"2857","name":"Red Cinemas","address":"1305 Battleground Ave","city":"Greensboro","state":"NC","zip":"27408","distance":"2.4707753658294678","lon":"-79.807487","lat":"36.086147","theaterChainName":"Independent Chains","ticketType":"STANDARD"},{"id":"3080","name":"Regal Greensboro Grande Stadium 16","address":"3205 Northline Ave.","city":"Greensboro","state":"NC","zip":"27408","distance":"3.9731671810150146","lon":"-79.835846","lat":"36.087521","theaterChainName":"Regal Cinemas","ticketType":"STANDARD"},{"id":"4542","name":"Carousel Cinemas at Alamance Crossing","address":"1090 Piper Lane","city":"Burlington","state":"NC","zip":"27215","distance":"14.39881706237793","lon":"-79.510399","lat":"36.070000","theaterChainName":"Southeast Cinemas","ticketType":"STANDARD"},{"id":"1233","name":"Carmike 8 High Point","address":"2705 N Main Street","city":"High Point","state":"NC","zip":"27265","distance":"15.671207427978516","lon":"-80.032318","lat":"35.993423","theaterChainName":"Carmike Cinemas","ticketType":"STANDARD"},{"id":"3914","name":"Regal Palladium Stadium 14 & IMAX","address":"5830 Samet Drive","city":"High Point","state":"NC","zip":"27265","distance":"10.939794540405273","lon":"-79.959213","lat":"36.034790","theaterChainName":"Regal Cinemas","ticketType":"STANDARD"},{"id":"1231","name":"Carmike 18 Greensboro","address":"4822 Koger Blvd","city":"Greensboro","state":"NC","zip":"27407","distance":"6.349081516265869","lon":"-79.879456","lat":"36.050869","theaterChainName":"Carmike Cinemas","ticketType":"STANDARD"},{"id":"5227","name":"Movie Tavern Greensboro (Four Seasons Station)","address":"2700 Vanstory St","city":"Greensboro","state":"NC","zip":"27407","distance":"4.784189224243164","lon":"-79.843765","lat":"36.037109","theaterChainName":"Movie Tavern","ticketType":"STANDARD"},{"id":"4421","name":"The Grand Theatre - Four Seasons Station","address":"2700 Vanstory Street","city":"Greensboro","state":"NC","zip":"27407","distance":"4.7768354415893555","lon":"-79.843697","lat":"36.037231","theaterChainName":"Southern Theatres","ticketType":"STANDARD"}]