[{"id":"1038","name":"Rialto Theatre","address":"1620 Glenwood Ave","city":"Raleigh","state":"NC","zip":"27608","distance":"24.592676162719727","lon":"-78.645462","lat":"35.803097","theaterChainName":"Independent Chains","ticketType":"STANDARD"},{"id":"1039","name":"Six Forks Station Cinema","address":"9500 Forum Drive","city":"Raleigh","state":"NC","zip":"27615","distance":"23.105478286743164","lon":"-78.656052","lat":"35.897709","theaterChainName":"Independent Chains","ticketType":"STANDARD"},{"id":"3926","name":"Regal Movies at North Hills 14","address":"4150 Main at North Hills St.","city":"Raleigh","state":"NC","zip":"27609","distance":"23.548423767089844","lon":"-78.643097","lat":"35.836700","theaterChainName":"Regal Cinemas","ticketType":"STANDARD"},{"id":"1259","name":"Carmike 15 Raleigh","address":"5501 Atlantic Springs Rd.","city":"Raleigh","state":"NC","zip":"27616","distance":"20.629409790039062","lon":"-78.597305","lat":"35.858135","theaterChainName":"Carmike Cinemas","ticketType":"STANDARD"},{"id":"3948","name":"Marquee Wakefield 12","address":"10600 Common Oaks Drive","city":"Raleigh","state":"NC","zip":"27614","distance":"16.40082550048828","lon":"-78.542397","lat":"35.942402","theaterChainName":"Marquee Cinemas","ticketType":"STANDARD"},{"id":"1673","name":"Carmike 10 Wilson","address":"1501 Ward Blvd. Suite 385","city":"Wilson","state":"NC","zip":"27893","distance":"23.81937599182129","lon":"-77.936180","lat":"35.724895","theaterChainName":"Carmike Cinemas","ticketType":"STANDARD"},{"id":"3036","name":"UEC Premiere Theater Rocky Mount","address":"821 Benvenue Rd.","city":"Rocky Mount","state":"NC","zip":"27804","distance":"24.883981704711914","lon":"-77.805023","lat":"35.967136","theaterChainName":"UEC Theatres","ticketType":"STANDARD"}]