[{"id":"4234","tribuneTheaterId":"2355","providerTheaterId":"","name":"Regal White Oak Stadium 14","address":"1205 Timber Drive East","city":"Garner","state":"NC","zip":"27529","distance":16.160521986141,"lon":"-78.574582","lat":"35.689109","theaterChainName":"Regal Cinemas","ticketType":"STANDARD"},{"id":"2941","tribuneTheaterId":"7032","providerTheaterId":"","name":"Regal Crossroads Stadium 20","address":"501 Catiboo Dr","city":"Cary","state":"NC","zip":"27518","distance":18.513685496841,"lon":"-78.736","lat":"35.7575","theaterChainName":"Regal Cinemas","ticketType":"STANDARD"},{"id":"4230","tribuneTheaterId":"4903","providerTheaterId":"","name":"Regal Beaver Creek Stadium 12","address":"1441 Beaver Creek Commons Dr.","city":"Apex","state":"NC","zip":"27502","distance":19.744132457393,"lon":"-78.882807","lat":"35.745006","theaterChainName":"Regal Cinemas","ticketType":"STANDARD"},{"id":"1033","tribuneTheaterId":"1086","providerTheaterId":"","name":"Howell Theatre","address":"141 S 3rd Street","city":"Smithfield","state":"NC","zip":"27577","distance":21.328535446202,"lon":"-78.346552","lat":"35.510066","theaterChainName":"Independent Chains","ticketType":"STANDARD"},{"id":"1042","tribuneTheaterId":"5746","providerTheaterId":"","name":"Carmike Blue Ridge 14","address":"600 Blue Ridge Road","city":"Raleigh","state":"NC","zip":"27606","distance":20.696444301044,"lon":"-78.702996","lat":"35.788714","theaterChainName":"Carmike Cinemas","ticketType":"STANDARD"},{"id":"1035","tribuneTheaterId":"2930","providerTheaterId":"","name":"Mission Valley Cinema","address":"2109 Avent Ferry Rd.","city":"Raleigh","state":"NC","zip":"27606","distance":20.041063622128,"lon":"-78.7461302","lat":"35.7792443","theaterChainName":"Independent Chains","ticketType":"STANDARD"},{"id":"5724","tribuneTheaterId":"11166","providerTheaterId":"","name":"The Cary","address":"122 E. Chatham St.","city":"Cary","state":"NC","zip":"27511","distance":20.785743548069,"lon":"-78.780329","lat":"35.787144","theaterChainName":"Independent Chains","ticketType":"STANDARD"},{"id":"5291","tribuneTheaterId":"10725","providerTheaterId":"","name":"Park West Village 14","address":"3400 Village Market Place Drive","city":"Morrisville","state":"NC","zip":"27560","distance":22.548017888163,"lon":"-78.817484","lat":"35.807251","theaterChainName":"Stone Theatres","ticketType":"STANDARD"},{"id":"1038","tribuneTheaterId":"229","providerTheaterId":"","name":"Rialto Theatre","address":"1620 Glenwood Ave","city":"Raleigh","state":"NC","zip":"27608","distance":22.108094446412,"lon":"-78.645461","lat":"35.803095","theaterChainName":"Independent Chains","ticketType":"STANDARD"},{"id":"1036","tribuneTheaterId":"4761","providerTheaterId":"","name":"Carmike Park Place 16","address":"9525 Chapel Hill Road","city":"Morrisville","state":"NC","zip":"27560","distance":22.201529255828,"lon":"-78.808955","lat":"35.803683","theaterChainName":"Carmike Cinemas","ticketType":"STANDARD"},{"id":"3928","tribuneTheaterId":"5050","providerTheaterId":"","name":"Smithfield 10","address":"175 South Equity Dr.","city":"Smithfield","state":"NC","zip":"27577","distance":22.672171682965,"lon":"-78.322539","lat":"35.508994","theaterChainName":"Independent Chains","ticketType":"STANDARD"},{"id":"3926","tribuneTheaterId":"5633","providerTheaterId":"","name":"Regal Movies at North Hills 14","address":"4150 Main at North Hills St.","city":"Raleigh","state":"NC","zip":"27609","distance":24.411141465723,"lon":"-78.6431","lat":"35.8367","theaterChainName":"Regal Cinemas","ticketType":"STANDARD"}]