[{"id":"4234","tribuneTheaterId":"2355","providerTheaterId":"","name":"Regal White Oak Stadium 14","address":"1205 Timber Drive East","city":"Garner","state":"NC","zip":"27529","distance":1.3947448475961,"lon":"-78.574582","lat":"35.689109","theaterChainName":"Regal Cinemas","ticketType":"STANDARD"},{"id":"2941","tribuneTheaterId":"7032","providerTheaterId":"","name":"Regal Crossroads Stadium 20","address":"501 Catiboo Dr","city":"Cary","state":"NC","zip":"27518","distance":9.3851445955687,"lon":"-78.736","lat":"35.7575","theaterChainName":"Regal Cinemas","ticketType":"STANDARD"},{"id":"1042","tribuneTheaterId":"5746","providerTheaterId":"","name":"Carmike Blue Ridge 14","address":"600 Blue Ridge Road","city":"Raleigh","state":"NC","zip":"27606","distance":9.4914513825498,"lon":"-78.702996","lat":"35.788714","theaterChainName":"Carmike Cinemas","ticketType":"STANDARD"},{"id":"1038","tribuneTheaterId":"229","providerTheaterId":"","name":"Rialto Theatre","address":"1620 Glenwood Ave","city":"Raleigh","state":"NC","zip":"27608","distance":8.8345960644134,"lon":"-78.645461","lat":"35.803095","theaterChainName":"Independent Chains","ticketType":"STANDARD"},{"id":"1035","tribuneTheaterId":"2930","providerTheaterId":"","name":"Mission Valley Cinema","address":"2109 Avent Ferry Rd.","city":"Raleigh","state":"NC","zip":"27606","distance":10.737404495422,"lon":"-78.7461302","lat":"35.7792443","theaterChainName":"Independent Chains","ticketType":"STANDARD"},{"id":"3926","tribuneTheaterId":"5633","providerTheaterId":"","name":"Regal Movies at North Hills 14","address":"4150 Main at North Hills St.","city":"Raleigh","state":"NC","zip":"27609","distance":11.037300642241,"lon":"-78.6431","lat":"35.8367","theaterChainName":"Regal Cinemas","ticketType":"STANDARD"},{"id":"5724","tribuneTheaterId":"11166","providerTheaterId":"","name":"The Cary","address":"122 E. Chatham St.","city":"Cary","state":"NC","zip":"27511","distance":12.594718527391,"lon":"-78.780329","lat":"35.787144","theaterChainName":"Independent Chains","ticketType":"STANDARD"},{"id":"1259","tribuneTheaterId":"4759","providerTheaterId":"","name":"Carmike 15 Raleigh","address":"5501 Atlantic Springs Rd.","city":"Raleigh","state":"NC","zip":"27616","distance":12.218188078185,"lon":"-78.597307","lat":"35.858136","theaterChainName":"Carmike Cinemas","ticketType":"STANDARD"},{"id":"1039","tribuneTheaterId":"1907","providerTheaterId":"","name":"Six Forks Station Cinema","address":"9500 Forum Drive","city":"Raleigh","state":"NC","zip":"27615","distance":15.308178546642,"lon":"-78.656054","lat":"35.897707","theaterChainName":"Independent Chains","ticketType":"STANDARD"},{"id":"4596","tribuneTheaterId":"9763","providerTheaterId":"","name":"Raleigh Grande 16","address":"4840 Grove Barton Rd","city":"Raleigh","state":"NC","zip":"27613","distance":14.774403129463,"lon":"-78.716612","lat":"35.872051","theaterChainName":"Carolina Cinemas","ticketType":"STANDARD"},{"id":"1036","tribuneTheaterId":"4761","providerTheaterId":"","name":"Carmike Park Place 16","address":"9525 Chapel Hill Road","city":"Morrisville","state":"NC","zip":"27560","distance":14.564366682556,"lon":"-78.808955","lat":"35.803683","theaterChainName":"Carmike Cinemas","ticketType":"STANDARD"},{"id":"5291","tribuneTheaterId":"10725","providerTheaterId":"","name":"Park West Village 14","address":"3400 Village Market Place Drive","city":"Morrisville","state":"NC","zip":"27560","distance":15.096899174306,"lon":"-78.817484","lat":"35.807251","theaterChainName":"Stone Theatres","ticketType":"STANDARD"},{"id":"4230","tribuneTheaterId":"4903","providerTheaterId":"","name":"Regal Beaver Creek Stadium 12","address":"1441 Beaver Creek Commons Dr.","city":"Apex","state":"NC","zip":"27502","distance":16.6000006958,"lon":"-78.882807","lat":"35.745006","theaterChainName":"Regal Cinemas","ticketType":"STANDARD"},{"id":"1033","tribuneTheaterId":"1086","providerTheaterId":"","name":"Howell Theatre","address":"141 S 3rd Street","city":"Smithfield","state":"NC","zip":"27577","distance":18.405325964378,"lon":"-78.346552","lat":"35.510066","theaterChainName":"Independent Chains","ticketType":"STANDARD"},{"id":"3948","tribuneTheaterId":"3203","providerTheaterId":"","name":"Marquee Wakefield 12","address":"10600 Common Oaks Drive","city":"Raleigh","state":"NC","zip":"27614","distance":18.30275604346,"lon":"-78.542397","lat":"35.942403","theaterChainName":"Marquee Cinemas","ticketType":"STANDARD"},{"id":"3928","tribuneTheaterId":"5050","providerTheaterId":"","name":"Smithfield 10","address":"175 South Equity Dr.","city":"Smithfield","state":"NC","zip":"27577","distance":19.503325144719,"lon":"-78.322539","lat":"35.508994","theaterChainName":"Independent Chains","ticketType":"STANDARD"},{"id":"3612","tribuneTheaterId":"7015","providerTheaterId":"","name":"Regal Brier Creek Stadium 14","address":"8611 Brier Creek Pkwy","city":"Raleigh","state":"NC","zip":"27617","distance":18.638334221823,"lon":"-78.78479","lat":"35.904211","theaterChainName":"Regal Cinemas","ticketType":"STANDARD"},{"id":"5290","tribuneTheaterId":"10724","providerTheaterId":"465","name":"AMC Southpoint 17","address":"8030 Renaissance Pky.","city":"Durham","state":"NC","zip":"27713","distance":24.663033777546,"lon":"-78.939882","lat":"35.905552","theaterChainName":"AMC Theatres","ticketType":"STANDARD"}]