[{"id":"4230","tribuneTheaterId":"4903","providerTheaterId":"","name":"Regal Beaver Creek Stadium 12","address":"1441 Beaver Creek Commons Dr.","city":"Apex","state":"NC","zip":"27502","distance":18.642114120264,"lon":"-78.882807","lat":"35.745006","theaterChainName":"Regal Cinemas","ticketType":"STANDARD"},{"id":"2941","tribuneTheaterId":"7032","providerTheaterId":"","name":"Regal Crossroads Stadium 20","address":"501 Catiboo Dr","city":"Cary","state":"NC","zip":"27518","distance":19.766895832898,"lon":"-78.736","lat":"35.7575","theaterChainName":"Regal Cinemas","ticketType":"STANDARD"},{"id":"4234","tribuneTheaterId":"2355","providerTheaterId":"","name":"Regal White Oak Stadium 14","address":"1205 Timber Drive East","city":"Garner","state":"NC","zip":"27529","distance":20.020565714666,"lon":"-78.574582","lat":"35.689109","theaterChainName":"Regal Cinemas","ticketType":"STANDARD"},{"id":"1035","tribuneTheaterId":"2930","providerTheaterId":"","name":"Mission Valley Cinema","address":"2109 Avent Ferry Rd.","city":"Raleigh","state":"NC","zip":"27606","distance":21.106858396571,"lon":"-78.7461302","lat":"35.7792443","theaterChainName":"Independent Chains","ticketType":"STANDARD"},{"id":"1042","tribuneTheaterId":"5746","providerTheaterId":"","name":"Carmike Blue Ridge 14","address":"600 Blue Ridge Road","city":"Raleigh","state":"NC","zip":"27606","distance":22.343963156602,"lon":"-78.702996","lat":"35.788714","theaterChainName":"Carmike Cinemas","ticketType":"STANDARD"},{"id":"5724","tribuneTheaterId":"11166","providerTheaterId":"","name":"The Cary","address":"122 E. Chatham St.","city":"Cary","state":"NC","zip":"27511","distance":21.3516117258,"lon":"-78.780329","lat":"35.787144","theaterChainName":"Independent Chains","ticketType":"STANDARD"},{"id":"3737","tribuneTheaterId":"2303","providerTheaterId":"","name":"Spring Lane Cinema","address":"1351 Douglas Drive","city":"Sanford","state":"NC","zip":"27330","distance":21.196388792078,"lon":"-79.1977","lat":"35.4886","theaterChainName":"Frank Theatres","ticketType":"STANDARD"},{"id":"5291","tribuneTheaterId":"10725","providerTheaterId":"","name":"Park West Village 14","address":"3400 Village Market Place Drive","city":"Morrisville","state":"NC","zip":"27560","distance":22.618673035119,"lon":"-78.817484","lat":"35.807251","theaterChainName":"Stone Theatres","ticketType":"STANDARD"},{"id":"1036","tribuneTheaterId":"4761","providerTheaterId":"","name":"Carmike Park Place 16","address":"9525 Chapel Hill Road","city":"Morrisville","state":"NC","zip":"27560","distance":22.381628342346,"lon":"-78.808955","lat":"35.803683","theaterChainName":"Carmike Cinemas","ticketType":"STANDARD"},{"id":"1038","tribuneTheaterId":"229","providerTheaterId":"","name":"Rialto Theatre","address":"1620 Glenwood Ave","city":"Raleigh","state":"NC","zip":"27608","distance":24.411460279938,"lon":"-78.645461","lat":"35.803095","theaterChainName":"Independent Chains","ticketType":"STANDARD"}]