[{"id":"3737","name":"Spring Lane Cinema","address":"1351 Douglas Drive","city":"Sanford","state":"NC","zip":"27330","distance":"21.197826385498047","lon":"-79.197701","lat":"35.488602","theaterChainName":"Frank Theatres","ticketType":"STANDARD"},{"id":"4230","name":"Regal Beaver Creek Stadium 12","address":"1441 Beaver Creek Commons Dr.","city":"Apex","state":"NC","zip":"27502","distance":"18.643278121948242","lon":"-78.882805","lat":"35.745007","theaterChainName":"Regal Cinemas","ticketType":"STANDARD"},{"id":"5291","name":"Park West Village 14","address":"3400 Village Market Place Drive","city":"Morrisville","state":"NC","zip":"27560","distance":"22.62004852294922","lon":"-78.817482","lat":"35.807251","theaterChainName":"Stone Theatres","ticketType":"STANDARD"},{"id":"1036","name":"Carmike Park Place 16","address":"9525 Chapel Hill Road","city":"Morrisville","state":"NC","zip":"27560","distance":"22.38307762145996","lon":"-78.808952","lat":"35.803684","theaterChainName":"Carmike Cinemas","ticketType":"STANDARD"},{"id":"5724","name":"The Cary","address":"122 E. Chatham St.","city":"Cary","state":"NC","zip":"27511","distance":"21.352893829345703","lon":"-78.780327","lat":"35.787144","theaterChainName":"Independent Chains","ticketType":"STANDARD"},{"id":"1035","name":"Mission Valley Cinema","address":"2109 Avent Ferry Rd.","city":"Raleigh","state":"NC","zip":"27606","distance":"21.108047485351562","lon":"-78.746132","lat":"35.779243","theaterChainName":"Independent Chains","ticketType":"STANDARD"},{"id":"2941","name":"Regal Crossroads Stadium 20","address":"501 Catiboo Dr","city":"Cary","state":"NC","zip":"27518","distance":"19.76805305480957","lon":"-78.736000","lat":"35.757500","theaterChainName":"Regal Cinemas","ticketType":"STANDARD"},{"id":"1042","name":"Carmike Blue Ridge 14","address":"600 Blue Ridge Road","city":"Raleigh","state":"NC","zip":"27606","distance":"22.34539794921875","lon":"-78.702995","lat":"35.788715","theaterChainName":"Carmike Cinemas","ticketType":"STANDARD"},{"id":"1038","name":"Rialto Theatre","address":"1620 Glenwood Ave","city":"Raleigh","state":"NC","zip":"27608","distance":"24.413000106811523","lon":"-78.645462","lat":"35.803097","theaterChainName":"Independent Chains","ticketType":"STANDARD"},{"id":"4234","name":"Regal White Oak Stadium 14","address":"1205 Timber Drive East","city":"Garner","state":"NC","zip":"27529","distance":"20.021648406982422","lon":"-78.574585","lat":"35.689110","theaterChainName":"Regal Cinemas","ticketType":"STANDARD"}]