[{"id":"3737","name":"Spring Lane Cinema","address":"1351 Douglas Drive","city":"Sanford","state":"NC","zip":"27330","distance":"15.681848526000977","lon":"-79.197701","lat":"35.488602","theaterChainName":"Frank Theatres","ticketType":"STANDARD"},{"id":"4230","name":"Regal Beaver Creek Stadium 12","address":"1441 Beaver Creek Commons Dr.","city":"Apex","state":"NC","zip":"27502","distance":"22.855743408203125","lon":"-78.882805","lat":"35.745007","theaterChainName":"Regal Cinemas","ticketType":"STANDARD"},{"id":"5588","name":"Carmike Patriot 14 + IMAX","address":"4761 Lake Valley Drive","city":"Fayetteville","state":"NC","zip":"28303","distance":"23.389904022216797","lon":"-78.965302","lat":"35.079300","theaterChainName":"Carmike Cinemas","ticketType":"STANDARD"},{"id":"3113","name":"Carmike Market Fair 15","address":"1916 Skibo Road","city":"Fayetteville","state":"NC","zip":"28314","distance":"24.08599090576172","lon":"-78.969643","lat":"35.069481","theaterChainName":"Carmike Cinemas","ticketType":"STANDARD"},{"id":"2229","name":"Carmike 12 Fayetteville","address":"362 Westwood Shopping Ctr","city":"Fayetteville","state":"NC","zip":"28314","distance":"24.2895450592041","lon":"-78.954544","lat":"35.065701","theaterChainName":"Carmike Cinemas","ticketType":"STANDARD"}]