[{"id":"3928","tribuneTheaterId":"5050","providerTheaterId":"","name":"Smithfield 10","address":"175 South Equity Dr.","city":"Smithfield","state":"NC","zip":"27577","distance":7.6458756788404,"lon":"-78.322539","lat":"35.508994","theaterChainName":"Independent Chains","ticketType":"STANDARD"},{"id":"1033","tribuneTheaterId":"1086","providerTheaterId":"","name":"Howell Theatre","address":"141 S 3rd Street","city":"Smithfield","state":"NC","zip":"27577","distance":8.8125856801497,"lon":"-78.346552","lat":"35.510066","theaterChainName":"Independent Chains","ticketType":"STANDARD"},{"id":"4076","tribuneTheaterId":"2322","providerTheaterId":"","name":"Premiere Theatres 12","address":"105 Tenth Place","city":"Goldsboro","state":"NC","zip":"27534","distance":17.209520296802,"lon":"-77.973186","lat":"35.400732","theaterChainName":"UEC Theatres","ticketType":"STANDARD"},{"id":"1673","tribuneTheaterId":"8425","providerTheaterId":"","name":"Carmike 10 Wilson","address":"1501 Ward Blvd. Suite 385","city":"Wilson","state":"NC","zip":"27893","distance":18.727092463207,"lon":"-77.936177","lat":"35.724895","theaterChainName":"Carmike Cinemas","ticketType":"STANDARD"},{"id":"4234","tribuneTheaterId":"2355","providerTheaterId":"","name":"Regal White Oak Stadium 14","address":"1205 Timber Drive East","city":"Garner","state":"NC","zip":"27529","distance":22.520642936698,"lon":"-78.574582","lat":"35.689109","theaterChainName":"Regal Cinemas","ticketType":"STANDARD"}]