[{"id":"1038","name":"Rialto Theatre","address":"1620 Glenwood Ave","city":"Raleigh","state":"NC","zip":"27608","distance":"24.751596450805664","lon":"-78.645462","lat":"35.803097","theaterChainName":"Independent Chains","ticketType":"STANDARD"},{"id":"3926","name":"Regal Movies at North Hills 14","address":"4150 Main at North Hills St.","city":"Raleigh","state":"NC","zip":"27609","distance":"24.960208892822266","lon":"-78.643097","lat":"35.836700","theaterChainName":"Regal Cinemas","ticketType":"STANDARD"},{"id":"1259","name":"Carmike 15 Raleigh","address":"5501 Atlantic Springs Rd.","city":"Raleigh","state":"NC","zip":"27616","distance":"22.81153106689453","lon":"-78.597305","lat":"35.858135","theaterChainName":"Carmike Cinemas","ticketType":"STANDARD"},{"id":"4234","name":"Regal White Oak Stadium 14","address":"1205 Timber Drive East","city":"Garner","state":"NC","zip":"27529","distance":"21.344661712646484","lon":"-78.574585","lat":"35.689110","theaterChainName":"Regal Cinemas","ticketType":"STANDARD"},{"id":"1033","name":"Howell Theatre","address":"141 S 3rd Street","city":"Smithfield","state":"NC","zip":"27577","distance":"19.392650604248047","lon":"-78.346550","lat":"35.510067","theaterChainName":"Independent Chains","ticketType":"STANDARD"},{"id":"3928","name":"Smithfield 10","address":"175 South Equity Dr.","city":"Smithfield","state":"NC","zip":"27577","distance":"18.954425811767578","lon":"-78.322540","lat":"35.508995","theaterChainName":"Independent Chains","ticketType":"STANDARD"},{"id":"3948","name":"Marquee Wakefield 12","address":"10600 Common Oaks Drive","city":"Raleigh","state":"NC","zip":"27614","distance":"22.41070556640625","lon":"-78.542397","lat":"35.942402","theaterChainName":"Marquee Cinemas","ticketType":"STANDARD"},{"id":"1673","name":"Carmike 10 Wilson","address":"1501 Ward Blvd. Suite 385","city":"Wilson","state":"NC","zip":"27893","distance":"15.413358688354492","lon":"-77.936180","lat":"35.724895","theaterChainName":"Carmike Cinemas","ticketType":"STANDARD"}]