[{"id":"3543","name":"Palace Pointe Theater","address":"5050 Durham Rd.","city":"Roxboro","state":"NC","zip":"27573","distance":"7.120558261871338","lon":"-78.975304","lat":"36.323669","theaterChainName":"Independent Chains","ticketType":"STANDARD"},{"id":"855","name":"Regal Movies @ Timberlyne","address":"120 Banks Street","city":"Chapel Hill","state":"NC","zip":"27514","distance":"20.9963436126709","lon":"-79.055794","lat":"35.962040","theaterChainName":"Regal Cinemas","ticketType":"STANDARD"},{"id":"4858","name":"Varsity Theatre","address":"123 E. Franklin Street","city":"Chapel Hill","state":"NC","zip":"27514","distance":"24.078889846801758","lon":"-79.054901","lat":"35.913502","theaterChainName":"Independent Chains","ticketType":"STANDARD"},{"id":"1040","name":"Carmike Wynnsong 15 Durham","address":"1807 Martin Luther King Pkwy","city":"Durham","state":"NC","zip":"27707","distance":"19.58628273010254","lon":"-78.957169","lat":"35.959381","theaterChainName":"Carmike Cinemas","ticketType":"STANDARD"},{"id":"5290","name":"AMC Southpoint 17","address":"8030 Renaissance Pky.","city":"Durham","state":"NC","zip":"27713","distance":"23.15851402282715","lon":"-78.939880","lat":"35.905552","theaterChainName":"AMC Theatres","ticketType":"STANDARD"},{"id":"4411","name":"Northgate Stadium 10","address":"1058 West Club Blvd.","city":"Durham","state":"NC","zip":"27701","distance":"15.215365409851074","lon":"-78.907776","lat":"36.019150","theaterChainName":"Independent Chains","ticketType":"STANDARD"},{"id":"1031","name":"Carolina Theatre - Durham","address":"309 W Morgan St.","city":"Durham","state":"NC","zip":"27701","distance":"16.666305541992188","lon":"-78.901703","lat":"35.998100","theaterChainName":"Independent Chains","ticketType":"STANDARD"},{"id":"3612","name":"Regal Brier Creek Stadium 14","address":"8611 Brier Creek Pkwy","city":"Raleigh","state":"NC","zip":"27617","distance":"24.060047149658203","lon":"-78.784790","lat":"35.904209","theaterChainName":"Regal Cinemas","ticketType":"STANDARD"}]