[{"id":"1031","tribuneTheaterId":"2676","providerTheaterId":"","name":"Carolina Theatre - Durham","address":"309 W Morgan St.","city":"Durham","state":"NC","zip":"27701","distance":17.170572332098,"lon":"-78.9017","lat":"35.9981","theaterChainName":"Independent Chains","ticketType":"STANDARD"},{"id":"4411","tribuneTheaterId":"9470","providerTheaterId":"","name":"Northgate Stadium 10","address":"1058 West Club Blvd.","city":"Durham","state":"NC","zip":"27701","distance":16.22563811627,"lon":"-78.907778","lat":"36.019151","theaterChainName":"Independent Chains","ticketType":"STANDARD"},{"id":"3543","tribuneTheaterId":"2127","providerTheaterId":"","name":"Palace Pointe Theater","address":"5050 Durham Rd.","city":"Roxboro","state":"NC","zip":"27573","distance":16.491344526146,"lon":"-78.975306","lat":"36.323668","theaterChainName":"Independent Chains","ticketType":"STANDARD"},{"id":"2033","tribuneTheaterId":"1836","providerTheaterId":"","name":"Market Place Cinema","address":"907 W Beckford Dr","city":"Henderson","state":"NC","zip":"27536","distance":18.621592913865,"lon":"-78.431429","lat":"36.332847","theaterChainName":"Independent Chains","ticketType":"STANDARD"},{"id":"1039","tribuneTheaterId":"1907","providerTheaterId":"","name":"Six Forks Station Cinema","address":"9500 Forum Drive","city":"Raleigh","state":"NC","zip":"27615","distance":21.20395826153,"lon":"-78.656054","lat":"35.897707","theaterChainName":"Independent Chains","ticketType":"STANDARD"},{"id":"3948","tribuneTheaterId":"3203","providerTheaterId":"","name":"Marquee Wakefield 12","address":"10600 Common Oaks Drive","city":"Raleigh","state":"NC","zip":"27614","distance":20.429441140003,"lon":"-78.542397","lat":"35.942403","theaterChainName":"Marquee Cinemas","ticketType":"STANDARD"},{"id":"1040","tribuneTheaterId":"5747","providerTheaterId":"","name":"Carmike Wynnsong 15 Durham","address":"1807 Martin Luther King Pkwy","city":"Durham","state":"NC","zip":"27707","distance":21.173781330742,"lon":"-78.957172","lat":"35.959381","theaterChainName":"Carmike Cinemas","ticketType":"STANDARD"},{"id":"3612","tribuneTheaterId":"7015","providerTheaterId":"","name":"Regal Brier Creek Stadium 14","address":"8611 Brier Creek Pkwy","city":"Raleigh","state":"NC","zip":"27617","distance":20.727141683345,"lon":"-78.78479","lat":"35.904211","theaterChainName":"Regal Cinemas","ticketType":"STANDARD"},{"id":"4596","tribuneTheaterId":"9763","providerTheaterId":"","name":"Raleigh Grande 16","address":"4840 Grove Barton Rd","city":"Raleigh","state":"NC","zip":"27613","distance":22.654321711127,"lon":"-78.716612","lat":"35.872051","theaterChainName":"Carolina Cinemas","ticketType":"STANDARD"},{"id":"5290","tribuneTheaterId":"10724","providerTheaterId":"465","name":"AMC Southpoint 17","address":"8030 Renaissance Pky.","city":"Durham","state":"NC","zip":"27713","distance":23.695402194921,"lon":"-78.939882","lat":"35.905552","theaterChainName":"AMC Theatres","ticketType":"STANDARD"},{"id":"855","tribuneTheaterId":"7417","providerTheaterId":"","name":"Regal Movies @ Timberlyne","address":"120 Banks Street","city":"Chapel Hill","state":"NC","zip":"27514","distance":24.841228529908,"lon":"-79.055792","lat":"35.962041","theaterChainName":"Regal Cinemas","ticketType":"STANDARD"},{"id":"1259","tribuneTheaterId":"4759","providerTheaterId":"","name":"Carmike 15 Raleigh","address":"5501 Atlantic Springs Rd.","city":"Raleigh","state":"NC","zip":"27616","distance":24.623231591488,"lon":"-78.597307","lat":"35.858136","theaterChainName":"Carmike Cinemas","ticketType":"STANDARD"}]