[{"id":"3948","tribuneTheaterId":"3203","providerTheaterId":"","name":"Marquee Wakefield 12","address":"10600 Common Oaks Drive","city":"Raleigh","state":"NC","zip":"27614","distance":5.5445042402905,"lon":"-78.542397","lat":"35.942403","theaterChainName":"Marquee Cinemas","ticketType":"STANDARD"},{"id":"1259","tribuneTheaterId":"4759","providerTheaterId":"","name":"Carmike 15 Raleigh","address":"5501 Atlantic Springs Rd.","city":"Raleigh","state":"NC","zip":"27616","distance":11.415109396666,"lon":"-78.597307","lat":"35.858136","theaterChainName":"Carmike Cinemas","ticketType":"STANDARD"},{"id":"1039","tribuneTheaterId":"1907","providerTheaterId":"","name":"Six Forks Station Cinema","address":"9500 Forum Drive","city":"Raleigh","state":"NC","zip":"27615","distance":12.608943277386,"lon":"-78.656054","lat":"35.897707","theaterChainName":"Independent Chains","ticketType":"STANDARD"},{"id":"3926","tribuneTheaterId":"5633","providerTheaterId":"","name":"Regal Movies at North Hills 14","address":"4150 Main at North Hills St.","city":"Raleigh","state":"NC","zip":"27609","distance":14.305238168298,"lon":"-78.6431","lat":"35.8367","theaterChainName":"Regal Cinemas","ticketType":"STANDARD"},{"id":"1038","tribuneTheaterId":"229","providerTheaterId":"","name":"Rialto Theatre","address":"1620 Glenwood Ave","city":"Raleigh","state":"NC","zip":"27608","distance":16.022081943035,"lon":"-78.645461","lat":"35.803095","theaterChainName":"Independent Chains","ticketType":"STANDARD"},{"id":"4596","tribuneTheaterId":"9763","providerTheaterId":"","name":"Raleigh Grande 16","address":"4840 Grove Barton Rd","city":"Raleigh","state":"NC","zip":"27613","distance":16.430057798271,"lon":"-78.716612","lat":"35.872051","theaterChainName":"Carolina Cinemas","ticketType":"STANDARD"},{"id":"1042","tribuneTheaterId":"5746","providerTheaterId":"","name":"Carmike Blue Ridge 14","address":"600 Blue Ridge Road","city":"Raleigh","state":"NC","zip":"27606","distance":19.01664548012,"lon":"-78.702996","lat":"35.788714","theaterChainName":"Carmike Cinemas","ticketType":"STANDARD"},{"id":"3612","tribuneTheaterId":"7015","providerTheaterId":"","name":"Regal Brier Creek Stadium 14","address":"8611 Brier Creek Pkwy","city":"Raleigh","state":"NC","zip":"27617","distance":19.280513674011,"lon":"-78.78479","lat":"35.904211","theaterChainName":"Regal Cinemas","ticketType":"STANDARD"},{"id":"4234","tribuneTheaterId":"2355","providerTheaterId":"","name":"Regal White Oak Stadium 14","address":"1205 Timber Drive East","city":"Garner","state":"NC","zip":"27529","distance":20.810980349166,"lon":"-78.574582","lat":"35.689109","theaterChainName":"Regal Cinemas","ticketType":"STANDARD"},{"id":"1035","tribuneTheaterId":"2930","providerTheaterId":"","name":"Mission Valley Cinema","address":"2109 Avent Ferry Rd.","city":"Raleigh","state":"NC","zip":"27606","distance":21.278626169196,"lon":"-78.7461302","lat":"35.7792443","theaterChainName":"Independent Chains","ticketType":"STANDARD"},{"id":"1036","tribuneTheaterId":"4761","providerTheaterId":"","name":"Carmike Park Place 16","address":"9525 Chapel Hill Road","city":"Morrisville","state":"NC","zip":"27560","distance":23.215394863052,"lon":"-78.808955","lat":"35.803683","theaterChainName":"Carmike Cinemas","ticketType":"STANDARD"},{"id":"5724","tribuneTheaterId":"11166","providerTheaterId":"","name":"The Cary","address":"122 E. Chatham St.","city":"Cary","state":"NC","zip":"27511","distance":22.481138409619,"lon":"-78.780329","lat":"35.787144","theaterChainName":"Independent Chains","ticketType":"STANDARD"},{"id":"2941","tribuneTheaterId":"7032","providerTheaterId":"","name":"Regal Crossroads Stadium 20","address":"501 Catiboo Dr","city":"Cary","state":"NC","zip":"27518","distance":21.8385097439,"lon":"-78.736","lat":"35.7575","theaterChainName":"Regal Cinemas","ticketType":"STANDARD"},{"id":"5291","tribuneTheaterId":"10725","providerTheaterId":"","name":"Park West Village 14","address":"3400 Village Market Place Drive","city":"Morrisville","state":"NC","zip":"27560","distance":23.507359231792,"lon":"-78.817484","lat":"35.807251","theaterChainName":"Stone Theatres","ticketType":"STANDARD"},{"id":"2033","tribuneTheaterId":"1836","providerTheaterId":"","name":"Market Place Cinema","address":"907 W Beckford Dr","city":"Henderson","state":"NC","zip":"27536","distance":24.879590099834,"lon":"-78.431429","lat":"36.332847","theaterChainName":"Independent Chains","ticketType":"STANDARD"}]