[{"id":"2033","name":"Market Place Cinema","address":"907 W Beckford Dr","city":"Henderson","state":"NC","zip":"27536","distance":"24.88125991821289","lon":"-78.431427","lat":"36.332848","theaterChainName":"Independent Chains","ticketType":"STANDARD"},{"id":"5291","name":"Park West Village 14","address":"3400 Village Market Place Drive","city":"Morrisville","state":"NC","zip":"27560","distance":"23.508773803710938","lon":"-78.817482","lat":"35.807251","theaterChainName":"Stone Theatres","ticketType":"STANDARD"},{"id":"1036","name":"Carmike Park Place 16","address":"9525 Chapel Hill Road","city":"Morrisville","state":"NC","zip":"27560","distance":"23.216712951660156","lon":"-78.808952","lat":"35.803684","theaterChainName":"Carmike Cinemas","ticketType":"STANDARD"},{"id":"5724","name":"The Cary","address":"122 E. Chatham St.","city":"Cary","state":"NC","zip":"27511","distance":"22.482484817504883","lon":"-78.780327","lat":"35.787144","theaterChainName":"Independent Chains","ticketType":"STANDARD"},{"id":"3612","name":"Regal Brier Creek Stadium 14","address":"8611 Brier Creek Pkwy","city":"Raleigh","state":"NC","zip":"27617","distance":"19.281827926635742","lon":"-78.784790","lat":"35.904209","theaterChainName":"Regal Cinemas","ticketType":"STANDARD"},{"id":"1035","name":"Mission Valley Cinema","address":"2109 Avent Ferry Rd.","city":"Raleigh","state":"NC","zip":"27606","distance":"21.280086517333984","lon":"-78.746132","lat":"35.779243","theaterChainName":"Independent Chains","ticketType":"STANDARD"},{"id":"2941","name":"Regal Crossroads Stadium 20","address":"501 Catiboo Dr","city":"Cary","state":"NC","zip":"27518","distance":"21.839902877807617","lon":"-78.736000","lat":"35.757500","theaterChainName":"Regal Cinemas","ticketType":"STANDARD"},{"id":"4596","name":"Raleigh Grande 16","address":"4840 Grove Barton Rd","city":"Raleigh","state":"NC","zip":"27613","distance":"16.43122100830078","lon":"-78.716614","lat":"35.872051","theaterChainName":"Carolina Cinemas","ticketType":"STANDARD"},{"id":"1042","name":"Carmike Blue Ridge 14","address":"600 Blue Ridge Road","city":"Raleigh","state":"NC","zip":"27606","distance":"19.01775550842285","lon":"-78.702995","lat":"35.788715","theaterChainName":"Carmike Cinemas","ticketType":"STANDARD"},{"id":"1038","name":"Rialto Theatre","address":"1620 Glenwood Ave","city":"Raleigh","state":"NC","zip":"27608","distance":"16.02303695678711","lon":"-78.645462","lat":"35.803097","theaterChainName":"Independent Chains","ticketType":"STANDARD"},{"id":"1039","name":"Six Forks Station Cinema","address":"9500 Forum Drive","city":"Raleigh","state":"NC","zip":"27615","distance":"12.609614372253418","lon":"-78.656052","lat":"35.897709","theaterChainName":"Independent Chains","ticketType":"STANDARD"},{"id":"3926","name":"Regal Movies at North Hills 14","address":"4150 Main at North Hills St.","city":"Raleigh","state":"NC","zip":"27609","distance":"14.306001663208008","lon":"-78.643097","lat":"35.836700","theaterChainName":"Regal Cinemas","ticketType":"STANDARD"},{"id":"1259","name":"Carmike 15 Raleigh","address":"5501 Atlantic Springs Rd.","city":"Raleigh","state":"NC","zip":"27616","distance":"11.415804862976074","lon":"-78.597305","lat":"35.858135","theaterChainName":"Carmike Cinemas","ticketType":"STANDARD"},{"id":"4234","name":"Regal White Oak Stadium 14","address":"1205 Timber Drive East","city":"Garner","state":"NC","zip":"27529","distance":"20.81222915649414","lon":"-78.574585","lat":"35.689110","theaterChainName":"Regal Cinemas","ticketType":"STANDARD"},{"id":"3948","name":"Marquee Wakefield 12","address":"10600 Common Oaks Drive","city":"Raleigh","state":"NC","zip":"27614","distance":"5.544922351837158","lon":"-78.542397","lat":"35.942402","theaterChainName":"Marquee Cinemas","ticketType":"STANDARD"}]