[{"id":"3543","name":"Palace Pointe Theater","address":"5050 Durham Rd.","city":"Roxboro","state":"NC","zip":"27573","distance":"20.475326538085938","lon":"-78.975304","lat":"36.323669","theaterChainName":"Independent Chains","ticketType":"STANDARD"},{"id":"855","name":"Regal Movies @ Timberlyne","address":"120 Banks Street","city":"Chapel Hill","state":"NC","zip":"27514","distance":"11.328211784362793","lon":"-79.055794","lat":"35.962040","theaterChainName":"Regal Cinemas","ticketType":"STANDARD"},{"id":"3033","name":"Lumina Theatre","address":"620 Market St","city":"Chapel Hill","state":"NC","zip":"27516","distance":"15.208489418029785","lon":"-79.066498","lat":"35.880917","theaterChainName":"Independent Chains","ticketType":"STANDARD"},{"id":"4858","name":"Varsity Theatre","address":"123 E. Franklin Street","city":"Chapel Hill","state":"NC","zip":"27514","distance":"13.190346717834473","lon":"-79.054901","lat":"35.913502","theaterChainName":"Independent Chains","ticketType":"STANDARD"},{"id":"1040","name":"Carmike Wynnsong 15 Durham","address":"1807 Martin Luther King Pkwy","city":"Durham","state":"NC","zip":"27707","distance":"7.07957649230957","lon":"-78.957169","lat":"35.959381","theaterChainName":"Carmike Cinemas","ticketType":"STANDARD"},{"id":"5290","name":"AMC Southpoint 17","address":"8030 Renaissance Pky.","city":"Durham","state":"NC","zip":"27713","distance":"9.835431098937988","lon":"-78.939880","lat":"35.905552","theaterChainName":"AMC Theatres","ticketType":"STANDARD"},{"id":"4411","name":"Northgate Stadium 10","address":"1058 West Club Blvd.","city":"Durham","state":"NC","zip":"27701","distance":"2.196408271789551","lon":"-78.907776","lat":"36.019150","theaterChainName":"Independent Chains","ticketType":"STANDARD"},{"id":"1031","name":"Carolina Theatre - Durham","address":"309 W Morgan St.","city":"Durham","state":"NC","zip":"27701","distance":"3.1168313026428223","lon":"-78.901703","lat":"35.998100","theaterChainName":"Independent Chains","ticketType":"STANDARD"},{"id":"4230","name":"Regal Beaver Creek Stadium 12","address":"1441 Beaver Creek Commons Dr.","city":"Apex","state":"NC","zip":"27502","distance":"20.269004821777344","lon":"-78.882805","lat":"35.745007","theaterChainName":"Regal Cinemas","ticketType":"STANDARD"},{"id":"5291","name":"Park West Village 14","address":"3400 Village Market Place Drive","city":"Morrisville","state":"NC","zip":"27560","distance":"16.301788330078125","lon":"-78.817482","lat":"35.807251","theaterChainName":"Stone Theatres","ticketType":"STANDARD"},{"id":"1036","name":"Carmike Park Place 16","address":"9525 Chapel Hill Road","city":"Morrisville","state":"NC","zip":"27560","distance":"16.644935607910156","lon":"-78.808952","lat":"35.803684","theaterChainName":"Carmike Cinemas","ticketType":"STANDARD"},{"id":"5724","name":"The Cary","address":"122 E. Chatham St.","city":"Cary","state":"NC","zip":"27511","distance":"18.1680965423584","lon":"-78.780327","lat":"35.787144","theaterChainName":"Independent Chains","ticketType":"STANDARD"},{"id":"3612","name":"Regal Brier Creek Stadium 14","address":"8611 Brier Creek Pkwy","city":"Raleigh","state":"NC","zip":"27617","distance":"10.587406158447266","lon":"-78.784790","lat":"35.904209","theaterChainName":"Regal Cinemas","ticketType":"STANDARD"},{"id":"1035","name":"Mission Valley Cinema","address":"2109 Avent Ferry Rd.","city":"Raleigh","state":"NC","zip":"27606","distance":"19.32796859741211","lon":"-78.746132","lat":"35.779243","theaterChainName":"Independent Chains","ticketType":"STANDARD"},{"id":"2941","name":"Regal Crossroads Stadium 20","address":"501 Catiboo Dr","city":"Cary","state":"NC","zip":"27518","distance":"20.933757781982422","lon":"-78.736000","lat":"35.757500","theaterChainName":"Regal Cinemas","ticketType":"STANDARD"},{"id":"4596","name":"Raleigh Grande 16","address":"4840 Grove Barton Rd","city":"Raleigh","state":"NC","zip":"27613","distance":"14.554670333862305","lon":"-78.716614","lat":"35.872051","theaterChainName":"Carolina Cinemas","ticketType":"STANDARD"},{"id":"1042","name":"Carmike Blue Ridge 14","address":"600 Blue Ridge Road","city":"Raleigh","state":"NC","zip":"27606","distance":"19.788557052612305","lon":"-78.702995","lat":"35.788715","theaterChainName":"Carmike Cinemas","ticketType":"STANDARD"},{"id":"1038","name":"Rialto Theatre","address":"1620 Glenwood Ave","city":"Raleigh","state":"NC","zip":"27608","distance":"20.763566970825195","lon":"-78.645462","lat":"35.803097","theaterChainName":"Independent Chains","ticketType":"STANDARD"},{"id":"1039","name":"Six Forks Station Cinema","address":"9500 Forum Drive","city":"Raleigh","state":"NC","zip":"27615","distance":"15.691569328308105","lon":"-78.656052","lat":"35.897709","theaterChainName":"Independent Chains","ticketType":"STANDARD"},{"id":"3926","name":"Regal Movies at North Hills 14","address":"4150 Main at North Hills St.","city":"Raleigh","state":"NC","zip":"27609","distance":"19.089553833007812","lon":"-78.643097","lat":"35.836700","theaterChainName":"Regal Cinemas","ticketType":"STANDARD"},{"id":"1259","name":"Carmike 15 Raleigh","address":"5501 Atlantic Springs Rd.","city":"Raleigh","state":"NC","zip":"27616","distance":"19.96783447265625","lon":"-78.597305","lat":"35.858135","theaterChainName":"Carmike Cinemas","ticketType":"STANDARD"},{"id":"3948","name":"Marquee Wakefield 12","address":"10600 Common Oaks Drive","city":"Raleigh","state":"NC","zip":"27614","distance":"19.814464569091797","lon":"-78.542397","lat":"35.942402","theaterChainName":"Marquee Cinemas","ticketType":"STANDARD"}]