[{"id":"4346","tribuneTheaterId":"9357","providerTheaterId":"","name":"Regal Greenville Grande Stadium14","address":"750 SW Greenville Blvd","city":"Greenville","state":"NC","zip":"27834","distance":3.2383763134162,"lon":"-77.404497","lat":"35.572677","theaterChainName":"Regal Cinemas","ticketType":"STANDARD"},{"id":"1777","tribuneTheaterId":"5745","providerTheaterId":"","name":"Carmike 12 Greenville","address":"1685 E Firetower Rd","city":"Greenville","state":"NC","zip":"27858","distance":4.1912320547327,"lon":"-77.360991","lat":"35.566301","theaterChainName":"Carmike Cinemas","ticketType":"STANDARD"},{"id":"6086","tribuneTheaterId":"11499","providerTheaterId":"","name":"Golden Ticket Cinema 7","address":"1109 W. 15th Street","city":"Washington","state":"NC","zip":"27889","distance":19.392498907292,"lon":"-77.059949","lat":"35.560655","theaterChainName":"Independent Chains","ticketType":"STANDARD"},{"id":"1668","tribuneTheaterId":"8324","providerTheaterId":"","name":"Carmike 7 Washington","address":"1109 Washington Square Mall","city":"Washington","state":"NC","zip":"27889","distance":19.520522658742,"lon":"-77.057945","lat":"35.559429","theaterChainName":"Carmike Cinemas","ticketType":"STANDARD"},{"id":"3292","tribuneTheaterId":"1553","providerTheaterId":"","name":"Park Hill Cinemas","address":"1600 Howard Ave.","city":"Tarboro","state":"NC","zip":"27886","distance":21.56561514675,"lon":"-77.562664","lat":"35.901083","theaterChainName":"Independent Chains","ticketType":"STANDARD"}]