[{"id":"1673","name":"Carmike 10 Wilson","address":"1501 Ward Blvd. Suite 385","city":"Wilson","state":"NC","zip":"27893","distance":"15.00416088104248","lon":"-77.936180","lat":"35.724895","theaterChainName":"Carmike Cinemas","ticketType":"STANDARD"},{"id":"4346","name":"Regal Greenville Grande Stadium14","address":"750 SW Greenville Blvd","city":"Greenville","state":"NC","zip":"27834","distance":"19.364892959594727","lon":"-77.404495","lat":"35.572678","theaterChainName":"Regal Cinemas","ticketType":"STANDARD"},{"id":"3036","name":"UEC Premiere Theater Rocky Mount","address":"821 Benvenue Rd.","city":"Rocky Mount","state":"NC","zip":"27804","distance":"16.724458694458008","lon":"-77.805023","lat":"35.967136","theaterChainName":"UEC Theatres","ticketType":"STANDARD"},{"id":"3292","name":"Park Hill Cinemas","address":"1600 Howard Ave.","city":"Tarboro","state":"NC","zip":"27886","distance":"12.004905700683594","lon":"-77.562660","lat":"35.901085","theaterChainName":"Independent Chains","ticketType":"STANDARD"},{"id":"1777","name":"Carmike 12 Greenville","address":"1685 E Firetower Rd","city":"Greenville","state":"NC","zip":"27858","distance":"21.564144134521484","lon":"-77.360992","lat":"35.566299","theaterChainName":"Carmike Cinemas","ticketType":"STANDARD"}]