[{"id":"1673","tribuneTheaterId":"8425","providerTheaterId":"","name":"Carmike 10 Wilson","address":"1501 Ward Blvd. Suite 385","city":"Wilson","state":"NC","zip":"27893","distance":8.495105005441,"lon":"-77.936177","lat":"35.724895","theaterChainName":"Carmike Cinemas","ticketType":"STANDARD"},{"id":"1033","tribuneTheaterId":"1086","providerTheaterId":"","name":"Howell Theatre","address":"141 S 3rd Street","city":"Smithfield","state":"NC","zip":"27577","distance":21.781184696818,"lon":"-78.346552","lat":"35.510066","theaterChainName":"Independent Chains","ticketType":"STANDARD"},{"id":"3928","tribuneTheaterId":"5050","providerTheaterId":"","name":"Smithfield 10","address":"175 South Equity Dr.","city":"Smithfield","state":"NC","zip":"27577","distance":20.955983380966,"lon":"-78.322539","lat":"35.508994","theaterChainName":"Independent Chains","ticketType":"STANDARD"},{"id":"3036","tribuneTheaterId":"2236","providerTheaterId":"","name":"UEC Premiere Theater Rocky Mount","address":"821 Benvenue Rd.","city":"Rocky Mount","state":"NC","zip":"27804","distance":22.04898358705,"lon":"-77.805026","lat":"35.967137","theaterChainName":"UEC Theatres","ticketType":"STANDARD"},{"id":"4076","tribuneTheaterId":"2322","providerTheaterId":"","name":"Premiere Theatres 12","address":"105 Tenth Place","city":"Goldsboro","state":"NC","zip":"27534","distance":24.515469870019,"lon":"-77.973186","lat":"35.400732","theaterChainName":"UEC Theatres","ticketType":"STANDARD"}]