[{"id":"5861","tribuneTheaterId":"11275","providerTheaterId":"","name":"Cinema Cafe - Edinburgh","address":"1864 Edinburgh Lane","city":"Chesapeake","state":"VA","zip":"23322","distance":13.162555493127,"lon":"-76.229249","lat":"36.653874","theaterChainName":"Cinema Cafe","ticketType":"STANDARD"},{"id":"661","tribuneTheaterId":"9185","providerTheaterId":"","name":"Regal Strawbridge Marketplace Stadium 12","address":"2133 General Booth Blvd","city":"Virginia Beach","state":"VA","zip":"23454","distance":20.159115894642,"lon":"-76.015434","lat":"36.767803","theaterChainName":"Regal Cinemas","ticketType":"STANDARD"},{"id":"837","tribuneTheaterId":"4066","providerTheaterId":"","name":"Corolla Movies","address":"815 E. Ocean Trail","city":"Corolla","state":"NC","zip":"27927","distance":19.900778014124,"lon":"-75.815991","lat":"36.328342","theaterChainName":"Independent Chains","ticketType":"STANDARD"},{"id":"659","tribuneTheaterId":"5178","providerTheaterId":"","name":"Cinema Cafe - Greenbrier","address":"1401 Greenbriar Pkwy Ste 1112","city":"Chesapeake","state":"VA","zip":"23320","distance":21.130214809088,"lon":"-76.226578","lat":"36.779422","theaterChainName":"Cinema Cafe","ticketType":"STANDARD"},{"id":"116","tribuneTheaterId":"7627","providerTheaterId":"","name":"Cinema Cafe - Kemps River","address":"1220 Fordham Rd","city":"Virginia Beach","state":"VA","zip":"23464","distance":21.976301823932,"lon":"-76.174508","lat":"36.801514","theaterChainName":"Cinema Cafe","ticketType":"STANDARD"},{"id":"658","tribuneTheaterId":"7014","providerTheaterId":"","name":"Regal Greenbrier Cinema 13","address":"600 Jarman Road","city":"Chesapeake","state":"VA","zip":"23320","distance":21.177322616578,"lon":"-76.2334","lat":"36.7784","theaterChainName":"Regal Cinemas","ticketType":"STANDARD"},{"id":"370","tribuneTheaterId":"5315","providerTheaterId":"334","name":"AMC Lynnhaven 18","address":"1001 Lynnhaven Mall Loop","city":"Virginia Beach","state":"VA","zip":"23452","distance":22.834950552259,"lon":"-76.072756","lat":"36.815885","theaterChainName":"AMC Theatres","ticketType":"STANDARD"},{"id":"672","tribuneTheaterId":"8049","providerTheaterId":"","name":"Regal Columbus 12","address":"104 Constitution Dr","city":"Virginia Beach","state":"VA","zip":"23462","distance":24.42224674374,"lon":"-76.130061","lat":"36.84035","theaterChainName":"Regal Cinemas","ticketType":"STANDARD"}]