[{"id":"672","name":"Regal Columbus 12","address":"104 Constitution Dr","city":"Virginia Beach","state":"VA","zip":"23462","distance":"23.636993408203125","lon":"-76.130058","lat":"36.840351","theaterChainName":"Regal Cinemas","ticketType":"STANDARD"},{"id":"116","name":"Cinema Cafe - Kemps River","address":"1220 Fordham Rd","city":"Virginia Beach","state":"VA","zip":"23464","distance":"22.317279815673828","lon":"-76.174507","lat":"36.801514","theaterChainName":"Cinema Cafe","ticketType":"STANDARD"},{"id":"3222","name":"Beach Movie Bistro","address":"941 Laskin Rd.","city":"Virginia Beach","state":"VA","zip":"23451","distance":"23.061731338500977","lon":"-75.988663","lat":"36.856628","theaterChainName":"Independent Chains","ticketType":"STANDARD"},{"id":"370","name":"AMC Lynnhaven 18","address":"1001 Lynnhaven Mall Loop","city":"Virginia Beach","state":"VA","zip":"23452","distance":"21.007198333740234","lon":"-76.072754","lat":"36.815884","theaterChainName":"AMC Theatres","ticketType":"STANDARD"},{"id":"661","name":"Regal Strawbridge Marketplace Stadium 12","address":"2133 General Booth Blvd","city":"Virginia Beach","state":"VA","zip":"23454","distance":"17.08646011352539","lon":"-76.015434","lat":"36.767803","theaterChainName":"Regal Cinemas","ticketType":"STANDARD"},{"id":"659","name":"Cinema Cafe - Greenbrier","address":"1401 Greenbriar Pkwy Ste 1112","city":"Chesapeake","state":"VA","zip":"23320","distance":"22.703250885009766","lon":"-76.226578","lat":"36.779423","theaterChainName":"Cinema Cafe","ticketType":"STANDARD"},{"id":"658","name":"Regal Greenbrier Cinema 13","address":"600 Jarman Road","city":"Chesapeake","state":"VA","zip":"23320","distance":"22.887439727783203","lon":"-76.233398","lat":"36.778400","theaterChainName":"Regal Cinemas","ticketType":"STANDARD"},{"id":"5861","name":"Cinema Cafe - Edinburgh","address":"1864 Edinburgh Lane","city":"Chesapeake","state":"VA","zip":"23322","distance":"16.97313117980957","lon":"-76.229248","lat":"36.653873","theaterChainName":"Cinema Cafe","ticketType":"STANDARD"},{"id":"837","name":"Corolla Movies","address":"815 E. Ocean Trail","city":"Corolla","state":"NC","zip":"27927","distance":"15.962154388427734","lon":"-75.815994","lat":"36.328342","theaterChainName":"Independent Chains","ticketType":"STANDARD"}]