[{"id":"1658","name":"Carmike 10 Shelby","address":"2201-4 E. Dixson Blvd.","city":"Shelby","state":"NC","zip":"28150","distance":"16.630678176879883","lon":"-81.482742","lat":"35.269516","theaterChainName":"Carmike Cinemas","ticketType":"STANDARD"},{"id":"5613","name":"Retro Cinema 4","address":"2270 US Highway 74A Bypass","city":"Forest City","state":"NC","zip":"28043","distance":"9.15860366821289","lon":"-81.893021","lat":"35.333065","theaterChainName":"Independent Chains","ticketType":"STANDARD"},{"id":"4408","name":"Gaffney Entertainment Center","address":"1100 Factory Shopps Blvd","city":"Gaffney","state":"SC","zip":"29341","distance":"11.57730484008789","lon":"-81.715546","lat":"35.081379","theaterChainName":"Independent Chains","ticketType":"STANDARD"},{"id":"5599","name":"NCG Spartanburg","address":"1985 East Main Street","city":"Spartanburg","state":"SC","zip":"29307","distance":"19.856630325317383","lon":"-81.889198","lat":"34.969700","theaterChainName":"NCG Cinemas","ticketType":"STANDARD"},{"id":"3814","name":"Regal Spartan Stadium 16","address":"855 Spartan Blvd","city":"Spartanburg","state":"SC","zip":"29301","distance":"24.136592864990234","lon":"-82.000748","lat":"34.944866","theaterChainName":"Regal Cinemas","ticketType":"STANDARD"},{"id":"648","name":"Regal Westgate Mall Cinema 8","address":"205 Blackstock Road","city":"Spartanburg","state":"SC","zip":"29301","distance":"24.3220272064209","lon":"-81.995834","lat":"34.939281","theaterChainName":"Regal Cinemas","ticketType":"STANDARD"},{"id":"2249","name":"Carmike Wynnsong 7 Spartanburg","address":"1640 Reidville Rd","city":"Spartanburg","state":"SC","zip":"29301","distance":"24.811452865600586","lon":"-81.978600","lat":"34.923302","theaterChainName":"Carmike Cinemas","ticketType":"STANDARD"}]