[{"id":"3470","tribuneTheaterId":"2047","providerTheaterId":"","name":"Marquee Mimosa 7","address":"101 S. Green St.","city":"Morganton","state":"NC","zip":"28655","distance":16.262100117435,"lon":"-81.687072","lat":"35.746131","theaterChainName":"Marquee Cinemas","ticketType":"STANDARD"},{"id":"5613","tribuneTheaterId":"11072","providerTheaterId":"","name":"Retro Cinema 4","address":"2270 US Highway 74A Bypass","city":"Forest City","state":"NC","zip":"28043","distance":19.158682108501,"lon":"-81.893022","lat":"35.333064","theaterChainName":"Independent Chains","ticketType":"STANDARD"},{"id":"1658","tribuneTheaterId":"4754","providerTheaterId":"","name":"Carmike 10 Shelby","address":"2201-4 E. Dixson Blvd.","city":"Shelby","state":"NC","zip":"28150","distance":18.993124075203,"lon":"-81.482746","lat":"35.269515","theaterChainName":"Carmike Cinemas","ticketType":"STANDARD"},{"id":"4666","tribuneTheaterId":"9865","providerTheaterId":"","name":"Carolina Theater","address":"222 1st Avenue NW","city":"Hickory","state":"NC","zip":"28601","distance":22.445220253763,"lon":"-81.3403","lat":"35.7333","theaterChainName":"Independent Chains","ticketType":"STANDARD"},{"id":"2217","tribuneTheaterId":"4758","providerTheaterId":"","name":"Carmike 14 Hickory","address":"2000 SE Catawba Valley Blvd","city":"Hickory","state":"NC","zip":"28603","distance":22.587626979619,"lon":"-81.304273","lat":"35.699608","theaterChainName":"Carmike Cinemas","ticketType":"STANDARD"},{"id":"1830","tribuneTheaterId":"6641","providerTheaterId":"","name":"Carmike 8 Lincolnton","address":"1700 N. Aspen St.","city":"Lincolnton","state":"NC","zip":"28092","distance":22.23475772646,"lon":"-81.240745","lat":"35.500626","theaterChainName":"Carmike Cinemas","ticketType":"STANDARD"}]