[{"id":"1974","tribuneTheaterId":"8656","providerTheaterId":"","name":"Regal Movies @ Franklin Square","address":"3778 E. Franklin Boulevard","city":"Gastonia","state":"NC","zip":"28056","distance":6.7022290537441,"lon":"-81.110731","lat":"35.259963","theaterChainName":"Regal Cinemas","ticketType":"STANDARD"},{"id":"1830","tribuneTheaterId":"6641","providerTheaterId":"","name":"Carmike 8 Lincolnton","address":"1700 N. Aspen St.","city":"Lincolnton","state":"NC","zip":"28092","distance":11.855296566963,"lon":"-81.240745","lat":"35.500626","theaterChainName":"Carmike Cinemas","ticketType":"STANDARD"},{"id":"1658","tribuneTheaterId":"4754","providerTheaterId":"","name":"Carmike 10 Shelby","address":"2201-4 E. Dixson Blvd.","city":"Shelby","state":"NC","zip":"28150","distance":17.321176283279,"lon":"-81.482746","lat":"35.269515","theaterChainName":"Carmike Cinemas","ticketType":"STANDARD"},{"id":"4151","tribuneTheaterId":"4248","providerTheaterId":"680","name":"AMC Northlake 14","address":"7325 Northlake Mall Drive","city":"Charlotte","state":"NC","zip":"28216","distance":18.691888376216,"lon":"-80.8552","lat":"35.3519","theaterChainName":"AMC Theatres","ticketType":"STANDARD"},{"id":"4259","tribuneTheaterId":"2359","providerTheaterId":"","name":"Ayrsley Grand 14","address":"9110 Kings Parade Blvd.","city":"Charlotte","state":"NC","zip":"28273","distance":19.710110718381,"lon":"-80.932409","lat":"35.138918","theaterChainName":"Southeast Cinemas","ticketType":"STANDARD"},{"id":"3186","tribuneTheaterId":"4645","providerTheaterId":"","name":"Regal Movies at Birkdale","address":"16950 Birkdale Commons Pkwy","city":"Huntersville","state":"NC","zip":"28078","distance":18.990866296137,"lon":"-80.878014","lat":"35.44637","theaterChainName":"Regal Cinemas","ticketType":"STANDARD"},{"id":"5310","tribuneTheaterId":"10747","providerTheaterId":"","name":"Studio Movie Grill EpiCentre","address":"210 E. Trade St.","city":"Charlotte","state":"NC","zip":"28202","distance":20.829091995957,"lon":"-80.8418","lat":"35.2261","theaterChainName":"Studio Movie Grill","ticketType":"SELECT_SEATING"},{"id":"1587","tribuneTheaterId":"1816","providerTheaterId":"","name":"State Cinema","address":"117 N. College Ave.","city":"Newton","state":"NC","zip":"28658","distance":22.809884981355,"lon":"-81.220853","lat":"35.663824","theaterChainName":"Independent Chains","ticketType":"STANDARD"},{"id":"4873","tribuneTheaterId":"10178","providerTheaterId":"","name":"Our Town Cinemas","address":"227 Griffith St.","city":"Davidson","state":"NC","zip":"28036","distance":22.241810585784,"lon":"-80.8488","lat":"35.5023","theaterChainName":"Independent Chains","ticketType":"STANDARD"},{"id":"856","tribuneTheaterId":"7896","providerTheaterId":"","name":"Regal Manor Theatre","address":"607 Providence Road","city":"Charlotte","state":"NC","zip":"28207","distance":22.380929077552,"lon":"-80.824624","lat":"35.201571","theaterChainName":"Regal Cinemas","ticketType":"STANDARD"},{"id":"927","tribuneTheaterId":"8337","providerTheaterId":"","name":"Regal Park Terrace Stadium 6","address":"4289 Park Road","city":"Charlotte","state":"NC","zip":"28209","distance":22.021031262738,"lon":"-80.850082","lat":"35.172904","theaterChainName":"Regal Cinemas","ticketType":"STANDARD"},{"id":"232","tribuneTheaterId":"7969","providerTheaterId":"681","name":"AMC Carolina Pavilion 22","address":"9541 South Blvd.","city":"Charlotte","state":"NC","zip":"28273","distance":23.538658580136,"lon":"-80.874722","lat":"35.108371","theaterChainName":"AMC Theatres","ticketType":"STANDARD"},{"id":"928","tribuneTheaterId":"5862","providerTheaterId":"","name":"Regal Phillips Place Stadium 10","address":"6911 Phillips Place Ct.","city":"Charlotte","state":"NC","zip":"28210","distance":24.237643304687,"lon":"-80.824589","lat":"35.145609","theaterChainName":"Regal Cinemas","ticketType":"STANDARD"}]