[{"id":"3186","tribuneTheaterId":"4645","providerTheaterId":"","name":"Regal Movies at Birkdale","address":"16950 Birkdale Commons Pkwy","city":"Huntersville","state":"NC","zip":"28078","distance":6.798920967413,"lon":"-80.878014","lat":"35.44637","theaterChainName":"Regal Cinemas","ticketType":"STANDARD"},{"id":"4873","tribuneTheaterId":"10178","providerTheaterId":"","name":"Our Town Cinemas","address":"227 Griffith St.","city":"Davidson","state":"NC","zip":"28036","distance":8.0353652167005,"lon":"-80.8488","lat":"35.5023","theaterChainName":"Independent Chains","ticketType":"STANDARD"},{"id":"2903","tribuneTheaterId":"6540","providerTheaterId":"","name":"AmStar Cinemas 14","address":"206 Norman Station Blvd.","city":"Mooresville","state":"NC","zip":"28117","distance":10.352310270208,"lon":"-80.857202","lat":"35.587654","theaterChainName":"Southern Theatres","ticketType":"STANDARD"},{"id":"4151","tribuneTheaterId":"4248","providerTheaterId":"680","name":"AMC Northlake 14","address":"7325 Northlake Mall Drive","city":"Charlotte","state":"NC","zip":"28216","distance":11.847749523708,"lon":"-80.8552","lat":"35.3519","theaterChainName":"AMC Theatres","ticketType":"STANDARD"},{"id":"1830","tribuneTheaterId":"6641","providerTheaterId":"","name":"Carmike 8 Lincolnton","address":"1700 N. Aspen St.","city":"Lincolnton","state":"NC","zip":"28092","distance":14.16536939872,"lon":"-81.240745","lat":"35.500626","theaterChainName":"Carmike Cinemas","ticketType":"STANDARD"},{"id":"2654","tribuneTheaterId":"8554","providerTheaterId":"683","name":"AMC Concord Mills 24","address":"8241 Concord Mills Blvd","city":"Concord","state":"NC","zip":"28027","distance":16.780356827285,"lon":"-80.726252","lat":"35.370278","theaterChainName":"AMC Theatres","ticketType":"STANDARD"},{"id":"1974","tribuneTheaterId":"8656","providerTheaterId":"","name":"Regal Movies @ Franklin Square","address":"3778 E. Franklin Boulevard","city":"Gastonia","state":"NC","zip":"28056","distance":16.89354260514,"lon":"-81.110731","lat":"35.259963","theaterChainName":"Regal Cinemas","ticketType":"STANDARD"},{"id":"1587","tribuneTheaterId":"1816","providerTheaterId":"","name":"State Cinema","address":"117 N. College Ave.","city":"Newton","state":"NC","zip":"28658","distance":17.98585136575,"lon":"-81.220853","lat":"35.663824","theaterChainName":"Independent Chains","ticketType":"STANDARD"},{"id":"854","tribuneTheaterId":"8053","providerTheaterId":"","name":"Regal Starlight Cinema 14","address":"11240 US Hwy 29","city":"Charlotte","state":"NC","zip":"28262","distance":18.544105075849,"lon":"-80.717143","lat":"35.333202","theaterChainName":"Regal Cinemas","ticketType":"STANDARD"},{"id":"935","tribuneTheaterId":"217","providerTheaterId":"","name":"Gem Theatre - Kannapolis","address":"111 West 1st Street","city":"Kannapolis","state":"NC","zip":"28081","distance":20.572974901702,"lon":"-80.624532","lat":"35.498189","theaterChainName":"Independent Chains","ticketType":"STANDARD"},{"id":"5310","tribuneTheaterId":"10747","providerTheaterId":"","name":"Studio Movie Grill EpiCentre","address":"210 E. Trade St.","city":"Charlotte","state":"NC","zip":"28202","distance":19.655523223001,"lon":"-80.8418","lat":"35.2261","theaterChainName":"Studio Movie Grill","ticketType":"SELECT_SEATING"},{"id":"932","tribuneTheaterId":"3073","providerTheaterId":"","name":"Carolina Mall 8","address":"120 Country Club Drive NE","city":"Concord","state":"NC","zip":"28025","distance":21.990300301497,"lon":"-80.602688","lat":"35.440343","theaterChainName":"Southeast Cinemas","ticketType":"STANDARD"},{"id":"856","tribuneTheaterId":"7896","providerTheaterId":"","name":"Regal Manor Theatre","address":"607 Providence Road","city":"Charlotte","state":"NC","zip":"28207","distance":21.602048670081,"lon":"-80.824624","lat":"35.201571","theaterChainName":"Regal Cinemas","ticketType":"STANDARD"},{"id":"927","tribuneTheaterId":"8337","providerTheaterId":"","name":"Regal Park Terrace Stadium 6","address":"4289 Park Road","city":"Charlotte","state":"NC","zip":"28209","distance":22.87266067216,"lon":"-80.850082","lat":"35.172904","theaterChainName":"Regal Cinemas","ticketType":"STANDARD"},{"id":"3983","tribuneTheaterId":"3167","providerTheaterId":"","name":"Marquee Statesville 10","address":"1515 Cinema Way","city":"Statesville","state":"NC","zip":"28625","distance":21.943652834959,"lon":"-80.861084","lat":"35.78357","theaterChainName":"Marquee Cinemas","ticketType":"STANDARD"},{"id":"2217","tribuneTheaterId":"4758","providerTheaterId":"","name":"Carmike 14 Hickory","address":"2000 SE Catawba Valley Blvd","city":"Hickory","state":"NC","zip":"28603","distance":23.124201684938,"lon":"-81.304273","lat":"35.699608","theaterChainName":"Carmike Cinemas","ticketType":"STANDARD"},{"id":"4259","tribuneTheaterId":"2359","providerTheaterId":"","name":"Ayrsley Grand 14","address":"9110 Kings Parade Blvd.","city":"Charlotte","state":"NC","zip":"28273","distance":24.040883896954,"lon":"-80.932409","lat":"35.138918","theaterChainName":"Southeast Cinemas","ticketType":"STANDARD"}]