[{"id":"1374","name":"Cinemark Tinseltown USA Salisbury","address":"305 Faith Rd.","city":"Salisbury","state":"NC","zip":"28146","distance":"21.85900115966797","lon":"-80.462395","lat":"35.651093","theaterChainName":"Cinemark","ticketType":"STANDARD"},{"id":"3983","name":"Marquee Statesville 10","address":"1515 Cinema Way","city":"Statesville","state":"NC","zip":"28625","distance":"20.91710090637207","lon":"-80.861084","lat":"35.783569","theaterChainName":"Marquee Cinemas","ticketType":"STANDARD"},{"id":"935","name":"Gem Theatre - Kannapolis","address":"111 West 1st Street","city":"Kannapolis","state":"NC","zip":"28081","distance":"9.572222709655762","lon":"-80.624535","lat":"35.498188","theaterChainName":"Independent Chains","ticketType":"STANDARD"},{"id":"2903","name":"AmStar Cinemas 14","address":"206 Norman Station Blvd.","city":"Mooresville","state":"NC","zip":"28117","distance":"7.884082794189453","lon":"-80.857201","lat":"35.587654","theaterChainName":"Southern Theatres","ticketType":"STANDARD"},{"id":"4873","name":"Our Town Cinemas","address":"227 Griffith St.","city":"Davidson","state":"NC","zip":"28036","distance":"3.2870452404022217","lon":"-80.848801","lat":"35.502300","theaterChainName":"Independent Chains","ticketType":"STANDARD"},{"id":"932","name":"Carolina Mall 8","address":"120 Country Club Drive NE","city":"Concord","state":"NC","zip":"28025","distance":"11.215478897094727","lon":"-80.602692","lat":"35.440342","theaterChainName":"Southeast Cinemas","ticketType":"STANDARD"},{"id":"3186","name":"Regal Movies at Birkdale","address":"16950 Birkdale Commons Pkwy","city":"Huntersville","state":"NC","zip":"28078","distance":"5.457018852233887","lon":"-80.878014","lat":"35.446369","theaterChainName":"Regal Cinemas","ticketType":"STANDARD"},{"id":"2654","name":"AMC Concord Mills 24","address":"8241 Concord Mills Blvd","city":"Concord","state":"NC","zip":"28027","distance":"8.847038269042969","lon":"-80.726250","lat":"35.370277","theaterChainName":"AMC Theatres","ticketType":"STANDARD"},{"id":"854","name":"Regal Starlight Cinema 14","address":"11240 US Hwy 29","city":"Charlotte","state":"NC","zip":"28262","distance":"11.398083686828613","lon":"-80.717140","lat":"35.333202","theaterChainName":"Regal Cinemas","ticketType":"STANDARD"},{"id":"4151","name":"AMC Northlake 14","address":"7325 Northlake Mall Drive","city":"Charlotte","state":"NC","zip":"28216","distance":"9.873418807983398","lon":"-80.855202","lat":"35.351898","theaterChainName":"AMC Theatres","ticketType":"STANDARD"},{"id":"5843","name":"Carolina Movies 10","address":"9508 Northeast Ct.","city":"Matthews","state":"NC","zip":"28105","distance":"24.33254623413086","lon":"-80.715164","lat":"35.139580","theaterChainName":"Carolina Cinemas","ticketType":"STANDARD"},{"id":"925","name":"Cinemark Movies 10 Matthews","address":"9508 Northeast Ct","city":"Matthews","state":"NC","zip":"28105","distance":"24.33254623413086","lon":"-80.715164","lat":"35.139580","theaterChainName":"Cinemark","ticketType":"STANDARD"},{"id":"4598","name":"Charlotte Crownpoint","address":"9630 Monroe Road","city":"Charlotte","state":"NC","zip":"28270","distance":"24.06170082092285","lon":"-80.741333","lat":"35.140236","theaterChainName":"Carolina Cinemas","ticketType":"STANDARD"},{"id":"1974","name":"Regal Movies @ Franklin Square","address":"3778 E. Franklin Boulevard","city":"Gastonia","state":"NC","zip":"28056","distance":"23.705970764160156","lon":"-81.110733","lat":"35.259964","theaterChainName":"Regal Cinemas","ticketType":"STANDARD"},{"id":"5310","name":"Studio Movie Grill EpiCentre","address":"210 E. Trade St.","city":"Charlotte","state":"NC","zip":"28202","distance":"18.145734786987305","lon":"-80.841797","lat":"35.226101","theaterChainName":"Studio Movie Grill","ticketType":"SELECT_SEATING"},{"id":"927","name":"Regal Park Terrace Stadium 6","address":"4289 Park Road","city":"Charlotte","state":"NC","zip":"28209","distance":"21.850345611572266","lon":"-80.850082","lat":"35.172905","theaterChainName":"Regal Cinemas","ticketType":"STANDARD"},{"id":"856","name":"Regal Manor Theatre","address":"607 Providence Road","city":"Charlotte","state":"NC","zip":"28207","distance":"19.715261459350586","lon":"-80.824623","lat":"35.201572","theaterChainName":"Regal Cinemas","ticketType":"STANDARD"},{"id":"928","name":"Regal Phillips Place Stadium 10","address":"6911 Phillips Place Ct.","city":"Charlotte","state":"NC","zip":"28210","distance":"23.5695743560791","lon":"-80.824593","lat":"35.145611","theaterChainName":"Regal Cinemas","ticketType":"STANDARD"}]