[{"id":"3186","tribuneTheaterId":"4645","providerTheaterId":"","name":"Regal Movies at Birkdale","address":"16950 Birkdale Commons Pkwy","city":"Huntersville","state":"NC","zip":"28078","distance":3.1643737769563,"lon":"-80.878014","lat":"35.44637","theaterChainName":"Regal Cinemas","ticketType":"STANDARD"},{"id":"4151","tribuneTheaterId":"4248","providerTheaterId":"680","name":"AMC Northlake 14","address":"7325 Northlake Mall Drive","city":"Charlotte","state":"NC","zip":"28216","distance":3.4935456568294,"lon":"-80.8552","lat":"35.3519","theaterChainName":"AMC Theatres","ticketType":"STANDARD"},{"id":"4873","tribuneTheaterId":"10178","providerTheaterId":"","name":"Our Town Cinemas","address":"227 Griffith St.","city":"Davidson","state":"NC","zip":"28036","distance":7.0886420691934,"lon":"-80.8488","lat":"35.5023","theaterChainName":"Independent Chains","ticketType":"STANDARD"},{"id":"2654","tribuneTheaterId":"8554","providerTheaterId":"683","name":"AMC Concord Mills 24","address":"8241 Concord Mills Blvd","city":"Concord","state":"NC","zip":"28027","distance":8.3454291172605,"lon":"-80.726252","lat":"35.370278","theaterChainName":"AMC Theatres","ticketType":"STANDARD"},{"id":"854","tribuneTheaterId":"8053","providerTheaterId":"","name":"Regal Starlight Cinema 14","address":"11240 US Hwy 29","city":"Charlotte","state":"NC","zip":"28262","distance":9.7824888913782,"lon":"-80.717143","lat":"35.333202","theaterChainName":"Regal Cinemas","ticketType":"STANDARD"},{"id":"5310","tribuneTheaterId":"10747","providerTheaterId":"","name":"Studio Movie Grill EpiCentre","address":"210 E. Trade St.","city":"Charlotte","state":"NC","zip":"28202","distance":12.191768117976,"lon":"-80.8418","lat":"35.2261","theaterChainName":"Studio Movie Grill","ticketType":"SELECT_SEATING"},{"id":"2903","tribuneTheaterId":"6540","providerTheaterId":"","name":"AmStar Cinemas 14","address":"206 Norman Station Blvd.","city":"Mooresville","state":"NC","zip":"28117","distance":12.908183965462,"lon":"-80.857202","lat":"35.587654","theaterChainName":"Southern Theatres","ticketType":"STANDARD"},{"id":"856","tribuneTheaterId":"7896","providerTheaterId":"","name":"Regal Manor Theatre","address":"607 Providence Road","city":"Charlotte","state":"NC","zip":"28207","distance":14.016435052046,"lon":"-80.824624","lat":"35.201571","theaterChainName":"Regal Cinemas","ticketType":"STANDARD"},{"id":"935","tribuneTheaterId":"217","providerTheaterId":"","name":"Gem Theatre - Kannapolis","address":"111 West 1st Street","city":"Kannapolis","state":"NC","zip":"28081","distance":15.333312997602,"lon":"-80.624532","lat":"35.498189","theaterChainName":"Independent Chains","ticketType":"STANDARD"},{"id":"1974","tribuneTheaterId":"8656","providerTheaterId":"","name":"Regal Movies @ Franklin Square","address":"3778 E. Franklin Boulevard","city":"Gastonia","state":"NC","zip":"28056","distance":16.733016294739,"lon":"-81.110731","lat":"35.259963","theaterChainName":"Regal Cinemas","ticketType":"STANDARD"},{"id":"927","tribuneTheaterId":"8337","providerTheaterId":"","name":"Regal Park Terrace Stadium 6","address":"4289 Park Road","city":"Charlotte","state":"NC","zip":"28209","distance":15.80480352982,"lon":"-80.850082","lat":"35.172904","theaterChainName":"Regal Cinemas","ticketType":"STANDARD"},{"id":"932","tribuneTheaterId":"3073","providerTheaterId":"","name":"Carolina Mall 8","address":"120 Country Club Drive NE","city":"Concord","state":"NC","zip":"28025","distance":15.265675398626,"lon":"-80.602688","lat":"35.440343","theaterChainName":"Southeast Cinemas","ticketType":"STANDARD"},{"id":"928","tribuneTheaterId":"5862","providerTheaterId":"","name":"Regal Phillips Place Stadium 10","address":"6911 Phillips Place Ct.","city":"Charlotte","state":"NC","zip":"28210","distance":17.833570802636,"lon":"-80.824589","lat":"35.145609","theaterChainName":"Regal Cinemas","ticketType":"STANDARD"},{"id":"232","tribuneTheaterId":"7969","providerTheaterId":"681","name":"AMC Carolina Pavilion 22","address":"9541 South Blvd.","city":"Charlotte","state":"NC","zip":"28273","distance":20.227759281712,"lon":"-80.874722","lat":"35.108371","theaterChainName":"AMC Theatres","ticketType":"STANDARD"},{"id":"4598","tribuneTheaterId":"9765","providerTheaterId":"","name":"Charlotte Crownpoint","address":"9630 Monroe Road","city":"Charlotte","state":"NC","zip":"28270","distance":19.419945582017,"lon":"-80.74133","lat":"35.140237","theaterChainName":"Carolina Cinemas","ticketType":"STANDARD"},{"id":"4259","tribuneTheaterId":"2359","providerTheaterId":"","name":"Ayrsley Grand 14","address":"9110 Kings Parade Blvd.","city":"Charlotte","state":"NC","zip":"28273","distance":18.459344284271,"lon":"-80.932409","lat":"35.138918","theaterChainName":"Southeast Cinemas","ticketType":"STANDARD"},{"id":"925","tribuneTheaterId":"7495","providerTheaterId":"","name":"Cinemark Movies 10 Matthews","address":"9508 Northeast Ct","city":"Matthews","state":"NC","zip":"28105","distance":20.057230350577,"lon":"-80.715167","lat":"35.13958","theaterChainName":"Cinemark","ticketType":"STANDARD"},{"id":"5843","tribuneTheaterId":"11254","providerTheaterId":"","name":"Carolina Movies 10","address":"9508 Northeast Ct.","city":"Matthews","state":"NC","zip":"28105","distance":20.057230350577,"lon":"-80.715167","lat":"35.13958","theaterChainName":"Carolina Cinemas","ticketType":"STANDARD"},{"id":"1830","tribuneTheaterId":"6641","providerTheaterId":"","name":"Carmike 8 Lincolnton","address":"1700 N. Aspen St.","city":"Lincolnton","state":"NC","zip":"28092","distance":21.997703264085,"lon":"-81.240745","lat":"35.500626","theaterChainName":"Carmike Cinemas","ticketType":"STANDARD"},{"id":"5213","tribuneTheaterId":"10637","providerTheaterId":"","name":"Cinebarre Arboretum","address":"8008 Providence Rd.","city":"Charlotte","state":"NC","zip":"28277","distance":21.508660024309,"lon":"-80.778503","lat":"35.098801","theaterChainName":"Cinebarre","ticketType":"STANDARD"},{"id":"4741","tribuneTheaterId":"9965","providerTheaterId":"","name":"Regal Ballantyne Village Stadium 5","address":"14815 John J Delany Drive","city":"Charlotte","state":"NC","zip":"28277","distance":24.069620120577,"lon":"-80.8529","lat":"35.053","theaterChainName":"Regal Cinemas","ticketType":"STANDARD"},{"id":"1457","tribuneTheaterId":"7569","providerTheaterId":"","name":"Regal Stonecrest at Piper Glen 22 & IMAX","address":"7824 Rea Rd.","city":"Charlotte","state":"NC","zip":"28277","distance":23.604370109874,"lon":"-80.81856","lat":"35.062013","theaterChainName":"Regal Cinemas","ticketType":"STANDARD"}]