[{"id":"1374","name":"Cinemark Tinseltown USA Salisbury","address":"305 Faith Rd.","city":"Salisbury","state":"NC","zip":"28146","distance":"3.145467519760132","lon":"-80.462395","lat":"35.651093","theaterChainName":"Cinemark","ticketType":"STANDARD"},{"id":"935","name":"Gem Theatre - Kannapolis","address":"111 West 1st Street","city":"Kannapolis","state":"NC","zip":"28081","distance":"13.147985458374023","lon":"-80.624535","lat":"35.498188","theaterChainName":"Independent Chains","ticketType":"STANDARD"},{"id":"2903","name":"AmStar Cinemas 14","address":"206 Norman Station Blvd.","city":"Mooresville","state":"NC","zip":"28117","distance":"23.71369743347168","lon":"-80.857201","lat":"35.587654","theaterChainName":"Southern Theatres","ticketType":"STANDARD"},{"id":"4873","name":"Our Town Cinemas","address":"227 Griffith St.","city":"Davidson","state":"NC","zip":"28036","distance":"24.383066177368164","lon":"-80.848801","lat":"35.502300","theaterChainName":"Independent Chains","ticketType":"STANDARD"},{"id":"932","name":"Carolina Mall 8","address":"120 Country Club Drive NE","city":"Concord","state":"NC","zip":"28025","distance":"15.055270195007324","lon":"-80.602692","lat":"35.440342","theaterChainName":"Southeast Cinemas","ticketType":"STANDARD"},{"id":"2654","name":"AMC Concord Mills 24","address":"8241 Concord Mills Blvd","city":"Concord","state":"NC","zip":"28027","distance":"23.300506591796875","lon":"-80.726250","lat":"35.370277","theaterChainName":"AMC Theatres","ticketType":"STANDARD"},{"id":"854","name":"Regal Starlight Cinema 14","address":"11240 US Hwy 29","city":"Charlotte","state":"NC","zip":"28262","distance":"24.865827560424805","lon":"-80.717140","lat":"35.333202","theaterChainName":"Regal Cinemas","ticketType":"STANDARD"},{"id":"931","name":"Eastgate Cinemas","address":"823 Highway 24\/27 East","city":"Albemarle","state":"NC","zip":"28001","distance":"23.55870819091797","lon":"-80.167984","lat":"35.349026","theaterChainName":"Southeast Cinemas","ticketType":"STANDARD"}]