[{"id":"1830","tribuneTheaterId":"6641","providerTheaterId":"","name":"Carmike 8 Lincolnton","address":"1700 N. Aspen St.","city":"Lincolnton","state":"NC","zip":"28092","distance":7.0011880026943,"lon":"-81.240745","lat":"35.500626","theaterChainName":"Carmike Cinemas","ticketType":"STANDARD"},{"id":"1974","tribuneTheaterId":"8656","providerTheaterId":"","name":"Regal Movies @ Franklin Square","address":"3778 E. Franklin Boulevard","city":"Gastonia","state":"NC","zip":"28056","distance":11.232587244419,"lon":"-81.110731","lat":"35.259963","theaterChainName":"Regal Cinemas","ticketType":"STANDARD"},{"id":"3186","tribuneTheaterId":"4645","providerTheaterId":"","name":"Regal Movies at Birkdale","address":"16950 Birkdale Commons Pkwy","city":"Huntersville","state":"NC","zip":"28078","distance":18.523490091033,"lon":"-80.878014","lat":"35.44637","theaterChainName":"Regal Cinemas","ticketType":"STANDARD"},{"id":"1658","tribuneTheaterId":"4754","providerTheaterId":"","name":"Carmike 10 Shelby","address":"2201-4 E. Dixson Blvd.","city":"Shelby","state":"NC","zip":"28150","distance":18.310227502006,"lon":"-81.482746","lat":"35.269515","theaterChainName":"Carmike Cinemas","ticketType":"STANDARD"},{"id":"1587","tribuneTheaterId":"1816","providerTheaterId":"","name":"State Cinema","address":"117 N. College Ave.","city":"Newton","state":"NC","zip":"28658","distance":17.973556888453,"lon":"-81.220853","lat":"35.663824","theaterChainName":"Independent Chains","ticketType":"STANDARD"},{"id":"4151","tribuneTheaterId":"4248","providerTheaterId":"680","name":"AMC Northlake 14","address":"7325 Northlake Mall Drive","city":"Charlotte","state":"NC","zip":"28216","distance":19.917028115745,"lon":"-80.8552","lat":"35.3519","theaterChainName":"AMC Theatres","ticketType":"STANDARD"},{"id":"2217","tribuneTheaterId":"4758","providerTheaterId":"","name":"Carmike 14 Hickory","address":"2000 SE Catawba Valley Blvd","city":"Hickory","state":"NC","zip":"28603","distance":21.197937159573,"lon":"-81.304273","lat":"35.699608","theaterChainName":"Carmike Cinemas","ticketType":"STANDARD"},{"id":"4873","tribuneTheaterId":"10178","providerTheaterId":"","name":"Our Town Cinemas","address":"227 Griffith St.","city":"Davidson","state":"NC","zip":"28036","distance":21.052978931147,"lon":"-80.8488","lat":"35.5023","theaterChainName":"Independent Chains","ticketType":"STANDARD"},{"id":"4666","tribuneTheaterId":"9865","providerTheaterId":"","name":"Carolina Theater","address":"222 1st Avenue NW","city":"Hickory","state":"NC","zip":"28601","distance":24.020600516096,"lon":"-81.3403","lat":"35.7333","theaterChainName":"Independent Chains","ticketType":"STANDARD"},{"id":"4259","tribuneTheaterId":"2359","providerTheaterId":"","name":"Ayrsley Grand 14","address":"9110 Kings Parade Blvd.","city":"Charlotte","state":"NC","zip":"28273","distance":23.843656739539,"lon":"-80.932409","lat":"35.138918","theaterChainName":"Southeast Cinemas","ticketType":"STANDARD"},{"id":"2903","tribuneTheaterId":"6540","providerTheaterId":"","name":"AmStar Cinemas 14","address":"206 Norman Station Blvd.","city":"Mooresville","state":"NC","zip":"28117","distance":23.216517451282,"lon":"-80.857202","lat":"35.587654","theaterChainName":"Southern Theatres","ticketType":"STANDARD"},{"id":"5310","tribuneTheaterId":"10747","providerTheaterId":"","name":"Studio Movie Grill EpiCentre","address":"210 E. Trade St.","city":"Charlotte","state":"NC","zip":"28202","distance":23.784931258178,"lon":"-80.8418","lat":"35.2261","theaterChainName":"Studio Movie Grill","ticketType":"SELECT_SEATING"}]