[{"id":"854","name":"Regal Starlight Cinema 14","address":"11240 US Hwy 29","city":"Charlotte","state":"NC","zip":"28262","distance":"23.981830596923828","lon":"-80.717140","lat":"35.333202","theaterChainName":"Regal Cinemas","ticketType":"STANDARD"},{"id":"5854","name":"NCG Monroe","address":"1911 Dickerson Blvd.","city":"Monroe","state":"NC","zip":"28110","distance":"0.3721790611743927","lon":"-80.563713","lat":"35.007713","theaterChainName":"NCG Cinemas","ticketType":"STANDARD"},{"id":"5180","name":"Sun Valley 14","address":"6449 Old Monroe Rd.","city":"Indian Trail","state":"NC","zip":"28079","distance":"5.696559906005859","lon":"-80.646378","lat":"35.051727","theaterChainName":"Stone Theatres","ticketType":"STANDARD"},{"id":"5843","name":"Carolina Movies 10","address":"9508 Northeast Ct.","city":"Matthews","state":"NC","zip":"28105","distance":"12.528972625732422","lon":"-80.715164","lat":"35.139580","theaterChainName":"Carolina Cinemas","ticketType":"STANDARD"},{"id":"925","name":"Cinemark Movies 10 Matthews","address":"9508 Northeast Ct","city":"Matthews","state":"NC","zip":"28105","distance":"12.528972625732422","lon":"-80.715164","lat":"35.139580","theaterChainName":"Cinemark","ticketType":"STANDARD"},{"id":"4598","name":"Charlotte Crownpoint","address":"9630 Monroe Road","city":"Charlotte","state":"NC","zip":"28270","distance":"13.64394474029541","lon":"-80.741333","lat":"35.140236","theaterChainName":"Carolina Cinemas","ticketType":"STANDARD"},{"id":"4259","name":"Ayrsley Grand 14","address":"9110 Kings Parade Blvd.","city":"Charlotte","state":"NC","zip":"28273","distance":"22.901777267456055","lon":"-80.932411","lat":"35.138920","theaterChainName":"Southeast Cinemas","ticketType":"STANDARD"},{"id":"5310","name":"Studio Movie Grill EpiCentre","address":"210 E. Trade St.","city":"Charlotte","state":"NC","zip":"28202","distance":"21.829071044921875","lon":"-80.841797","lat":"35.226101","theaterChainName":"Studio Movie Grill","ticketType":"SELECT_SEATING"},{"id":"927","name":"Regal Park Terrace Stadium 6","address":"4289 Park Road","city":"Charlotte","state":"NC","zip":"28209","distance":"19.905759811401367","lon":"-80.850082","lat":"35.172905","theaterChainName":"Regal Cinemas","ticketType":"STANDARD"},{"id":"232","name":"AMC Carolina Pavilion 22","address":"9541 South Blvd.","city":"Charlotte","state":"NC","zip":"28273","distance":"19.09385108947754","lon":"-80.874725","lat":"35.108372","theaterChainName":"AMC Theatres","ticketType":"STANDARD"},{"id":"856","name":"Regal Manor Theatre","address":"607 Providence Road","city":"Charlotte","state":"NC","zip":"28207","distance":"19.974870681762695","lon":"-80.824623","lat":"35.201572","theaterChainName":"Regal Cinemas","ticketType":"STANDARD"},{"id":"928","name":"Regal Phillips Place Stadium 10","address":"6911 Phillips Place Ct.","city":"Charlotte","state":"NC","zip":"28210","distance":"17.672603607177734","lon":"-80.824593","lat":"35.145611","theaterChainName":"Regal Cinemas","ticketType":"STANDARD"},{"id":"4741","name":"Regal Ballantyne Village Stadium 5","address":"14815 John J Delany Drive","city":"Charlotte","state":"NC","zip":"28277","distance":"16.894176483154297","lon":"-80.852898","lat":"35.053001","theaterChainName":"Regal Cinemas","ticketType":"STANDARD"},{"id":"1457","name":"Regal Stonecrest at Piper Glen 22 & IMAX","address":"7824 Rea Rd.","city":"Charlotte","state":"NC","zip":"28277","distance":"15.115120887756348","lon":"-80.818558","lat":"35.062012","theaterChainName":"Regal Cinemas","ticketType":"STANDARD"},{"id":"5213","name":"Cinebarre Arboretum","address":"8008 Providence Rd.","city":"Charlotte","state":"NC","zip":"28277","distance":"13.827973365783691","lon":"-80.778503","lat":"35.098801","theaterChainName":"Cinebarre","ticketType":"STANDARD"},{"id":"3082","name":"Regal Manchester Stadium 14","address":"1935 Cinema Dr","city":"Rock Hill","state":"SC","zip":"29730","distance":"24.180925369262695","lon":"-80.977898","lat":"34.944199","theaterChainName":"Regal Cinemas","ticketType":"STANDARD"}]