[{"id":"932","tribuneTheaterId":"3073","providerTheaterId":"","name":"Carolina Mall 8","address":"120 Country Club Drive NE","city":"Concord","state":"NC","zip":"28025","distance":10.599036596452,"lon":"-80.602688","lat":"35.440343","theaterChainName":"Southeast Cinemas","ticketType":"STANDARD"},{"id":"935","tribuneTheaterId":"217","providerTheaterId":"","name":"Gem Theatre - Kannapolis","address":"111 West 1st Street","city":"Kannapolis","state":"NC","zip":"28081","distance":13.024838697382,"lon":"-80.624532","lat":"35.498189","theaterChainName":"Independent Chains","ticketType":"STANDARD"},{"id":"931","tribuneTheaterId":"6523","providerTheaterId":"","name":"Eastgate Cinemas","address":"823 Highway 24\/27 East","city":"Albemarle","state":"NC","zip":"28001","distance":14.746724272779,"lon":"-80.167982","lat":"35.349025","theaterChainName":"Southeast Cinemas","ticketType":"STANDARD"},{"id":"1374","tribuneTheaterId":"4191","providerTheaterId":"","name":"Cinemark Tinseltown USA Salisbury","address":"305 Faith Rd.","city":"Salisbury","state":"NC","zip":"28146","distance":16.537246134706,"lon":"-80.462397","lat":"35.651091","theaterChainName":"Cinemark","ticketType":"STANDARD"},{"id":"2654","tribuneTheaterId":"8554","providerTheaterId":"683","name":"AMC Concord Mills 24","address":"8241 Concord Mills Blvd","city":"Concord","state":"NC","zip":"28027","distance":17.680256356415,"lon":"-80.726252","lat":"35.370278","theaterChainName":"AMC Theatres","ticketType":"STANDARD"},{"id":"854","tribuneTheaterId":"8053","providerTheaterId":"","name":"Regal Starlight Cinema 14","address":"11240 US Hwy 29","city":"Charlotte","state":"NC","zip":"28262","distance":17.814877999246,"lon":"-80.717143","lat":"35.333202","theaterChainName":"Regal Cinemas","ticketType":"STANDARD"}]