[{"id":"931","tribuneTheaterId":"6523","providerTheaterId":"","name":"Eastgate Cinemas","address":"823 Highway 24\/27 East","city":"Albemarle","state":"NC","zip":"28001","distance":12.091099429862,"lon":"-80.167982","lat":"35.349025","theaterChainName":"Southeast Cinemas","ticketType":"STANDARD"},{"id":"932","tribuneTheaterId":"3073","providerTheaterId":"","name":"Carolina Mall 8","address":"120 Country Club Drive NE","city":"Concord","state":"NC","zip":"28025","distance":19.933097517513,"lon":"-80.602688","lat":"35.440343","theaterChainName":"Southeast Cinemas","ticketType":"STANDARD"},{"id":"5854","tribuneTheaterId":"11267","providerTheaterId":"","name":"NCG Monroe","address":"1911 Dickerson Blvd.","city":"Monroe","state":"NC","zip":"28110","distance":20.713057143827,"lon":"-80.56371","lat":"35.007712","theaterChainName":"NCG Cinemas","ticketType":"STANDARD"},{"id":"5843","tribuneTheaterId":"11254","providerTheaterId":"","name":"Carolina Movies 10","address":"9508 Northeast Ct.","city":"Matthews","state":"NC","zip":"28105","distance":22.354006491667,"lon":"-80.715167","lat":"35.13958","theaterChainName":"Carolina Cinemas","ticketType":"STANDARD"},{"id":"925","tribuneTheaterId":"7495","providerTheaterId":"","name":"Cinemark Movies 10 Matthews","address":"9508 Northeast Ct","city":"Matthews","state":"NC","zip":"28105","distance":22.354006491667,"lon":"-80.715167","lat":"35.13958","theaterChainName":"Cinemark","ticketType":"STANDARD"},{"id":"854","tribuneTheaterId":"8053","providerTheaterId":"","name":"Regal Starlight Cinema 14","address":"11240 US Hwy 29","city":"Charlotte","state":"NC","zip":"28262","distance":22.036040662,"lon":"-80.717143","lat":"35.333202","theaterChainName":"Regal Cinemas","ticketType":"STANDARD"},{"id":"5180","tribuneTheaterId":"10594","providerTheaterId":"","name":"Sun Valley 14","address":"6449 Old Monroe Rd.","city":"Indian Trail","state":"NC","zip":"28079","distance":21.845396175191,"lon":"-80.646375","lat":"35.051729","theaterChainName":"Stone Theatres","ticketType":"STANDARD"},{"id":"4598","tribuneTheaterId":"9765","providerTheaterId":"","name":"Charlotte Crownpoint","address":"9630 Monroe Road","city":"Charlotte","state":"NC","zip":"28270","distance":23.739944966812,"lon":"-80.74133","lat":"35.140237","theaterChainName":"Carolina Cinemas","ticketType":"STANDARD"},{"id":"935","tribuneTheaterId":"217","providerTheaterId":"","name":"Gem Theatre - Kannapolis","address":"111 West 1st Street","city":"Kannapolis","state":"NC","zip":"28081","distance":23.627183486643,"lon":"-80.624532","lat":"35.498189","theaterChainName":"Independent Chains","ticketType":"STANDARD"},{"id":"2654","tribuneTheaterId":"8554","providerTheaterId":"683","name":"AMC Concord Mills 24","address":"8241 Concord Mills Blvd","city":"Concord","state":"NC","zip":"28027","distance":23.341893784021,"lon":"-80.726252","lat":"35.370278","theaterChainName":"AMC Theatres","ticketType":"STANDARD"}]