[{"id":"1658","tribuneTheaterId":"4754","providerTheaterId":"","name":"Carmike 10 Shelby","address":"2201-4 E. Dixson Blvd.","city":"Shelby","state":"NC","zip":"28150","distance":12.069397902595,"lon":"-81.482746","lat":"35.269515","theaterChainName":"Carmike Cinemas","ticketType":"STANDARD"},{"id":"5613","tribuneTheaterId":"11072","providerTheaterId":"","name":"Retro Cinema 4","address":"2270 US Highway 74A Bypass","city":"Forest City","state":"NC","zip":"28043","distance":15.430387057387,"lon":"-81.893022","lat":"35.333064","theaterChainName":"Independent Chains","ticketType":"STANDARD"},{"id":"1830","tribuneTheaterId":"6641","providerTheaterId":"","name":"Carmike 8 Lincolnton","address":"1700 N. Aspen St.","city":"Lincolnton","state":"NC","zip":"28092","distance":23.085259971395,"lon":"-81.240745","lat":"35.500626","theaterChainName":"Carmike Cinemas","ticketType":"STANDARD"},{"id":"4408","tribuneTheaterId":"9467","providerTheaterId":"","name":"Gaffney Entertainment Center","address":"1100 Factory Shopps Blvd","city":"Gaffney","state":"SC","zip":"29341","distance":22.270888828018,"lon":"-81.715547","lat":"35.081379","theaterChainName":"Independent Chains","ticketType":"STANDARD"},{"id":"3470","tribuneTheaterId":"2047","providerTheaterId":"","name":"Marquee Mimosa 7","address":"101 S. Green St.","city":"Morganton","state":"NC","zip":"28655","distance":24.394348523332,"lon":"-81.687072","lat":"35.746131","theaterChainName":"Marquee Cinemas","ticketType":"STANDARD"}]