[{"id":"1974","name":"Regal Movies @ Franklin Square","address":"3778 E. Franklin Boulevard","city":"Gastonia","state":"NC","zip":"28056","distance":"23.870830535888672","lon":"-81.110733","lat":"35.259964","theaterChainName":"Regal Cinemas","ticketType":"STANDARD"},{"id":"1830","name":"Carmike 8 Lincolnton","address":"1700 N. Aspen St.","city":"Lincolnton","state":"NC","zip":"28092","distance":"22.994037628173828","lon":"-81.240746","lat":"35.500626","theaterChainName":"Carmike Cinemas","ticketType":"STANDARD"},{"id":"1658","name":"Carmike 10 Shelby","address":"2201-4 E. Dixson Blvd.","city":"Shelby","state":"NC","zip":"28150","distance":"2.8750157356262207","lon":"-81.482742","lat":"35.269516","theaterChainName":"Carmike Cinemas","ticketType":"STANDARD"},{"id":"5613","name":"Retro Cinema 4","address":"2270 US Highway 74A Bypass","city":"Forest City","state":"NC","zip":"28043","distance":"20.742366790771484","lon":"-81.893021","lat":"35.333065","theaterChainName":"Independent Chains","ticketType":"STANDARD"},{"id":"4408","name":"Gaffney Entertainment Center","address":"1100 Factory Shopps Blvd","city":"Gaffney","state":"SC","zip":"29341","distance":"16.53422737121582","lon":"-81.715546","lat":"35.081379","theaterChainName":"Independent Chains","ticketType":"STANDARD"}]