[{"id":"1830","tribuneTheaterId":"6641","providerTheaterId":"","name":"Carmike 8 Lincolnton","address":"1700 N. Aspen St.","city":"Lincolnton","state":"NC","zip":"28092","distance":12.333804682047,"lon":"-81.240745","lat":"35.500626","theaterChainName":"Carmike Cinemas","ticketType":"STANDARD"},{"id":"2217","tribuneTheaterId":"4758","providerTheaterId":"","name":"Carmike 14 Hickory","address":"2000 SE Catawba Valley Blvd","city":"Hickory","state":"NC","zip":"28603","distance":15.215472002922,"lon":"-81.304273","lat":"35.699608","theaterChainName":"Carmike Cinemas","ticketType":"STANDARD"},{"id":"4666","tribuneTheaterId":"9865","providerTheaterId":"","name":"Carolina Theater","address":"222 1st Avenue NW","city":"Hickory","state":"NC","zip":"28601","distance":16.248481866597,"lon":"-81.3403","lat":"35.7333","theaterChainName":"Independent Chains","ticketType":"STANDARD"},{"id":"1658","tribuneTheaterId":"4754","providerTheaterId":"","name":"Carmike 10 Shelby","address":"2201-4 E. Dixson Blvd.","city":"Shelby","state":"NC","zip":"28150","distance":17.276211109946,"lon":"-81.482746","lat":"35.269515","theaterChainName":"Carmike Cinemas","ticketType":"STANDARD"},{"id":"1587","tribuneTheaterId":"1816","providerTheaterId":"","name":"State Cinema","address":"117 N. College Ave.","city":"Newton","state":"NC","zip":"28658","distance":16.712015592696,"lon":"-81.220853","lat":"35.663824","theaterChainName":"Independent Chains","ticketType":"STANDARD"},{"id":"3470","tribuneTheaterId":"2047","providerTheaterId":"","name":"Marquee Mimosa 7","address":"101 S. Green St.","city":"Morganton","state":"NC","zip":"28655","distance":20.270557942534,"lon":"-81.687072","lat":"35.746131","theaterChainName":"Marquee Cinemas","ticketType":"STANDARD"}]