[{"id":"5180","tribuneTheaterId":"10594","providerTheaterId":"","name":"Sun Valley 14","address":"6449 Old Monroe Rd.","city":"Indian Trail","state":"NC","zip":"28079","distance":15.986415026879,"lon":"-80.646375","lat":"35.051729","theaterChainName":"Stone Theatres","ticketType":"STANDARD"},{"id":"925","tribuneTheaterId":"7495","providerTheaterId":"","name":"Cinemark Movies 10 Matthews","address":"9508 Northeast Ct","city":"Matthews","state":"NC","zip":"28105","distance":16.259087006896,"lon":"-80.715167","lat":"35.13958","theaterChainName":"Cinemark","ticketType":"STANDARD"},{"id":"5854","tribuneTheaterId":"11267","providerTheaterId":"","name":"NCG Monroe","address":"1911 Dickerson Blvd.","city":"Monroe","state":"NC","zip":"28110","distance":15.647729077861,"lon":"-80.56371","lat":"35.007712","theaterChainName":"NCG Cinemas","ticketType":"STANDARD"},{"id":"5843","tribuneTheaterId":"11254","providerTheaterId":"","name":"Carolina Movies 10","address":"9508 Northeast Ct.","city":"Matthews","state":"NC","zip":"28105","distance":16.259087006896,"lon":"-80.715167","lat":"35.13958","theaterChainName":"Carolina Cinemas","ticketType":"STANDARD"},{"id":"931","tribuneTheaterId":"6523","providerTheaterId":"","name":"Eastgate Cinemas","address":"823 Highway 24\/27 East","city":"Albemarle","state":"NC","zip":"28001","distance":18.113243480559,"lon":"-80.167982","lat":"35.349025","theaterChainName":"Southeast Cinemas","ticketType":"STANDARD"},{"id":"932","tribuneTheaterId":"3073","providerTheaterId":"","name":"Carolina Mall 8","address":"120 Country Club Drive NE","city":"Concord","state":"NC","zip":"28025","distance":18.312828627644,"lon":"-80.602688","lat":"35.440343","theaterChainName":"Southeast Cinemas","ticketType":"STANDARD"},{"id":"4598","tribuneTheaterId":"9765","providerTheaterId":"","name":"Charlotte Crownpoint","address":"9630 Monroe Road","city":"Charlotte","state":"NC","zip":"28270","distance":17.660793608853,"lon":"-80.74133","lat":"35.140237","theaterChainName":"Carolina Cinemas","ticketType":"STANDARD"},{"id":"854","tribuneTheaterId":"8053","providerTheaterId":"","name":"Regal Starlight Cinema 14","address":"11240 US Hwy 29","city":"Charlotte","state":"NC","zip":"28262","distance":17.746205276288,"lon":"-80.717143","lat":"35.333202","theaterChainName":"Regal Cinemas","ticketType":"STANDARD"},{"id":"2654","tribuneTheaterId":"8554","providerTheaterId":"683","name":"AMC Concord Mills 24","address":"8241 Concord Mills Blvd","city":"Concord","state":"NC","zip":"28027","distance":19.520777141416,"lon":"-80.726252","lat":"35.370278","theaterChainName":"AMC Theatres","ticketType":"STANDARD"},{"id":"5213","tribuneTheaterId":"10637","providerTheaterId":"","name":"Cinebarre Arboretum","address":"8008 Providence Rd.","city":"Charlotte","state":"NC","zip":"28277","distance":20.58686157901,"lon":"-80.778503","lat":"35.098801","theaterChainName":"Cinebarre","ticketType":"STANDARD"},{"id":"928","tribuneTheaterId":"5862","providerTheaterId":"","name":"Regal Phillips Place Stadium 10","address":"6911 Phillips Place Ct.","city":"Charlotte","state":"NC","zip":"28210","distance":22.140063267839,"lon":"-80.824589","lat":"35.145609","theaterChainName":"Regal Cinemas","ticketType":"STANDARD"},{"id":"856","tribuneTheaterId":"7896","providerTheaterId":"","name":"Regal Manor Theatre","address":"607 Providence Road","city":"Charlotte","state":"NC","zip":"28207","distance":21.683395505511,"lon":"-80.824624","lat":"35.201571","theaterChainName":"Regal Cinemas","ticketType":"STANDARD"},{"id":"1457","tribuneTheaterId":"7569","providerTheaterId":"","name":"Regal Stonecrest at Piper Glen 22 & IMAX","address":"7824 Rea Rd.","city":"Charlotte","state":"NC","zip":"28277","distance":23.690438758093,"lon":"-80.81856","lat":"35.062013","theaterChainName":"Regal Cinemas","ticketType":"STANDARD"},{"id":"927","tribuneTheaterId":"8337","providerTheaterId":"","name":"Regal Park Terrace Stadium 6","address":"4289 Park Road","city":"Charlotte","state":"NC","zip":"28209","distance":23.26199531438,"lon":"-80.850082","lat":"35.172904","theaterChainName":"Regal Cinemas","ticketType":"STANDARD"},{"id":"5310","tribuneTheaterId":"10747","providerTheaterId":"","name":"Studio Movie Grill EpiCentre","address":"210 E. Trade St.","city":"Charlotte","state":"NC","zip":"28202","distance":22.665982898581,"lon":"-80.8418","lat":"35.2261","theaterChainName":"Studio Movie Grill","ticketType":"SELECT_SEATING"},{"id":"935","tribuneTheaterId":"217","providerTheaterId":"","name":"Gem Theatre - Kannapolis","address":"111 West 1st Street","city":"Kannapolis","state":"NC","zip":"28081","distance":22.408684733783,"lon":"-80.624532","lat":"35.498189","theaterChainName":"Independent Chains","ticketType":"STANDARD"}]