[{"id":"1587","name":"State Cinema","address":"117 N. College Ave.","city":"Newton","state":"NC","zip":"28658","distance":"16.712923049926758","lon":"-81.220856","lat":"35.663822","theaterChainName":"Independent Chains","ticketType":"STANDARD"},{"id":"1830","name":"Carmike 8 Lincolnton","address":"1700 N. Aspen St.","city":"Lincolnton","state":"NC","zip":"28092","distance":"12.334558486938477","lon":"-81.240746","lat":"35.500626","theaterChainName":"Carmike Cinemas","ticketType":"STANDARD"},{"id":"1658","name":"Carmike 10 Shelby","address":"2201-4 E. Dixson Blvd.","city":"Shelby","state":"NC","zip":"28150","distance":"17.277114868164062","lon":"-81.482742","lat":"35.269516","theaterChainName":"Carmike Cinemas","ticketType":"STANDARD"},{"id":"3470","name":"Marquee Mimosa 7","address":"101 S. Green St.","city":"Morganton","state":"NC","zip":"28655","distance":"20.271936416625977","lon":"-81.687073","lat":"35.746132","theaterChainName":"Marquee Cinemas","ticketType":"STANDARD"},{"id":"2217","name":"Carmike 14 Hickory","address":"2000 SE Catawba Valley Blvd","city":"Hickory","state":"NC","zip":"28603","distance":"15.21640682220459","lon":"-81.304276","lat":"35.699608","theaterChainName":"Carmike Cinemas","ticketType":"STANDARD"},{"id":"4666","name":"Carolina Theater","address":"222 1st Avenue NW","city":"Hickory","state":"NC","zip":"28601","distance":"16.24949073791504","lon":"-81.340302","lat":"35.733299","theaterChainName":"Independent Chains","ticketType":"STANDARD"}]