[{"id":"2903","name":"AmStar Cinemas 14","address":"206 Norman Station Blvd.","city":"Mooresville","state":"NC","zip":"28117","distance":"21.130062103271484","lon":"-80.857201","lat":"35.587654","theaterChainName":"Southern Theatres","ticketType":"STANDARD"},{"id":"4873","name":"Our Town Cinemas","address":"227 Griffith St.","city":"Davidson","state":"NC","zip":"28036","distance":"17.378101348876953","lon":"-80.848801","lat":"35.502300","theaterChainName":"Independent Chains","ticketType":"STANDARD"},{"id":"3186","name":"Regal Movies at Birkdale","address":"16950 Birkdale Commons Pkwy","city":"Huntersville","state":"NC","zip":"28078","distance":"13.910065650939941","lon":"-80.878014","lat":"35.446369","theaterChainName":"Regal Cinemas","ticketType":"STANDARD"},{"id":"2654","name":"AMC Concord Mills 24","address":"8241 Concord Mills Blvd","city":"Concord","state":"NC","zip":"28027","distance":"20.870040893554688","lon":"-80.726250","lat":"35.370277","theaterChainName":"AMC Theatres","ticketType":"STANDARD"},{"id":"854","name":"Regal Starlight Cinema 14","address":"11240 US Hwy 29","city":"Charlotte","state":"NC","zip":"28262","distance":"21.386144638061523","lon":"-80.717140","lat":"35.333202","theaterChainName":"Regal Cinemas","ticketType":"STANDARD"},{"id":"4151","name":"AMC Northlake 14","address":"7325 Northlake Mall Drive","city":"Charlotte","state":"NC","zip":"28216","distance":"13.565140724182129","lon":"-80.855202","lat":"35.351898","theaterChainName":"AMC Theatres","ticketType":"STANDARD"},{"id":"1587","name":"State Cinema","address":"117 N. College Ave.","city":"Newton","state":"NC","zip":"28658","distance":"22.689762115478516","lon":"-81.220856","lat":"35.663822","theaterChainName":"Independent Chains","ticketType":"STANDARD"},{"id":"4598","name":"Charlotte Crownpoint","address":"9630 Monroe Road","city":"Charlotte","state":"NC","zip":"28270","distance":"24.77179527282715","lon":"-80.741333","lat":"35.140236","theaterChainName":"Carolina Cinemas","ticketType":"STANDARD"},{"id":"1974","name":"Regal Movies @ Franklin Square","address":"3778 E. Franklin Boulevard","city":"Gastonia","state":"NC","zip":"28056","distance":"6.386866092681885","lon":"-81.110733","lat":"35.259964","theaterChainName":"Regal Cinemas","ticketType":"STANDARD"},{"id":"4259","name":"Ayrsley Grand 14","address":"9110 Kings Parade Blvd.","city":"Charlotte","state":"NC","zip":"28273","distance":"17.35173225402832","lon":"-80.932411","lat":"35.138920","theaterChainName":"Southeast Cinemas","ticketType":"STANDARD"},{"id":"5310","name":"Studio Movie Grill EpiCentre","address":"210 E. Trade St.","city":"Charlotte","state":"NC","zip":"28202","distance":"16.75103187561035","lon":"-80.841797","lat":"35.226101","theaterChainName":"Studio Movie Grill","ticketType":"SELECT_SEATING"},{"id":"927","name":"Regal Park Terrace Stadium 6","address":"4289 Park Road","city":"Charlotte","state":"NC","zip":"28209","distance":"18.568984985351562","lon":"-80.850082","lat":"35.172905","theaterChainName":"Regal Cinemas","ticketType":"STANDARD"},{"id":"232","name":"AMC Carolina Pavilion 22","address":"9541 South Blvd.","city":"Charlotte","state":"NC","zip":"28273","distance":"20.935592651367188","lon":"-80.874725","lat":"35.108372","theaterChainName":"AMC Theatres","ticketType":"STANDARD"},{"id":"856","name":"Regal Manor Theatre","address":"607 Providence Road","city":"Charlotte","state":"NC","zip":"28207","distance":"18.483430862426758","lon":"-80.824623","lat":"35.201572","theaterChainName":"Regal Cinemas","ticketType":"STANDARD"},{"id":"928","name":"Regal Phillips Place Stadium 10","address":"6911 Phillips Place Ct.","city":"Charlotte","state":"NC","zip":"28210","distance":"20.903945922851562","lon":"-80.824593","lat":"35.145611","theaterChainName":"Regal Cinemas","ticketType":"STANDARD"},{"id":"4741","name":"Regal Ballantyne Village Stadium 5","address":"14815 John J Delany Drive","city":"Charlotte","state":"NC","zip":"28277","distance":"24.77789878845215","lon":"-80.852898","lat":"35.053001","theaterChainName":"Regal Cinemas","ticketType":"STANDARD"},{"id":"1830","name":"Carmike 8 Lincolnton","address":"1700 N. Aspen St.","city":"Lincolnton","state":"NC","zip":"28092","distance":"13.135643005371094","lon":"-81.240746","lat":"35.500626","theaterChainName":"Carmike Cinemas","ticketType":"STANDARD"},{"id":"1658","name":"Carmike 10 Shelby","address":"2201-4 E. Dixson Blvd.","city":"Shelby","state":"NC","zip":"28150","distance":"22.53766632080078","lon":"-81.482742","lat":"35.269516","theaterChainName":"Carmike Cinemas","ticketType":"STANDARD"}]