[{"id":"5854","tribuneTheaterId":"11267","providerTheaterId":"","name":"NCG Monroe","address":"1911 Dickerson Blvd.","city":"Monroe","state":"NC","zip":"28110","distance":6.7614896381824,"lon":"-80.56371","lat":"35.007712","theaterChainName":"NCG Cinemas","ticketType":"STANDARD"},{"id":"5180","tribuneTheaterId":"10594","providerTheaterId":"","name":"Sun Valley 14","address":"6449 Old Monroe Rd.","city":"Indian Trail","state":"NC","zip":"28079","distance":12.163891316827,"lon":"-80.646375","lat":"35.051729","theaterChainName":"Stone Theatres","ticketType":"STANDARD"},{"id":"925","tribuneTheaterId":"7495","providerTheaterId":"","name":"Cinemark Movies 10 Matthews","address":"9508 Northeast Ct","city":"Matthews","state":"NC","zip":"28105","distance":18.53372202316,"lon":"-80.715167","lat":"35.13958","theaterChainName":"Cinemark","ticketType":"STANDARD"},{"id":"5843","tribuneTheaterId":"11254","providerTheaterId":"","name":"Carolina Movies 10","address":"9508 Northeast Ct.","city":"Matthews","state":"NC","zip":"28105","distance":18.53372202316,"lon":"-80.715167","lat":"35.13958","theaterChainName":"Carolina Cinemas","ticketType":"STANDARD"},{"id":"5213","tribuneTheaterId":"10637","providerTheaterId":"","name":"Cinebarre Arboretum","address":"8008 Providence Rd.","city":"Charlotte","state":"NC","zip":"28277","distance":20.311241398239,"lon":"-80.778503","lat":"35.098801","theaterChainName":"Cinebarre","ticketType":"STANDARD"},{"id":"4598","tribuneTheaterId":"9765","providerTheaterId":"","name":"Charlotte Crownpoint","address":"9630 Monroe Road","city":"Charlotte","state":"NC","zip":"28270","distance":19.784845944224,"lon":"-80.74133","lat":"35.140237","theaterChainName":"Carolina Cinemas","ticketType":"STANDARD"},{"id":"1457","tribuneTheaterId":"7569","providerTheaterId":"","name":"Regal Stonecrest at Piper Glen 22 & IMAX","address":"7824 Rea Rd.","city":"Charlotte","state":"NC","zip":"28277","distance":21.658631254243,"lon":"-80.81856","lat":"35.062013","theaterChainName":"Regal Cinemas","ticketType":"STANDARD"},{"id":"928","tribuneTheaterId":"5862","providerTheaterId":"","name":"Regal Phillips Place Stadium 10","address":"6911 Phillips Place Ct.","city":"Charlotte","state":"NC","zip":"28210","distance":24.044462687681,"lon":"-80.824589","lat":"35.145609","theaterChainName":"Regal Cinemas","ticketType":"STANDARD"},{"id":"4741","tribuneTheaterId":"9965","providerTheaterId":"","name":"Regal Ballantyne Village Stadium 5","address":"14815 John J Delany Drive","city":"Charlotte","state":"NC","zip":"28277","distance":23.414318532827,"lon":"-80.8529","lat":"35.053","theaterChainName":"Regal Cinemas","ticketType":"STANDARD"}]