[{"id":"5854","name":"NCG Monroe","address":"1911 Dickerson Blvd.","city":"Monroe","state":"NC","zip":"28110","distance":"6.762038707733154","lon":"-80.563713","lat":"35.007713","theaterChainName":"NCG Cinemas","ticketType":"STANDARD"},{"id":"5180","name":"Sun Valley 14","address":"6449 Old Monroe Rd.","city":"Indian Trail","state":"NC","zip":"28079","distance":"12.164685249328613","lon":"-80.646378","lat":"35.051727","theaterChainName":"Stone Theatres","ticketType":"STANDARD"},{"id":"5843","name":"Carolina Movies 10","address":"9508 Northeast Ct.","city":"Matthews","state":"NC","zip":"28105","distance":"18.534700393676758","lon":"-80.715164","lat":"35.139580","theaterChainName":"Carolina Cinemas","ticketType":"STANDARD"},{"id":"925","name":"Cinemark Movies 10 Matthews","address":"9508 Northeast Ct","city":"Matthews","state":"NC","zip":"28105","distance":"18.534700393676758","lon":"-80.715164","lat":"35.139580","theaterChainName":"Cinemark","ticketType":"STANDARD"},{"id":"4598","name":"Charlotte Crownpoint","address":"9630 Monroe Road","city":"Charlotte","state":"NC","zip":"28270","distance":"19.78614044189453","lon":"-80.741333","lat":"35.140236","theaterChainName":"Carolina Cinemas","ticketType":"STANDARD"},{"id":"928","name":"Regal Phillips Place Stadium 10","address":"6911 Phillips Place Ct.","city":"Charlotte","state":"NC","zip":"28210","distance":"24.0461483001709","lon":"-80.824593","lat":"35.145611","theaterChainName":"Regal Cinemas","ticketType":"STANDARD"},{"id":"4741","name":"Regal Ballantyne Village Stadium 5","address":"14815 John J Delany Drive","city":"Charlotte","state":"NC","zip":"28277","distance":"23.41559600830078","lon":"-80.852898","lat":"35.053001","theaterChainName":"Regal Cinemas","ticketType":"STANDARD"},{"id":"1457","name":"Regal Stonecrest at Piper Glen 22 & IMAX","address":"7824 Rea Rd.","city":"Charlotte","state":"NC","zip":"28277","distance":"21.65976905822754","lon":"-80.818558","lat":"35.062012","theaterChainName":"Regal Cinemas","ticketType":"STANDARD"},{"id":"5213","name":"Cinebarre Arboretum","address":"8008 Providence Rd.","city":"Charlotte","state":"NC","zip":"28277","distance":"20.312463760375977","lon":"-80.778503","lat":"35.098801","theaterChainName":"Cinebarre","ticketType":"STANDARD"}]