[{"id":"5588","tribuneTheaterId":"11041","providerTheaterId":"","name":"Carmike Patriot 14 + IMAX","address":"4761 Lake Valley Drive","city":"Fayetteville","state":"NC","zip":"28303","distance":4.7905889258946,"lon":"-78.9653","lat":"35.0793","theaterChainName":"Carmike Cinemas","ticketType":"STANDARD"},{"id":"2229","tribuneTheaterId":"4757","providerTheaterId":"","name":"Carmike 12 Fayetteville","address":"362 Westwood Shopping Ctr","city":"Fayetteville","state":"NC","zip":"28314","distance":5.9032759556988,"lon":"-78.954545","lat":"35.065701","theaterChainName":"Carmike Cinemas","ticketType":"STANDARD"},{"id":"3113","tribuneTheaterId":"4760","providerTheaterId":"","name":"Carmike Market Fair 15","address":"1916 Skibo Road","city":"Fayetteville","state":"NC","zip":"28314","distance":5.3177369612724,"lon":"-78.969643","lat":"35.069482","theaterChainName":"Carmike Cinemas","ticketType":"STANDARD"},{"id":"2215","tribuneTheaterId":"4751","providerTheaterId":"","name":"Carmike Wynnsong 7 Fayetteville","address":"3039 Boone Trail","city":"Fayetteville","state":"NC","zip":"28304","distance":8.8949242143141,"lon":"-78.926202","lat":"35.029015","theaterChainName":"Carmike Cinemas","ticketType":"STANDARD"},{"id":"4838","tribuneTheaterId":"10114","providerTheaterId":"","name":"Millstone 14","address":"3400 Footbridge Lane","city":"Fayetteville","state":"NC","zip":"28306","distance":11.297515359695,"lon":"-78.974125","lat":"34.979747","theaterChainName":"Stone Theatres","ticketType":"STANDARD"},{"id":"4985","tribuneTheaterId":"10352","providerTheaterId":"","name":"Sunrise Theater","address":"250 NW Broad St.","city":"Southern Pines","state":"NC","zip":"28387","distance":22.031083273609,"lon":"-79.39034","lat":"35.175211","theaterChainName":"Independent Chains","ticketType":"STANDARD"},{"id":"3224","tribuneTheaterId":"2238","providerTheaterId":"","name":"Sand Hills Cinemas 10","address":"104 Brucewood Rd.","city":"Southern Pines","state":"NC","zip":"28387","distance":23.739579992671,"lon":"-79.420931","lat":"35.173567","theaterChainName":"Frank Theatres","ticketType":"STANDARD"}]