[{"id":"1033","tribuneTheaterId":"1086","providerTheaterId":"","name":"Howell Theatre","address":"141 S 3rd Street","city":"Smithfield","state":"NC","zip":"27577","distance":22.850021944851,"lon":"-78.346552","lat":"35.510066","theaterChainName":"Independent Chains","ticketType":"STANDARD"},{"id":"3928","tribuneTheaterId":"5050","providerTheaterId":"","name":"Smithfield 10","address":"175 South Equity Dr.","city":"Smithfield","state":"NC","zip":"27577","distance":23.953619307227,"lon":"-78.322539","lat":"35.508994","theaterChainName":"Independent Chains","ticketType":"STANDARD"},{"id":"2229","tribuneTheaterId":"4757","providerTheaterId":"","name":"Carmike 12 Fayetteville","address":"362 Westwood Shopping Ctr","city":"Fayetteville","state":"NC","zip":"28314","distance":23.670019960412,"lon":"-78.954545","lat":"35.065701","theaterChainName":"Carmike Cinemas","ticketType":"STANDARD"},{"id":"3113","tribuneTheaterId":"4760","providerTheaterId":"","name":"Carmike Market Fair 15","address":"1916 Skibo Road","city":"Fayetteville","state":"NC","zip":"28314","distance":24.02953151311,"lon":"-78.969643","lat":"35.069482","theaterChainName":"Carmike Cinemas","ticketType":"STANDARD"},{"id":"5588","tribuneTheaterId":"11041","providerTheaterId":"","name":"Carmike Patriot 14 + IMAX","address":"4761 Lake Valley Drive","city":"Fayetteville","state":"NC","zip":"28303","distance":23.361361400866,"lon":"-78.9653","lat":"35.0793","theaterChainName":"Carmike Cinemas","ticketType":"STANDARD"},{"id":"2215","tribuneTheaterId":"4751","providerTheaterId":"","name":"Carmike Wynnsong 7 Fayetteville","address":"3039 Boone Trail","city":"Fayetteville","state":"NC","zip":"28304","distance":24.757085098687,"lon":"-78.926202","lat":"35.029015","theaterChainName":"Carmike Cinemas","ticketType":"STANDARD"}]