[{"id":"5588","name":"Carmike Patriot 14 + IMAX","address":"4761 Lake Valley Drive","city":"Fayetteville","state":"NC","zip":"28303","distance":"5.141968727111816","lon":"-78.965302","lat":"35.079300","theaterChainName":"Carmike Cinemas","ticketType":"STANDARD"},{"id":"3113","name":"Carmike Market Fair 15","address":"1916 Skibo Road","city":"Fayetteville","state":"NC","zip":"28314","distance":"4.464221000671387","lon":"-78.969643","lat":"35.069481","theaterChainName":"Carmike Cinemas","ticketType":"STANDARD"},{"id":"2229","name":"Carmike 12 Fayetteville","address":"362 Westwood Shopping Ctr","city":"Fayetteville","state":"NC","zip":"28314","distance":"4.262582302093506","lon":"-78.954544","lat":"35.065701","theaterChainName":"Carmike Cinemas","ticketType":"STANDARD"},{"id":"2215","name":"Carmike Wynnsong 7 Fayetteville","address":"3039 Boone Trail","city":"Fayetteville","state":"NC","zip":"28304","distance":"2.861011028289795","lon":"-78.926201","lat":"35.029015","theaterChainName":"Carmike Cinemas","ticketType":"STANDARD"},{"id":"4838","name":"Millstone 14","address":"3400 Footbridge Lane","city":"Fayetteville","state":"NC","zip":"28306","distance":"1.7805492877960205","lon":"-78.974129","lat":"34.979748","theaterChainName":"Stone Theatres","ticketType":"STANDARD"}]