[{"id":"3737","name":"Spring Lane Cinema","address":"1351 Douglas Drive","city":"Sanford","state":"NC","zip":"27330","distance":"19.04773712158203","lon":"-79.197701","lat":"35.488602","theaterChainName":"Frank Theatres","ticketType":"STANDARD"},{"id":"4985","name":"Sunrise Theater","address":"250 NW Broad St.","city":"Southern Pines","state":"NC","zip":"28387","distance":"8.108380317687988","lon":"-79.390343","lat":"35.175213","theaterChainName":"Independent Chains","ticketType":"STANDARD"},{"id":"3224","name":"Sand Hills Cinemas 10","address":"104 Brucewood Rd.","city":"Southern Pines","state":"NC","zip":"28387","distance":"9.775650024414062","lon":"-79.420929","lat":"35.173569","theaterChainName":"Frank Theatres","ticketType":"STANDARD"},{"id":"5588","name":"Carmike Patriot 14 + IMAX","address":"4761 Lake Valley Drive","city":"Fayetteville","state":"NC","zip":"28303","distance":"18.994373321533203","lon":"-78.965302","lat":"35.079300","theaterChainName":"Carmike Cinemas","ticketType":"STANDARD"},{"id":"3113","name":"Carmike Market Fair 15","address":"1916 Skibo Road","city":"Fayetteville","state":"NC","zip":"28314","distance":"19.136255264282227","lon":"-78.969643","lat":"35.069481","theaterChainName":"Carmike Cinemas","ticketType":"STANDARD"},{"id":"2229","name":"Carmike 12 Fayetteville","address":"362 Westwood Shopping Ctr","city":"Fayetteville","state":"NC","zip":"28314","distance":"19.998998641967773","lon":"-78.954544","lat":"35.065701","theaterChainName":"Carmike Cinemas","ticketType":"STANDARD"},{"id":"2215","name":"Carmike Wynnsong 7 Fayetteville","address":"3039 Boone Trail","city":"Fayetteville","state":"NC","zip":"28304","distance":"22.731853485107422","lon":"-78.926201","lat":"35.029015","theaterChainName":"Carmike Cinemas","ticketType":"STANDARD"},{"id":"4838","name":"Millstone 14","address":"3400 Footbridge Lane","city":"Fayetteville","state":"NC","zip":"28306","distance":"22.87494468688965","lon":"-78.974129","lat":"34.979748","theaterChainName":"Stone Theatres","ticketType":"STANDARD"}]