[{"id":"4686","tribuneTheaterId":"9893","providerTheaterId":"","name":"Town & Country Four Theatre","address":"3525 Fayetteville Rd.","city":"Lumberton","state":"NC","zip":"28358","distance":17.533328867913,"lon":"-78.999338","lat":"34.642088","theaterChainName":"Independent Chains","ticketType":"STANDARD"},{"id":"4838","tribuneTheaterId":"10114","providerTheaterId":"","name":"Millstone 14","address":"3400 Footbridge Lane","city":"Fayetteville","state":"NC","zip":"28306","distance":20.224825088478,"lon":"-78.974125","lat":"34.979747","theaterChainName":"Stone Theatres","ticketType":"STANDARD"},{"id":"2215","tribuneTheaterId":"4751","providerTheaterId":"","name":"Carmike Wynnsong 7 Fayetteville","address":"3039 Boone Trail","city":"Fayetteville","state":"NC","zip":"28304","distance":21.289316261259,"lon":"-78.926202","lat":"35.029015","theaterChainName":"Carmike Cinemas","ticketType":"STANDARD"},{"id":"2229","tribuneTheaterId":"4757","providerTheaterId":"","name":"Carmike 12 Fayetteville","address":"362 Westwood Shopping Ctr","city":"Fayetteville","state":"NC","zip":"28314","distance":24.288291576945,"lon":"-78.954545","lat":"35.065701","theaterChainName":"Carmike Cinemas","ticketType":"STANDARD"},{"id":"3113","tribuneTheaterId":"4760","providerTheaterId":"","name":"Carmike Market Fair 15","address":"1916 Skibo Road","city":"Fayetteville","state":"NC","zip":"28314","distance":24.965556545701,"lon":"-78.969643","lat":"35.069482","theaterChainName":"Carmike Cinemas","ticketType":"STANDARD"}]