[{"id":"6103","name":"The Point 14","address":"2223 Blockbuster Blvd.","city":"Wilmington","state":"NC","zip":"28412","distance":"20.91973304748535","lon":"-77.916733","lat":"34.179920","theaterChainName":"Stone Theatres","ticketType":"STANDARD"},{"id":"3058","name":"Carmike Cinema 16 Wilmington","address":"111 Cinema Drive","city":"Wilmington","state":"NC","zip":"28403","distance":"21.27012825012207","lon":"-77.892075","lat":"34.239727","theaterChainName":"Carmike Cinemas","ticketType":"STANDARD"},{"id":"5591","name":"Cinematique of Wilmington","address":"310 Chestnut St.","city":"Wilmington","state":"NC","zip":"28401","distance":"18.09204864501953","lon":"-77.948662","lat":"34.238529","theaterChainName":"Independent Chains","ticketType":"STANDARD"},{"id":"4152","name":"Mayfaire Stadium 16 & IMAX","address":"900 Town Center Drive","city":"Wilmington","state":"NC","zip":"28405","distance":"24.60255241394043","lon":"-77.832764","lat":"34.242645","theaterChainName":"Regal Cinemas","ticketType":"STANDARD"},{"id":"3640","name":"Coastal Cinema 10","address":"5200 Bridgers Road","city":"Shallotte","state":"NC","zip":"28459","distance":"22.650068283081055","lon":"-78.401016","lat":"33.977268","theaterChainName":"Frank Theatres","ticketType":"STANDARD"}]