[{"id":"5591","tribuneTheaterId":"11044","providerTheaterId":"","name":"Cinematique of Wilmington","address":"310 Chestnut St.","city":"Wilmington","state":"NC","zip":"28401","distance":18.090960698098,"lon":"-77.948665","lat":"34.23853","theaterChainName":"Independent Chains","ticketType":"STANDARD"},{"id":"3058","tribuneTheaterId":"8426","providerTheaterId":"","name":"Carmike Cinema 16 Wilmington","address":"111 Cinema Drive","city":"Wilmington","state":"NC","zip":"28403","distance":21.269053796159,"lon":"-77.892074","lat":"34.239728","theaterChainName":"Carmike Cinemas","ticketType":"STANDARD"},{"id":"6103","tribuneTheaterId":"11517","providerTheaterId":"","name":"The Point 14","address":"2223 Blockbuster Blvd.","city":"Wilmington","state":"NC","zip":"28412","distance":20.918878704838,"lon":"-77.916729","lat":"34.17992","theaterChainName":"Stone Theatres","ticketType":"STANDARD"},{"id":"3640","tribuneTheaterId":"2241","providerTheaterId":"","name":"Coastal Cinema 10","address":"5200 Bridgers Road","city":"Shallotte","state":"NC","zip":"28459","distance":22.648841229006,"lon":"-78.401019","lat":"33.977267","theaterChainName":"Frank Theatres","ticketType":"STANDARD"},{"id":"4152","tribuneTheaterId":"2389","providerTheaterId":"","name":"Mayfaire Stadium 16 & IMAX","address":"900 Town Center Drive","city":"Wilmington","state":"NC","zip":"28405","distance":24.601164622306,"lon":"-77.832765","lat":"34.242646","theaterChainName":"Regal Cinemas","ticketType":"STANDARD"}]