[{"id":"2034","tribuneTheaterId":"1686","providerTheaterId":"","name":"Surf Cinema","address":"4836 Long Beach Rd. S.E.","city":"Southport","state":"NC","zip":"28461","distance":8.6627943075726,"lon":"-78.051172","lat":"33.948056","theaterChainName":"Southeast Cinemas","ticketType":"STANDARD"},{"id":"6103","tribuneTheaterId":"11517","providerTheaterId":"","name":"The Point 14","address":"2223 Blockbuster Blvd.","city":"Wilmington","state":"NC","zip":"28412","distance":12.941549235903,"lon":"-77.916729","lat":"34.17992","theaterChainName":"Stone Theatres","ticketType":"STANDARD"},{"id":"4152","tribuneTheaterId":"2389","providerTheaterId":"","name":"Mayfaire Stadium 16 & IMAX","address":"900 Town Center Drive","city":"Wilmington","state":"NC","zip":"28405","distance":17.824327417545,"lon":"-77.832765","lat":"34.242646","theaterChainName":"Regal Cinemas","ticketType":"STANDARD"},{"id":"5591","tribuneTheaterId":"11044","providerTheaterId":"","name":"Cinematique of Wilmington","address":"310 Chestnut St.","city":"Wilmington","state":"NC","zip":"28401","distance":17.129343093334,"lon":"-77.948665","lat":"34.23853","theaterChainName":"Independent Chains","ticketType":"STANDARD"},{"id":"3058","tribuneTheaterId":"8426","providerTheaterId":"","name":"Carmike Cinema 16 Wilmington","address":"111 Cinema Drive","city":"Wilmington","state":"NC","zip":"28403","distance":17.098412813826,"lon":"-77.892074","lat":"34.239728","theaterChainName":"Carmike Cinemas","ticketType":"STANDARD"}]