[{"id":"6103","name":"The Point 14","address":"2223 Blockbuster Blvd.","city":"Wilmington","state":"NC","zip":"28412","distance":"16.31662368774414","lon":"-77.916733","lat":"34.179920","theaterChainName":"Stone Theatres","ticketType":"STANDARD"},{"id":"3058","name":"Carmike Cinema 16 Wilmington","address":"111 Cinema Drive","city":"Wilmington","state":"NC","zip":"28403","distance":"20.664356231689453","lon":"-77.892075","lat":"34.239727","theaterChainName":"Carmike Cinemas","ticketType":"STANDARD"},{"id":"5591","name":"Cinematique of Wilmington","address":"310 Chestnut St.","city":"Wilmington","state":"NC","zip":"28401","distance":"19.521366119384766","lon":"-77.948662","lat":"34.238529","theaterChainName":"Independent Chains","ticketType":"STANDARD"},{"id":"4152","name":"Mayfaire Stadium 16 & IMAX","address":"900 Town Center Drive","city":"Wilmington","state":"NC","zip":"28405","distance":"22.406696319580078","lon":"-77.832764","lat":"34.242645","theaterChainName":"Regal Cinemas","ticketType":"STANDARD"},{"id":"2034","name":"Surf Cinema","address":"4836 Long Beach Rd. S.E.","city":"Southport","state":"NC","zip":"28461","distance":"1.4841876029968262","lon":"-78.051170","lat":"33.948055","theaterChainName":"Southeast Cinemas","ticketType":"STANDARD"},{"id":"3640","name":"Coastal Cinema 10","address":"5200 Bridgers Road","city":"Shallotte","state":"NC","zip":"28459","distance":"20.938817977905273","lon":"-78.401016","lat":"33.977268","theaterChainName":"Frank Theatres","ticketType":"STANDARD"}]