[{"id":"1896","name":"Neuse Blvd Cinema","address":"2500 Neuse Blvd","city":"New Bern","state":"NC","zip":"28562","distance":"19.323078155517578","lon":"-77.076530","lat":"35.118271","theaterChainName":"Independent Chains","ticketType":"STANDARD"},{"id":"1791","name":"Carmike 6 Havelock","address":"500 McCotter Blvd.","city":"Havelock","state":"NC","zip":"28532","distance":"19.20624351501465","lon":"-76.893120","lat":"34.855980","theaterChainName":"Carmike Cinemas","ticketType":"STANDARD"},{"id":"5273","name":"Patriot 12","address":"1000 Kelli Drive","city":"Jacksonville","state":"NC","zip":"28546","distance":"11.638060569763184","lon":"-77.417068","lat":"34.797215","theaterChainName":"Carmike Cinemas","ticketType":"STANDARD"},{"id":"3648","name":"Carmike 16 Jacksonville","address":"350 Western Blvd.","city":"Jacksonville","state":"NC","zip":"28541","distance":"11.0507173538208","lon":"-77.378128","lat":"34.763809","theaterChainName":"Carmike Cinemas","ticketType":"STANDARD"},{"id":"3359","name":"Emerald Plantation Cinemas","address":"8700 Emerald Dr.","city":"Emerald Isle","state":"NC","zip":"28594","distance":"17.611265182495117","lon":"-77.049904","lat":"34.662441","theaterChainName":"Independent Chains","ticketType":"STANDARD"}]