[{"id":"1896","tribuneTheaterId":"1482","providerTheaterId":"","name":"Neuse Blvd Cinema","address":"2500 Neuse Blvd","city":"New Bern","state":"NC","zip":"28562","distance":11.174422545365,"lon":"-77.076532","lat":"35.118272","theaterChainName":"Independent Chains","ticketType":"STANDARD"},{"id":"5273","tribuneTheaterId":"10708","providerTheaterId":"","name":"Patriot 12","address":"1000 Kelli Drive","city":"Jacksonville","state":"NC","zip":"28546","distance":18.45433959457,"lon":"-77.417071","lat":"34.797214","theaterChainName":"Carmike Cinemas","ticketType":"STANDARD"},{"id":"3648","tribuneTheaterId":"4762","providerTheaterId":"","name":"Carmike 16 Jacksonville","address":"350 Western Blvd.","city":"Jacksonville","state":"NC","zip":"28541","distance":19.317634094466,"lon":"-77.378125","lat":"34.76381","theaterChainName":"Carmike Cinemas","ticketType":"STANDARD"},{"id":"1791","tribuneTheaterId":"6640","providerTheaterId":"","name":"Carmike 6 Havelock","address":"500 McCotter Blvd.","city":"Havelock","state":"NC","zip":"28532","distance":21.958347569973,"lon":"-76.893123","lat":"34.855981","theaterChainName":"Carmike Cinemas","ticketType":"STANDARD"}]