[{"id":"4076","name":"Premiere Theatres 12","address":"105 Tenth Place","city":"Goldsboro","state":"NC","zip":"27534","distance":"15.91075611114502","lon":"-77.973183","lat":"35.400730","theaterChainName":"UEC Theatres","ticketType":"STANDARD"},{"id":"1673","name":"Carmike 10 Wilson","address":"1501 Ward Blvd. Suite 385","city":"Wilson","state":"NC","zip":"27893","distance":"23.664602279663086","lon":"-77.936180","lat":"35.724895","theaterChainName":"Carmike Cinemas","ticketType":"STANDARD"},{"id":"3593","name":"Premiere Theatre Kinston","address":"1176 Hillfarm Rd.","city":"Kinston","state":"NC","zip":"28504","distance":"12.716046333312988","lon":"-77.651314","lat":"35.263351","theaterChainName":"UEC Theatres","ticketType":"STANDARD"},{"id":"4346","name":"Regal Greenville Grande Stadium14","address":"750 SW Greenville Blvd","city":"Greenville","state":"NC","zip":"27834","distance":"18.63892364501953","lon":"-77.404495","lat":"35.572678","theaterChainName":"Regal Cinemas","ticketType":"STANDARD"},{"id":"1777","name":"Carmike 12 Greenville","address":"1685 E Firetower Rd","city":"Greenville","state":"NC","zip":"27858","distance":"20.637405395507812","lon":"-77.360992","lat":"35.566299","theaterChainName":"Carmike Cinemas","ticketType":"STANDARD"}]