[{"id":"1791","name":"Carmike 6 Havelock","address":"500 McCotter Blvd.","city":"Havelock","state":"NC","zip":"28532","distance":"17.49180030822754","lon":"-76.893120","lat":"34.855980","theaterChainName":"Carmike Cinemas","ticketType":"STANDARD"},{"id":"5273","name":"Patriot 12","address":"1000 Kelli Drive","city":"Jacksonville","state":"NC","zip":"28546","distance":"17.390216827392578","lon":"-77.417068","lat":"34.797215","theaterChainName":"Carmike Cinemas","ticketType":"STANDARD"},{"id":"3648","name":"Carmike 16 Jacksonville","address":"350 Western Blvd.","city":"Jacksonville","state":"NC","zip":"28541","distance":"14.51224136352539","lon":"-77.378128","lat":"34.763809","theaterChainName":"Carmike Cinemas","ticketType":"STANDARD"},{"id":"3359","name":"Emerald Plantation Cinemas","address":"8700 Emerald Dr.","city":"Emerald Isle","state":"NC","zip":"28594","distance":"5.458709239959717","lon":"-77.049904","lat":"34.662441","theaterChainName":"Independent Chains","ticketType":"STANDARD"},{"id":"3353","name":"Atlantic Station Cinemas","address":"Atlantic Sta Sphg Ctr.","city":"Atlantic Beach","state":"NC","zip":"28512","distance":"21.713611602783203","lon":"-76.752785","lat":"34.701500","theaterChainName":"Independent Chains","ticketType":"STANDARD"}]