[{"id":"4346","name":"Regal Greenville Grande Stadium14","address":"750 SW Greenville Blvd","city":"Greenville","state":"NC","zip":"27834","distance":"22.598167419433594","lon":"-77.404495","lat":"35.572678","theaterChainName":"Regal Cinemas","ticketType":"STANDARD"},{"id":"1668","name":"Carmike 7 Washington","address":"1109 Washington Square Mall","city":"Washington","state":"NC","zip":"27889","distance":"18.624277114868164","lon":"-77.057945","lat":"35.559429","theaterChainName":"Carmike Cinemas","ticketType":"STANDARD"},{"id":"6086","name":"Golden Ticket Cinema 7","address":"1109 W. 15th Street","city":"Washington","state":"NC","zip":"27889","distance":"18.66539764404297","lon":"-77.059952","lat":"35.560654","theaterChainName":"Independent Chains","ticketType":"STANDARD"},{"id":"1896","name":"Neuse Blvd Cinema","address":"2500 Neuse Blvd","city":"New Bern","state":"NC","zip":"28562","distance":"14.057347297668457","lon":"-77.076530","lat":"35.118271","theaterChainName":"Independent Chains","ticketType":"STANDARD"},{"id":"1777","name":"Carmike 12 Greenville","address":"1685 E Firetower Rd","city":"Greenville","state":"NC","zip":"27858","distance":"20.891063690185547","lon":"-77.360992","lat":"35.566299","theaterChainName":"Carmike Cinemas","ticketType":"STANDARD"}]