[{"id":"1777","tribuneTheaterId":"5745","providerTheaterId":"","name":"Carmike 12 Greenville","address":"1685 E Firetower Rd","city":"Greenville","state":"NC","zip":"27858","distance":2.8197149048933,"lon":"-77.360991","lat":"35.566301","theaterChainName":"Carmike Cinemas","ticketType":"STANDARD"},{"id":"4346","tribuneTheaterId":"9357","providerTheaterId":"","name":"Regal Greenville Grande Stadium14","address":"750 SW Greenville Blvd","city":"Greenville","state":"NC","zip":"27834","distance":2.8045335339094,"lon":"-77.404497","lat":"35.572677","theaterChainName":"Regal Cinemas","ticketType":"STANDARD"},{"id":"6086","tribuneTheaterId":"11499","providerTheaterId":"","name":"Golden Ticket Cinema 7","address":"1109 W. 15th Street","city":"Washington","state":"NC","zip":"27889","distance":18.704299592882,"lon":"-77.059949","lat":"35.560655","theaterChainName":"Independent Chains","ticketType":"STANDARD"},{"id":"1668","tribuneTheaterId":"8324","providerTheaterId":"","name":"Carmike 7 Washington","address":"1109 Washington Square Mall","city":"Washington","state":"NC","zip":"27889","distance":18.80831347428,"lon":"-77.057945","lat":"35.559429","theaterChainName":"Carmike Cinemas","ticketType":"STANDARD"},{"id":"3593","tribuneTheaterId":"2192","providerTheaterId":"","name":"Premiere Theatre Kinston","address":"1176 Hillfarm Rd.","city":"Kinston","state":"NC","zip":"28504","distance":23.740366380785,"lon":"-77.651315","lat":"35.263352","theaterChainName":"UEC Theatres","ticketType":"STANDARD"}]