[{"id":"3983","name":"Marquee Statesville 10","address":"1515 Cinema Way","city":"Statesville","state":"NC","zip":"28625","distance":"12.969244956970215","lon":"-80.861084","lat":"35.783569","theaterChainName":"Marquee Cinemas","ticketType":"STANDARD"},{"id":"2903","name":"AmStar Cinemas 14","address":"206 Norman Station Blvd.","city":"Mooresville","state":"NC","zip":"28117","distance":"12.434646606445312","lon":"-80.857201","lat":"35.587654","theaterChainName":"Southern Theatres","ticketType":"STANDARD"},{"id":"4873","name":"Our Town Cinemas","address":"227 Griffith St.","city":"Davidson","state":"NC","zip":"28036","distance":"16.48504638671875","lon":"-80.848801","lat":"35.502300","theaterChainName":"Independent Chains","ticketType":"STANDARD"},{"id":"3186","name":"Regal Movies at Birkdale","address":"16950 Birkdale Commons Pkwy","city":"Huntersville","state":"NC","zip":"28078","distance":"18.57124900817871","lon":"-80.878014","lat":"35.446369","theaterChainName":"Regal Cinemas","ticketType":"STANDARD"},{"id":"4151","name":"AMC Northlake 14","address":"7325 Northlake Mall Drive","city":"Charlotte","state":"NC","zip":"28216","distance":"24.91994857788086","lon":"-80.855202","lat":"35.351898","theaterChainName":"AMC Theatres","ticketType":"STANDARD"},{"id":"1587","name":"State Cinema","address":"117 N. College Ave.","city":"Newton","state":"NC","zip":"28658","distance":"9.609108924865723","lon":"-81.220856","lat":"35.663822","theaterChainName":"Independent Chains","ticketType":"STANDARD"},{"id":"1830","name":"Carmike 8 Lincolnton","address":"1700 N. Aspen St.","city":"Lincolnton","state":"NC","zip":"28092","distance":"16.15129852294922","lon":"-81.240746","lat":"35.500626","theaterChainName":"Carmike Cinemas","ticketType":"STANDARD"},{"id":"2217","name":"Carmike 14 Hickory","address":"2000 SE Catawba Valley Blvd","city":"Hickory","state":"NC","zip":"28603","distance":"14.348901748657227","lon":"-81.304276","lat":"35.699608","theaterChainName":"Carmike Cinemas","ticketType":"STANDARD"},{"id":"4666","name":"Carolina Theater","address":"222 1st Avenue NW","city":"Hickory","state":"NC","zip":"28601","distance":"16.751543045043945","lon":"-81.340302","lat":"35.733299","theaterChainName":"Independent Chains","ticketType":"STANDARD"}]