[{"id":"2228","tribuneTheaterId":"6637","providerTheaterId":"","name":"Carmike Westgate 2","address":"Old Morganton Rd","city":"Lenoir","state":"NC","zip":"28645","distance":0.52426910736195,"lon":"-81.535698","lat":"35.921101","theaterChainName":"Carmike Cinemas","ticketType":"STANDARD"},{"id":"3470","tribuneTheaterId":"2047","providerTheaterId":"","name":"Marquee Mimosa 7","address":"101 S. Green St.","city":"Morganton","state":"NC","zip":"28655","distance":14.259368683673,"lon":"-81.687072","lat":"35.746131","theaterChainName":"Marquee Cinemas","ticketType":"STANDARD"},{"id":"4666","tribuneTheaterId":"9865","providerTheaterId":"","name":"Carolina Theater","address":"222 1st Avenue NW","city":"Hickory","state":"NC","zip":"28601","distance":16.726999690851,"lon":"-81.3403","lat":"35.7333","theaterChainName":"Independent Chains","ticketType":"STANDARD"},{"id":"2217","tribuneTheaterId":"4758","providerTheaterId":"","name":"Carmike 14 Hickory","address":"2000 SE Catawba Valley Blvd","city":"Hickory","state":"NC","zip":"28603","distance":19.809617197655,"lon":"-81.304273","lat":"35.699608","theaterChainName":"Carmike Cinemas","ticketType":"STANDARD"},{"id":"633","tribuneTheaterId":"8731","providerTheaterId":"","name":"Regal Boone Cinema 7","address":"210 New Market Street Centre","city":"Boone","state":"NC","zip":"28607","distance":22.139912648046,"lon":"-81.662219","lat":"36.218562","theaterChainName":"Regal Cinemas","ticketType":"STANDARD"},{"id":"1587","tribuneTheaterId":"1816","providerTheaterId":"","name":"State Cinema","address":"117 N. College Ave.","city":"Newton","state":"NC","zip":"28658","distance":24.834179296088,"lon":"-81.220853","lat":"35.663824","theaterChainName":"Independent Chains","ticketType":"STANDARD"}]