[{"id":"5596","tribuneTheaterId":"11049","providerTheaterId":"","name":"Two Rivers Cinema","address":"132 Two Rivers Drive","city":"Wilkesboro","state":"NC","zip":"28697","distance":5.7204718102892,"lon":"-81.178399","lat":"36.151458","theaterChainName":"Independent Chains","ticketType":"STANDARD"},{"id":"3910","tribuneTheaterId":"5034","providerTheaterId":"","name":"The Liberty Theatre","address":"816 Main Street","city":"North Wilkesboro","state":"NC","zip":"28659","distance":6.7712187329188,"lon":"-81.145558","lat":"36.159928","theaterChainName":"Independent Chains","ticketType":"STANDARD"},{"id":"633","tribuneTheaterId":"8731","providerTheaterId":"","name":"Regal Boone Cinema 7","address":"210 New Market Street Centre","city":"Boone","state":"NC","zip":"28607","distance":23.067218473701,"lon":"-81.662219","lat":"36.218562","theaterChainName":"Regal Cinemas","ticketType":"STANDARD"},{"id":"1867","tribuneTheaterId":"5035","providerTheaterId":"","name":"Starmount Crossing 5","address":"209 Winston Road","city":"Jonesville","state":"NC","zip":"28642","distance":22.667270493565,"lon":"-80.843325","lat":"36.240124","theaterChainName":"Independent Chains","ticketType":"STANDARD"}]