[{"id":"3912","name":"Creekside Cinema 10","address":"605 Bluemont Road","city":"Mount Airy","state":"NC","zip":"27030","distance":"23.571985244750977","lon":"-80.618973","lat":"36.497257","theaterChainName":"Frank Theatres","ticketType":"STANDARD"},{"id":"1989","name":"Twin County Cinemas","address":"957 E Stuart Dr","city":"Galax","state":"VA","zip":"24333","distance":"21.732446670532227","lon":"-80.893997","lat":"36.681702","theaterChainName":"Southeast Cinemas","ticketType":"STANDARD"},{"id":"1867","name":"Starmount Crossing 5","address":"209 Winston Road","city":"Jonesville","state":"NC","zip":"28642","distance":"13.919137954711914","lon":"-80.843323","lat":"36.240124","theaterChainName":"Independent Chains","ticketType":"STANDARD"},{"id":"3910","name":"The Liberty Theatre","address":"816 Main Street","city":"North Wilkesboro","state":"NC","zip":"28659","distance":"16.991989135742188","lon":"-81.145561","lat":"36.159927","theaterChainName":"Independent Chains","ticketType":"STANDARD"},{"id":"5596","name":"Two Rivers Cinema","address":"132 Two Rivers Drive","city":"Wilkesboro","state":"NC","zip":"28697","distance":"18.339784622192383","lon":"-81.178398","lat":"36.151459","theaterChainName":"Independent Chains","ticketType":"STANDARD"}]