[{"id":"1587","name":"State Cinema","address":"117 N. College Ave.","city":"Newton","state":"NC","zip":"28658","distance":"17.912914276123047","lon":"-81.220856","lat":"35.663822","theaterChainName":"Independent Chains","ticketType":"STANDARD"},{"id":"1830","name":"Carmike 8 Lincolnton","address":"1700 N. Aspen St.","city":"Lincolnton","state":"NC","zip":"28092","distance":"23.322933197021484","lon":"-81.240746","lat":"35.500626","theaterChainName":"Carmike Cinemas","ticketType":"STANDARD"},{"id":"3470","name":"Marquee Mimosa 7","address":"101 S. Green St.","city":"Morganton","state":"NC","zip":"28655","distance":"9.225130081176758","lon":"-81.687073","lat":"35.746132","theaterChainName":"Marquee Cinemas","ticketType":"STANDARD"},{"id":"2217","name":"Carmike 14 Hickory","address":"2000 SE Catawba Valley Blvd","city":"Hickory","state":"NC","zip":"28603","distance":"12.704473495483398","lon":"-81.304276","lat":"35.699608","theaterChainName":"Carmike Cinemas","ticketType":"STANDARD"},{"id":"4666","name":"Carolina Theater","address":"222 1st Avenue NW","city":"Hickory","state":"NC","zip":"28601","distance":"10.27778434753418","lon":"-81.340302","lat":"35.733299","theaterChainName":"Independent Chains","ticketType":"STANDARD"},{"id":"2228","name":"Carmike Westgate 2","address":"Old Morganton Rd","city":"Lenoir","state":"NC","zip":"28645","distance":"11.948782920837402","lon":"-81.535698","lat":"35.921101","theaterChainName":"Carmike Cinemas","ticketType":"STANDARD"}]