[{"id":"3983","tribuneTheaterId":"3167","providerTheaterId":"","name":"Marquee Statesville 10","address":"1515 Cinema Way","city":"Statesville","state":"NC","zip":"28625","distance":8.839755272985,"lon":"-80.861084","lat":"35.78357","theaterChainName":"Marquee Cinemas","ticketType":"STANDARD"},{"id":"1587","tribuneTheaterId":"1816","providerTheaterId":"","name":"State Cinema","address":"117 N. College Ave.","city":"Newton","state":"NC","zip":"28658","distance":16.625968508858,"lon":"-81.220853","lat":"35.663824","theaterChainName":"Independent Chains","ticketType":"STANDARD"},{"id":"2217","tribuneTheaterId":"4758","providerTheaterId":"","name":"Carmike 14 Hickory","address":"2000 SE Catawba Valley Blvd","city":"Hickory","state":"NC","zip":"28603","distance":18.948786384315,"lon":"-81.304273","lat":"35.699608","theaterChainName":"Carmike Cinemas","ticketType":"STANDARD"},{"id":"2903","tribuneTheaterId":"6540","providerTheaterId":"","name":"AmStar Cinemas 14","address":"206 Norman Station Blvd.","city":"Mooresville","state":"NC","zip":"28117","distance":18.812022284051,"lon":"-80.857202","lat":"35.587654","theaterChainName":"Southern Theatres","ticketType":"STANDARD"},{"id":"4666","tribuneTheaterId":"9865","providerTheaterId":"","name":"Carolina Theater","address":"222 1st Avenue NW","city":"Hickory","state":"NC","zip":"28601","distance":19.832548855283,"lon":"-81.3403","lat":"35.7333","theaterChainName":"Independent Chains","ticketType":"STANDARD"},{"id":"5596","tribuneTheaterId":"11049","providerTheaterId":"","name":"Two Rivers Cinema","address":"132 Two Rivers Drive","city":"Wilkesboro","state":"NC","zip":"28697","distance":24.112568857606,"lon":"-81.178399","lat":"36.151458","theaterChainName":"Independent Chains","ticketType":"STANDARD"},{"id":"3910","tribuneTheaterId":"5034","providerTheaterId":"","name":"The Liberty Theatre","address":"816 Main Street","city":"North Wilkesboro","state":"NC","zip":"28659","distance":23.999541122155,"lon":"-81.145558","lat":"36.159928","theaterChainName":"Independent Chains","ticketType":"STANDARD"},{"id":"4873","tribuneTheaterId":"10178","providerTheaterId":"","name":"Our Town Cinemas","address":"227 Griffith St.","city":"Davidson","state":"NC","zip":"28036","distance":24.397653106923,"lon":"-80.8488","lat":"35.5023","theaterChainName":"Independent Chains","ticketType":"STANDARD"}]