[{"id":"3910","name":"The Liberty Theatre","address":"816 Main Street","city":"North Wilkesboro","state":"NC","zip":"28659","distance":"24.0009822845459","lon":"-81.145561","lat":"36.159927","theaterChainName":"Independent Chains","ticketType":"STANDARD"},{"id":"5596","name":"Two Rivers Cinema","address":"132 Two Rivers Drive","city":"Wilkesboro","state":"NC","zip":"28697","distance":"24.11403465270996","lon":"-81.178398","lat":"36.151459","theaterChainName":"Independent Chains","ticketType":"STANDARD"},{"id":"3983","name":"Marquee Statesville 10","address":"1515 Cinema Way","city":"Statesville","state":"NC","zip":"28625","distance":"8.840295791625977","lon":"-80.861084","lat":"35.783569","theaterChainName":"Marquee Cinemas","ticketType":"STANDARD"},{"id":"2903","name":"AmStar Cinemas 14","address":"206 Norman Station Blvd.","city":"Mooresville","state":"NC","zip":"28117","distance":"18.81326675415039","lon":"-80.857201","lat":"35.587654","theaterChainName":"Southern Theatres","ticketType":"STANDARD"},{"id":"4873","name":"Our Town Cinemas","address":"227 Griffith St.","city":"Davidson","state":"NC","zip":"28036","distance":"24.399194717407227","lon":"-80.848801","lat":"35.502300","theaterChainName":"Independent Chains","ticketType":"STANDARD"},{"id":"1587","name":"State Cinema","address":"117 N. College Ave.","city":"Newton","state":"NC","zip":"28658","distance":"16.627302169799805","lon":"-81.220856","lat":"35.663822","theaterChainName":"Independent Chains","ticketType":"STANDARD"},{"id":"2217","name":"Carmike 14 Hickory","address":"2000 SE Catawba Valley Blvd","city":"Hickory","state":"NC","zip":"28603","distance":"18.95018768310547","lon":"-81.304276","lat":"35.699608","theaterChainName":"Carmike Cinemas","ticketType":"STANDARD"},{"id":"4666","name":"Carolina Theater","address":"222 1st Avenue NW","city":"Hickory","state":"NC","zip":"28601","distance":"19.833965301513672","lon":"-81.340302","lat":"35.733299","theaterChainName":"Independent Chains","ticketType":"STANDARD"}]