[{"id":"2068","tribuneTheaterId":"1148","providerTheaterId":"","name":"Co-ed Cinema","address":"79 West Main St.","city":"Brevard","state":"NC","zip":"28712","distance":8.0394422344296,"lon":"-82.735554","lat":"35.234244","theaterChainName":"Independent Chains","ticketType":"STANDARD"},{"id":"5916","tribuneTheaterId":"11344","providerTheaterId":"","name":"The Strand at 38 Main","address":"38 North Main St","city":"Waynesville","state":"NC","zip":"28786","distance":19.011233360747,"lon":"-82.987424","lat":"35.490052","theaterChainName":"Independent Chains","ticketType":"STANDARD"},{"id":"2069","tribuneTheaterId":"1149","providerTheaterId":"","name":"Quin Theatre","address":"East Sylva Shopping Center","city":"Sylva","state":"NC","zip":"28779","distance":21.40766378938,"lon":"-83.209784","lat":"35.380271","theaterChainName":"Independent Chains","ticketType":"STANDARD"},{"id":"5592","tribuneTheaterId":"11045","providerTheaterId":"","name":"Highlands Playhouse","address":"362 Oak Street","city":"Highlands","state":"NC","zip":"28741","distance":21.776472491104,"lon":"-83.197498","lat":"35.053635","theaterChainName":"Independent Chains","ticketType":"STANDARD"},{"id":"4229","tribuneTheaterId":"6388","providerTheaterId":"","name":"Flat Rock Cinema","address":"2700-D Greenville Hwy","city":"Flat Rock","state":"NC","zip":"28731","distance":24.821971675405,"lon":"-82.441022","lat":"35.271977","theaterChainName":"Independent Chains","ticketType":"STANDARD"}]