[{"id":"4229","name":"Flat Rock Cinema","address":"2700-D Greenville Hwy","city":"Flat Rock","state":"NC","zip":"28731","distance":"24.823293685913086","lon":"-82.441025","lat":"35.271976","theaterChainName":"Independent Chains","ticketType":"STANDARD"},{"id":"5916","name":"The Strand at 38 Main","address":"38 North Main St","city":"Waynesville","state":"NC","zip":"28786","distance":"19.012351989746094","lon":"-82.987427","lat":"35.490051","theaterChainName":"Independent Chains","ticketType":"STANDARD"},{"id":"2068","name":"Co-ed Cinema","address":"79 West Main St.","city":"Brevard","state":"NC","zip":"28712","distance":"8.039692878723145","lon":"-82.735558","lat":"35.234245","theaterChainName":"Independent Chains","ticketType":"STANDARD"},{"id":"2069","name":"Quin Theatre","address":"East Sylva Shopping Center","city":"Sylva","state":"NC","zip":"28779","distance":"21.409093856811523","lon":"-83.209785","lat":"35.380272","theaterChainName":"Independent Chains","ticketType":"STANDARD"},{"id":"5592","name":"Highlands Playhouse","address":"362 Oak Street","city":"Highlands","state":"NC","zip":"28741","distance":"21.777755737304688","lon":"-83.197495","lat":"35.053635","theaterChainName":"Independent Chains","ticketType":"STANDARD"}]