[{"id":"5613","name":"Retro Cinema 4","address":"2270 US Highway 74A Bypass","city":"Forest City","state":"NC","zip":"28043","distance":"20.91175651550293","lon":"-81.893021","lat":"35.333065","theaterChainName":"Independent Chains","ticketType":"STANDARD"},{"id":"4053","name":"EPIC Theatres of Hendersonville","address":"200 Thompson Street","city":"Hendersonville","state":"NC","zip":"28792","distance":"13.361900329589844","lon":"-82.446472","lat":"35.339302","theaterChainName":"Epic Theatres","ticketType":"STANDARD"},{"id":"4229","name":"Flat Rock Cinema","address":"2700-D Greenville Hwy","city":"Flat Rock","state":"NC","zip":"28731","distance":"16.001468658447266","lon":"-82.441025","lat":"35.271976","theaterChainName":"Independent Chains","ticketType":"STANDARD"},{"id":"4597","name":"The Carolina Asheville","address":"1640 Hendersonville Rd","city":"Asheville","state":"NC","zip":"28803","distance":"16.740386962890625","lon":"-82.524788","lat":"35.511375","theaterChainName":"Carolina Cinemas","ticketType":"STANDARD"},{"id":"2218","name":"Carmike 10 Asheville","address":"299-1 Swanannoa River Road","city":"Asheville","state":"NC","zip":"28805","distance":"18.212366104125977","lon":"-82.520775","lat":"35.570530","theaterChainName":"Carmike Cinemas","ticketType":"STANDARD"},{"id":"1659","name":"United Artists Beaucatcher 7","address":"321 Haw Creek Lane","city":"Asheville","state":"NC","zip":"28805","distance":"18.907747268676758","lon":"-82.525482","lat":"35.583584","theaterChainName":"United Artists","ticketType":"STANDARD"},{"id":"4559","name":"Regal Biltmore Grande Stadium 15","address":"292 Thetford Street","city":"Asheville","state":"NC","zip":"28803","distance":"18.101850509643555","lon":"-82.557899","lat":"35.484856","theaterChainName":"Regal Cinemas","ticketType":"STANDARD"},{"id":"2778","name":"Fine Arts Theatre","address":"36 Biltmore Avenue","city":"Asheville","state":"NC","zip":"28801","distance":"20.490100860595703","lon":"-82.550995","lat":"35.593601","theaterChainName":"Independent Chains","ticketType":"STANDARD"},{"id":"5924","name":"Grail Moviehouse","address":"45 S. French Broad Ave.","city":"Asheville","state":"NC","zip":"28801","distance":"20.83287811279297","lon":"-82.559250","lat":"35.592117","theaterChainName":"Independent Chains","ticketType":"STANDARD"}]