[{"id":"4597","name":"The Carolina Asheville","address":"1640 Hendersonville Rd","city":"Asheville","state":"NC","zip":"28803","distance":"22.560630798339844","lon":"-82.524788","lat":"35.511375","theaterChainName":"Carolina Cinemas","ticketType":"STANDARD"},{"id":"2218","name":"Carmike 10 Asheville","address":"299-1 Swanannoa River Road","city":"Asheville","state":"NC","zip":"28805","distance":"22.541919708251953","lon":"-82.520775","lat":"35.570530","theaterChainName":"Carmike Cinemas","ticketType":"STANDARD"},{"id":"1659","name":"United Artists Beaucatcher 7","address":"321 Haw Creek Lane","city":"Asheville","state":"NC","zip":"28805","distance":"22.324176788330078","lon":"-82.525482","lat":"35.583584","theaterChainName":"United Artists","ticketType":"STANDARD"},{"id":"4559","name":"Regal Biltmore Grande Stadium 15","address":"292 Thetford Street","city":"Asheville","state":"NC","zip":"28803","distance":"21.097393035888672","lon":"-82.557899","lat":"35.484856","theaterChainName":"Regal Cinemas","ticketType":"STANDARD"},{"id":"2778","name":"Fine Arts Theatre","address":"36 Biltmore Avenue","city":"Asheville","state":"NC","zip":"28801","distance":"20.959213256835938","lon":"-82.550995","lat":"35.593601","theaterChainName":"Independent Chains","ticketType":"STANDARD"},{"id":"5924","name":"Grail Moviehouse","address":"45 S. French Broad Ave.","city":"Asheville","state":"NC","zip":"28801","distance":"20.486980438232422","lon":"-82.559250","lat":"35.592117","theaterChainName":"Independent Chains","ticketType":"STANDARD"},{"id":"5916","name":"The Strand at 38 Main","address":"38 North Main St","city":"Waynesville","state":"NC","zip":"28786","distance":"6.071585655212402","lon":"-82.987427","lat":"35.490051","theaterChainName":"Independent Chains","ticketType":"STANDARD"},{"id":"2068","name":"Co-ed Cinema","address":"79 West Main St.","city":"Brevard","state":"NC","zip":"28712","distance":"24.809751510620117","lon":"-82.735558","lat":"35.234245","theaterChainName":"Independent Chains","ticketType":"STANDARD"},{"id":"2069","name":"Quin Theatre","address":"East Sylva Shopping Center","city":"Sylva","state":"NC","zip":"28779","distance":"20.413639068603516","lon":"-83.209785","lat":"35.380272","theaterChainName":"Independent Chains","ticketType":"STANDARD"},{"id":"4676","name":"Cherokee Phoenix Theatres","address":"61 Sequoyah Trail","city":"Cherokee","state":"NC","zip":"28719","distance":"23.274877548217773","lon":"-83.323090","lat":"35.477997","theaterChainName":"Phoenix Theatres","ticketType":"STANDARD"}]