[{"id":"5924","tribuneTheaterId":"11355","providerTheaterId":"","name":"Grail Moviehouse","address":"45 S. French Broad Ave.","city":"Asheville","state":"NC","zip":"28801","distance":9.3885970692094,"lon":"-82.559249","lat":"35.592116","theaterChainName":"Independent Chains","ticketType":"STANDARD"},{"id":"2778","tribuneTheaterId":"1216","providerTheaterId":"","name":"Fine Arts Theatre","address":"36 Biltmore Avenue","city":"Asheville","state":"NC","zip":"28801","distance":9.7691566906727,"lon":"-82.550992","lat":"35.593601","theaterChainName":"Independent Chains","ticketType":"STANDARD"},{"id":"1659","tribuneTheaterId":"4683","providerTheaterId":"","name":"United Artists Beaucatcher 7","address":"321 Haw Creek Lane","city":"Asheville","state":"NC","zip":"28805","distance":11.359730699373,"lon":"-82.525483","lat":"35.583583","theaterChainName":"United Artists","ticketType":"STANDARD"},{"id":"2218","tribuneTheaterId":"4755","providerTheaterId":"","name":"Carmike 10 Asheville","address":"299-1 Swanannoa River Road","city":"Asheville","state":"NC","zip":"28805","distance":11.98724409364,"lon":"-82.520778","lat":"35.570529","theaterChainName":"Carmike Cinemas","ticketType":"STANDARD"},{"id":"4559","tribuneTheaterId":"9697","providerTheaterId":"","name":"Regal Biltmore Grande Stadium 15","address":"292 Thetford Street","city":"Asheville","state":"NC","zip":"28803","distance":14.266482764396,"lon":"-82.5579","lat":"35.484857","theaterChainName":"Regal Cinemas","ticketType":"STANDARD"},{"id":"4597","tribuneTheaterId":"9764","providerTheaterId":"","name":"The Carolina Asheville","address":"1640 Hendersonville Rd","city":"Asheville","state":"NC","zip":"28803","distance":14.159891709493,"lon":"-82.524785","lat":"35.511374","theaterChainName":"Carolina Cinemas","ticketType":"STANDARD"},{"id":"5916","tribuneTheaterId":"11344","providerTheaterId":"","name":"The Strand at 38 Main","address":"38 North Main St","city":"Waynesville","state":"NC","zip":"28786","distance":19.075382954762,"lon":"-82.987424","lat":"35.490052","theaterChainName":"Independent Chains","ticketType":"STANDARD"}]