[{"id":"4559","name":"Regal Biltmore Grande Stadium 15","address":"292 Thetford Street","city":"Asheville","state":"NC","zip":"28803","distance":"23.374725341796875","lon":"-82.557899","lat":"35.484856","theaterChainName":"Regal Cinemas","ticketType":"STANDARD"},{"id":"2778","name":"Fine Arts Theatre","address":"36 Biltmore Avenue","city":"Asheville","state":"NC","zip":"28801","distance":"24.03628921508789","lon":"-82.550995","lat":"35.593601","theaterChainName":"Independent Chains","ticketType":"STANDARD"},{"id":"5924","name":"Grail Moviehouse","address":"45 S. French Broad Ave.","city":"Asheville","state":"NC","zip":"28801","distance":"23.561389923095703","lon":"-82.559250","lat":"35.592117","theaterChainName":"Independent Chains","ticketType":"STANDARD"},{"id":"5916","name":"The Strand at 38 Main","address":"38 North Main St","city":"Waynesville","state":"NC","zip":"28786","distance":"2.6492793560028076","lon":"-82.987427","lat":"35.490051","theaterChainName":"Independent Chains","ticketType":"STANDARD"},{"id":"2068","name":"Co-ed Cinema","address":"79 West Main St.","city":"Brevard","state":"NC","zip":"28712","distance":"24.101579666137695","lon":"-82.735558","lat":"35.234245","theaterChainName":"Independent Chains","ticketType":"STANDARD"},{"id":"2069","name":"Quin Theatre","address":"East Sylva Shopping Center","city":"Sylva","state":"NC","zip":"28779","distance":"16.812759399414062","lon":"-83.209785","lat":"35.380272","theaterChainName":"Independent Chains","ticketType":"STANDARD"},{"id":"4676","name":"Cherokee Phoenix Theatres","address":"61 Sequoyah Trail","city":"Cherokee","state":"NC","zip":"28719","distance":"20.112699508666992","lon":"-83.323090","lat":"35.477997","theaterChainName":"Phoenix Theatres","ticketType":"STANDARD"}]