[{"id":"5276","name":"Towne Center","address":"925 W. Andrew Johnson Way","city":"Greeneville","state":"TN","zip":"37745","distance":"22.820966720581055","lon":"-82.836700","lat":"36.173801","theaterChainName":"Carmike Cinemas","ticketType":"STANDARD"},{"id":"2218","name":"Carmike 10 Asheville","address":"299-1 Swanannoa River Road","city":"Asheville","state":"NC","zip":"28805","distance":"22.63922119140625","lon":"-82.520775","lat":"35.570530","theaterChainName":"Carmike Cinemas","ticketType":"STANDARD"},{"id":"1659","name":"United Artists Beaucatcher 7","address":"321 Haw Creek Lane","city":"Asheville","state":"NC","zip":"28805","distance":"21.71940803527832","lon":"-82.525482","lat":"35.583584","theaterChainName":"United Artists","ticketType":"STANDARD"},{"id":"2778","name":"Fine Arts Theatre","address":"36 Biltmore Avenue","city":"Asheville","state":"NC","zip":"28801","distance":"20.44819450378418","lon":"-82.550995","lat":"35.593601","theaterChainName":"Independent Chains","ticketType":"STANDARD"},{"id":"5924","name":"Grail Moviehouse","address":"45 S. French Broad Ave.","city":"Asheville","state":"NC","zip":"28801","distance":"20.343036651611328","lon":"-82.559250","lat":"35.592117","theaterChainName":"Independent Chains","ticketType":"STANDARD"}]