[{"id":"4053","tribuneTheaterId":"5009","providerTheaterId":"","name":"EPIC Theatres of Hendersonville","address":"200 Thompson Street","city":"Hendersonville","state":"NC","zip":"28792","distance":3.4554382145513,"lon":"-82.44647","lat":"35.339303","theaterChainName":"Epic Theatres","ticketType":"STANDARD"},{"id":"4229","tribuneTheaterId":"6388","providerTheaterId":"","name":"Flat Rock Cinema","address":"2700-D Greenville Hwy","city":"Flat Rock","state":"NC","zip":"28731","distance":7.4671159457915,"lon":"-82.441022","lat":"35.271977","theaterChainName":"Independent Chains","ticketType":"STANDARD"},{"id":"4559","tribuneTheaterId":"9697","providerTheaterId":"","name":"Regal Biltmore Grande Stadium 15","address":"292 Thetford Street","city":"Asheville","state":"NC","zip":"28803","distance":8.6487561702116,"lon":"-82.5579","lat":"35.484857","theaterChainName":"Regal Cinemas","ticketType":"STANDARD"},{"id":"4597","tribuneTheaterId":"9764","providerTheaterId":"","name":"The Carolina Asheville","address":"1640 Hendersonville Rd","city":"Asheville","state":"NC","zip":"28803","distance":9.8476850329188,"lon":"-82.524785","lat":"35.511374","theaterChainName":"Carolina Cinemas","ticketType":"STANDARD"},{"id":"5924","tribuneTheaterId":"11355","providerTheaterId":"","name":"Grail Moviehouse","address":"45 S. French Broad Ave.","city":"Asheville","state":"NC","zip":"28801","distance":15.708426778962,"lon":"-82.559249","lat":"35.592116","theaterChainName":"Independent Chains","ticketType":"STANDARD"},{"id":"2778","tribuneTheaterId":"1216","providerTheaterId":"","name":"Fine Arts Theatre","address":"36 Biltmore Avenue","city":"Asheville","state":"NC","zip":"28801","distance":15.706468177231,"lon":"-82.550992","lat":"35.593601","theaterChainName":"Independent Chains","ticketType":"STANDARD"},{"id":"1659","tribuneTheaterId":"4683","providerTheaterId":"","name":"United Artists Beaucatcher 7","address":"321 Haw Creek Lane","city":"Asheville","state":"NC","zip":"28805","distance":14.788986826808,"lon":"-82.525483","lat":"35.583583","theaterChainName":"United Artists","ticketType":"STANDARD"},{"id":"2218","tribuneTheaterId":"4755","providerTheaterId":"","name":"Carmike 10 Asheville","address":"299-1 Swanannoa River Road","city":"Asheville","state":"NC","zip":"28805","distance":13.862578636038,"lon":"-82.520778","lat":"35.570529","theaterChainName":"Carmike Cinemas","ticketType":"STANDARD"},{"id":"2068","tribuneTheaterId":"1148","providerTheaterId":"","name":"Co-ed Cinema","address":"79 West Main St.","city":"Brevard","state":"NC","zip":"28712","distance":16.590452248367,"lon":"-82.735554","lat":"35.234244","theaterChainName":"Independent Chains","ticketType":"STANDARD"}]