[{"id":"5916","name":"The Strand at 38 Main","address":"38 North Main St","city":"Waynesville","state":"NC","zip":"28786","distance":"15.610936164855957","lon":"-82.987427","lat":"35.490051","theaterChainName":"Independent Chains","ticketType":"STANDARD"},{"id":"2069","name":"Quin Theatre","address":"East Sylva Shopping Center","city":"Sylva","state":"NC","zip":"28779","distance":"2.2547597885131836","lon":"-83.209785","lat":"35.380272","theaterChainName":"Independent Chains","ticketType":"STANDARD"},{"id":"4676","name":"Cherokee Phoenix Theatres","address":"61 Sequoyah Trail","city":"Cherokee","state":"NC","zip":"28719","distance":"11.234732627868652","lon":"-83.323090","lat":"35.477997","theaterChainName":"Phoenix Theatres","ticketType":"STANDARD"},{"id":"5592","name":"Highlands Playhouse","address":"362 Oak Street","city":"Highlands","state":"NC","zip":"28741","distance":"20.34922218322754","lon":"-83.197495","lat":"35.053635","theaterChainName":"Independent Chains","ticketType":"STANDARD"},{"id":"3599","name":"Ruby Cinemas","address":"2097 Georgia Rd.","city":"Franklin","state":"NC","zip":"28734","distance":"17.92627716064453","lon":"-83.397003","lat":"35.142601","theaterChainName":"Independent Chains","ticketType":"STANDARD"}]