[{"id":"4053","name":"EPIC Theatres of Hendersonville","address":"200 Thompson Street","city":"Hendersonville","state":"NC","zip":"28792","distance":"8.577025413513184","lon":"-82.446472","lat":"35.339302","theaterChainName":"Epic Theatres","ticketType":"STANDARD"},{"id":"4229","name":"Flat Rock Cinema","address":"2700-D Greenville Hwy","city":"Flat Rock","state":"NC","zip":"28731","distance":"3.9923670291900635","lon":"-82.441025","lat":"35.271976","theaterChainName":"Independent Chains","ticketType":"STANDARD"},{"id":"4597","name":"The Carolina Asheville","address":"1640 Hendersonville Rd","city":"Asheville","state":"NC","zip":"28803","distance":"21.188716888427734","lon":"-82.524788","lat":"35.511375","theaterChainName":"Carolina Cinemas","ticketType":"STANDARD"},{"id":"4559","name":"Regal Biltmore Grande Stadium 15","address":"292 Thetford Street","city":"Asheville","state":"NC","zip":"28803","distance":"20.0965576171875","lon":"-82.557899","lat":"35.484856","theaterChainName":"Regal Cinemas","ticketType":"STANDARD"},{"id":"2068","name":"Co-ed Cinema","address":"79 West Main St.","city":"Brevard","state":"NC","zip":"28712","distance":"17.97342872619629","lon":"-82.735558","lat":"35.234245","theaterChainName":"Independent Chains","ticketType":"STANDARD"},{"id":"3484","name":"Regal Cherrydale Stadium 16","address":"3221 North Pleasantburg Drive","city":"Greenville","state":"SC","zip":"29609","distance":"22.679702758789062","lon":"-82.399902","lat":"34.889500","theaterChainName":"Regal Cinemas","ticketType":"STANDARD"}]