[{"id":"4053","name":"EPIC Theatres of Hendersonville","address":"200 Thompson Street","city":"Hendersonville","state":"NC","zip":"28792","distance":"4.554483413696289","lon":"-82.446472","lat":"35.339302","theaterChainName":"Epic Theatres","ticketType":"STANDARD"},{"id":"4229","name":"Flat Rock Cinema","address":"2700-D Greenville Hwy","city":"Flat Rock","state":"NC","zip":"28731","distance":"3.8090932369232178","lon":"-82.441025","lat":"35.271976","theaterChainName":"Independent Chains","ticketType":"STANDARD"},{"id":"4597","name":"The Carolina Asheville","address":"1640 Hendersonville Rd","city":"Asheville","state":"NC","zip":"28803","distance":"15.15687084197998","lon":"-82.524788","lat":"35.511375","theaterChainName":"Carolina Cinemas","ticketType":"STANDARD"},{"id":"2218","name":"Carmike 10 Asheville","address":"299-1 Swanannoa River Road","city":"Asheville","state":"NC","zip":"28805","distance":"19.221593856811523","lon":"-82.520775","lat":"35.570530","theaterChainName":"Carmike Cinemas","ticketType":"STANDARD"},{"id":"1659","name":"United Artists Beaucatcher 7","address":"321 Haw Creek Lane","city":"Asheville","state":"NC","zip":"28805","distance":"20.136964797973633","lon":"-82.525482","lat":"35.583584","theaterChainName":"United Artists","ticketType":"STANDARD"},{"id":"4559","name":"Regal Biltmore Grande Stadium 15","address":"292 Thetford Street","city":"Asheville","state":"NC","zip":"28803","distance":"13.625131607055664","lon":"-82.557899","lat":"35.484856","theaterChainName":"Regal Cinemas","ticketType":"STANDARD"},{"id":"2778","name":"Fine Arts Theatre","address":"36 Biltmore Avenue","city":"Asheville","state":"NC","zip":"28801","distance":"20.961904525756836","lon":"-82.550995","lat":"35.593601","theaterChainName":"Independent Chains","ticketType":"STANDARD"},{"id":"5924","name":"Grail Moviehouse","address":"45 S. French Broad Ave.","city":"Asheville","state":"NC","zip":"28801","distance":"20.924720764160156","lon":"-82.559250","lat":"35.592117","theaterChainName":"Independent Chains","ticketType":"STANDARD"},{"id":"2068","name":"Co-ed Cinema","address":"79 West Main St.","city":"Brevard","state":"NC","zip":"28712","distance":"13.695822715759277","lon":"-82.735558","lat":"35.234245","theaterChainName":"Independent Chains","ticketType":"STANDARD"}]