[{"id":"5924","tribuneTheaterId":"11355","providerTheaterId":"","name":"Grail Moviehouse","address":"45 S. French Broad Ave.","city":"Asheville","state":"NC","zip":"28801","distance":3.1432243912393,"lon":"-82.559249","lat":"35.592116","theaterChainName":"Independent Chains","ticketType":"STANDARD"},{"id":"2778","tribuneTheaterId":"1216","providerTheaterId":"","name":"Fine Arts Theatre","address":"36 Biltmore Avenue","city":"Asheville","state":"NC","zip":"28801","distance":3.1212527620817,"lon":"-82.550992","lat":"35.593601","theaterChainName":"Independent Chains","ticketType":"STANDARD"},{"id":"1659","tribuneTheaterId":"4683","providerTheaterId":"","name":"United Artists Beaucatcher 7","address":"321 Haw Creek Lane","city":"Asheville","state":"NC","zip":"28805","distance":4.3190939479332,"lon":"-82.525483","lat":"35.583583","theaterChainName":"United Artists","ticketType":"STANDARD"},{"id":"2218","tribuneTheaterId":"4755","providerTheaterId":"","name":"Carmike 10 Asheville","address":"299-1 Swanannoa River Road","city":"Asheville","state":"NC","zip":"28805","distance":5.2352586941654,"lon":"-82.520778","lat":"35.570529","theaterChainName":"Carmike Cinemas","ticketType":"STANDARD"},{"id":"4597","tribuneTheaterId":"9764","providerTheaterId":"","name":"The Carolina Asheville","address":"1640 Hendersonville Rd","city":"Asheville","state":"NC","zip":"28803","distance":8.9904360467539,"lon":"-82.524785","lat":"35.511374","theaterChainName":"Carolina Cinemas","ticketType":"STANDARD"},{"id":"4559","tribuneTheaterId":"9697","providerTheaterId":"","name":"Regal Biltmore Grande Stadium 15","address":"292 Thetford Street","city":"Asheville","state":"NC","zip":"28803","distance":10.546425335683,"lon":"-82.5579","lat":"35.484857","theaterChainName":"Regal Cinemas","ticketType":"STANDARD"},{"id":"4053","tribuneTheaterId":"5009","providerTheaterId":"","name":"EPIC Theatres of Hendersonville","address":"200 Thompson Street","city":"Hendersonville","state":"NC","zip":"28792","distance":21.642135802903,"lon":"-82.44647","lat":"35.339303","theaterChainName":"Epic Theatres","ticketType":"STANDARD"}]