[{"id":"3599","name":"Ruby Cinemas","address":"2097 Georgia Rd.","city":"Franklin","state":"NC","zip":"28734","distance":"23.10920524597168","lon":"-83.397003","lat":"35.142601","theaterChainName":"Independent Chains","ticketType":"STANDARD"},{"id":"3880","name":"Andrews Twin Cinema","address":"125 Main Street","city":"Andrews","state":"NC","zip":"28901","distance":"11.533736228942871","lon":"-83.839272","lat":"35.202984","theaterChainName":"Independent Chains","ticketType":"STANDARD"},{"id":"5923","name":"Henn Theatre","address":"38 Tennessee St.","city":"Murphy","state":"NC","zip":"28906","distance":"14.375362396240234","lon":"-84.034309","lat":"35.088680","theaterChainName":"Independent Chains","ticketType":"STANDARD"},{"id":"5862","name":"Fieldstone Cinemas 6","address":"1159 Jack Daton Circle","city":"Hiawassee","state":"GA","zip":"30546","distance":"5.466798782348633","lon":"-83.815552","lat":"34.966194","theaterChainName":"Independent Chains","ticketType":"STANDARD"},{"id":"5138","name":"Blairsville Cinema","address":"38 Backyard Lane","city":"Blairsville","state":"GA","zip":"30512","distance":"12.196688652038574","lon":"-83.915260","lat":"34.900070","theaterChainName":"Independent Chains","ticketType":"STANDARD"}]