[{"id":"2248","name":"Carmike 14 Columbia","address":"122 Afton Court","city":"Columbia","state":"SC","zip":"29212","distance":"15.488853454589844","lon":"-81.161232","lat":"34.075783","theaterChainName":"Carmike Cinemas","ticketType":"STANDARD"},{"id":"2940","name":"Regal Columbiana Grande Stadium 14","address":"1250 Bower Pkwy","city":"Columbia","state":"SC","zip":"29212","distance":"15.544351577758789","lon":"-81.154877","lat":"34.068413","theaterChainName":"Regal Cinemas","ticketType":"STANDARD"},{"id":"1786","name":"Regal Pastime Pavilion 8","address":"929 North Lake Drive","city":"Lexington","state":"SC","zip":"29072","distance":"9.563119888305664","lon":"-81.230980","lat":"33.996269","theaterChainName":"Regal Cinemas","ticketType":"STANDARD"},{"id":"760","name":"AMC Dutch Square 14","address":"421-80 Bush River Rd.","city":"Columbia","state":"SC","zip":"29210","distance":"17.94249725341797","lon":"-81.091545","lat":"34.033085","theaterChainName":"AMC Theatres","ticketType":"STANDARD"},{"id":"3140","name":"Nickelodeon Theatre","address":"1607 Main St.","city":"Columbia","state":"SC","zip":"29201","distance":"20.63056182861328","lon":"-81.036201","lat":"34.007023","theaterChainName":"Independent Chains","ticketType":"STANDARD"},{"id":"687","name":"Regal Columbia Cinema 7","address":"3400 Forest Drive Suite 3000","city":"Columbia","state":"SC","zip":"29204","distance":"23.35417366027832","lon":"-80.989830","lat":"34.016129","theaterChainName":"Regal Cinemas","ticketType":"STANDARD"}]