[{"id":"4023","tribuneTheaterId":"4637","providerTheaterId":"","name":"Regal Sandhill Cinema 16","address":"450 Town Center Place","city":"Columbia","state":"SC","zip":"29229","distance":21.64654966709,"lon":"-80.880253","lat":"34.131185","theaterChainName":"Regal Cinemas","ticketType":"STANDARD"},{"id":"2940","tribuneTheaterId":"7611","providerTheaterId":"","name":"Regal Columbiana Grande Stadium 14","address":"1250 Bower Pkwy","city":"Columbia","state":"SC","zip":"29212","distance":21.756022105996,"lon":"-81.154874","lat":"34.068414","theaterChainName":"Regal Cinemas","ticketType":"STANDARD"},{"id":"2248","tribuneTheaterId":"4736","providerTheaterId":"","name":"Carmike 14 Columbia","address":"122 Afton Court","city":"Columbia","state":"SC","zip":"29212","distance":21.298556607064,"lon":"-81.161231","lat":"34.075782","theaterChainName":"Carmike Cinemas","ticketType":"STANDARD"},{"id":"760","tribuneTheaterId":"8623","providerTheaterId":"898","name":"AMC Dutch Square 14","address":"421-80 Bush River Rd.","city":"Columbia","state":"SC","zip":"29210","distance":24.059412384842,"lon":"-81.091547","lat":"34.033083","theaterChainName":"AMC Theatres","ticketType":"STANDARD"}]