[{"id":"2249","tribuneTheaterId":"4733","providerTheaterId":"","name":"Carmike Wynnsong 7 Spartanburg","address":"1640 Reidville Rd","city":"Spartanburg","state":"SC","zip":"29301","distance":20.871482520641,"lon":"-81.9786","lat":"34.923302","theaterChainName":"Carmike Cinemas","ticketType":"STANDARD"},{"id":"5599","tribuneTheaterId":"11053","providerTheaterId":"","name":"NCG Spartanburg","address":"1985 East Main Street","city":"Spartanburg","state":"SC","zip":"29307","distance":22.97163737705,"lon":"-81.8892","lat":"34.9697","theaterChainName":"NCG Cinemas","ticketType":"STANDARD"},{"id":"648","tribuneTheaterId":"7736","providerTheaterId":"","name":"Regal Westgate Mall Cinema 8","address":"205 Blackstock Road","city":"Spartanburg","state":"SC","zip":"29301","distance":22.244180958186,"lon":"-81.995838","lat":"34.939283","theaterChainName":"Regal Cinemas","ticketType":"STANDARD"},{"id":"4916","tribuneTheaterId":"10233","providerTheaterId":"","name":"Regal Simpsonville 14 IMAX","address":"780 South Street","city":"Simpsonville","state":"SC","zip":"29681","distance":23.637151985182,"lon":"-82.258474","lat":"34.727078","theaterChainName":"Regal Cinemas","ticketType":"STANDARD"},{"id":"3814","tribuneTheaterId":"4909","providerTheaterId":"","name":"Regal Spartan Stadium 16","address":"855 Spartan Blvd","city":"Spartanburg","state":"SC","zip":"29301","distance":22.704107388388,"lon":"-82.00075","lat":"34.944868","theaterChainName":"Regal Cinemas","ticketType":"STANDARD"}]