[{"id":"4408","name":"Gaffney Entertainment Center","address":"1100 Factory Shopps Blvd","city":"Gaffney","state":"SC","zip":"29341","distance":"11.69497013092041","lon":"-81.715546","lat":"35.081379","theaterChainName":"Independent Chains","ticketType":"STANDARD"},{"id":"5599","name":"NCG Spartanburg","address":"1985 East Main Street","city":"Spartanburg","state":"SC","zip":"29307","distance":"3.390883207321167","lon":"-81.889198","lat":"34.969700","theaterChainName":"NCG Cinemas","ticketType":"STANDARD"},{"id":"3814","name":"Regal Spartan Stadium 16","address":"855 Spartan Blvd","city":"Spartanburg","state":"SC","zip":"29301","distance":"9.240572929382324","lon":"-82.000748","lat":"34.944866","theaterChainName":"Regal Cinemas","ticketType":"STANDARD"},{"id":"648","name":"Regal Westgate Mall Cinema 8","address":"205 Blackstock Road","city":"Spartanburg","state":"SC","zip":"29301","distance":"8.97070026397705","lon":"-81.995834","lat":"34.939281","theaterChainName":"Regal Cinemas","ticketType":"STANDARD"},{"id":"2249","name":"Carmike Wynnsong 7 Spartanburg","address":"1640 Reidville Rd","city":"Spartanburg","state":"SC","zip":"29301","distance":"8.124141693115234","lon":"-81.978600","lat":"34.923302","theaterChainName":"Carmike Cinemas","ticketType":"STANDARD"}]