[{"id":"5613","name":"Retro Cinema 4","address":"2270 US Highway 74A Bypass","city":"Forest City","state":"NC","zip":"28043","distance":"22.282466888427734","lon":"-81.893021","lat":"35.333065","theaterChainName":"Independent Chains","ticketType":"STANDARD"},{"id":"4408","name":"Gaffney Entertainment Center","address":"1100 Factory Shopps Blvd","city":"Gaffney","state":"SC","zip":"29341","distance":"23.585073471069336","lon":"-81.715546","lat":"35.081379","theaterChainName":"Independent Chains","ticketType":"STANDARD"},{"id":"5599","name":"NCG Spartanburg","address":"1985 East Main Street","city":"Spartanburg","state":"SC","zip":"29307","distance":"15.6351957321167","lon":"-81.889198","lat":"34.969700","theaterChainName":"NCG Cinemas","ticketType":"STANDARD"},{"id":"3814","name":"Regal Spartan Stadium 16","address":"855 Spartan Blvd","city":"Spartanburg","state":"SC","zip":"29301","distance":"11.780906677246094","lon":"-82.000748","lat":"34.944866","theaterChainName":"Regal Cinemas","ticketType":"STANDARD"},{"id":"648","name":"Regal Westgate Mall Cinema 8","address":"205 Blackstock Road","city":"Spartanburg","state":"SC","zip":"29301","distance":"12.25584602355957","lon":"-81.995834","lat":"34.939281","theaterChainName":"Regal Cinemas","ticketType":"STANDARD"},{"id":"2249","name":"Carmike Wynnsong 7 Spartanburg","address":"1640 Reidville Rd","city":"Spartanburg","state":"SC","zip":"29301","distance":"13.728633880615234","lon":"-81.978600","lat":"34.923302","theaterChainName":"Carmike Cinemas","ticketType":"STANDARD"},{"id":"4229","name":"Flat Rock Cinema","address":"2700-D Greenville Hwy","city":"Flat Rock","state":"NC","zip":"28731","distance":"22.030282974243164","lon":"-82.441025","lat":"35.271976","theaterChainName":"Independent Chains","ticketType":"STANDARD"},{"id":"3484","name":"Regal Cherrydale Stadium 16","address":"3221 North Pleasantburg Drive","city":"Greenville","state":"SC","zip":"29609","distance":"19.912330627441406","lon":"-82.399902","lat":"34.889500","theaterChainName":"Regal Cinemas","ticketType":"STANDARD"},{"id":"4299","name":"Camelot","address":"48 East Atrim Drive","city":"Greenville","state":"SC","zip":"29607","distance":"20.846126556396484","lon":"-82.360588","lat":"34.839939","theaterChainName":"Independent Chains","ticketType":"STANDARD"},{"id":"677","name":"Regal Hollywood Stadium 20-Greenville","address":"1025 Woodruff Road","city":"Greenville","state":"SC","zip":"29607","distance":"19.443721771240234","lon":"-82.305031","lat":"34.833469","theaterChainName":"Regal Cinemas","ticketType":"STANDARD"}]