[{"id":"4408","name":"Gaffney Entertainment Center","address":"1100 Factory Shopps Blvd","city":"Gaffney","state":"SC","zip":"29341","distance":"19.8971004486084","lon":"-81.715546","lat":"35.081379","theaterChainName":"Independent Chains","ticketType":"STANDARD"},{"id":"5599","name":"NCG Spartanburg","address":"1985 East Main Street","city":"Spartanburg","state":"SC","zip":"29307","distance":"7.842823505401611","lon":"-81.889198","lat":"34.969700","theaterChainName":"NCG Cinemas","ticketType":"STANDARD"},{"id":"3814","name":"Regal Spartan Stadium 16","address":"855 Spartan Blvd","city":"Spartanburg","state":"SC","zip":"29301","distance":"5.921893119812012","lon":"-82.000748","lat":"34.944866","theaterChainName":"Regal Cinemas","ticketType":"STANDARD"},{"id":"648","name":"Regal Westgate Mall Cinema 8","address":"205 Blackstock Road","city":"Spartanburg","state":"SC","zip":"29301","distance":"5.451602458953857","lon":"-81.995834","lat":"34.939281","theaterChainName":"Regal Cinemas","ticketType":"STANDARD"},{"id":"2249","name":"Carmike Wynnsong 7 Spartanburg","address":"1640 Reidville Rd","city":"Spartanburg","state":"SC","zip":"29301","distance":"4.0438923835754395","lon":"-81.978600","lat":"34.923302","theaterChainName":"Carmike Cinemas","ticketType":"STANDARD"},{"id":"4299","name":"Camelot","address":"48 East Atrim Drive","city":"Greenville","state":"SC","zip":"29607","distance":"23.2195987701416","lon":"-82.360588","lat":"34.839939","theaterChainName":"Independent Chains","ticketType":"STANDARD"},{"id":"677","name":"Regal Hollywood Stadium 20-Greenville","address":"1025 Woodruff Road","city":"Greenville","state":"SC","zip":"29607","distance":"20.13294792175293","lon":"-82.305031","lat":"34.833469","theaterChainName":"Regal Cinemas","ticketType":"STANDARD"},{"id":"4916","name":"Regal Simpsonville 14 IMAX","address":"780 South Street","city":"Simpsonville","state":"SC","zip":"29681","distance":"19.927867889404297","lon":"-82.258476","lat":"34.727077","theaterChainName":"Regal Cinemas","ticketType":"STANDARD"}]