[{"id":"2249","tribuneTheaterId":"4733","providerTheaterId":"","name":"Carmike Wynnsong 7 Spartanburg","address":"1640 Reidville Rd","city":"Spartanburg","state":"SC","zip":"29301","distance":4.0437131747107,"lon":"-81.9786","lat":"34.923302","theaterChainName":"Carmike Cinemas","ticketType":"STANDARD"},{"id":"3814","tribuneTheaterId":"4909","providerTheaterId":"","name":"Regal Spartan Stadium 16","address":"855 Spartan Blvd","city":"Spartanburg","state":"SC","zip":"29301","distance":5.9217294978889,"lon":"-82.00075","lat":"34.944868","theaterChainName":"Regal Cinemas","ticketType":"STANDARD"},{"id":"648","tribuneTheaterId":"7736","providerTheaterId":"","name":"Regal Westgate Mall Cinema 8","address":"205 Blackstock Road","city":"Spartanburg","state":"SC","zip":"29301","distance":5.451484874773,"lon":"-81.995838","lat":"34.939283","theaterChainName":"Regal Cinemas","ticketType":"STANDARD"},{"id":"5599","tribuneTheaterId":"11053","providerTheaterId":"","name":"NCG Spartanburg","address":"1985 East Main Street","city":"Spartanburg","state":"SC","zip":"29307","distance":7.8424076366546,"lon":"-81.8892","lat":"34.9697","theaterChainName":"NCG Cinemas","ticketType":"STANDARD"},{"id":"677","tribuneTheaterId":"7738","providerTheaterId":"","name":"Regal Hollywood Stadium 20-Greenville","address":"1025 Woodruff Road","city":"Greenville","state":"SC","zip":"29607","distance":20.131784945837,"lon":"-82.305034","lat":"34.83347","theaterChainName":"Regal Cinemas","ticketType":"STANDARD"},{"id":"4408","tribuneTheaterId":"9467","providerTheaterId":"","name":"Gaffney Entertainment Center","address":"1100 Factory Shopps Blvd","city":"Gaffney","state":"SC","zip":"29341","distance":19.895930308132,"lon":"-81.715547","lat":"35.081379","theaterChainName":"Independent Chains","ticketType":"STANDARD"},{"id":"4916","tribuneTheaterId":"10233","providerTheaterId":"","name":"Regal Simpsonville 14 IMAX","address":"780 South Street","city":"Simpsonville","state":"SC","zip":"29681","distance":19.926395114236,"lon":"-82.258474","lat":"34.727078","theaterChainName":"Regal Cinemas","ticketType":"STANDARD"},{"id":"4299","tribuneTheaterId":"2078","providerTheaterId":"","name":"Camelot","address":"48 East Atrim Drive","city":"Greenville","state":"SC","zip":"29607","distance":23.218237983016,"lon":"-82.360591","lat":"34.839939","theaterChainName":"Independent Chains","ticketType":"STANDARD"}]