[{"id":"1694","tribuneTheaterId":"5742","providerTheaterId":"","name":"Carmike James Island 8","address":"1743 Central Park Rd.","city":"Charleston","state":"SC","zip":"29412","distance":3.0483515636659,"lon":"-79.974554","lat":"32.748604","theaterChainName":"Carmike Cinemas","ticketType":"STANDARD"},{"id":"2473","tribuneTheaterId":"2841","providerTheaterId":"","name":"Terrace","address":"1956 Maybank Hwy","city":"Charleston","state":"SC","zip":"29412","distance":3.0577200807706,"lon":"-79.985967","lat":"32.763063","theaterChainName":"Independent Chains","ticketType":"STANDARD"},{"id":"4517","tribuneTheaterId":"9626","providerTheaterId":"","name":"Cinebarre - Mount Pleasant","address":"963 Houston - Northcutt Blvd","city":"Mount Pleasant","state":"SC","zip":"29464","distance":3.0981211661934,"lon":"-79.889359","lat":"32.799496","theaterChainName":"Cinebarre","ticketType":"STANDARD"},{"id":"5221","tribuneTheaterId":"10645","providerTheaterId":"","name":"Greater Park Circle Film Society","address":"PO Box 71514","city":"Charleston","state":"SC","zip":"29415","distance":6.0267872135509,"lon":"-79.984497","lat":"32.857101","theaterChainName":"Independent Chains","ticketType":"STANDARD"},{"id":"4815","tribuneTheaterId":"10077","providerTheaterId":"","name":"Citadel Mall Stadium 16","address":"2072 Sam Rittenberg BL","city":"Charleston","state":"SC","zip":"29407","distance":5.7263391423501,"lon":"-80.032053","lat":"32.801797","theaterChainName":"Southeast Cinemas","ticketType":"STANDARD"},{"id":"2648","tribuneTheaterId":"5864","providerTheaterId":"","name":"Regal Palmetto Grande Stadium 16","address":"1319 Theatre Drive","city":"Mount Pleasant","state":"SC","zip":"29464","distance":7.2322853923789,"lon":"-79.828017","lat":"32.83","theaterChainName":"Regal Cinemas","ticketType":"STANDARD"},{"id":"2468","tribuneTheaterId":"8588","providerTheaterId":"","name":"Regal Charles Towne Square Stadium 18","address":"2401 Mall Drive","city":"North Charleston","state":"SC","zip":"29406","distance":7.9916437627783,"lon":"-80.010198","lat":"32.877507","theaterChainName":"Regal Cinemas","ticketType":"STANDARD"},{"id":"4966","tribuneTheaterId":"10326","providerTheaterId":"","name":"Northwoods Stadium Cinemas","address":"2181Northwoods Blvd.","city":"North Charleston","state":"SC","zip":"29406","distance":12.730918318539,"lon":"-80.043941","lat":"32.940423","theaterChainName":"Southeast Cinemas","ticketType":"STANDARD"},{"id":"1344","tribuneTheaterId":"5253","providerTheaterId":"","name":"Cinemark Movies 8 Summerville","address":"4488 Ladson Road","city":"Summerville","state":"SC","zip":"29485","distance":17.884167933602,"lon":"-80.159732","lat":"32.958477","theaterChainName":"Cinemark","ticketType":"STANDARD"},{"id":"3681","tribuneTheaterId":"8654","providerTheaterId":"","name":"Regal Movies  Azalea Square","address":"215 Azalea Square Blvd.","city":"Summerville","state":"SC","zip":"29483","distance":21.994287778707,"lon":"-80.160407","lat":"33.036765","theaterChainName":"Regal Cinemas","ticketType":"STANDARD"}]