[{"id":"5221","name":"Greater Park Circle Film Society","address":"PO Box 71514","city":"Charleston","state":"SC","zip":"29415","distance":"21.656740188598633","lon":"-79.984497","lat":"32.857101","theaterChainName":"Independent Chains","ticketType":"STANDARD"},{"id":"2468","name":"Regal Charles Towne Square Stadium 18","address":"2401 Mall Drive","city":"North Charleston","state":"SC","zip":"29406","distance":"22.37939453125","lon":"-80.010201","lat":"32.877506","theaterChainName":"Regal Cinemas","ticketType":"STANDARD"},{"id":"4517","name":"Cinebarre - Mount Pleasant","address":"963 Houston - Northcutt Blvd","city":"Mount Pleasant","state":"SC","zip":"29464","distance":"19.680522918701172","lon":"-79.889359","lat":"32.799496","theaterChainName":"Cinebarre","ticketType":"STANDARD"},{"id":"4966","name":"Northwoods Stadium Cinemas","address":"2181Northwoods Blvd.","city":"North Charleston","state":"SC","zip":"29406","distance":"22.938379287719727","lon":"-80.043938","lat":"32.940422","theaterChainName":"Southeast Cinemas","ticketType":"STANDARD"},{"id":"2648","name":"Regal Palmetto Grande Stadium 16","address":"1319 Theatre Drive","city":"Mount Pleasant","state":"SC","zip":"29464","distance":"15.742956161499023","lon":"-79.828018","lat":"32.830002","theaterChainName":"Regal Cinemas","ticketType":"STANDARD"}]