[{"id":"3309","tribuneTheaterId":"5868","providerTheaterId":"","name":"Plaza Stadium Theatre","address":"41 Robert Smalls Pkwy","city":"Beaufort","state":"SC","zip":"29902","distance":24.493266862312,"lon":"-80.70629","lat":"32.437945","theaterChainName":"Independent Chains","ticketType":"STANDARD"},{"id":"4815","tribuneTheaterId":"10077","providerTheaterId":"","name":"Citadel Mall Stadium 16","address":"2072 Sam Rittenberg BL","city":"Charleston","state":"SC","zip":"29407","distance":23.7011903973,"lon":"-80.032053","lat":"32.801797","theaterChainName":"Southeast Cinemas","ticketType":"STANDARD"},{"id":"1694","tribuneTheaterId":"5742","providerTheaterId":"","name":"Carmike James Island 8","address":"1743 Central Park Rd.","city":"Charleston","state":"SC","zip":"29412","distance":23.770042935779,"lon":"-79.974554","lat":"32.748604","theaterChainName":"Carmike Cinemas","ticketType":"STANDARD"},{"id":"2473","tribuneTheaterId":"2841","providerTheaterId":"","name":"Terrace","address":"1956 Maybank Hwy","city":"Charleston","state":"SC","zip":"29412","distance":23.839576842215,"lon":"-79.985967","lat":"32.763063","theaterChainName":"Independent Chains","ticketType":"STANDARD"}]