[{"id":"4966","tribuneTheaterId":"10326","providerTheaterId":"","name":"Northwoods Stadium Cinemas","address":"2181Northwoods Blvd.","city":"North Charleston","state":"SC","zip":"29406","distance":16.441013413614,"lon":"-80.043941","lat":"32.940423","theaterChainName":"Southeast Cinemas","ticketType":"STANDARD"},{"id":"3681","tribuneTheaterId":"8654","providerTheaterId":"","name":"Regal Movies  Azalea Square","address":"215 Azalea Square Blvd.","city":"Summerville","state":"SC","zip":"29483","distance":17.488173106807,"lon":"-80.160407","lat":"33.036765","theaterChainName":"Regal Cinemas","ticketType":"STANDARD"},{"id":"2468","tribuneTheaterId":"8588","providerTheaterId":"","name":"Regal Charles Towne Square Stadium 18","address":"2401 Mall Drive","city":"North Charleston","state":"SC","zip":"29406","distance":19.342664710285,"lon":"-80.010198","lat":"32.877507","theaterChainName":"Regal Cinemas","ticketType":"STANDARD"},{"id":"1344","tribuneTheaterId":"5253","providerTheaterId":"","name":"Cinemark Movies 8 Summerville","address":"4488 Ladson Road","city":"Summerville","state":"SC","zip":"29485","distance":20.208762441496,"lon":"-80.159732","lat":"32.958477","theaterChainName":"Cinemark","ticketType":"STANDARD"},{"id":"5221","tribuneTheaterId":"10645","providerTheaterId":"","name":"Greater Park Circle Film Society","address":"PO Box 71514","city":"Charleston","state":"SC","zip":"29415","distance":20.167652809947,"lon":"-79.984497","lat":"32.857101","theaterChainName":"Independent Chains","ticketType":"STANDARD"},{"id":"2648","tribuneTheaterId":"5864","providerTheaterId":"","name":"Regal Palmetto Grande Stadium 16","address":"1319 Theatre Drive","city":"Mount Pleasant","state":"SC","zip":"29464","distance":21.391578811436,"lon":"-79.828017","lat":"32.83","theaterChainName":"Regal Cinemas","ticketType":"STANDARD"},{"id":"4517","tribuneTheaterId":"9626","providerTheaterId":"","name":"Cinebarre - Mount Pleasant","address":"963 Houston - Northcutt Blvd","city":"Mount Pleasant","state":"SC","zip":"29464","distance":23.267290457783,"lon":"-79.889359","lat":"32.799496","theaterChainName":"Cinebarre","ticketType":"STANDARD"},{"id":"4815","tribuneTheaterId":"10077","providerTheaterId":"","name":"Citadel Mall Stadium 16","address":"2072 Sam Rittenberg BL","city":"Charleston","state":"SC","zip":"29407","distance":24.675778651567,"lon":"-80.032053","lat":"32.801797","theaterChainName":"Southeast Cinemas","ticketType":"STANDARD"}]