[{"id":"3681","name":"Regal Movies  Azalea Square","address":"215 Azalea Square Blvd.","city":"Summerville","state":"SC","zip":"29483","distance":"23.494794845581055","lon":"-80.160408","lat":"33.036766","theaterChainName":"Regal Cinemas","ticketType":"STANDARD"},{"id":"1344","name":"Cinemark Movies 8 Summerville","address":"4488 Ladson Road","city":"Summerville","state":"SC","zip":"29485","distance":"18.38262176513672","lon":"-80.159729","lat":"32.958477","theaterChainName":"Cinemark","ticketType":"STANDARD"},{"id":"2473","name":"Terrace","address":"1956 Maybank Hwy","city":"Charleston","state":"SC","zip":"29412","distance":"17.15311050415039","lon":"-79.985970","lat":"32.763062","theaterChainName":"Independent Chains","ticketType":"STANDARD"},{"id":"1694","name":"Carmike James Island 8","address":"1743 Central Park Rd.","city":"Charleston","state":"SC","zip":"29412","distance":"17.626745223999023","lon":"-79.974556","lat":"32.748604","theaterChainName":"Carmike Cinemas","ticketType":"STANDARD"},{"id":"4815","name":"Citadel Mall Stadium 16","address":"2072 Sam Rittenberg BL","city":"Charleston","state":"SC","zip":"29407","distance":"15.431143760681152","lon":"-80.032051","lat":"32.801796","theaterChainName":"Southeast Cinemas","ticketType":"STANDARD"},{"id":"5221","name":"Greater Park Circle Film Society","address":"PO Box 71514","city":"Charleston","state":"SC","zip":"29415","distance":"19.65272331237793","lon":"-79.984497","lat":"32.857101","theaterChainName":"Independent Chains","ticketType":"STANDARD"},{"id":"2468","name":"Regal Charles Towne Square Stadium 18","address":"2401 Mall Drive","city":"North Charleston","state":"SC","zip":"29406","distance":"19.200664520263672","lon":"-80.010201","lat":"32.877506","theaterChainName":"Regal Cinemas","ticketType":"STANDARD"},{"id":"4517","name":"Cinebarre - Mount Pleasant","address":"963 Houston - Northcutt Blvd","city":"Mount Pleasant","state":"SC","zip":"29464","distance":"23.204540252685547","lon":"-79.889359","lat":"32.799496","theaterChainName":"Cinebarre","ticketType":"STANDARD"},{"id":"4966","name":"Northwoods Stadium Cinemas","address":"2181Northwoods Blvd.","city":"North Charleston","state":"SC","zip":"29406","distance":"20.771808624267578","lon":"-80.043938","lat":"32.940422","theaterChainName":"Southeast Cinemas","ticketType":"STANDARD"}]