[{"id":"3681","tribuneTheaterId":"8654","providerTheaterId":"","name":"Regal Movies  Azalea Square","address":"215 Azalea Square Blvd.","city":"Summerville","state":"SC","zip":"29483","distance":14.704919810288,"lon":"-80.160407","lat":"33.036765","theaterChainName":"Regal Cinemas","ticketType":"STANDARD"},{"id":"4966","tribuneTheaterId":"10326","providerTheaterId":"","name":"Northwoods Stadium Cinemas","address":"2181Northwoods Blvd.","city":"North Charleston","state":"SC","zip":"29406","distance":19.601646887841,"lon":"-80.043941","lat":"32.940423","theaterChainName":"Southeast Cinemas","ticketType":"STANDARD"},{"id":"1344","tribuneTheaterId":"5253","providerTheaterId":"","name":"Cinemark Movies 8 Summerville","address":"4488 Ladson Road","city":"Summerville","state":"SC","zip":"29485","distance":19.621964354002,"lon":"-80.159732","lat":"32.958477","theaterChainName":"Cinemark","ticketType":"STANDARD"},{"id":"2468","tribuneTheaterId":"8588","providerTheaterId":"","name":"Regal Charles Towne Square Stadium 18","address":"2401 Mall Drive","city":"North Charleston","state":"SC","zip":"29406","distance":24.008539786788,"lon":"-80.010198","lat":"32.877507","theaterChainName":"Regal Cinemas","ticketType":"STANDARD"}]