[{"id":"3681","tribuneTheaterId":"8654","providerTheaterId":"","name":"Regal Movies  Azalea Square","address":"215 Azalea Square Blvd.","city":"Summerville","state":"SC","zip":"29483","distance":13.626341563158,"lon":"-80.160407","lat":"33.036765","theaterChainName":"Regal Cinemas","ticketType":"STANDARD"},{"id":"4966","tribuneTheaterId":"10326","providerTheaterId":"","name":"Northwoods Stadium Cinemas","address":"2181Northwoods Blvd.","city":"North Charleston","state":"SC","zip":"29406","distance":17.774886256269,"lon":"-80.043941","lat":"32.940423","theaterChainName":"Southeast Cinemas","ticketType":"STANDARD"},{"id":"1344","tribuneTheaterId":"5253","providerTheaterId":"","name":"Cinemark Movies 8 Summerville","address":"4488 Ladson Road","city":"Summerville","state":"SC","zip":"29485","distance":18.281684654251,"lon":"-80.159732","lat":"32.958477","theaterChainName":"Cinemark","ticketType":"STANDARD"},{"id":"2468","tribuneTheaterId":"8588","providerTheaterId":"","name":"Regal Charles Towne Square Stadium 18","address":"2401 Mall Drive","city":"North Charleston","state":"SC","zip":"29406","distance":22.09477263357,"lon":"-80.010198","lat":"32.877507","theaterChainName":"Regal Cinemas","ticketType":"STANDARD"},{"id":"5221","tribuneTheaterId":"10645","providerTheaterId":"","name":"Greater Park Circle Film Society","address":"PO Box 71514","city":"Charleston","state":"SC","zip":"29415","distance":23.598949278289,"lon":"-79.984497","lat":"32.857101","theaterChainName":"Independent Chains","ticketType":"STANDARD"}]