[{"id":"4262","tribuneTheaterId":"4735","providerTheaterId":"","name":"Carmike Colonial Twelve","address":"10177 North Kings Highway","city":"Myrtle Beach","state":"SC","zip":"29572","distance":8.8741790302272,"lon":"-78.766372","lat":"33.791476","theaterChainName":"Carmike Cinemas","ticketType":"STANDARD"},{"id":"3640","tribuneTheaterId":"2241","providerTheaterId":"","name":"Coastal Cinema 10","address":"5200 Bridgers Road","city":"Shallotte","state":"NC","zip":"28459","distance":15.913738834094,"lon":"-78.401019","lat":"33.977267","theaterChainName":"Frank Theatres","ticketType":"STANDARD"},{"id":"1889","tribuneTheaterId":"4737","providerTheaterId":"","name":"Carmike Broadway 17","address":"1175 Celebrity Circle","city":"Myrtle Beach","state":"SC","zip":"29577","distance":17.214251647934,"lon":"-78.878188","lat":"33.714426","theaterChainName":"Carmike Cinemas","ticketType":"STANDARD"},{"id":"3703","tribuneTheaterId":"4207","providerTheaterId":"","name":"Cinemark at Myrtle Beach","address":"2100 Coastal Grand Circle","city":"Myrtle Beach","state":"SC","zip":"29577","distance":19.840083278704,"lon":"-78.924","lat":"33.701013","theaterChainName":"Cinemark","ticketType":"STANDARD"},{"id":"4540","tribuneTheaterId":"9673","providerTheaterId":"","name":"Grand 14 at Market Common","address":"4002 DeVille St.","city":"Myrtle Beach","state":"SC","zip":"29577","distance":21.831580436202,"lon":"-78.938726","lat":"33.670506","theaterChainName":"Stone Theatres","ticketType":"STANDARD"}]