[{"id":"4262","tribuneTheaterId":"4735","providerTheaterId":"","name":"Carmike Colonial Twelve","address":"10177 North Kings Highway","city":"Myrtle Beach","state":"SC","zip":"29572","distance":8.090525739064,"lon":"-78.766372","lat":"33.791476","theaterChainName":"Carmike Cinemas","ticketType":"STANDARD"},{"id":"1889","tribuneTheaterId":"4737","providerTheaterId":"","name":"Carmike Broadway 17","address":"1175 Celebrity Circle","city":"Myrtle Beach","state":"SC","zip":"29577","distance":14.129041230898,"lon":"-78.878188","lat":"33.714426","theaterChainName":"Carmike Cinemas","ticketType":"STANDARD"},{"id":"3703","tribuneTheaterId":"4207","providerTheaterId":"","name":"Cinemark at Myrtle Beach","address":"2100 Coastal Grand Circle","city":"Myrtle Beach","state":"SC","zip":"29577","distance":16.050001728153,"lon":"-78.924","lat":"33.701013","theaterChainName":"Cinemark","ticketType":"STANDARD"},{"id":"4398","tribuneTheaterId":"9451","providerTheaterId":"","name":"Rivertown Stadium 12","address":"20 Rivertown Blvd.","city":"Conway","state":"SC","zip":"29528","distance":17.33960700804,"lon":"-79.089353","lat":"33.85529","theaterChainName":"Frank Theatres","ticketType":"STANDARD"},{"id":"4540","tribuneTheaterId":"9673","providerTheaterId":"","name":"Grand 14 at Market Common","address":"4002 DeVille St.","city":"Myrtle Beach","state":"SC","zip":"29577","distance":18.310862273905,"lon":"-78.938726","lat":"33.670506","theaterChainName":"Stone Theatres","ticketType":"STANDARD"},{"id":"3640","tribuneTheaterId":"2241","providerTheaterId":"","name":"Coastal Cinema 10","address":"5200 Bridgers Road","city":"Shallotte","state":"NC","zip":"28459","distance":23.018131405283,"lon":"-78.401019","lat":"33.977267","theaterChainName":"Frank Theatres","ticketType":"STANDARD"}]