[{"id":"4262","name":"Carmike Colonial Twelve","address":"10177 North Kings Highway","city":"Myrtle Beach","state":"SC","zip":"29572","distance":"10.588966369628906","lon":"-78.766373","lat":"33.791477","theaterChainName":"Carmike Cinemas","ticketType":"STANDARD"},{"id":"1889","name":"Carmike Broadway 17","address":"1175 Celebrity Circle","city":"Myrtle Beach","state":"SC","zip":"29577","distance":"2.2897915840148926","lon":"-78.878189","lat":"33.714424","theaterChainName":"Carmike Cinemas","ticketType":"STANDARD"},{"id":"4398","name":"Rivertown Stadium 12","address":"20 Rivertown Blvd.","city":"Conway","state":"SC","zip":"29528","distance":"14.75835132598877","lon":"-79.089355","lat":"33.855289","theaterChainName":"Frank Theatres","ticketType":"STANDARD"},{"id":"3703","name":"Cinemark at Myrtle Beach","address":"2100 Coastal Grand Circle","city":"Myrtle Beach","state":"SC","zip":"29577","distance":"0.6028753519058228","lon":"-78.924004","lat":"33.701012","theaterChainName":"Cinemark","ticketType":"STANDARD"},{"id":"4540","name":"Grand 14 at Market Common","address":"4002 DeVille St.","city":"Myrtle Beach","state":"SC","zip":"29577","distance":"2.4613213539123535","lon":"-78.938728","lat":"33.670506","theaterChainName":"Stone Theatres","ticketType":"STANDARD"},{"id":"649","name":"Inlet Square 11","address":"10125 Highway 17 Bypass #12F","city":"Murrells Inlet","state":"SC","zip":"29576","distance":"10.400547981262207","lon":"-79.024719","lat":"33.580605","theaterChainName":"Frank Theatres","ticketType":"STANDARD"}]