[{"id":"3814","name":"Regal Spartan Stadium 16","address":"855 Spartan Blvd","city":"Spartanburg","state":"SC","zip":"29301","distance":"24.5299015045166","lon":"-82.000748","lat":"34.944866","theaterChainName":"Regal Cinemas","ticketType":"STANDARD"},{"id":"648","name":"Regal Westgate Mall Cinema 8","address":"205 Blackstock Road","city":"Spartanburg","state":"SC","zip":"29301","distance":"24.790164947509766","lon":"-81.995834","lat":"34.939281","theaterChainName":"Regal Cinemas","ticketType":"STANDARD"},{"id":"4229","name":"Flat Rock Cinema","address":"2700-D Greenville Hwy","city":"Flat Rock","state":"NC","zip":"28731","distance":"23.986328125","lon":"-82.441025","lat":"35.271976","theaterChainName":"Independent Chains","ticketType":"STANDARD"},{"id":"1908","name":"Easley Cinemas 8","address":"5065 Calhoun Memorial Hwy.","city":"Easley","state":"SC","zip":"29640","distance":"9.796001434326172","lon":"-82.554131","lat":"34.823711","theaterChainName":"REI Cinemas","ticketType":"STANDARD"},{"id":"3484","name":"Regal Cherrydale Stadium 16","address":"3221 North Pleasantburg Drive","city":"Greenville","state":"SC","zip":"29609","distance":"3.0857136249542236","lon":"-82.399902","lat":"34.889500","theaterChainName":"Regal Cinemas","ticketType":"STANDARD"},{"id":"4299","name":"Camelot","address":"48 East Atrim Drive","city":"Greenville","state":"SC","zip":"29607","distance":"7.166334629058838","lon":"-82.360588","lat":"34.839939","theaterChainName":"Independent Chains","ticketType":"STANDARD"},{"id":"677","name":"Regal Hollywood Stadium 20-Greenville","address":"1025 Woodruff Road","city":"Greenville","state":"SC","zip":"29607","distance":"9.623529434204102","lon":"-82.305031","lat":"34.833469","theaterChainName":"Regal Cinemas","ticketType":"STANDARD"},{"id":"4916","name":"Regal Simpsonville 14 IMAX","address":"780 South Street","city":"Simpsonville","state":"SC","zip":"29681","distance":"16.880407333374023","lon":"-82.258476","lat":"34.727077","theaterChainName":"Regal Cinemas","ticketType":"STANDARD"}]