[{"id":"1908","name":"Easley Cinemas 8","address":"5065 Calhoun Memorial Hwy.","city":"Easley","state":"SC","zip":"29640","distance":"21.0159854888916","lon":"-82.554131","lat":"34.823711","theaterChainName":"REI Cinemas","ticketType":"STANDARD"},{"id":"2031","name":"Seneca Cinema 8","address":"675 Highway 123 Bypass","city":"Seneca","state":"SC","zip":"29678","distance":"22.238357543945312","lon":"-82.962090","lat":"34.696568","theaterChainName":"REI Cinemas","ticketType":"STANDARD"},{"id":"3034","name":"AmStar Stadium 14 Anderson","address":"193 Civic Center Blvd.","city":"Anderson","state":"SC","zip":"29625","distance":"3.439476728439331","lon":"-82.683235","lat":"34.550259","theaterChainName":"Southern Theatres","ticketType":"STANDARD"},{"id":"3037","name":"Regal Cinema 14","address":"Clemson Blvd. at I-85, Exit 19B","city":"Anderson","state":"SC","zip":"29621","distance":"5.646024227142334","lon":"-82.709084","lat":"34.575871","theaterChainName":"Regal Cinemas","ticketType":"STANDARD"}]