[{"id":"1908","tribuneTheaterId":"5045","providerTheaterId":"","name":"Easley Cinemas 8","address":"5065 Calhoun Memorial Hwy.","city":"Easley","state":"SC","zip":"29640","distance":8.9954707218151,"lon":"-82.554129","lat":"34.823713","theaterChainName":"REI Cinemas","ticketType":"STANDARD"},{"id":"2031","tribuneTheaterId":"5965","providerTheaterId":"","name":"Seneca Cinema 8","address":"675 Highway 123 Bypass","city":"Seneca","state":"SC","zip":"29678","distance":17.69577074238,"lon":"-82.962087","lat":"34.696569","theaterChainName":"REI Cinemas","ticketType":"STANDARD"},{"id":"3037","tribuneTheaterId":"7892","providerTheaterId":"","name":"Regal Cinema 14","address":"Clemson Blvd. at I-85, Exit 19B","city":"Anderson","state":"SC","zip":"29621","distance":18.760993945155,"lon":"-82.70908","lat":"34.57587","theaterChainName":"Regal Cinemas","ticketType":"STANDARD"},{"id":"3484","tribuneTheaterId":"4907","providerTheaterId":"","name":"Regal Cherrydale Stadium 16","address":"3221 North Pleasantburg Drive","city":"Greenville","state":"SC","zip":"29609","distance":17.823806592311,"lon":"-82.3999","lat":"34.8895","theaterChainName":"Regal Cinemas","ticketType":"STANDARD"},{"id":"3034","tribuneTheaterId":"2338","providerTheaterId":"","name":"AmStar Stadium 14 Anderson","address":"193 Civic Center Blvd.","city":"Anderson","state":"SC","zip":"29625","distance":20.587166308644,"lon":"-82.683234","lat":"34.550258","theaterChainName":"Southern Theatres","ticketType":"STANDARD"},{"id":"4299","tribuneTheaterId":"2078","providerTheaterId":"","name":"Camelot","address":"48 East Atrim Drive","city":"Greenville","state":"SC","zip":"29607","distance":19.825894456804,"lon":"-82.360591","lat":"34.839939","theaterChainName":"Independent Chains","ticketType":"STANDARD"},{"id":"677","tribuneTheaterId":"7738","providerTheaterId":"","name":"Regal Hollywood Stadium 20-Greenville","address":"1025 Woodruff Road","city":"Greenville","state":"SC","zip":"29607","distance":22.990649685155,"lon":"-82.305034","lat":"34.83347","theaterChainName":"Regal Cinemas","ticketType":"STANDARD"}]