[{"id":"1908","name":"Easley Cinemas 8","address":"5065 Calhoun Memorial Hwy.","city":"Easley","state":"SC","zip":"29640","distance":"12.19387435913086","lon":"-82.554131","lat":"34.823711","theaterChainName":"REI Cinemas","ticketType":"STANDARD"},{"id":"3484","name":"Regal Cherrydale Stadium 16","address":"3221 North Pleasantburg Drive","city":"Greenville","state":"SC","zip":"29609","distance":"21.995622634887695","lon":"-82.399902","lat":"34.889500","theaterChainName":"Regal Cinemas","ticketType":"STANDARD"},{"id":"4299","name":"Camelot","address":"48 East Atrim Drive","city":"Greenville","state":"SC","zip":"29607","distance":"23.066316604614258","lon":"-82.360588","lat":"34.839939","theaterChainName":"Independent Chains","ticketType":"STANDARD"},{"id":"2031","name":"Seneca Cinema 8","address":"675 Highway 123 Bypass","city":"Seneca","state":"SC","zip":"29678","distance":"12.580439567565918","lon":"-82.962090","lat":"34.696568","theaterChainName":"REI Cinemas","ticketType":"STANDARD"},{"id":"3034","name":"AmStar Stadium 14 Anderson","address":"193 Civic Center Blvd.","city":"Anderson","state":"SC","zip":"29625","distance":"15.401172637939453","lon":"-82.683235","lat":"34.550259","theaterChainName":"Southern Theatres","ticketType":"STANDARD"},{"id":"3037","name":"Regal Cinema 14","address":"Clemson Blvd. at I-85, Exit 19B","city":"Anderson","state":"SC","zip":"29621","distance":"13.332123756408691","lon":"-82.709084","lat":"34.575871","theaterChainName":"Regal Cinemas","ticketType":"STANDARD"}]