[{"id":"2068","name":"Co-ed Cinema","address":"79 West Main St.","city":"Brevard","state":"NC","zip":"28712","distance":"18.66694450378418","lon":"-82.735558","lat":"35.234245","theaterChainName":"Independent Chains","ticketType":"STANDARD"},{"id":"5592","name":"Highlands Playhouse","address":"362 Oak Street","city":"Highlands","state":"NC","zip":"28741","distance":"22.798933029174805","lon":"-83.197495","lat":"35.053635","theaterChainName":"Independent Chains","ticketType":"STANDARD"},{"id":"1908","name":"Easley Cinemas 8","address":"5065 Calhoun Memorial Hwy.","city":"Easley","state":"SC","zip":"29640","distance":"17.588748931884766","lon":"-82.554131","lat":"34.823711","theaterChainName":"REI Cinemas","ticketType":"STANDARD"},{"id":"3484","name":"Regal Cherrydale Stadium 16","address":"3221 North Pleasantburg Drive","city":"Greenville","state":"SC","zip":"29609","distance":"23.76618194580078","lon":"-82.399902","lat":"34.889500","theaterChainName":"Regal Cinemas","ticketType":"STANDARD"},{"id":"2031","name":"Seneca Cinema 8","address":"675 Highway 123 Bypass","city":"Seneca","state":"SC","zip":"29678","distance":"20.863977432250977","lon":"-82.962090","lat":"34.696568","theaterChainName":"REI Cinemas","ticketType":"STANDARD"}]