[{"id":"3484","tribuneTheaterId":"4907","providerTheaterId":"","name":"Regal Cherrydale Stadium 16","address":"3221 North Pleasantburg Drive","city":"Greenville","state":"SC","zip":"29609","distance":8.054070884663,"lon":"-82.3999","lat":"34.8895","theaterChainName":"Regal Cinemas","ticketType":"STANDARD"},{"id":"4299","tribuneTheaterId":"2078","providerTheaterId":"","name":"Camelot","address":"48 East Atrim Drive","city":"Greenville","state":"SC","zip":"29607","distance":11.94055279506,"lon":"-82.360591","lat":"34.839939","theaterChainName":"Independent Chains","ticketType":"STANDARD"},{"id":"677","tribuneTheaterId":"7738","providerTheaterId":"","name":"Regal Hollywood Stadium 20-Greenville","address":"1025 Woodruff Road","city":"Greenville","state":"SC","zip":"29607","distance":13.658956070569,"lon":"-82.305034","lat":"34.83347","theaterChainName":"Regal Cinemas","ticketType":"STANDARD"},{"id":"1908","tribuneTheaterId":"5045","providerTheaterId":"","name":"Easley Cinemas 8","address":"5065 Calhoun Memorial Hwy.","city":"Easley","state":"SC","zip":"29640","distance":14.37750414913,"lon":"-82.554129","lat":"34.823713","theaterChainName":"REI Cinemas","ticketType":"STANDARD"},{"id":"4229","tribuneTheaterId":"6388","providerTheaterId":"","name":"Flat Rock Cinema","address":"2700-D Greenville Hwy","city":"Flat Rock","state":"NC","zip":"28731","distance":18.538782465997,"lon":"-82.441022","lat":"35.271977","theaterChainName":"Independent Chains","ticketType":"STANDARD"},{"id":"4916","tribuneTheaterId":"10233","providerTheaterId":"","name":"Regal Simpsonville 14 IMAX","address":"780 South Street","city":"Simpsonville","state":"SC","zip":"29681","distance":21.384985397317,"lon":"-82.258474","lat":"34.727078","theaterChainName":"Regal Cinemas","ticketType":"STANDARD"},{"id":"2068","tribuneTheaterId":"1148","providerTheaterId":"","name":"Co-ed Cinema","address":"79 West Main St.","city":"Brevard","state":"NC","zip":"28712","distance":23.6005345631,"lon":"-82.735554","lat":"35.234244","theaterChainName":"Independent Chains","ticketType":"STANDARD"},{"id":"4053","tribuneTheaterId":"5009","providerTheaterId":"","name":"EPIC Theatres of Hendersonville","address":"200 Thompson Street","city":"Hendersonville","state":"NC","zip":"28792","distance":23.199643430603,"lon":"-82.44647","lat":"35.339303","theaterChainName":"Epic Theatres","ticketType":"STANDARD"},{"id":"648","tribuneTheaterId":"7736","providerTheaterId":"","name":"Regal Westgate Mall Cinema 8","address":"205 Blackstock Road","city":"Spartanburg","state":"SC","zip":"29301","distance":24.827367177821,"lon":"-81.995838","lat":"34.939283","theaterChainName":"Regal Cinemas","ticketType":"STANDARD"},{"id":"3814","tribuneTheaterId":"4909","providerTheaterId":"","name":"Regal Spartan Stadium 16","address":"855 Spartan Blvd","city":"Spartanburg","state":"SC","zip":"29301","distance":24.485810682033,"lon":"-82.00075","lat":"34.944868","theaterChainName":"Regal Cinemas","ticketType":"STANDARD"}]