[{"id":"3082","tribuneTheaterId":"5863","providerTheaterId":"","name":"Regal Manchester Stadium 14","address":"1935 Cinema Dr","city":"Rock Hill","state":"SC","zip":"29730","distance":10.19033167086,"lon":"-80.9779","lat":"34.9442","theaterChainName":"Regal Cinemas","ticketType":"STANDARD"},{"id":"2250","tribuneTheaterId":"5741","providerTheaterId":"","name":"Carmike 7 Rock Hill","address":"2150 Cherry Rd.","city":"Rock Hill","state":"SC","zip":"29730","distance":11.555178753745,"lon":"-81","lat":"34.964001","theaterChainName":"Carmike Cinemas","ticketType":"STANDARD"},{"id":"4741","tribuneTheaterId":"9965","providerTheaterId":"","name":"Regal Ballantyne Village Stadium 5","address":"14815 John J Delany Drive","city":"Charlotte","state":"NC","zip":"28277","distance":19.297486874004,"lon":"-80.8529","lat":"35.053","theaterChainName":"Regal Cinemas","ticketType":"STANDARD"},{"id":"1457","tribuneTheaterId":"7569","providerTheaterId":"","name":"Regal Stonecrest at Piper Glen 22 & IMAX","address":"7824 Rea Rd.","city":"Charlotte","state":"NC","zip":"28277","distance":20.70275570734,"lon":"-80.81856","lat":"35.062013","theaterChainName":"Regal Cinemas","ticketType":"STANDARD"},{"id":"232","tribuneTheaterId":"7969","providerTheaterId":"681","name":"AMC Carolina Pavilion 22","address":"9541 South Blvd.","city":"Charlotte","state":"NC","zip":"28273","distance":22.467583281634,"lon":"-80.874722","lat":"35.108371","theaterChainName":"AMC Theatres","ticketType":"STANDARD"},{"id":"5213","tribuneTheaterId":"10637","providerTheaterId":"","name":"Cinebarre Arboretum","address":"8008 Providence Rd.","city":"Charlotte","state":"NC","zip":"28277","distance":24.022379063599,"lon":"-80.778503","lat":"35.098801","theaterChainName":"Cinebarre","ticketType":"STANDARD"},{"id":"4259","tribuneTheaterId":"2359","providerTheaterId":"","name":"Ayrsley Grand 14","address":"9110 Kings Parade Blvd.","city":"Charlotte","state":"NC","zip":"28273","distance":23.841307677971,"lon":"-80.932409","lat":"35.138918","theaterChainName":"Southeast Cinemas","ticketType":"STANDARD"}]