[{"id":"5854","tribuneTheaterId":"11267","providerTheaterId":"","name":"NCG Monroe","address":"1911 Dickerson Blvd.","city":"Monroe","state":"NC","zip":"28110","distance":17.464994812433,"lon":"-80.56371","lat":"35.007712","theaterChainName":"NCG Cinemas","ticketType":"STANDARD"},{"id":"5180","tribuneTheaterId":"10594","providerTheaterId":"","name":"Sun Valley 14","address":"6449 Old Monroe Rd.","city":"Indian Trail","state":"NC","zip":"28079","distance":19.664948499743,"lon":"-80.646375","lat":"35.051729","theaterChainName":"Stone Theatres","ticketType":"STANDARD"},{"id":"3082","tribuneTheaterId":"5863","providerTheaterId":"","name":"Regal Manchester Stadium 14","address":"1935 Cinema Dr","city":"Rock Hill","state":"SC","zip":"29730","distance":21.829175798686,"lon":"-80.9779","lat":"34.9442","theaterChainName":"Regal Cinemas","ticketType":"STANDARD"},{"id":"1457","tribuneTheaterId":"7569","providerTheaterId":"","name":"Regal Stonecrest at Piper Glen 22 & IMAX","address":"7824 Rea Rd.","city":"Charlotte","state":"NC","zip":"28277","distance":22.281518462922,"lon":"-80.81856","lat":"35.062013","theaterChainName":"Regal Cinemas","ticketType":"STANDARD"},{"id":"4741","tribuneTheaterId":"9965","providerTheaterId":"","name":"Regal Ballantyne Village Stadium 5","address":"14815 John J Delany Drive","city":"Charlotte","state":"NC","zip":"28277","distance":22.594029459931,"lon":"-80.8529","lat":"35.053","theaterChainName":"Regal Cinemas","ticketType":"STANDARD"},{"id":"2250","tribuneTheaterId":"5741","providerTheaterId":"","name":"Carmike 7 Rock Hill","address":"2150 Cherry Rd.","city":"Rock Hill","state":"SC","zip":"29730","distance":23.635430119067,"lon":"-81","lat":"34.964001","theaterChainName":"Carmike Cinemas","ticketType":"STANDARD"},{"id":"5213","tribuneTheaterId":"10637","providerTheaterId":"","name":"Cinebarre Arboretum","address":"8008 Providence Rd.","city":"Charlotte","state":"NC","zip":"28277","distance":23.885432156952,"lon":"-80.778503","lat":"35.098801","theaterChainName":"Cinebarre","ticketType":"STANDARD"}]