[{"id":"3082","tribuneTheaterId":"5863","providerTheaterId":"","name":"Regal Manchester Stadium 14","address":"1935 Cinema Dr","city":"Rock Hill","state":"SC","zip":"29730","distance":9.5399651831192,"lon":"-80.9779","lat":"34.9442","theaterChainName":"Regal Cinemas","ticketType":"STANDARD"},{"id":"2250","tribuneTheaterId":"5741","providerTheaterId":"","name":"Carmike 7 Rock Hill","address":"2150 Cherry Rd.","city":"Rock Hill","state":"SC","zip":"29730","distance":11.374054782946,"lon":"-81","lat":"34.964001","theaterChainName":"Carmike Cinemas","ticketType":"STANDARD"},{"id":"1457","tribuneTheaterId":"7569","providerTheaterId":"","name":"Regal Stonecrest at Piper Glen 22 & IMAX","address":"7824 Rea Rd.","city":"Charlotte","state":"NC","zip":"28277","distance":14.146352298255,"lon":"-80.81856","lat":"35.062013","theaterChainName":"Regal Cinemas","ticketType":"STANDARD"},{"id":"4741","tribuneTheaterId":"9965","providerTheaterId":"","name":"Regal Ballantyne Village Stadium 5","address":"14815 John J Delany Drive","city":"Charlotte","state":"NC","zip":"28277","distance":13.444492398602,"lon":"-80.8529","lat":"35.053","theaterChainName":"Regal Cinemas","ticketType":"STANDARD"},{"id":"5213","tribuneTheaterId":"10637","providerTheaterId":"","name":"Cinebarre Arboretum","address":"8008 Providence Rd.","city":"Charlotte","state":"NC","zip":"28277","distance":17.03596453685,"lon":"-80.778503","lat":"35.098801","theaterChainName":"Cinebarre","ticketType":"STANDARD"},{"id":"232","tribuneTheaterId":"7969","providerTheaterId":"681","name":"AMC Carolina Pavilion 22","address":"9541 South Blvd.","city":"Charlotte","state":"NC","zip":"28273","distance":17.341338975676,"lon":"-80.874722","lat":"35.108371","theaterChainName":"AMC Theatres","ticketType":"STANDARD"},{"id":"5180","tribuneTheaterId":"10594","providerTheaterId":"","name":"Sun Valley 14","address":"6449 Old Monroe Rd.","city":"Indian Trail","state":"NC","zip":"28079","distance":17.490261731312,"lon":"-80.646375","lat":"35.051729","theaterChainName":"Stone Theatres","ticketType":"STANDARD"},{"id":"925","tribuneTheaterId":"7495","providerTheaterId":"","name":"Cinemark Movies 10 Matthews","address":"9508 Northeast Ct","city":"Matthews","state":"NC","zip":"28105","distance":20.782559006034,"lon":"-80.715167","lat":"35.13958","theaterChainName":"Cinemark","ticketType":"STANDARD"},{"id":"5843","tribuneTheaterId":"11254","providerTheaterId":"","name":"Carolina Movies 10","address":"9508 Northeast Ct.","city":"Matthews","state":"NC","zip":"28105","distance":20.782559006034,"lon":"-80.715167","lat":"35.13958","theaterChainName":"Carolina Cinemas","ticketType":"STANDARD"},{"id":"4598","tribuneTheaterId":"9765","providerTheaterId":"","name":"Charlotte Crownpoint","address":"9630 Monroe Road","city":"Charlotte","state":"NC","zip":"28270","distance":20.345981147591,"lon":"-80.74133","lat":"35.140237","theaterChainName":"Carolina Cinemas","ticketType":"STANDARD"},{"id":"4259","tribuneTheaterId":"2359","providerTheaterId":"","name":"Ayrsley Grand 14","address":"9110 Kings Parade Blvd.","city":"Charlotte","state":"NC","zip":"28273","distance":19.984107400375,"lon":"-80.932409","lat":"35.138918","theaterChainName":"Southeast Cinemas","ticketType":"STANDARD"},{"id":"5854","tribuneTheaterId":"11267","providerTheaterId":"","name":"NCG Monroe","address":"1911 Dickerson Blvd.","city":"Monroe","state":"NC","zip":"28110","distance":19.020718968736,"lon":"-80.56371","lat":"35.007712","theaterChainName":"NCG Cinemas","ticketType":"STANDARD"},{"id":"928","tribuneTheaterId":"5862","providerTheaterId":"","name":"Regal Phillips Place Stadium 10","address":"6911 Phillips Place Ct.","city":"Charlotte","state":"NC","zip":"28210","distance":19.873941936093,"lon":"-80.824589","lat":"35.145609","theaterChainName":"Regal Cinemas","ticketType":"STANDARD"},{"id":"927","tribuneTheaterId":"8337","providerTheaterId":"","name":"Regal Park Terrace Stadium 6","address":"4289 Park Road","city":"Charlotte","state":"NC","zip":"28209","distance":21.724499702187,"lon":"-80.850082","lat":"35.172904","theaterChainName":"Regal Cinemas","ticketType":"STANDARD"},{"id":"856","tribuneTheaterId":"7896","providerTheaterId":"","name":"Regal Manor Theatre","address":"607 Providence Road","city":"Charlotte","state":"NC","zip":"28207","distance":23.734452690908,"lon":"-80.824624","lat":"35.201571","theaterChainName":"Regal Cinemas","ticketType":"STANDARD"}]