[{"id":"2250","tribuneTheaterId":"5741","providerTheaterId":"","name":"Carmike 7 Rock Hill","address":"2150 Cherry Rd.","city":"Rock Hill","state":"SC","zip":"29730","distance":12.88521638542,"lon":"-81","lat":"34.964001","theaterChainName":"Carmike Cinemas","ticketType":"STANDARD"},{"id":"3082","tribuneTheaterId":"5863","providerTheaterId":"","name":"Regal Manchester Stadium 14","address":"1935 Cinema Dr","city":"Rock Hill","state":"SC","zip":"29730","distance":14.391631642039,"lon":"-80.9779","lat":"34.9442","theaterChainName":"Regal Cinemas","ticketType":"STANDARD"},{"id":"4259","tribuneTheaterId":"2359","providerTheaterId":"","name":"Ayrsley Grand 14","address":"9110 Kings Parade Blvd.","city":"Charlotte","state":"NC","zip":"28273","distance":19.291001254961,"lon":"-80.932409","lat":"35.138918","theaterChainName":"Southeast Cinemas","ticketType":"STANDARD"},{"id":"1974","tribuneTheaterId":"8656","providerTheaterId":"","name":"Regal Movies @ Franklin Square","address":"3778 E. Franklin Boulevard","city":"Gastonia","state":"NC","zip":"28056","distance":19.422778744658,"lon":"-81.110731","lat":"35.259963","theaterChainName":"Regal Cinemas","ticketType":"STANDARD"},{"id":"4741","tribuneTheaterId":"9965","providerTheaterId":"","name":"Regal Ballantyne Village Stadium 5","address":"14815 John J Delany Drive","city":"Charlotte","state":"NC","zip":"28277","distance":21.408023741239,"lon":"-80.8529","lat":"35.053","theaterChainName":"Regal Cinemas","ticketType":"STANDARD"},{"id":"232","tribuneTheaterId":"7969","providerTheaterId":"681","name":"AMC Carolina Pavilion 22","address":"9541 South Blvd.","city":"Charlotte","state":"NC","zip":"28273","distance":21.286119972243,"lon":"-80.874722","lat":"35.108371","theaterChainName":"AMC Theatres","ticketType":"STANDARD"},{"id":"1457","tribuneTheaterId":"7569","providerTheaterId":"","name":"Regal Stonecrest at Piper Glen 22 & IMAX","address":"7824 Rea Rd.","city":"Charlotte","state":"NC","zip":"28277","distance":23.433544676605,"lon":"-80.81856","lat":"35.062013","theaterChainName":"Regal Cinemas","ticketType":"STANDARD"},{"id":"1658","tribuneTheaterId":"4754","providerTheaterId":"","name":"Carmike 10 Shelby","address":"2201-4 E. Dixson Blvd.","city":"Shelby","state":"NC","zip":"28150","distance":23.947459612404,"lon":"-81.482746","lat":"35.269515","theaterChainName":"Carmike Cinemas","ticketType":"STANDARD"},{"id":"928","tribuneTheaterId":"5862","providerTheaterId":"","name":"Regal Phillips Place Stadium 10","address":"6911 Phillips Place Ct.","city":"Charlotte","state":"NC","zip":"28210","distance":24.902646536476,"lon":"-80.824589","lat":"35.145609","theaterChainName":"Regal Cinemas","ticketType":"STANDARD"},{"id":"927","tribuneTheaterId":"8337","providerTheaterId":"","name":"Regal Park Terrace Stadium 6","address":"4289 Park Road","city":"Charlotte","state":"NC","zip":"28209","distance":24.48981979843,"lon":"-80.850082","lat":"35.172904","theaterChainName":"Regal Cinemas","ticketType":"STANDARD"}]