[{"id":"2149","tribuneTheaterId":"2948","providerTheaterId":"","name":"Park Plaza Cinemas","address":"33 Park Plaza Suite 201","city":"Hilton Head Island","state":"SC","zip":"29928","distance":4.5452213570252,"lon":"-80.766296","lat":"32.153801","theaterChainName":"Independent Chains","ticketType":"STANDARD"},{"id":"1869","tribuneTheaterId":"3151","providerTheaterId":"","name":"Northridge 10","address":"435 William Hilton Parkway","city":"Hilton Head Island","state":"SC","zip":"29926","distance":5.6459187327847,"lon":"-80.703174","lat":"32.215997","theaterChainName":"Southeast Cinemas","ticketType":"STANDARD"},{"id":"3566","tribuneTheaterId":"657","providerTheaterId":"","name":"Coligny Theatre","address":"1 North Forest Beach Drive","city":"Hilton Head Island","state":"SC","zip":"29928","distance":5.5942390044783,"lon":"-80.749887","lat":"32.144077","theaterChainName":"Independent Chains","ticketType":"STANDARD"},{"id":"5041","tribuneTheaterId":"10418","providerTheaterId":"","name":"Cinemark Blufton","address":"106 Buckwalter Parkway","city":"Bluffton","state":"SC","zip":"29910","distance":8.1935028626273,"lon":"-80.91237","lat":"32.283787","theaterChainName":"Cinemark","ticketType":"STANDARD"},{"id":"3309","tribuneTheaterId":"5868","providerTheaterId":"","name":"Plaza Stadium Theatre","address":"41 Robert Smalls Pkwy","city":"Beaufort","state":"SC","zip":"29902","distance":16.45825296259,"lon":"-80.70629","lat":"32.437945","theaterChainName":"Independent Chains","ticketType":"STANDARD"},{"id":"4291","tribuneTheaterId":"2216","providerTheaterId":"","name":"Victory Square Stadium 9","address":"1901 E. Victory Dr.","city":"Savannah","state":"GA","zip":"31404","distance":19.714554400114,"lon":"-81.066613","lat":"32.039076","theaterChainName":"Frank Theatres","ticketType":"STANDARD"},{"id":"2195","tribuneTheaterId":"6926","providerTheaterId":"","name":"Carmike 10 Savannah","address":"511 Stephenson Ave.","city":"Savannah","state":"GA","zip":"31405","distance":22.735720240853,"lon":"-81.106063","lat":"32.010856","theaterChainName":"Carmike Cinemas","ticketType":"STANDARD"},{"id":"605","tribuneTheaterId":"8191","providerTheaterId":"","name":"Spotlight Theatres Eisenhower Square Cinema 6","address":"1100 Eisenhower Dr.","city":"Savannah","state":"GA","zip":"31406","distance":22.578111329938,"lon":"-81.098864","lat":"32.006871","theaterChainName":"Spotlight Theatres","ticketType":"STANDARD"}]