[{"id":"3309","name":"Plaza Stadium Theatre","address":"41 Robert Smalls Pkwy","city":"Beaufort","state":"SC","zip":"29902","distance":"4.205039024353027","lon":"-80.706291","lat":"32.437946","theaterChainName":"Independent Chains","ticketType":"STANDARD"},{"id":"1869","name":"Northridge 10","address":"435 William Hilton Parkway","city":"Hilton Head Island","state":"SC","zip":"29926","distance":"12.313404083251953","lon":"-80.703171","lat":"32.215996","theaterChainName":"Southeast Cinemas","ticketType":"STANDARD"},{"id":"5041","name":"Cinemark Blufton","address":"106 Buckwalter Parkway","city":"Bluffton","state":"SC","zip":"29910","distance":"16.426488876342773","lon":"-80.912369","lat":"32.283787","theaterChainName":"Cinemark","ticketType":"STANDARD"},{"id":"2149","name":"Park Plaza Cinemas","address":"33 Park Plaza Suite 201","city":"Hilton Head Island","state":"SC","zip":"29928","distance":"17.48030662536621","lon":"-80.766296","lat":"32.153801","theaterChainName":"Independent Chains","ticketType":"STANDARD"},{"id":"3566","name":"Coligny Theatre","address":"1 North Forest Beach Drive","city":"Hilton Head Island","state":"SC","zip":"29928","distance":"17.80801773071289","lon":"-80.749886","lat":"32.144077","theaterChainName":"Independent Chains","ticketType":"STANDARD"}]