[{"id":"3309","tribuneTheaterId":"5868","providerTheaterId":"","name":"Plaza Stadium Theatre","address":"41 Robert Smalls Pkwy","city":"Beaufort","state":"SC","zip":"29902","distance":3.7184125115763,"lon":"-80.70629","lat":"32.437945","theaterChainName":"Independent Chains","ticketType":"STANDARD"},{"id":"1869","tribuneTheaterId":"3151","providerTheaterId":"","name":"Northridge 10","address":"435 William Hilton Parkway","city":"Hilton Head Island","state":"SC","zip":"29926","distance":11.893444663634,"lon":"-80.703174","lat":"32.215997","theaterChainName":"Southeast Cinemas","ticketType":"STANDARD"},{"id":"5041","tribuneTheaterId":"10418","providerTheaterId":"","name":"Cinemark Blufton","address":"106 Buckwalter Parkway","city":"Bluffton","state":"SC","zip":"29910","distance":15.111947372435,"lon":"-80.91237","lat":"32.283787","theaterChainName":"Cinemark","ticketType":"STANDARD"},{"id":"3566","tribuneTheaterId":"657","providerTheaterId":"","name":"Coligny Theatre","address":"1 North Forest Beach Drive","city":"Hilton Head Island","state":"SC","zip":"29928","distance":17.241847931607,"lon":"-80.749887","lat":"32.144077","theaterChainName":"Independent Chains","ticketType":"STANDARD"},{"id":"2149","tribuneTheaterId":"2948","providerTheaterId":"","name":"Park Plaza Cinemas","address":"33 Park Plaza Suite 201","city":"Hilton Head Island","state":"SC","zip":"29928","distance":16.83432306411,"lon":"-80.766296","lat":"32.153801","theaterChainName":"Independent Chains","ticketType":"STANDARD"}]