[{"id":"379","name":"AMC North Dekalb Mall 16","address":"2042 Lawrenceville Hwy","city":"Decatur","state":"GA","zip":"30033","distance":"17.37932586669922","lon":"-84.278419","lat":"33.807449","theaterChainName":"AMC Theatres","ticketType":"STANDARD"},{"id":"5908","name":"Satellite Cinemas South Dekalb","address":"2801 Candler Road #68","city":"Decatur","state":"GA","zip":"30034","distance":"22.068113327026367","lon":"-84.274025","lat":"33.708344","theaterChainName":"Independent Chains","ticketType":"STANDARD"},{"id":"4502","name":"Northlake Festival Movie Tavern","address":"4043 La Vista Rd","city":"Tucker","state":"GA","zip":"30084","distance":"14.695643424987793","lon":"-84.251503","lat":"33.842918","theaterChainName":"Movie Tavern","ticketType":"STANDARD"},{"id":"4253","name":"Plaza Theatre - Atlanta","address":"1049 Ponce De Leon Aveue N.E.","city":"Atlanta","state":"GA","zip":"30306","distance":"22.223051071166992","lon":"-84.353073","lat":"33.773441","theaterChainName":"Independent Chains","ticketType":"STANDARD"},{"id":"424","name":"Regal Tara Cinemas-Atlanta","address":"2345 Cheshire Bridge Rd NE","city":"Atlanta","state":"GA","zip":"30324","distance":"20.417566299438477","lon":"-84.350479","lat":"33.819023","theaterChainName":"Regal Cinemas","ticketType":"STANDARD"},{"id":"2466","name":"Regal Hollywood Stadium 24  North I-85","address":"3265 N.E. Expressway Access Road","city":"Chamblee","state":"GA","zip":"30341","distance":"15.043708801269531","lon":"-84.277130","lat":"33.871021","theaterChainName":"Regal Cinemas","ticketType":"STANDARD"},{"id":"1143","name":"Cinefest Theatre","address":"66 Courtland Ave","city":"Atlanta","state":"GA","zip":"30303","distance":"24.641803741455078","lon":"-84.390404","lat":"33.756699","theaterChainName":"Independent Chains","ticketType":"STANDARD"},{"id":"378","name":"AMC Phipps Plaza 14","address":"3500 Peachtree Road N.E.","city":"Atlanta","state":"GA","zip":"30326","distance":"20.028636932373047","lon":"-84.362221","lat":"33.852844","theaterChainName":"AMC Theatres","ticketType":"STANDARD"},{"id":"4105","name":"Regal Atlantic Station Stadium 18","address":"261 19th St. NW","city":"Atlanta","state":"GA","zip":"30363","distance":"23.58709716796875","lon":"-84.396500","lat":"33.793400","theaterChainName":"Regal Cinemas","ticketType":"STANDARD"},{"id":"5576","name":"NCG Stone Mountain","address":"1825 Rockbridge Road","city":"Stone Mountain","state":"GA","zip":"30087","distance":"10.527091979980469","lon":"-84.123199","lat":"33.825500","theaterChainName":"NCG Cinemas","ticketType":"STANDARD"},{"id":"3500","name":"AMC Stonecrest 16","address":"8060 Mall Parkway","city":"Lithonia","state":"GA","zip":"30038","distance":"18.779769897460938","lon":"-84.091599","lat":"33.692299","theaterChainName":"AMC Theatres","ticketType":"STANDARD"},{"id":"423","name":"Regal Perimeter Pointe 10","address":"1155 Mount Vernon Highway","city":"Atlanta","state":"GA","zip":"30338","distance":"17.896982192993164","lon":"-84.348282","lat":"33.932270","theaterChainName":"United Artists","ticketType":"STANDARD"},{"id":"5844","name":"NCG Peachtree Corners","address":"6135 Peachtree Parkway","city":"Peachtree Corners","state":"GA","zip":"30092","distance":"11.365032196044922","lon":"-84.235992","lat":"33.952911","theaterChainName":"NCG Cinemas","ticketType":"STANDARD"},{"id":"3440","name":"Lefont Sandy Springs","address":"5920 Roswell Road NE","city":"Atlanta","state":"GA","zip":"30328","distance":"19.939878463745117","lon":"-84.381721","lat":"33.916679","theaterChainName":"Independent Chains","ticketType":"STANDARD"},{"id":"5254","name":"Studio Movie Grill - Duluth","address":"3850 Venture Drive","city":"Duluth","state":"GA","zip":"30096","distance":"5.750016689300537","lon":"-84.137703","lat":"33.951900","theaterChainName":"Studio Movie Grill","ticketType":"SELECT_SEATING"},{"id":"2005","name":"AMC Parkway Pointe","address":"3101 Cobb Parkway Ste 201","city":"Atlanta","state":"GA","zip":"30339","distance":"24.695919036865234","lon":"-84.457001","lat":"33.877998","theaterChainName":"AMC Theatres","ticketType":"STANDARD"},{"id":"4929","name":"Studio Movie Grill Holcomb Bridge","address":"2880 Holcomb Bridge Rd.","city":"Alpharetta","state":"GA","zip":"30022","distance":"13.721403121948242","lon":"-84.274460","lat":"33.991241","theaterChainName":"Studio Movie Grill","ticketType":"SELECT_SEATING"},{"id":"2281","name":"Regal Medlock Crossing Stadium 18","address":"9700 Medlock Bridge Road Ste 170","city":"Duluth","state":"GA","zip":"30097","distance":"9.74686050415039","lon":"-84.193344","lat":"34.017731","theaterChainName":"Regal Cinemas","ticketType":"STANDARD"},{"id":"452","name":"Carmike 12 Snellville","address":"1905 Scenic Highway","city":"Snellville","state":"GA","zip":"30078","distance":"5.916583061218262","lon":"-84.014748","lat":"33.876957","theaterChainName":"Carmike Cinemas","ticketType":"STANDARD"},{"id":"422","name":"Regal Snellville Oaks Stadium 14","address":"2125 E.  Main St.","city":"Snellville","state":"GA","zip":"30078","distance":"7.434412956237793","lon":"-84.002617","lat":"33.856869","theaterChainName":"Regal Cinemas","ticketType":"STANDARD"},{"id":"442","name":"Merchants Walk Stadium Cinemas 14","address":"1301 Johnsons Ferry Road","city":"Marietta","state":"GA","zip":"30068","distance":"22.36260414123535","lon":"-84.427559","lat":"33.978050","theaterChainName":"Georgia Theatre Company","ticketType":"STANDARD"},{"id":"3702","name":"Picture Show  Merchants","address":"4400 Roswell Rd.","city":"Marietta","state":"GA","zip":"30062","distance":"22.167015075683594","lon":"-84.423668","lat":"33.984276","theaterChainName":"Picture Show Entertainment","ticketType":"STANDARD"},{"id":"377","name":"AMC Mansell Crossing 14","address":"7730 N. Point Pkwy","city":"Alpharetta","state":"GA","zip":"30022","distance":"16.182355880737305","lon":"-84.303955","lat":"34.039124","theaterChainName":"AMC Theatres","ticketType":"STANDARD"},{"id":"3682","name":"AMC Sugarloaf Mills 18","address":"5900 Sugarloaf Parkway","city":"Lawrenceville","state":"GA","zip":"30043","distance":"2.721510887145996","lon":"-84.076797","lat":"33.983002","theaterChainName":"AMC Theatres","ticketType":"STANDARD"},{"id":"3147","name":"Carmike Crossroads 16","address":"1536 Dogwood Dr.","city":"Conyers","state":"GA","zip":"30013","distance":"21.653444290161133","lon":"-83.994759","lat":"33.649082","theaterChainName":"Carmike Cinemas","ticketType":"STANDARD"},{"id":"4945","name":"Aurora Cineplex","address":"5100 Commerce Parkway","city":"Roswell","state":"GA","zip":"30076","distance":"18.068532943725586","lon":"-84.338951","lat":"34.038422","theaterChainName":"Independent Chains","ticketType":"STANDARD"},{"id":"5410","name":"AMC North Point Mall 12","address":"4500 N. Point Circle","city":"Alpharetta","state":"GA","zip":"30022","distance":"16.00665283203125","lon":"-84.296555","lat":"34.048073","theaterChainName":"AMC Theatres","ticketType":"STANDARD"},{"id":"6047","name":"AMC Dine-in Webb Gin 11","address":"1210 Scenic Highway","city":"Lawrenceville","state":"GA","zip":"30045","distance":"4.449274063110352","lon":"-84.000946","lat":"33.903778","theaterChainName":"AMC Theatres","ticketType":"STANDARD"},{"id":"5507","name":"Regal Avalon Stadium 12","address":"3950 1st St.","city":"Alpharetta","state":"GA","zip":"30009","distance":"15.66909408569336","lon":"-84.278198","lat":"34.068802","theaterChainName":"Regal Cinemas","ticketType":"STANDARD"},{"id":"5175","name":"Movie Tavern Horizon","address":"2855 Lawrenceville Suwanee Rd.","city":"Suwanee","state":"GA","zip":"30024","distance":"4.588169574737549","lon":"-84.043030","lat":"34.026665","theaterChainName":"Movie Tavern","ticketType":"STANDARD"},{"id":"5487","name":"Movie Tavern at Sandy Plains Village","address":"4651 Woodstock Road","city":"Roswell","state":"GA","zip":"30075","distance":"23.183528900146484","lon":"-84.423485","lat":"34.062462","theaterChainName":"Movie Tavern","ticketType":"STANDARD"},{"id":"4490","name":"AMC Avenue Forsyth 12","address":"350 Peachtree Pkwy","city":"Cumming","state":"GA","zip":"30041","distance":"15.659369468688965","lon":"-84.177505","lat":"34.155293","theaterChainName":"AMC Theatres","ticketType":"STANDARD"},{"id":"1396","name":"Movies 400","address":"415 Atlanta Road","city":"Cumming","state":"GA","zip":"30040","distance":"17.439769744873047","lon":"-84.134956","lat":"34.199650","theaterChainName":"Carmike Cinemas","ticketType":"STANDARD"},{"id":"2580","name":"Regal Mall Of Georgia Stadium 20","address":"3333 Buford Drive, Suite 3000","city":"Buford","state":"GA","zip":"30519","distance":"7.864799976348877","lon":"-83.984886","lat":"34.065395","theaterChainName":"Regal Cinemas","ticketType":"STANDARD"},{"id":"4532","name":"Great Escape Hamilton Mill 14","address":"2160 Hamilton Creek Parkway","city":"Dacula","state":"GA","zip":"30019","distance":"10.62663459777832","lon":"-83.913605","lat":"34.074581","theaterChainName":"Regal Cinemas","ticketType":"STANDARD"},{"id":"5133","name":"Carmike Gateway 12","address":"416 Exchange Blvd.","city":"Bethlehem","state":"GA","zip":"30620","distance":"17.14565086364746","lon":"-83.739502","lat":"33.943001","theaterChainName":"Carmike Cinemas","ticketType":"STANDARD"}]