[{"id":"379","name":"AMC North Dekalb Mall 16","address":"2042 Lawrenceville Hwy","city":"Decatur","state":"GA","zip":"30033","distance":"21.10938835144043","lon":"-84.278419","lat":"33.807449","theaterChainName":"AMC Theatres","ticketType":"STANDARD"},{"id":"5908","name":"Satellite Cinemas South Dekalb","address":"2801 Candler Road #68","city":"Decatur","state":"GA","zip":"30034","distance":"18.134572982788086","lon":"-84.274025","lat":"33.708344","theaterChainName":"Independent Chains","ticketType":"STANDARD"},{"id":"4502","name":"Northlake Festival Movie Tavern","address":"4043 La Vista Rd","city":"Tucker","state":"GA","zip":"30084","distance":"21.313634872436523","lon":"-84.251503","lat":"33.842918","theaterChainName":"Movie Tavern","ticketType":"STANDARD"},{"id":"4253","name":"Plaza Theatre - Atlanta","address":"1049 Ponce De Leon Aveue N.E.","city":"Atlanta","state":"GA","zip":"30306","distance":"23.861995697021484","lon":"-84.353073","lat":"33.773441","theaterChainName":"Independent Chains","ticketType":"STANDARD"},{"id":"2466","name":"Regal Hollywood Stadium 24  North I-85","address":"3265 N.E. Expressway Access Road","city":"Chamblee","state":"GA","zip":"30341","distance":"23.695926666259766","lon":"-84.277130","lat":"33.871021","theaterChainName":"Regal Cinemas","ticketType":"STANDARD"},{"id":"5576","name":"NCG Stone Mountain","address":"1825 Rockbridge Road","city":"Stone Mountain","state":"GA","zip":"30087","distance":"15.398113250732422","lon":"-84.123199","lat":"33.825500","theaterChainName":"NCG Cinemas","ticketType":"STANDARD"},{"id":"3500","name":"AMC Stonecrest 16","address":"8060 Mall Parkway","city":"Lithonia","state":"GA","zip":"30038","distance":"7.8433709144592285","lon":"-84.091599","lat":"33.692299","theaterChainName":"AMC Theatres","ticketType":"STANDARD"},{"id":"582","name":"AMC Southlake 24","address":"7065 Mount Zion Circle","city":"Morrow","state":"GA","zip":"30260","distance":"21.50031089782715","lon":"-84.329315","lat":"33.563240","theaterChainName":"AMC Theatres","ticketType":"STANDARD"},{"id":"5254","name":"Studio Movie Grill - Duluth","address":"3850 Venture Drive","city":"Duluth","state":"GA","zip":"30096","distance":"23.41615104675293","lon":"-84.137703","lat":"33.951900","theaterChainName":"Studio Movie Grill","ticketType":"SELECT_SEATING"},{"id":"452","name":"Carmike 12 Snellville","address":"1905 Scenic Highway","city":"Snellville","state":"GA","zip":"30078","distance":"16.342714309692383","lon":"-84.014748","lat":"33.876957","theaterChainName":"Carmike Cinemas","ticketType":"STANDARD"},{"id":"422","name":"Regal Snellville Oaks Stadium 14","address":"2125 E.  Main St.","city":"Snellville","state":"GA","zip":"30078","distance":"14.866874694824219","lon":"-84.002617","lat":"33.856869","theaterChainName":"Regal Cinemas","ticketType":"STANDARD"},{"id":"3682","name":"AMC Sugarloaf Mills 18","address":"5900 Sugarloaf Parkway","city":"Lawrenceville","state":"GA","zip":"30043","distance":"24.263444900512695","lon":"-84.076797","lat":"33.983002","theaterChainName":"AMC Theatres","ticketType":"STANDARD"},{"id":"3147","name":"Carmike Crossroads 16","address":"1536 Dogwood Dr.","city":"Conyers","state":"GA","zip":"30013","distance":"1.5628465414047241","lon":"-83.994759","lat":"33.649082","theaterChainName":"Carmike Cinemas","ticketType":"STANDARD"},{"id":"6047","name":"AMC Dine-in Webb Gin 11","address":"1210 Scenic Highway","city":"Lawrenceville","state":"GA","zip":"30045","distance":"18.07457733154297","lon":"-84.000946","lat":"33.903778","theaterChainName":"AMC Theatres","ticketType":"STANDARD"},{"id":"4138","name":"Great Escape McDonough","address":"115 Fosters Drive","city":"McDonough","state":"GA","zip":"30253","distance":"18.53750228881836","lon":"-84.210258","lat":"33.466541","theaterChainName":"Regal Cinemas","ticketType":"STANDARD"},{"id":"5133","name":"Carmike Gateway 12","address":"416 Exchange Blvd.","city":"Bethlehem","state":"GA","zip":"30620","distance":"24.510251998901367","lon":"-83.739502","lat":"33.943001","theaterChainName":"Carmike Cinemas","ticketType":"STANDARD"}]