[{"id":"3147","tribuneTheaterId":"3232","providerTheaterId":"","name":"Carmike Crossroads 16","address":"1536 Dogwood Dr.","city":"Conyers","state":"GA","zip":"30013","distance":1.5627566716743,"lon":"-83.994759","lat":"33.649084","theaterChainName":"Carmike Cinemas","ticketType":"STANDARD"},{"id":"3500","tribuneTheaterId":"4252","providerTheaterId":"707","name":"AMC Stonecrest 16","address":"8060 Mall Parkway","city":"Lithonia","state":"GA","zip":"30038","distance":7.8429594694179,"lon":"-84.0916","lat":"33.6923","theaterChainName":"AMC Theatres","ticketType":"STANDARD"},{"id":"422","tribuneTheaterId":"6911","providerTheaterId":"","name":"Regal Snellville Oaks Stadium 14","address":"2125 E.  Main St.","city":"Snellville","state":"GA","zip":"30078","distance":14.866072152138,"lon":"-84.002618","lat":"33.85687","theaterChainName":"Regal Cinemas","ticketType":"STANDARD"},{"id":"452","tribuneTheaterId":"3174","providerTheaterId":"","name":"Carmike 12 Snellville","address":"1905 Scenic Highway","city":"Snellville","state":"GA","zip":"30078","distance":16.341653533852,"lon":"-84.014747","lat":"33.876956","theaterChainName":"Carmike Cinemas","ticketType":"STANDARD"},{"id":"5576","tribuneTheaterId":"11024","providerTheaterId":"","name":"NCG Stone Mountain","address":"1825 Rockbridge Road","city":"Stone Mountain","state":"GA","zip":"30087","distance":15.397143360691,"lon":"-84.1232","lat":"33.8255","theaterChainName":"NCG Cinemas","ticketType":"STANDARD"},{"id":"6047","tribuneTheaterId":"11450","providerTheaterId":"","name":"AMC Dine-in Webb Gin 11","address":"1210 Scenic Highway","city":"Lawrenceville","state":"GA","zip":"30045","distance":18.073402443286,"lon":"-84.000945","lat":"33.903777","theaterChainName":"AMC Theatres","ticketType":"STANDARD"},{"id":"5908","tribuneTheaterId":"11332","providerTheaterId":"","name":"Satellite Cinemas South Dekalb","address":"2801 Candler Road #68","city":"Decatur","state":"GA","zip":"30034","distance":18.133264031044,"lon":"-84.274022","lat":"33.708345","theaterChainName":"Independent Chains","ticketType":"STANDARD"},{"id":"4138","tribuneTheaterId":"7488","providerTheaterId":"","name":"Great Escape McDonough","address":"115 Fosters Drive","city":"McDonough","state":"GA","zip":"30253","distance":18.536372512377,"lon":"-84.210259","lat":"33.46654","theaterChainName":"Regal Cinemas","ticketType":"STANDARD"},{"id":"582","tribuneTheaterId":"5308","providerTheaterId":"416","name":"AMC Southlake 24","address":"7065 Mount Zion Circle","city":"Morrow","state":"GA","zip":"30260","distance":21.499037878311,"lon":"-84.329317","lat":"33.563239","theaterChainName":"AMC Theatres","ticketType":"STANDARD"},{"id":"4502","tribuneTheaterId":"9605","providerTheaterId":"","name":"Northlake Festival Movie Tavern","address":"4043 La Vista Rd","city":"Tucker","state":"GA","zip":"30084","distance":21.312099590272,"lon":"-84.2515","lat":"33.842917","theaterChainName":"Movie Tavern","ticketType":"STANDARD"},{"id":"379","tribuneTheaterId":"5306","providerTheaterId":"402","name":"AMC North Dekalb Mall 16","address":"2042 Lawrenceville Hwy","city":"Decatur","state":"GA","zip":"30033","distance":21.107977989699,"lon":"-84.278419","lat":"33.807448","theaterChainName":"AMC Theatres","ticketType":"STANDARD"},{"id":"4253","tribuneTheaterId":"2788","providerTheaterId":"","name":"Plaza Theatre - Atlanta","address":"1049 Ponce De Leon Aveue N.E.","city":"Atlanta","state":"GA","zip":"30306","distance":23.860516097596,"lon":"-84.353074","lat":"33.773441","theaterChainName":"Independent Chains","ticketType":"STANDARD"},{"id":"5133","tribuneTheaterId":"10539","providerTheaterId":"","name":"Carmike Gateway 12","address":"416 Exchange Blvd.","city":"Bethlehem","state":"GA","zip":"30620","distance":24.508803069169,"lon":"-83.7395","lat":"33.943","theaterChainName":"Carmike Cinemas","ticketType":"STANDARD"},{"id":"2466","tribuneTheaterId":"5628","providerTheaterId":"","name":"Regal Hollywood Stadium 24  North I-85","address":"3265 N.E. Expressway Access Road","city":"Chamblee","state":"GA","zip":"30341","distance":23.694598662524,"lon":"-84.277132","lat":"33.871023","theaterChainName":"Regal Cinemas","ticketType":"STANDARD"},{"id":"3682","tribuneTheaterId":"8108","providerTheaterId":"403","name":"AMC Sugarloaf Mills 18","address":"5900 Sugarloaf Parkway","city":"Lawrenceville","state":"GA","zip":"30043","distance":24.261880513306,"lon":"-84.0768","lat":"33.983","theaterChainName":"AMC Theatres","ticketType":"STANDARD"},{"id":"5254","tribuneTheaterId":"10684","providerTheaterId":"","name":"Studio Movie Grill - Duluth","address":"3850 Venture Drive","city":"Duluth","state":"GA","zip":"30096","distance":23.414605301232,"lon":"-84.1377","lat":"33.9519","theaterChainName":"Studio Movie Grill","ticketType":"SELECT_SEATING"}]