[{"id":"6047","tribuneTheaterId":"11450","providerTheaterId":"","name":"AMC Dine-in Webb Gin 11","address":"1210 Scenic Highway","city":"Lawrenceville","state":"GA","zip":"30045","distance":3.3817735092464,"lon":"-84.000945","lat":"33.903777","theaterChainName":"AMC Theatres","ticketType":"STANDARD"},{"id":"422","tribuneTheaterId":"6911","providerTheaterId":"","name":"Regal Snellville Oaks Stadium 14","address":"2125 E.  Main St.","city":"Snellville","state":"GA","zip":"30078","distance":6.097375492217,"lon":"-84.002618","lat":"33.85687","theaterChainName":"Regal Cinemas","ticketType":"STANDARD"},{"id":"452","tribuneTheaterId":"3174","providerTheaterId":"","name":"Carmike 12 Snellville","address":"1905 Scenic Highway","city":"Snellville","state":"GA","zip":"30078","distance":5.2812449614927,"lon":"-84.014747","lat":"33.876956","theaterChainName":"Carmike Cinemas","ticketType":"STANDARD"},{"id":"3682","tribuneTheaterId":"8108","providerTheaterId":"403","name":"AMC Sugarloaf Mills 18","address":"5900 Sugarloaf Parkway","city":"Lawrenceville","state":"GA","zip":"30043","distance":7.5586387296608,"lon":"-84.0768","lat":"33.983","theaterChainName":"AMC Theatres","ticketType":"STANDARD"},{"id":"5175","tribuneTheaterId":"10587","providerTheaterId":"","name":"Movie Tavern Horizon","address":"2855 Lawrenceville Suwanee Rd.","city":"Suwanee","state":"GA","zip":"30024","distance":7.9223381812745,"lon":"-84.043028","lat":"34.026666","theaterChainName":"Movie Tavern","ticketType":"STANDARD"},{"id":"2580","tribuneTheaterId":"8655","providerTheaterId":"","name":"Regal Mall Of Georgia Stadium 20","address":"3333 Buford Drive, Suite 3000","city":"Buford","state":"GA","zip":"30519","distance":9.0314348840493,"lon":"-83.984889","lat":"34.065397","theaterChainName":"Regal Cinemas","ticketType":"STANDARD"},{"id":"5254","tribuneTheaterId":"10684","providerTheaterId":"","name":"Studio Movie Grill - Duluth","address":"3850 Venture Drive","city":"Duluth","state":"GA","zip":"30096","distance":10.393448309403,"lon":"-84.1377","lat":"33.9519","theaterChainName":"Studio Movie Grill","ticketType":"SELECT_SEATING"},{"id":"4532","tribuneTheaterId":"9664","providerTheaterId":"","name":"Great Escape Hamilton Mill 14","address":"2160 Hamilton Creek Parkway","city":"Dacula","state":"GA","zip":"30019","distance":9.8500363912694,"lon":"-83.913601","lat":"34.074582","theaterChainName":"Regal Cinemas","ticketType":"STANDARD"},{"id":"5133","tribuneTheaterId":"10539","providerTheaterId":"","name":"Carmike Gateway 12","address":"416 Exchange Blvd.","city":"Bethlehem","state":"GA","zip":"30620","distance":12.492200649139,"lon":"-83.7395","lat":"33.943","theaterChainName":"Carmike Cinemas","ticketType":"STANDARD"},{"id":"5576","tribuneTheaterId":"11024","providerTheaterId":"","name":"NCG Stone Mountain","address":"1825 Rockbridge Road","city":"Stone Mountain","state":"GA","zip":"30087","distance":12.230656662755,"lon":"-84.1232","lat":"33.8255","theaterChainName":"NCG Cinemas","ticketType":"STANDARD"},{"id":"2281","tribuneTheaterId":"8939","providerTheaterId":"","name":"Regal Medlock Crossing Stadium 18","address":"9700 Medlock Bridge Road Ste 170","city":"Duluth","state":"GA","zip":"30097","distance":14.637592101511,"lon":"-84.193347","lat":"34.017729","theaterChainName":"Regal Cinemas","ticketType":"STANDARD"},{"id":"5844","tribuneTheaterId":"11255","providerTheaterId":"","name":"NCG Peachtree Corners","address":"6135 Peachtree Parkway","city":"Peachtree Corners","state":"GA","zip":"30092","distance":16.0134931398,"lon":"-84.235995","lat":"33.952911","theaterChainName":"NCG Cinemas","ticketType":"STANDARD"},{"id":"4502","tribuneTheaterId":"9605","providerTheaterId":"","name":"Northlake Festival Movie Tavern","address":"4043 La Vista Rd","city":"Tucker","state":"GA","zip":"30084","distance":18.075262301686,"lon":"-84.2515","lat":"33.842917","theaterChainName":"Movie Tavern","ticketType":"STANDARD"},{"id":"4929","tribuneTheaterId":"10249","providerTheaterId":"","name":"Studio Movie Grill Holcomb Bridge","address":"2880 Holcomb Bridge Rd.","city":"Alpharetta","state":"GA","zip":"30022","distance":18.561467611034,"lon":"-84.27446","lat":"33.99124","theaterChainName":"Studio Movie Grill","ticketType":"SELECT_SEATING"},{"id":"3500","tribuneTheaterId":"4252","providerTheaterId":"707","name":"AMC Stonecrest 16","address":"8060 Mall Parkway","city":"Lithonia","state":"GA","zip":"30038","distance":18.563086195084,"lon":"-84.0916","lat":"33.6923","theaterChainName":"AMC Theatres","ticketType":"STANDARD"},{"id":"4490","tribuneTheaterId":"9590","providerTheaterId":"404","name":"AMC Avenue Forsyth 12","address":"350 Peachtree Pkwy","city":"Cumming","state":"GA","zip":"30041","distance":19.67326543642,"lon":"-84.177504","lat":"34.155293","theaterChainName":"AMC Theatres","ticketType":"STANDARD"},{"id":"2466","tribuneTheaterId":"5628","providerTheaterId":"","name":"Regal Hollywood Stadium 24  North I-85","address":"3265 N.E. Expressway Access Road","city":"Chamblee","state":"GA","zip":"30341","distance":18.894006131035,"lon":"-84.277132","lat":"33.871023","theaterChainName":"Regal Cinemas","ticketType":"STANDARD"},{"id":"5507","tribuneTheaterId":"10991","providerTheaterId":"","name":"Regal Avalon Stadium 12","address":"3950 1st St.","city":"Alpharetta","state":"GA","zip":"30009","distance":20.522222574023,"lon":"-84.2782","lat":"34.0688","theaterChainName":"Regal Cinemas","ticketType":"STANDARD"},{"id":"1396","tribuneTheaterId":"3183","providerTheaterId":"","name":"Movies 400","address":"415 Atlanta Road","city":"Cumming","state":"GA","zip":"30040","distance":20.819994530743,"lon":"-84.134956","lat":"34.199651","theaterChainName":"Carmike Cinemas","ticketType":"STANDARD"},{"id":"5410","tribuneTheaterId":"10847","providerTheaterId":"405","name":"AMC North Point Mall 12","address":"4500 N. Point Circle","city":"Alpharetta","state":"GA","zip":"30022","distance":20.902629751678,"lon":"-84.296557","lat":"34.048071","theaterChainName":"AMC Theatres","ticketType":"STANDARD"},{"id":"379","tribuneTheaterId":"5306","providerTheaterId":"402","name":"AMC North Dekalb Mall 16","address":"2042 Lawrenceville Hwy","city":"Decatur","state":"GA","zip":"30033","distance":20.47216762619,"lon":"-84.278419","lat":"33.807448","theaterChainName":"AMC Theatres","ticketType":"STANDARD"},{"id":"3147","tribuneTheaterId":"3232","providerTheaterId":"","name":"Carmike Crossroads 16","address":"1536 Dogwood Dr.","city":"Conyers","state":"GA","zip":"30013","distance":19.988402606338,"lon":"-83.994759","lat":"33.649084","theaterChainName":"Carmike Cinemas","ticketType":"STANDARD"},{"id":"377","tribuneTheaterId":"5303","providerTheaterId":"409","name":"AMC Mansell Crossing 14","address":"7730 N. Point Pkwy","city":"Alpharetta","state":"GA","zip":"30022","distance":21.082666688593,"lon":"-84.303953","lat":"34.039125","theaterChainName":"AMC Theatres","ticketType":"STANDARD"},{"id":"4945","tribuneTheaterId":"10300","providerTheaterId":"","name":"Aurora Cineplex","address":"5100 Commerce Parkway","city":"Roswell","state":"GA","zip":"30076","distance":22.966323903196,"lon":"-84.338951","lat":"34.03842","theaterChainName":"Independent Chains","ticketType":"STANDARD"},{"id":"423","tribuneTheaterId":"5708","providerTheaterId":"","name":"Regal Perimeter Pointe 10","address":"1155 Mount Vernon Highway","city":"Atlanta","state":"GA","zip":"30338","distance":22.415325970999,"lon":"-84.348285","lat":"33.932269","theaterChainName":"United Artists","ticketType":"STANDARD"},{"id":"378","tribuneTheaterId":"5304","providerTheaterId":"410","name":"AMC Phipps Plaza 14","address":"3500 Peachtree Road N.E.","city":"Atlanta","state":"GA","zip":"30326","distance":23.934779146428,"lon":"-84.362221","lat":"33.852844","theaterChainName":"AMC Theatres","ticketType":"STANDARD"},{"id":"3440","tribuneTheaterId":"6473","providerTheaterId":"","name":"Lefont Sandy Springs","address":"5920 Roswell Road NE","city":"Atlanta","state":"GA","zip":"30328","distance":24.371301921293,"lon":"-84.381718","lat":"33.916678","theaterChainName":"Independent Chains","ticketType":"STANDARD"},{"id":"5908","tribuneTheaterId":"11332","providerTheaterId":"","name":"Satellite Cinemas South Dekalb","address":"2801 Candler Road #68","city":"Decatur","state":"GA","zip":"30034","distance":24.071734766339,"lon":"-84.274022","lat":"33.708345","theaterChainName":"Independent Chains","ticketType":"STANDARD"},{"id":"424","tribuneTheaterId":"5623","providerTheaterId":"","name":"Regal Tara Cinemas-Atlanta","address":"2345 Cheshire Bridge Rd NE","city":"Atlanta","state":"GA","zip":"30324","distance":23.974775560566,"lon":"-84.350479","lat":"33.819023","theaterChainName":"Regal Cinemas","ticketType":"STANDARD"}]