[{"id":"5908","name":"Satellite Cinemas South Dekalb","address":"2801 Candler Road #68","city":"Decatur","state":"GA","zip":"30034","distance":"23.76862907409668","lon":"-84.274025","lat":"33.708344","theaterChainName":"Independent Chains","ticketType":"STANDARD"},{"id":"5576","name":"NCG Stone Mountain","address":"1825 Rockbridge Road","city":"Stone Mountain","state":"GA","zip":"30087","distance":"21.924762725830078","lon":"-84.123199","lat":"33.825500","theaterChainName":"NCG Cinemas","ticketType":"STANDARD"},{"id":"3500","name":"AMC Stonecrest 16","address":"8060 Mall Parkway","city":"Lithonia","state":"GA","zip":"30038","distance":"14.064552307128906","lon":"-84.091599","lat":"33.692299","theaterChainName":"AMC Theatres","ticketType":"STANDARD"},{"id":"452","name":"Carmike 12 Snellville","address":"1905 Scenic Highway","city":"Snellville","state":"GA","zip":"30078","distance":"22.21772575378418","lon":"-84.014748","lat":"33.876957","theaterChainName":"Carmike Cinemas","ticketType":"STANDARD"},{"id":"422","name":"Regal Snellville Oaks Stadium 14","address":"2125 E.  Main St.","city":"Snellville","state":"GA","zip":"30078","distance":"20.683603286743164","lon":"-84.002617","lat":"33.856869","theaterChainName":"Regal Cinemas","ticketType":"STANDARD"},{"id":"3147","name":"Carmike Crossroads 16","address":"1536 Dogwood Dr.","city":"Conyers","state":"GA","zip":"30013","distance":"7.864269733428955","lon":"-83.994759","lat":"33.649082","theaterChainName":"Carmike Cinemas","ticketType":"STANDARD"},{"id":"6047","name":"AMC Dine-in Webb Gin 11","address":"1210 Scenic Highway","city":"Lawrenceville","state":"GA","zip":"30045","distance":"23.771413803100586","lon":"-84.000946","lat":"33.903778","theaterChainName":"AMC Theatres","ticketType":"STANDARD"},{"id":"4138","name":"Great Escape McDonough","address":"115 Fosters Drive","city":"McDonough","state":"GA","zip":"30253","distance":"19.542415618896484","lon":"-84.210258","lat":"33.466541","theaterChainName":"Regal Cinemas","ticketType":"STANDARD"}]