[{"id":"1149","tribuneTheaterId":"3037","providerTheaterId":"","name":"Rome Cinemas - Rome, GA","address":"2535 Shorter Ave.","city":"Rome","state":"GA","zip":"30165","distance":17.265482727022,"lon":"-85.243499","lat":"34.270907","theaterChainName":"Independent Chains","ticketType":"STANDARD"},{"id":"1774","tribuneTheaterId":"3124","providerTheaterId":"","name":"Movies at Berry Square","address":"2820 Martha Berry Hwy. N.E.","city":"Rome","state":"GA","zip":"30165","distance":17.483373239675,"lon":"-85.173172","lat":"34.304694","theaterChainName":"Independent Chains","ticketType":"STANDARD"},{"id":"1128","tribuneTheaterId":"5772","providerTheaterId":"","name":"Carmike 12 Cartersville","address":"1129 Tennessee St.","city":"Cartersville","state":"GA","zip":"30120","distance":17.961461472792,"lon":"-84.796082","lat":"34.194344","theaterChainName":"Carmike Cinemas","ticketType":"STANDARD"},{"id":"3897","tribuneTheaterId":"2285","providerTheaterId":"","name":"Movies 278 14","address":"185 Metromont Road","city":"Hiram","state":"GA","zip":"30141","distance":22.744066976546,"lon":"-84.73941","lat":"33.883893","theaterChainName":"Carmike Cinemas","ticketType":"STANDARD"},{"id":"4624","tribuneTheaterId":"9803","providerTheaterId":"","name":"NCG Acworth","address":"4421 Cinema Drive","city":"Acworth","state":"GA","zip":"30101","distance":22.534903071043,"lon":"-84.677226","lat":"34.040277","theaterChainName":"NCG Cinemas","ticketType":"STANDARD"}]