[{"id":"4502","name":"Northlake Festival Movie Tavern","address":"4043 La Vista Rd","city":"Tucker","state":"GA","zip":"30084","distance":"24.95539093017578","lon":"-84.251503","lat":"33.842918","theaterChainName":"Movie Tavern","ticketType":"STANDARD"},{"id":"4253","name":"Plaza Theatre - Atlanta","address":"1049 Ponce De Leon Aveue N.E.","city":"Atlanta","state":"GA","zip":"30306","distance":"24.606931686401367","lon":"-84.353073","lat":"33.773441","theaterChainName":"Independent Chains","ticketType":"STANDARD"},{"id":"424","name":"Regal Tara Cinemas-Atlanta","address":"2345 Cheshire Bridge Rd NE","city":"Atlanta","state":"GA","zip":"30324","distance":"22.135684967041016","lon":"-84.350479","lat":"33.819023","theaterChainName":"Regal Cinemas","ticketType":"STANDARD"},{"id":"2466","name":"Regal Hollywood Stadium 24  North I-85","address":"3265 N.E. Expressway Access Road","city":"Chamblee","state":"GA","zip":"30341","distance":"22.595985412597656","lon":"-84.277130","lat":"33.871021","theaterChainName":"Regal Cinemas","ticketType":"STANDARD"},{"id":"1143","name":"Cinefest Theatre","address":"66 Courtland Ave","city":"Atlanta","state":"GA","zip":"30303","distance":"24.514572143554688","lon":"-84.390404","lat":"33.756699","theaterChainName":"Independent Chains","ticketType":"STANDARD"},{"id":"378","name":"AMC Phipps Plaza 14","address":"3500 Peachtree Road N.E.","city":"Atlanta","state":"GA","zip":"30326","distance":"19.902746200561523","lon":"-84.362221","lat":"33.852844","theaterChainName":"AMC Theatres","ticketType":"STANDARD"},{"id":"4105","name":"Regal Atlantic Station Stadium 18","address":"261 19th St. NW","city":"Atlanta","state":"GA","zip":"30363","distance":"22.123350143432617","lon":"-84.396500","lat":"33.793400","theaterChainName":"Regal Cinemas","ticketType":"STANDARD"},{"id":"423","name":"Regal Perimeter Pointe 10","address":"1155 Mount Vernon Highway","city":"Atlanta","state":"GA","zip":"30338","distance":"16.8008975982666","lon":"-84.348282","lat":"33.932270","theaterChainName":"United Artists","ticketType":"STANDARD"},{"id":"5844","name":"NCG Peachtree Corners","address":"6135 Peachtree Parkway","city":"Peachtree Corners","state":"GA","zip":"30092","distance":"21.817028045654297","lon":"-84.235992","lat":"33.952911","theaterChainName":"NCG Cinemas","ticketType":"STANDARD"},{"id":"3440","name":"Lefont Sandy Springs","address":"5920 Roswell Road NE","city":"Atlanta","state":"GA","zip":"30328","distance":"15.963066101074219","lon":"-84.381721","lat":"33.916679","theaterChainName":"Independent Chains","ticketType":"STANDARD"},{"id":"2005","name":"AMC Parkway Pointe","address":"3101 Cobb Parkway Ste 201","city":"Atlanta","state":"GA","zip":"30339","distance":"15.325050354003906","lon":"-84.457001","lat":"33.877998","theaterChainName":"AMC Theatres","ticketType":"STANDARD"},{"id":"4929","name":"Studio Movie Grill Holcomb Bridge","address":"2880 Holcomb Bridge Rd.","city":"Alpharetta","state":"GA","zip":"30022","distance":"18.851919174194336","lon":"-84.274460","lat":"33.991241","theaterChainName":"Studio Movie Grill","ticketType":"SELECT_SEATING"},{"id":"2281","name":"Regal Medlock Crossing Stadium 18","address":"9700 Medlock Bridge Road Ste 170","city":"Duluth","state":"GA","zip":"30097","distance":"22.969594955444336","lon":"-84.193344","lat":"34.017731","theaterChainName":"Regal Cinemas","ticketType":"STANDARD"},{"id":"442","name":"Merchants Walk Stadium Cinemas 14","address":"1301 Johnsons Ferry Road","city":"Marietta","state":"GA","zip":"30068","distance":"11.264480590820312","lon":"-84.427559","lat":"33.978050","theaterChainName":"Georgia Theatre Company","ticketType":"STANDARD"},{"id":"3702","name":"Picture Show  Merchants","address":"4400 Roswell Rd.","city":"Marietta","state":"GA","zip":"30062","distance":"11.213350296020508","lon":"-84.423668","lat":"33.984276","theaterChainName":"Picture Show Entertainment","ticketType":"STANDARD"},{"id":"377","name":"AMC Mansell Crossing 14","address":"7730 N. Point Pkwy","city":"Alpharetta","state":"GA","zip":"30022","distance":"16.486087799072266","lon":"-84.303955","lat":"34.039124","theaterChainName":"AMC Theatres","ticketType":"STANDARD"},{"id":"4945","name":"Aurora Cineplex","address":"5100 Commerce Parkway","city":"Roswell","state":"GA","zip":"30076","distance":"14.510139465332031","lon":"-84.338951","lat":"34.038422","theaterChainName":"Independent Chains","ticketType":"STANDARD"},{"id":"5410","name":"AMC North Point Mall 12","address":"4500 N. Point Circle","city":"Alpharetta","state":"GA","zip":"30022","distance":"16.836591720581055","lon":"-84.296555","lat":"34.048073","theaterChainName":"AMC Theatres","ticketType":"STANDARD"},{"id":"5507","name":"Regal Avalon Stadium 12","address":"3950 1st St.","city":"Alpharetta","state":"GA","zip":"30009","distance":"17.812931060791016","lon":"-84.278198","lat":"34.068802","theaterChainName":"Regal Cinemas","ticketType":"STANDARD"},{"id":"5487","name":"Movie Tavern at Sandy Plains Village","address":"4651 Woodstock Road","city":"Roswell","state":"GA","zip":"30075","distance":"9.514033317565918","lon":"-84.423485","lat":"34.062462","theaterChainName":"Movie Tavern","ticketType":"STANDARD"},{"id":"451","name":"Park 12 Cobb Stadium Cinemas","address":"2925 W. Frank Gordy Parkway","city":"Marietta","state":"GA","zip":"30066","distance":"7.348548889160156","lon":"-84.466927","lat":"34.038857","theaterChainName":"Georgia Theatre Company","ticketType":"STANDARD"},{"id":"5191","name":"NCG Marietta Cinemas","address":"1050 Powder Springs St.","city":"Marietta","state":"GA","zip":"30064","distance":"9.956709861755371","lon":"-84.571899","lat":"33.927338","theaterChainName":"NCG Cinemas","ticketType":"STANDARD"},{"id":"2662","name":"Regal Stadium 22   Austell","address":"2480 East-West Connector Rd.","city":"Austell","state":"GA","zip":"30106","distance":"14.133687019348145","lon":"-84.625694","lat":"33.868382","theaterChainName":"Regal Cinemas","ticketType":"STANDARD"},{"id":"444","name":"Regal Town Center Stadium 16-Kennesaw","address":"2795 Town Center Drive","city":"Kennesaw","state":"GA","zip":"30144","distance":"3.7350387573242188","lon":"-84.561165","lat":"34.021973","theaterChainName":"Regal Cinemas","ticketType":"STANDARD"},{"id":"4490","name":"AMC Avenue Forsyth 12","address":"350 Peachtree Pkwy","city":"Cumming","state":"GA","zip":"30041","distance":"24.27789878845215","lon":"-84.177505","lat":"34.155293","theaterChainName":"AMC Theatres","ticketType":"STANDARD"},{"id":"711","name":"Cherokee Stadium Cinemas","address":"355 Cinema View","city":"Woodstock","state":"GA","zip":"30189","distance":"3.679323196411133","lon":"-84.543068","lat":"34.107620","theaterChainName":"Georgia Theatre Company","ticketType":"STANDARD"},{"id":"2263","name":"Carmike Riverstone 15","address":"5 Reinhardt College Parkway","city":"Canton","state":"GA","zip":"30114","distance":"13.883869171142578","lon":"-84.480446","lat":"34.250271","theaterChainName":"Carmike Cinemas","ticketType":"STANDARD"},{"id":"2562","name":"AMC Barrett Commons 24","address":"2600 Cobb Place Lane N.W.","city":"Kennesaw","state":"GA","zip":"30144","distance":"3.942906141281128","lon":"-84.571373","lat":"34.015629","theaterChainName":"AMC Theatres","ticketType":"STANDARD"},{"id":"4624","name":"NCG Acworth","address":"4421 Cinema Drive","city":"Acworth","state":"GA","zip":"30101","distance":"5.4494194984436035","lon":"-84.677223","lat":"34.040276","theaterChainName":"NCG Cinemas","ticketType":"STANDARD"},{"id":"3897","name":"Movies 278 14","address":"185 Metromont Road","city":"Hiram","state":"GA","zip":"30141","distance":"15.508097648620605","lon":"-84.739410","lat":"33.883892","theaterChainName":"Carmike Cinemas","ticketType":"STANDARD"},{"id":"1128","name":"Carmike 12 Cartersville","address":"1129 Tennessee St.","city":"Cartersville","state":"GA","zip":"30120","distance":"14.585150718688965","lon":"-84.796082","lat":"34.194344","theaterChainName":"Carmike Cinemas","ticketType":"STANDARD"}]