[{"id":"711","tribuneTheaterId":"9259","providerTheaterId":"","name":"Cherokee Stadium Cinemas","address":"355 Cinema View","city":"Woodstock","state":"GA","zip":"30189","distance":3.6791953226143,"lon":"-84.543067","lat":"34.107621","theaterChainName":"Georgia Theatre Company","ticketType":"STANDARD"},{"id":"2562","tribuneTheaterId":"9210","providerTheaterId":"417","name":"AMC Barrett Commons 24","address":"2600 Cobb Place Lane N.W.","city":"Kennesaw","state":"GA","zip":"30144","distance":3.9424789343208,"lon":"-84.571376","lat":"34.015629","theaterChainName":"AMC Theatres","ticketType":"STANDARD"},{"id":"444","tribuneTheaterId":"5625","providerTheaterId":"","name":"Regal Town Center Stadium 16-Kennesaw","address":"2795 Town Center Drive","city":"Kennesaw","state":"GA","zip":"30144","distance":3.7347269476977,"lon":"-84.561167","lat":"34.021971","theaterChainName":"Regal Cinemas","ticketType":"STANDARD"},{"id":"4624","tribuneTheaterId":"9803","providerTheaterId":"","name":"NCG Acworth","address":"4421 Cinema Drive","city":"Acworth","state":"GA","zip":"30101","distance":5.4492145011386,"lon":"-84.677226","lat":"34.040277","theaterChainName":"NCG Cinemas","ticketType":"STANDARD"},{"id":"451","tribuneTheaterId":"7775","providerTheaterId":"","name":"Park 12 Cobb Stadium Cinemas","address":"2925 W. Frank Gordy Parkway","city":"Marietta","state":"GA","zip":"30066","distance":7.34821893127,"lon":"-84.466923","lat":"34.038855","theaterChainName":"Georgia Theatre Company","ticketType":"STANDARD"},{"id":"5487","tribuneTheaterId":"10929","providerTheaterId":"","name":"Movie Tavern at Sandy Plains Village","address":"4651 Woodstock Road","city":"Roswell","state":"GA","zip":"30075","distance":9.513353929034,"lon":"-84.423485","lat":"34.062462","theaterChainName":"Movie Tavern","ticketType":"STANDARD"},{"id":"5191","tribuneTheaterId":"10606","providerTheaterId":"","name":"NCG Marietta Cinemas","address":"1050 Powder Springs St.","city":"Marietta","state":"GA","zip":"30064","distance":9.9560397918515,"lon":"-84.571896","lat":"33.927337","theaterChainName":"NCG Cinemas","ticketType":"STANDARD"},{"id":"442","tribuneTheaterId":"3173","providerTheaterId":"","name":"Merchants Walk Stadium Cinemas 14","address":"1301 Johnsons Ferry Road","city":"Marietta","state":"GA","zip":"30068","distance":11.26344520242,"lon":"-84.427562","lat":"33.978052","theaterChainName":"Georgia Theatre Company","ticketType":"STANDARD"},{"id":"3702","tribuneTheaterId":"1878","providerTheaterId":"","name":"Picture Show  Merchants","address":"4400 Roswell Rd.","city":"Marietta","state":"GA","zip":"30062","distance":11.212585544734,"lon":"-84.423666","lat":"33.984277","theaterChainName":"Picture Show Entertainment","ticketType":"STANDARD"},{"id":"4945","tribuneTheaterId":"10300","providerTheaterId":"","name":"Aurora Cineplex","address":"5100 Commerce Parkway","city":"Roswell","state":"GA","zip":"30076","distance":14.509176828577,"lon":"-84.338951","lat":"34.03842","theaterChainName":"Independent Chains","ticketType":"STANDARD"},{"id":"2263","tribuneTheaterId":"3222","providerTheaterId":"","name":"Carmike Riverstone 15","address":"5 Reinhardt College Parkway","city":"Canton","state":"GA","zip":"30114","distance":13.883107691949,"lon":"-84.480445","lat":"34.250271","theaterChainName":"Carmike Cinemas","ticketType":"STANDARD"},{"id":"2662","tribuneTheaterId":"5627","providerTheaterId":"","name":"Regal Stadium 22   Austell","address":"2480 East-West Connector Rd.","city":"Austell","state":"GA","zip":"30106","distance":14.132590273429,"lon":"-84.625692","lat":"33.868383","theaterChainName":"Regal Cinemas","ticketType":"STANDARD"},{"id":"2005","tribuneTheaterId":"5305","providerTheaterId":"801","name":"AMC Parkway Pointe","address":"3101 Cobb Parkway Ste 201","city":"Atlanta","state":"GA","zip":"30339","distance":15.323891177452,"lon":"-84.457","lat":"33.878","theaterChainName":"AMC Theatres","ticketType":"STANDARD"},{"id":"1128","tribuneTheaterId":"5772","providerTheaterId":"","name":"Carmike 12 Cartersville","address":"1129 Tennessee St.","city":"Cartersville","state":"GA","zip":"30120","distance":14.584408290305,"lon":"-84.796082","lat":"34.194344","theaterChainName":"Carmike Cinemas","ticketType":"STANDARD"},{"id":"3897","tribuneTheaterId":"2285","providerTheaterId":"","name":"Movies 278 14","address":"185 Metromont Road","city":"Hiram","state":"GA","zip":"30141","distance":15.507017476845,"lon":"-84.73941","lat":"33.883893","theaterChainName":"Carmike Cinemas","ticketType":"STANDARD"},{"id":"5410","tribuneTheaterId":"10847","providerTheaterId":"405","name":"AMC North Point Mall 12","address":"4500 N. Point Circle","city":"Alpharetta","state":"GA","zip":"30022","distance":16.835340990361,"lon":"-84.296557","lat":"34.048071","theaterChainName":"AMC Theatres","ticketType":"STANDARD"},{"id":"377","tribuneTheaterId":"5303","providerTheaterId":"409","name":"AMC Mansell Crossing 14","address":"7730 N. Point Pkwy","city":"Alpharetta","state":"GA","zip":"30022","distance":16.485084920457,"lon":"-84.303953","lat":"34.039125","theaterChainName":"AMC Theatres","ticketType":"STANDARD"},{"id":"3440","tribuneTheaterId":"6473","providerTheaterId":"","name":"Lefont Sandy Springs","address":"5920 Roswell Road NE","city":"Atlanta","state":"GA","zip":"30328","distance":15.962162972338,"lon":"-84.381718","lat":"33.916678","theaterChainName":"Independent Chains","ticketType":"STANDARD"},{"id":"423","tribuneTheaterId":"5708","providerTheaterId":"","name":"Regal Perimeter Pointe 10","address":"1155 Mount Vernon Highway","city":"Atlanta","state":"GA","zip":"30338","distance":16.79962841376,"lon":"-84.348285","lat":"33.932269","theaterChainName":"United Artists","ticketType":"STANDARD"},{"id":"5507","tribuneTheaterId":"10991","providerTheaterId":"","name":"Regal Avalon Stadium 12","address":"3950 1st St.","city":"Alpharetta","state":"GA","zip":"30009","distance":17.811656253286,"lon":"-84.2782","lat":"34.0688","theaterChainName":"Regal Cinemas","ticketType":"STANDARD"},{"id":"4929","tribuneTheaterId":"10249","providerTheaterId":"","name":"Studio Movie Grill Holcomb Bridge","address":"2880 Holcomb Bridge Rd.","city":"Alpharetta","state":"GA","zip":"30022","distance":18.850671943336,"lon":"-84.27446","lat":"33.99124","theaterChainName":"Studio Movie Grill","ticketType":"SELECT_SEATING"},{"id":"378","tribuneTheaterId":"5304","providerTheaterId":"410","name":"AMC Phipps Plaza 14","address":"3500 Peachtree Road N.E.","city":"Atlanta","state":"GA","zip":"30326","distance":19.901386204482,"lon":"-84.362221","lat":"33.852844","theaterChainName":"AMC Theatres","ticketType":"STANDARD"},{"id":"4105","tribuneTheaterId":"4639","providerTheaterId":"","name":"Regal Atlantic Station Stadium 18","address":"261 19th St. NW","city":"Atlanta","state":"GA","zip":"30363","distance":22.121826084457,"lon":"-84.3965","lat":"33.7934","theaterChainName":"Regal Cinemas","ticketType":"STANDARD"},{"id":"5844","tribuneTheaterId":"11255","providerTheaterId":"","name":"NCG Peachtree Corners","address":"6135 Peachtree Parkway","city":"Peachtree Corners","state":"GA","zip":"30092","distance":21.815441950788,"lon":"-84.235995","lat":"33.952911","theaterChainName":"NCG Cinemas","ticketType":"STANDARD"},{"id":"424","tribuneTheaterId":"5623","providerTheaterId":"","name":"Regal Tara Cinemas-Atlanta","address":"2345 Cheshire Bridge Rd NE","city":"Atlanta","state":"GA","zip":"30324","distance":22.134194728942,"lon":"-84.350479","lat":"33.819023","theaterChainName":"Regal Cinemas","ticketType":"STANDARD"},{"id":"2466","tribuneTheaterId":"5628","providerTheaterId":"","name":"Regal Hollywood Stadium 24  North I-85","address":"3265 N.E. Expressway Access Road","city":"Chamblee","state":"GA","zip":"30341","distance":22.594302653364,"lon":"-84.277132","lat":"33.871023","theaterChainName":"Regal Cinemas","ticketType":"STANDARD"},{"id":"2281","tribuneTheaterId":"8939","providerTheaterId":"","name":"Regal Medlock Crossing Stadium 18","address":"9700 Medlock Bridge Road Ste 170","city":"Duluth","state":"GA","zip":"30097","distance":22.967939317426,"lon":"-84.193347","lat":"34.017729","theaterChainName":"Regal Cinemas","ticketType":"STANDARD"},{"id":"4253","tribuneTheaterId":"2788","providerTheaterId":"","name":"Plaza Theatre - Atlanta","address":"1049 Ponce De Leon Aveue N.E.","city":"Atlanta","state":"GA","zip":"30306","distance":24.605264990238,"lon":"-84.353074","lat":"33.773441","theaterChainName":"Independent Chains","ticketType":"STANDARD"},{"id":"4490","tribuneTheaterId":"9590","providerTheaterId":"404","name":"AMC Avenue Forsyth 12","address":"350 Peachtree Pkwy","city":"Cumming","state":"GA","zip":"30041","distance":24.276442073792,"lon":"-84.177504","lat":"34.155293","theaterChainName":"AMC Theatres","ticketType":"STANDARD"},{"id":"4502","tribuneTheaterId":"9605","providerTheaterId":"","name":"Northlake Festival Movie Tavern","address":"4043 La Vista Rd","city":"Tucker","state":"GA","zip":"30084","distance":24.953912814929,"lon":"-84.2515","lat":"33.842917","theaterChainName":"Movie Tavern","ticketType":"STANDARD"},{"id":"1143","tribuneTheaterId":"2463","providerTheaterId":"","name":"Cinefest Theatre","address":"66 Courtland Ave","city":"Atlanta","state":"GA","zip":"30303","distance":24.512891062096,"lon":"-84.390404","lat":"33.756699","theaterChainName":"Independent Chains","ticketType":"STANDARD"}]