[{"id":"2263","tribuneTheaterId":"3222","providerTheaterId":"","name":"Carmike Riverstone 15","address":"5 Reinhardt College Parkway","city":"Canton","state":"GA","zip":"30114","distance":0.59731089722708,"lon":"-84.480445","lat":"34.250271","theaterChainName":"Carmike Cinemas","ticketType":"STANDARD"},{"id":"711","tribuneTheaterId":"9259","providerTheaterId":"","name":"Cherokee Stadium Cinemas","address":"355 Cinema View","city":"Woodstock","state":"GA","zip":"30189","distance":10.312493160133,"lon":"-84.543067","lat":"34.107621","theaterChainName":"Georgia Theatre Company","ticketType":"STANDARD"},{"id":"5487","tribuneTheaterId":"10929","providerTheaterId":"","name":"Movie Tavern at Sandy Plains Village","address":"4651 Woodstock Road","city":"Roswell","state":"GA","zip":"30075","distance":13.551873353045,"lon":"-84.423485","lat":"34.062462","theaterChainName":"Movie Tavern","ticketType":"STANDARD"},{"id":"451","tribuneTheaterId":"7775","providerTheaterId":"","name":"Park 12 Cobb Stadium Cinemas","address":"2925 W. Frank Gordy Parkway","city":"Marietta","state":"GA","zip":"30066","distance":14.687387806209,"lon":"-84.466923","lat":"34.038855","theaterChainName":"Georgia Theatre Company","ticketType":"STANDARD"},{"id":"2562","tribuneTheaterId":"9210","providerTheaterId":"417","name":"AMC Barrett Commons 24","address":"2600 Cobb Place Lane N.W.","city":"Kennesaw","state":"GA","zip":"30144","distance":16.868059025303,"lon":"-84.571376","lat":"34.015629","theaterChainName":"AMC Theatres","ticketType":"STANDARD"},{"id":"444","tribuneTheaterId":"5625","providerTheaterId":"","name":"Regal Town Center Stadium 16-Kennesaw","address":"2795 Town Center Drive","city":"Kennesaw","state":"GA","zip":"30144","distance":16.293150719792,"lon":"-84.561167","lat":"34.021971","theaterChainName":"Regal Cinemas","ticketType":"STANDARD"},{"id":"5507","tribuneTheaterId":"10991","providerTheaterId":"","name":"Regal Avalon Stadium 12","address":"3950 1st St.","city":"Alpharetta","state":"GA","zip":"30009","distance":17.478323989652,"lon":"-84.2782","lat":"34.0688","theaterChainName":"Regal Cinemas","ticketType":"STANDARD"},{"id":"4624","tribuneTheaterId":"9803","providerTheaterId":"","name":"NCG Acworth","address":"4421 Cinema Drive","city":"Acworth","state":"GA","zip":"30101","distance":18.013784022359,"lon":"-84.677226","lat":"34.040277","theaterChainName":"NCG Cinemas","ticketType":"STANDARD"},{"id":"1128","tribuneTheaterId":"5772","providerTheaterId":"","name":"Carmike 12 Cartersville","address":"1129 Tennessee St.","city":"Cartersville","state":"GA","zip":"30120","distance":17.86170840599,"lon":"-84.796082","lat":"34.194344","theaterChainName":"Carmike Cinemas","ticketType":"STANDARD"},{"id":"5410","tribuneTheaterId":"10847","providerTheaterId":"405","name":"AMC North Point Mall 12","address":"4500 N. Point Circle","city":"Alpharetta","state":"GA","zip":"30022","distance":17.86365707923,"lon":"-84.296557","lat":"34.048071","theaterChainName":"AMC Theatres","ticketType":"STANDARD"},{"id":"4945","tribuneTheaterId":"10300","providerTheaterId":"","name":"Aurora Cineplex","address":"5100 Commerce Parkway","city":"Roswell","state":"GA","zip":"30076","distance":17.035759499879,"lon":"-84.338951","lat":"34.03842","theaterChainName":"Independent Chains","ticketType":"STANDARD"},{"id":"4490","tribuneTheaterId":"9590","providerTheaterId":"404","name":"AMC Avenue Forsyth 12","address":"350 Peachtree Pkwy","city":"Cumming","state":"GA","zip":"30041","distance":19.078542302253,"lon":"-84.177504","lat":"34.155293","theaterChainName":"AMC Theatres","ticketType":"STANDARD"},{"id":"377","tribuneTheaterId":"5303","providerTheaterId":"409","name":"AMC Mansell Crossing 14","address":"7730 N. Point Pkwy","city":"Alpharetta","state":"GA","zip":"30022","distance":18.099019709383,"lon":"-84.303953","lat":"34.039125","theaterChainName":"AMC Theatres","ticketType":"STANDARD"},{"id":"442","tribuneTheaterId":"3173","providerTheaterId":"","name":"Merchants Walk Stadium Cinemas 14","address":"1301 Johnsons Ferry Road","city":"Marietta","state":"GA","zip":"30068","distance":19.169840892434,"lon":"-84.427562","lat":"33.978052","theaterChainName":"Georgia Theatre Company","ticketType":"STANDARD"},{"id":"3702","tribuneTheaterId":"1878","providerTheaterId":"","name":"Picture Show  Merchants","address":"4400 Roswell Rd.","city":"Marietta","state":"GA","zip":"30062","distance":18.791977559265,"lon":"-84.423666","lat":"33.984277","theaterChainName":"Picture Show Entertainment","ticketType":"STANDARD"},{"id":"1396","tribuneTheaterId":"3183","providerTheaterId":"","name":"Movies 400","address":"415 Atlanta Road","city":"Cumming","state":"GA","zip":"30040","distance":20.635892045163,"lon":"-84.134956","lat":"34.199651","theaterChainName":"Carmike Cinemas","ticketType":"STANDARD"},{"id":"4929","tribuneTheaterId":"10249","providerTheaterId":"","name":"Studio Movie Grill Holcomb Bridge","address":"2880 Holcomb Bridge Rd.","city":"Alpharetta","state":"GA","zip":"30022","distance":21.774970699189,"lon":"-84.27446","lat":"33.99124","theaterChainName":"Studio Movie Grill","ticketType":"SELECT_SEATING"},{"id":"5191","tribuneTheaterId":"10606","providerTheaterId":"","name":"NCG Marietta Cinemas","address":"1050 Powder Springs St.","city":"Marietta","state":"GA","zip":"30064","distance":22.804328249605,"lon":"-84.571896","lat":"33.927337","theaterChainName":"NCG Cinemas","ticketType":"STANDARD"},{"id":"423","tribuneTheaterId":"5708","providerTheaterId":"","name":"Regal Perimeter Pointe 10","address":"1155 Mount Vernon Highway","city":"Atlanta","state":"GA","zip":"30338","distance":23.453067252233,"lon":"-84.348285","lat":"33.932269","theaterChainName":"United Artists","ticketType":"STANDARD"},{"id":"2281","tribuneTheaterId":"8939","providerTheaterId":"","name":"Regal Medlock Crossing Stadium 18","address":"9700 Medlock Bridge Road Ste 170","city":"Duluth","state":"GA","zip":"30097","distance":23.414585333656,"lon":"-84.193347","lat":"34.017729","theaterChainName":"Regal Cinemas","ticketType":"STANDARD"},{"id":"3440","tribuneTheaterId":"6473","providerTheaterId":"","name":"Lefont Sandy Springs","address":"5920 Roswell Road NE","city":"Atlanta","state":"GA","zip":"30328","distance":23.896104344143,"lon":"-84.381718","lat":"33.916678","theaterChainName":"Independent Chains","ticketType":"STANDARD"}]