[{"id":"2005","name":"AMC Parkway Pointe","address":"3101 Cobb Parkway Ste 201","city":"Atlanta","state":"GA","zip":"30339","distance":"21.43060302734375","lon":"-84.457001","lat":"33.877998","theaterChainName":"AMC Theatres","ticketType":"STANDARD"},{"id":"442","name":"Merchants Walk Stadium Cinemas 14","address":"1301 Johnsons Ferry Road","city":"Marietta","state":"GA","zip":"30068","distance":"23.33504867553711","lon":"-84.427559","lat":"33.978050","theaterChainName":"Georgia Theatre Company","ticketType":"STANDARD"},{"id":"3702","name":"Picture Show  Merchants","address":"4400 Roswell Rd.","city":"Marietta","state":"GA","zip":"30062","distance":"23.63523292541504","lon":"-84.423668","lat":"33.984276","theaterChainName":"Picture Show Entertainment","ticketType":"STANDARD"},{"id":"451","name":"Park 12 Cobb Stadium Cinemas","address":"2925 W. Frank Gordy Parkway","city":"Marietta","state":"GA","zip":"30066","distance":"22.344547271728516","lon":"-84.466927","lat":"34.038857","theaterChainName":"Georgia Theatre Company","ticketType":"STANDARD"},{"id":"5191","name":"NCG Marietta Cinemas","address":"1050 Powder Springs St.","city":"Marietta","state":"GA","zip":"30064","distance":"14.69223690032959","lon":"-84.571899","lat":"33.927338","theaterChainName":"NCG Cinemas","ticketType":"STANDARD"},{"id":"2662","name":"Regal Stadium 22   Austell","address":"2480 East-West Connector Rd.","city":"Austell","state":"GA","zip":"30106","distance":"12.055633544921875","lon":"-84.625694","lat":"33.868382","theaterChainName":"Regal Cinemas","ticketType":"STANDARD"},{"id":"444","name":"Regal Town Center Stadium 16-Kennesaw","address":"2795 Town Center Drive","city":"Kennesaw","state":"GA","zip":"30144","distance":"16.93440818786621","lon":"-84.561165","lat":"34.021973","theaterChainName":"Regal Cinemas","ticketType":"STANDARD"},{"id":"711","name":"Cherokee Stadium Cinemas","address":"355 Cinema View","city":"Woodstock","state":"GA","zip":"30189","distance":"20.993276596069336","lon":"-84.543068","lat":"34.107620","theaterChainName":"Georgia Theatre Company","ticketType":"STANDARD"},{"id":"2562","name":"AMC Barrett Commons 24","address":"2600 Cobb Place Lane N.W.","city":"Kennesaw","state":"GA","zip":"30144","distance":"16.218727111816406","lon":"-84.571373","lat":"34.015629","theaterChainName":"AMC Theatres","ticketType":"STANDARD"},{"id":"4624","name":"NCG Acworth","address":"4421 Cinema Drive","city":"Acworth","state":"GA","zip":"30101","distance":"12.15809440612793","lon":"-84.677223","lat":"34.040276","theaterChainName":"NCG Cinemas","ticketType":"STANDARD"},{"id":"3897","name":"Movies 278 14","address":"185 Metromont Road","city":"Hiram","state":"GA","zip":"30141","distance":"5.541757106781006","lon":"-84.739410","lat":"33.883892","theaterChainName":"Carmike Cinemas","ticketType":"STANDARD"},{"id":"2657","name":"Regal Arbor Place 18 & IMAX","address":"6600 Douglas Blvd","city":"Douglasville","state":"GA","zip":"30135","distance":"13.712407112121582","lon":"-84.744202","lat":"33.730400","theaterChainName":"Regal Cinemas","ticketType":"STANDARD"},{"id":"1128","name":"Carmike 12 Cartersville","address":"1129 Tennessee St.","city":"Cartersville","state":"GA","zip":"30120","distance":"19.29762077331543","lon":"-84.796082","lat":"34.194344","theaterChainName":"Carmike Cinemas","ticketType":"STANDARD"}]