[{"id":"2263","tribuneTheaterId":"3222","providerTheaterId":"","name":"Carmike Riverstone 15","address":"5 Reinhardt College Parkway","city":"Canton","state":"GA","zip":"30114","distance":12.031473314586,"lon":"-84.480445","lat":"34.250271","theaterChainName":"Carmike Cinemas","ticketType":"STANDARD"},{"id":"3965","tribuneTheaterId":"7169","providerTheaterId":"","name":"Dawson 400 Stadium Cinemas","address":"189 North 400 Center Lane","city":"Dawsonville","state":"GA","zip":"30534","distance":19.683946958463,"lon":"-84.035719","lat":"34.368932","theaterChainName":"Georgia Theatre Company","ticketType":"STANDARD"},{"id":"1146","tribuneTheaterId":"2688","providerTheaterId":"","name":"East Town Twin Cinema","address":"240 Maddox Dr","city":"Ellijay","state":"GA","zip":"30540","distance":20.017864899854,"lon":"-84.481872","lat":"34.679627","theaterChainName":"Independent Chains","ticketType":"STANDARD"},{"id":"1396","tribuneTheaterId":"3183","providerTheaterId":"","name":"Movies 400","address":"415 Atlanta Road","city":"Cumming","state":"GA","zip":"30040","distance":19.749758897191,"lon":"-84.134956","lat":"34.199651","theaterChainName":"Carmike Cinemas","ticketType":"STANDARD"},{"id":"4490","tribuneTheaterId":"9590","providerTheaterId":"404","name":"AMC Avenue Forsyth 12","address":"350 Peachtree Pkwy","city":"Cumming","state":"GA","zip":"30041","distance":20.588644305505,"lon":"-84.177504","lat":"34.155293","theaterChainName":"AMC Theatres","ticketType":"STANDARD"},{"id":"711","tribuneTheaterId":"9259","providerTheaterId":"","name":"Cherokee Stadium Cinemas","address":"355 Cinema View","city":"Woodstock","state":"GA","zip":"30189","distance":22.449820898598,"lon":"-84.543067","lat":"34.107621","theaterChainName":"Georgia Theatre Company","ticketType":"STANDARD"},{"id":"5487","tribuneTheaterId":"10929","providerTheaterId":"","name":"Movie Tavern at Sandy Plains Village","address":"4651 Woodstock Road","city":"Roswell","state":"GA","zip":"30075","distance":23.648198002809,"lon":"-84.423485","lat":"34.062462","theaterChainName":"Movie Tavern","ticketType":"STANDARD"},{"id":"5507","tribuneTheaterId":"10991","providerTheaterId":"","name":"Regal Avalon Stadium 12","address":"3950 1st St.","city":"Alpharetta","state":"GA","zip":"30009","distance":23.771013690093,"lon":"-84.2782","lat":"34.0688","theaterChainName":"Regal Cinemas","ticketType":"STANDARD"},{"id":"5410","tribuneTheaterId":"10847","providerTheaterId":"405","name":"AMC North Point Mall 12","address":"4500 N. Point Circle","city":"Alpharetta","state":"GA","zip":"30022","distance":24.945664823825,"lon":"-84.296557","lat":"34.048071","theaterChainName":"AMC Theatres","ticketType":"STANDARD"}]