[{"id":"444","name":"Regal Town Center Stadium 16-Kennesaw","address":"2795 Town Center Drive","city":"Kennesaw","state":"GA","zip":"30144","distance":"24.63095474243164","lon":"-84.561165","lat":"34.021973","theaterChainName":"Regal Cinemas","ticketType":"STANDARD"},{"id":"711","name":"Cherokee Stadium Cinemas","address":"355 Cinema View","city":"Woodstock","state":"GA","zip":"30189","distance":"24.669029235839844","lon":"-84.543068","lat":"34.107620","theaterChainName":"Georgia Theatre Company","ticketType":"STANDARD"},{"id":"2562","name":"AMC Barrett Commons 24","address":"2600 Cobb Place Lane N.W.","city":"Kennesaw","state":"GA","zip":"30144","distance":"24.202613830566406","lon":"-84.571373","lat":"34.015629","theaterChainName":"AMC Theatres","ticketType":"STANDARD"},{"id":"4624","name":"NCG Acworth","address":"4421 Cinema Drive","city":"Acworth","state":"GA","zip":"30101","distance":"17.91274642944336","lon":"-84.677223","lat":"34.040276","theaterChainName":"NCG Cinemas","ticketType":"STANDARD"},{"id":"3897","name":"Movies 278 14","address":"185 Metromont Road","city":"Hiram","state":"GA","zip":"30141","distance":"21.287473678588867","lon":"-84.739410","lat":"33.883892","theaterChainName":"Carmike Cinemas","ticketType":"STANDARD"},{"id":"1128","name":"Carmike 12 Cartersville","address":"1129 Tennessee St.","city":"Cartersville","state":"GA","zip":"30120","distance":"11.302318572998047","lon":"-84.796082","lat":"34.194344","theaterChainName":"Carmike Cinemas","ticketType":"STANDARD"},{"id":"1774","name":"Movies at Berry Square","address":"2820 Martha Berry Hwy. N.E.","city":"Rome","state":"GA","zip":"30165","distance":"16.95425796508789","lon":"-85.173172","lat":"34.304695","theaterChainName":"Independent Chains","ticketType":"STANDARD"},{"id":"1149","name":"Rome Cinemas - Rome, GA","address":"2535 Shorter Ave.","city":"Rome","state":"GA","zip":"30165","distance":"18.493263244628906","lon":"-85.243500","lat":"34.270908","theaterChainName":"Independent Chains","ticketType":"STANDARD"}]