[{"id":"2657","name":"Regal Arbor Place 18 & IMAX","address":"6600 Douglas Blvd","city":"Douglasville","state":"GA","zip":"30135","distance":"18.393348693847656","lon":"-84.744202","lat":"33.730400","theaterChainName":"Regal Cinemas","ticketType":"STANDARD"},{"id":"4469","name":"Carrollton Stadium Cinemas","address":"1135 Bankhead Highway","city":"Carrollton","state":"GA","zip":"30116","distance":"8.621994018554688","lon":"-85.037880","lat":"33.593460","theaterChainName":"Georgia Theatre Company","ticketType":"STANDARD"},{"id":"3918","name":"Regal Georgian Stadium 14","address":"237 Newnan Crossing Bypass","city":"Newnan","state":"GA","zip":"30265","distance":"13.563417434692383","lon":"-84.763496","lat":"33.368698","theaterChainName":"Regal Cinemas","ticketType":"STANDARD"},{"id":"748","name":"Carmike 10 Newnan","address":"87 Newnan Station Drive","city":"Newnan","state":"GA","zip":"30265","distance":"13.54214096069336","lon":"-84.734810","lat":"33.396538","theaterChainName":"Carmike Cinemas","ticketType":"STANDARD"},{"id":"5028","name":"NCG Sharpsburg","address":"55  Fischer Crossings Blvd.","city":"Sharpsburg","state":"GA","zip":"30277","distance":"17.41123390197754","lon":"-84.655998","lat":"33.397202","theaterChainName":"NCG Cinemas","ticketType":"STANDARD"}]