[{"id":"2657","tribuneTheaterId":"5626","providerTheaterId":"","name":"Regal Arbor Place 18 & IMAX","address":"6600 Douglas Blvd","city":"Douglasville","state":"GA","zip":"30135","distance":8.2930773257697,"lon":"-84.744202","lat":"33.7304","theaterChainName":"Regal Cinemas","ticketType":"STANDARD"},{"id":"4469","tribuneTheaterId":"9558","providerTheaterId":"","name":"Carrollton Stadium Cinemas","address":"1135 Bankhead Highway","city":"Carrollton","state":"GA","zip":"30116","distance":11.114655396673,"lon":"-85.037881","lat":"33.59346","theaterChainName":"Georgia Theatre Company","ticketType":"STANDARD"},{"id":"3897","tribuneTheaterId":"2285","providerTheaterId":"","name":"Movies 278 14","address":"185 Metromont Road","city":"Hiram","state":"GA","zip":"30141","distance":16.828931472143,"lon":"-84.73941","lat":"33.883893","theaterChainName":"Carmike Cinemas","ticketType":"STANDARD"},{"id":"748","tribuneTheaterId":"3137","providerTheaterId":"","name":"Carmike 10 Newnan","address":"87 Newnan Station Drive","city":"Newnan","state":"GA","zip":"30265","distance":19.881031009306,"lon":"-84.734808","lat":"33.396538","theaterChainName":"Carmike Cinemas","ticketType":"STANDARD"},{"id":"4425","tribuneTheaterId":"9495","providerTheaterId":"","name":"Movies ATL 14","address":"3760 Princeton Lakes Pkwy","city":"Atlanta","state":"GA","zip":"30331","distance":20.101444966222,"lon":"-84.514374","lat":"33.660565","theaterChainName":"Carmike Cinemas","ticketType":"STANDARD"},{"id":"2662","tribuneTheaterId":"5627","providerTheaterId":"","name":"Regal Stadium 22   Austell","address":"2480 East-West Connector Rd.","city":"Austell","state":"GA","zip":"30106","distance":19.692465419767,"lon":"-84.625692","lat":"33.868383","theaterChainName":"Regal Cinemas","ticketType":"STANDARD"},{"id":"3918","tribuneTheaterId":"4904","providerTheaterId":"","name":"Regal Georgian Stadium 14","address":"237 Newnan Crossing Bypass","city":"Newnan","state":"GA","zip":"30265","distance":21.167243886789,"lon":"-84.7635","lat":"33.3687","theaterChainName":"Regal Cinemas","ticketType":"STANDARD"},{"id":"5028","tribuneTheaterId":"10402","providerTheaterId":"","name":"NCG Sharpsburg","address":"55  Fischer Crossings Blvd.","city":"Sharpsburg","state":"GA","zip":"30277","distance":21.946956077325,"lon":"-84.656","lat":"33.3972","theaterChainName":"NCG Cinemas","ticketType":"STANDARD"},{"id":"5191","tribuneTheaterId":"10606","providerTheaterId":"","name":"NCG Marietta Cinemas","address":"1050 Powder Springs St.","city":"Marietta","state":"GA","zip":"30064","distance":24.772452853321,"lon":"-84.571896","lat":"33.927337","theaterChainName":"NCG Cinemas","ticketType":"STANDARD"}]