[{"id":"4425","name":"Movies ATL 14","address":"3760 Princeton Lakes Pkwy","city":"Atlanta","state":"GA","zip":"30331","distance":"20.102659225463867","lon":"-84.514374","lat":"33.660564","theaterChainName":"Carmike Cinemas","ticketType":"STANDARD"},{"id":"5191","name":"NCG Marietta Cinemas","address":"1050 Powder Springs St.","city":"Marietta","state":"GA","zip":"30064","distance":"24.773921966552734","lon":"-84.571899","lat":"33.927338","theaterChainName":"NCG Cinemas","ticketType":"STANDARD"},{"id":"2662","name":"Regal Stadium 22   Austell","address":"2480 East-West Connector Rd.","city":"Austell","state":"GA","zip":"30106","distance":"19.693552017211914","lon":"-84.625694","lat":"33.868382","theaterChainName":"Regal Cinemas","ticketType":"STANDARD"},{"id":"3897","name":"Movies 278 14","address":"185 Metromont Road","city":"Hiram","state":"GA","zip":"30141","distance":"16.829965591430664","lon":"-84.739410","lat":"33.883892","theaterChainName":"Carmike Cinemas","ticketType":"STANDARD"},{"id":"2657","name":"Regal Arbor Place 18 & IMAX","address":"6600 Douglas Blvd","city":"Douglasville","state":"GA","zip":"30135","distance":"8.293622970581055","lon":"-84.744202","lat":"33.730400","theaterChainName":"Regal Cinemas","ticketType":"STANDARD"},{"id":"4469","name":"Carrollton Stadium Cinemas","address":"1135 Bankhead Highway","city":"Carrollton","state":"GA","zip":"30116","distance":"11.115288734436035","lon":"-85.037880","lat":"33.593460","theaterChainName":"Georgia Theatre Company","ticketType":"STANDARD"},{"id":"3918","name":"Regal Georgian Stadium 14","address":"237 Newnan Crossing Bypass","city":"Newnan","state":"GA","zip":"30265","distance":"21.168642044067383","lon":"-84.763496","lat":"33.368698","theaterChainName":"Regal Cinemas","ticketType":"STANDARD"},{"id":"748","name":"Carmike 10 Newnan","address":"87 Newnan Station Drive","city":"Newnan","state":"GA","zip":"30265","distance":"19.882139205932617","lon":"-84.734810","lat":"33.396538","theaterChainName":"Carmike Cinemas","ticketType":"STANDARD"},{"id":"5028","name":"NCG Sharpsburg","address":"55  Fischer Crossings Blvd.","city":"Sharpsburg","state":"GA","zip":"30277","distance":"21.948184967041016","lon":"-84.655998","lat":"33.397202","theaterChainName":"NCG Cinemas","ticketType":"STANDARD"}]