[{"id":"379","name":"AMC North Dekalb Mall 16","address":"2042 Lawrenceville Hwy","city":"Decatur","state":"GA","zip":"30033","distance":"24.157222747802734","lon":"-84.278419","lat":"33.807449","theaterChainName":"AMC Theatres","ticketType":"STANDARD"},{"id":"5908","name":"Satellite Cinemas South Dekalb","address":"2801 Candler Road #68","city":"Decatur","state":"GA","zip":"30034","distance":"20.24957275390625","lon":"-84.274025","lat":"33.708344","theaterChainName":"Independent Chains","ticketType":"STANDARD"},{"id":"4253","name":"Plaza Theatre - Atlanta","address":"1049 Ponce De Leon Aveue N.E.","city":"Atlanta","state":"GA","zip":"30306","distance":"19.48055076599121","lon":"-84.353073","lat":"33.773441","theaterChainName":"Independent Chains","ticketType":"STANDARD"},{"id":"424","name":"Regal Tara Cinemas-Atlanta","address":"2345 Cheshire Bridge Rd NE","city":"Atlanta","state":"GA","zip":"30324","distance":"22.00141716003418","lon":"-84.350479","lat":"33.819023","theaterChainName":"Regal Cinemas","ticketType":"STANDARD"},{"id":"1143","name":"Cinefest Theatre","address":"66 Courtland Ave","city":"Atlanta","state":"GA","zip":"30303","distance":"17.20039176940918","lon":"-84.390404","lat":"33.756699","theaterChainName":"Independent Chains","ticketType":"STANDARD"},{"id":"378","name":"AMC Phipps Plaza 14","address":"3500 Peachtree Road N.E.","city":"Atlanta","state":"GA","zip":"30326","distance":"23.540069580078125","lon":"-84.362221","lat":"33.852844","theaterChainName":"AMC Theatres","ticketType":"STANDARD"},{"id":"4105","name":"Regal Atlantic Station Stadium 18","address":"261 19th St. NW","city":"Atlanta","state":"GA","zip":"30363","distance":"19.02444839477539","lon":"-84.396500","lat":"33.793400","theaterChainName":"Regal Cinemas","ticketType":"STANDARD"},{"id":"582","name":"AMC Southlake 24","address":"7065 Mount Zion Circle","city":"Morrow","state":"GA","zip":"30260","distance":"14.485979080200195","lon":"-84.329315","lat":"33.563240","theaterChainName":"AMC Theatres","ticketType":"STANDARD"},{"id":"2005","name":"AMC Parkway Pointe","address":"3101 Cobb Parkway Ste 201","city":"Atlanta","state":"GA","zip":"30339","distance":"22.78264045715332","lon":"-84.457001","lat":"33.877998","theaterChainName":"AMC Theatres","ticketType":"STANDARD"},{"id":"4425","name":"Movies ATL 14","address":"3760 Princeton Lakes Pkwy","city":"Atlanta","state":"GA","zip":"30331","distance":"7.644720554351807","lon":"-84.514374","lat":"33.660564","theaterChainName":"Carmike Cinemas","ticketType":"STANDARD"},{"id":"4138","name":"Great Escape McDonough","address":"115 Fosters Drive","city":"McDonough","state":"GA","zip":"30253","distance":"22.405855178833008","lon":"-84.210258","lat":"33.466541","theaterChainName":"Regal Cinemas","ticketType":"STANDARD"},{"id":"1411","name":"Cinemark Tinseltown 17 Fayetteville","address":"134 Pavilion Parkway","city":"Fayetteville","state":"GA","zip":"30214","distance":"9.86032772064209","lon":"-84.444656","lat":"33.478416","theaterChainName":"Cinemark","ticketType":"STANDARD"},{"id":"443","name":"Cinemark Movies 10 Fayetteville","address":"157 Banks Station","city":"Fayetteville","state":"GA","zip":"30214","distance":"10.387931823730469","lon":"-84.444695","lat":"33.466286","theaterChainName":"Cinemark","ticketType":"STANDARD"},{"id":"2662","name":"Regal Stadium 22   Austell","address":"2480 East-West Connector Rd.","city":"Austell","state":"GA","zip":"30106","distance":"21.13411521911621","lon":"-84.625694","lat":"33.868382","theaterChainName":"Regal Cinemas","ticketType":"STANDARD"},{"id":"3897","name":"Movies 278 14","address":"185 Metromont Road","city":"Hiram","state":"GA","zip":"30141","distance":"23.856159210205078","lon":"-84.739410","lat":"33.883892","theaterChainName":"Carmike Cinemas","ticketType":"STANDARD"},{"id":"2657","name":"Regal Arbor Place 18 & IMAX","address":"6600 Douglas Blvd","city":"Douglasville","state":"GA","zip":"30135","distance":"14.804163932800293","lon":"-84.744202","lat":"33.730400","theaterChainName":"Regal Cinemas","ticketType":"STANDARD"},{"id":"3918","name":"Regal Georgian Stadium 14","address":"237 Newnan Crossing Bypass","city":"Newnan","state":"GA","zip":"30265","distance":"17.157608032226562","lon":"-84.763496","lat":"33.368698","theaterChainName":"Regal Cinemas","ticketType":"STANDARD"},{"id":"748","name":"Carmike 10 Newnan","address":"87 Newnan Station Drive","city":"Newnan","state":"GA","zip":"30265","distance":"14.623754501342773","lon":"-84.734810","lat":"33.396538","theaterChainName":"Carmike Cinemas","ticketType":"STANDARD"},{"id":"5028","name":"NCG Sharpsburg","address":"55  Fischer Crossings Blvd.","city":"Sharpsburg","state":"GA","zip":"30277","distance":"12.362967491149902","lon":"-84.655998","lat":"33.397202","theaterChainName":"NCG Cinemas","ticketType":"STANDARD"}]