[{"id":"3918","tribuneTheaterId":"4904","providerTheaterId":"","name":"Regal Georgian Stadium 14","address":"237 Newnan Crossing Bypass","city":"Newnan","state":"GA","zip":"30265","distance":9.3489612340761,"lon":"-84.7635","lat":"33.3687","theaterChainName":"Regal Cinemas","ticketType":"STANDARD"},{"id":"748","tribuneTheaterId":"3137","providerTheaterId":"","name":"Carmike 10 Newnan","address":"87 Newnan Station Drive","city":"Newnan","state":"GA","zip":"30265","distance":11.823040451891,"lon":"-84.734808","lat":"33.396538","theaterChainName":"Carmike Cinemas","ticketType":"STANDARD"},{"id":"5028","tribuneTheaterId":"10402","providerTheaterId":"","name":"NCG Sharpsburg","address":"55  Fischer Crossings Blvd.","city":"Sharpsburg","state":"GA","zip":"30277","distance":14.631077746086,"lon":"-84.656","lat":"33.3972","theaterChainName":"NCG Cinemas","ticketType":"STANDARD"},{"id":"4338","tribuneTheaterId":"9318","providerTheaterId":"","name":"Carmike LaGrange 10","address":"201 Main Street","city":"Lagrange","state":"GA","zip":"30240","distance":18.450046978856,"lon":"-85.030677","lat":"33.036443","theaterChainName":"Carmike Cinemas","ticketType":"STANDARD"}]