[{"id":"443","tribuneTheaterId":"5221","providerTheaterId":"","name":"Cinemark Movies 10 Fayetteville","address":"157 Banks Station","city":"Fayetteville","state":"GA","zip":"30214","distance":4.219395520017,"lon":"-84.444695","lat":"33.466284","theaterChainName":"Cinemark","ticketType":"STANDARD"},{"id":"1411","tribuneTheaterId":"5222","providerTheaterId":"","name":"Cinemark Tinseltown 17 Fayetteville","address":"134 Pavilion Parkway","city":"Fayetteville","state":"GA","zip":"30214","distance":3.9027023297823,"lon":"-84.444658","lat":"33.478417","theaterChainName":"Cinemark","ticketType":"STANDARD"},{"id":"582","tribuneTheaterId":"5308","providerTheaterId":"416","name":"AMC Southlake 24","address":"7065 Mount Zion Circle","city":"Morrow","state":"GA","zip":"30260","distance":5.5716713539629,"lon":"-84.329317","lat":"33.563239","theaterChainName":"AMC Theatres","ticketType":"STANDARD"},{"id":"4138","tribuneTheaterId":"7488","providerTheaterId":"","name":"Great Escape McDonough","address":"115 Fosters Drive","city":"McDonough","state":"GA","zip":"30253","distance":9.9526263739306,"lon":"-84.210259","lat":"33.46654","theaterChainName":"Regal Cinemas","ticketType":"STANDARD"},{"id":"4425","tribuneTheaterId":"9495","providerTheaterId":"","name":"Movies ATL 14","address":"3760 Princeton Lakes Pkwy","city":"Atlanta","state":"GA","zip":"30331","distance":13.853181329145,"lon":"-84.514374","lat":"33.660565","theaterChainName":"Carmike Cinemas","ticketType":"STANDARD"},{"id":"5908","tribuneTheaterId":"11332","providerTheaterId":"","name":"Satellite Cinemas South Dekalb","address":"2801 Candler Road #68","city":"Decatur","state":"GA","zip":"30034","distance":15.984309728153,"lon":"-84.274022","lat":"33.708345","theaterChainName":"Independent Chains","ticketType":"STANDARD"},{"id":"4467","tribuneTheaterId":"9557","providerTheaterId":"","name":"Griffin Stadium Cinemas","address":"1367 North Expressway","city":"Griffin","state":"GA","zip":"30223","distance":16.30612870982,"lon":"-84.294652","lat":"33.269337","theaterChainName":"Georgia Theatre Company","ticketType":"STANDARD"},{"id":"1143","tribuneTheaterId":"2463","providerTheaterId":"","name":"Cinefest Theatre","address":"66 Courtland Ave","city":"Atlanta","state":"GA","zip":"30303","distance":18.133564057381,"lon":"-84.390404","lat":"33.756699","theaterChainName":"Independent Chains","ticketType":"STANDARD"},{"id":"5028","tribuneTheaterId":"10402","providerTheaterId":"","name":"NCG Sharpsburg","address":"55  Fischer Crossings Blvd.","city":"Sharpsburg","state":"GA","zip":"30277","distance":17.287085093529,"lon":"-84.656","lat":"33.3972","theaterChainName":"NCG Cinemas","ticketType":"STANDARD"},{"id":"4253","tribuneTheaterId":"2788","providerTheaterId":"","name":"Plaza Theatre - Atlanta","address":"1049 Ponce De Leon Aveue N.E.","city":"Atlanta","state":"GA","zip":"30306","distance":19.340612038547,"lon":"-84.353074","lat":"33.773441","theaterChainName":"Independent Chains","ticketType":"STANDARD"},{"id":"4105","tribuneTheaterId":"4639","providerTheaterId":"","name":"Regal Atlantic Station Stadium 18","address":"261 19th St. NW","city":"Atlanta","state":"GA","zip":"30363","distance":20.6814855909,"lon":"-84.3965","lat":"33.7934","theaterChainName":"Regal Cinemas","ticketType":"STANDARD"},{"id":"379","tribuneTheaterId":"5306","providerTheaterId":"402","name":"AMC North Dekalb Mall 16","address":"2042 Lawrenceville Hwy","city":"Decatur","state":"GA","zip":"30033","distance":22.400199837749,"lon":"-84.278419","lat":"33.807448","theaterChainName":"AMC Theatres","ticketType":"STANDARD"},{"id":"3500","tribuneTheaterId":"4252","providerTheaterId":"707","name":"AMC Stonecrest 16","address":"8060 Mall Parkway","city":"Lithonia","state":"GA","zip":"30038","distance":21.491919572905,"lon":"-84.0916","lat":"33.6923","theaterChainName":"AMC Theatres","ticketType":"STANDARD"},{"id":"748","tribuneTheaterId":"3137","providerTheaterId":"","name":"Carmike 10 Newnan","address":"87 Newnan Station Drive","city":"Newnan","state":"GA","zip":"30265","distance":21.560436610012,"lon":"-84.734808","lat":"33.396538","theaterChainName":"Carmike Cinemas","ticketType":"STANDARD"},{"id":"424","tribuneTheaterId":"5623","providerTheaterId":"","name":"Regal Tara Cinemas-Atlanta","address":"2345 Cheshire Bridge Rd NE","city":"Atlanta","state":"GA","zip":"30324","distance":22.492145000711,"lon":"-84.350479","lat":"33.819023","theaterChainName":"Regal Cinemas","ticketType":"STANDARD"},{"id":"3147","tribuneTheaterId":"3232","providerTheaterId":"","name":"Carmike Crossroads 16","address":"1536 Dogwood Dr.","city":"Conyers","state":"GA","zip":"30013","distance":24.602937393075,"lon":"-83.994759","lat":"33.649084","theaterChainName":"Carmike Cinemas","ticketType":"STANDARD"},{"id":"3918","tribuneTheaterId":"4904","providerTheaterId":"","name":"Regal Georgian Stadium 14","address":"237 Newnan Crossing Bypass","city":"Newnan","state":"GA","zip":"30265","distance":23.773642059838,"lon":"-84.7635","lat":"33.3687","theaterChainName":"Regal Cinemas","ticketType":"STANDARD"},{"id":"378","tribuneTheaterId":"5304","providerTheaterId":"410","name":"AMC Phipps Plaza 14","address":"3500 Peachtree Road N.E.","city":"Atlanta","state":"GA","zip":"30326","distance":24.78646436564,"lon":"-84.362221","lat":"33.852844","theaterChainName":"AMC Theatres","ticketType":"STANDARD"}]