[{"id":"5028","tribuneTheaterId":"10402","providerTheaterId":"","name":"NCG Sharpsburg","address":"55  Fischer Crossings Blvd.","city":"Sharpsburg","state":"GA","zip":"30277","distance":8.8744375000192,"lon":"-84.656","lat":"33.3972","theaterChainName":"NCG Cinemas","ticketType":"STANDARD"},{"id":"748","tribuneTheaterId":"3137","providerTheaterId":"","name":"Carmike 10 Newnan","address":"87 Newnan Station Drive","city":"Newnan","state":"GA","zip":"30265","distance":9.3888889316856,"lon":"-84.734808","lat":"33.396538","theaterChainName":"Carmike Cinemas","ticketType":"STANDARD"},{"id":"3918","tribuneTheaterId":"4904","providerTheaterId":"","name":"Regal Georgian Stadium 14","address":"237 Newnan Crossing Bypass","city":"Newnan","state":"GA","zip":"30265","distance":11.796852834637,"lon":"-84.7635","lat":"33.3687","theaterChainName":"Regal Cinemas","ticketType":"STANDARD"},{"id":"2657","tribuneTheaterId":"5626","providerTheaterId":"","name":"Regal Arbor Place 18 & IMAX","address":"6600 Douglas Blvd","city":"Douglasville","state":"GA","zip":"30135","distance":14.732587528359,"lon":"-84.744202","lat":"33.7304","theaterChainName":"Regal Cinemas","ticketType":"STANDARD"},{"id":"443","tribuneTheaterId":"5221","providerTheaterId":"","name":"Cinemark Movies 10 Fayetteville","address":"157 Banks Station","city":"Fayetteville","state":"GA","zip":"30214","distance":14.081003841871,"lon":"-84.444695","lat":"33.466284","theaterChainName":"Cinemark","ticketType":"STANDARD"},{"id":"4425","tribuneTheaterId":"9495","providerTheaterId":"","name":"Movies ATL 14","address":"3760 Princeton Lakes Pkwy","city":"Atlanta","state":"GA","zip":"30331","distance":13.362140919767,"lon":"-84.514374","lat":"33.660565","theaterChainName":"Carmike Cinemas","ticketType":"STANDARD"},{"id":"1411","tribuneTheaterId":"5222","providerTheaterId":"","name":"Cinemark Tinseltown 17 Fayetteville","address":"134 Pavilion Parkway","city":"Fayetteville","state":"GA","zip":"30214","distance":13.867238152211,"lon":"-84.444658","lat":"33.478417","theaterChainName":"Cinemark","ticketType":"STANDARD"},{"id":"582","tribuneTheaterId":"5308","providerTheaterId":"416","name":"AMC Southlake 24","address":"7065 Mount Zion Circle","city":"Morrow","state":"GA","zip":"30260","distance":20.316966500765,"lon":"-84.329317","lat":"33.563239","theaterChainName":"AMC Theatres","ticketType":"STANDARD"},{"id":"4469","tribuneTheaterId":"9558","providerTheaterId":"","name":"Carrollton Stadium Cinemas","address":"1135 Bankhead Highway","city":"Carrollton","state":"GA","zip":"30116","distance":21.210074565683,"lon":"-85.037881","lat":"33.59346","theaterChainName":"Georgia Theatre Company","ticketType":"STANDARD"},{"id":"4105","tribuneTheaterId":"4639","providerTheaterId":"","name":"Regal Atlantic Station Stadium 18","address":"261 19th St. NW","city":"Atlanta","state":"GA","zip":"30363","distance":24.696293421238,"lon":"-84.3965","lat":"33.7934","theaterChainName":"Regal Cinemas","ticketType":"STANDARD"},{"id":"2662","tribuneTheaterId":"5627","providerTheaterId":"","name":"Regal Stadium 22   Austell","address":"2480 East-West Connector Rd.","city":"Austell","state":"GA","zip":"30106","distance":23.97736705044,"lon":"-84.625692","lat":"33.868383","theaterChainName":"Regal Cinemas","ticketType":"STANDARD"},{"id":"1143","tribuneTheaterId":"2463","providerTheaterId":"","name":"Cinefest Theatre","address":"66 Courtland Ave","city":"Atlanta","state":"GA","zip":"30303","distance":23.1006097715,"lon":"-84.390404","lat":"33.756699","theaterChainName":"Independent Chains","ticketType":"STANDARD"}]