[{"id":"5028","tribuneTheaterId":"10402","providerTheaterId":"","name":"NCG Sharpsburg","address":"55  Fischer Crossings Blvd.","city":"Sharpsburg","state":"GA","zip":"30277","distance":0.30587295282756,"lon":"-84.656","lat":"33.3972","theaterChainName":"NCG Cinemas","ticketType":"STANDARD"},{"id":"748","tribuneTheaterId":"3137","providerTheaterId":"","name":"Carmike 10 Newnan","address":"87 Newnan Station Drive","city":"Newnan","state":"GA","zip":"30265","distance":4.672854792543,"lon":"-84.734808","lat":"33.396538","theaterChainName":"Carmike Cinemas","ticketType":"STANDARD"},{"id":"3918","tribuneTheaterId":"4904","providerTheaterId":"","name":"Regal Georgian Stadium 14","address":"237 Newnan Crossing Bypass","city":"Newnan","state":"GA","zip":"30265","distance":6.7068565342608,"lon":"-84.7635","lat":"33.3687","theaterChainName":"Regal Cinemas","ticketType":"STANDARD"},{"id":"443","tribuneTheaterId":"5221","providerTheaterId":"","name":"Cinemark Movies 10 Fayetteville","address":"157 Banks Station","city":"Fayetteville","state":"GA","zip":"30214","distance":12.876674390273,"lon":"-84.444695","lat":"33.466284","theaterChainName":"Cinemark","ticketType":"STANDARD"},{"id":"1411","tribuneTheaterId":"5222","providerTheaterId":"","name":"Cinemark Tinseltown 17 Fayetteville","address":"134 Pavilion Parkway","city":"Fayetteville","state":"GA","zip":"30214","distance":13.193580448426,"lon":"-84.444658","lat":"33.478417","theaterChainName":"Cinemark","ticketType":"STANDARD"},{"id":"4425","tribuneTheaterId":"9495","providerTheaterId":"","name":"Movies ATL 14","address":"3760 Princeton Lakes Pkwy","city":"Atlanta","state":"GA","zip":"30331","distance":19.635757188381,"lon":"-84.514374","lat":"33.660565","theaterChainName":"Carmike Cinemas","ticketType":"STANDARD"},{"id":"582","tribuneTheaterId":"5308","providerTheaterId":"416","name":"AMC Southlake 24","address":"7065 Mount Zion Circle","city":"Morrow","state":"GA","zip":"30260","distance":21.800975766329,"lon":"-84.329317","lat":"33.563239","theaterChainName":"AMC Theatres","ticketType":"STANDARD"},{"id":"2657","tribuneTheaterId":"5626","providerTheaterId":"","name":"Regal Arbor Place 18 & IMAX","address":"6600 Douglas Blvd","city":"Douglasville","state":"GA","zip":"30135","distance":23.324074861554,"lon":"-84.744202","lat":"33.7304","theaterChainName":"Regal Cinemas","ticketType":"STANDARD"},{"id":"4467","tribuneTheaterId":"9557","providerTheaterId":"","name":"Griffin Stadium Cinemas","address":"1367 North Expressway","city":"Griffin","state":"GA","zip":"30223","distance":22.658866280476,"lon":"-84.294652","lat":"33.269337","theaterChainName":"Georgia Theatre Company","ticketType":"STANDARD"}]