[{"id":"4138","name":"Great Escape McDonough","address":"115 Fosters Drive","city":"McDonough","state":"GA","zip":"30253","distance":"23.339492797851562","lon":"-84.210258","lat":"33.466541","theaterChainName":"Regal Cinemas","ticketType":"STANDARD"},{"id":"1411","name":"Cinemark Tinseltown 17 Fayetteville","address":"134 Pavilion Parkway","city":"Fayetteville","state":"GA","zip":"30214","distance":"22.334638595581055","lon":"-84.444656","lat":"33.478416","theaterChainName":"Cinemark","ticketType":"STANDARD"},{"id":"443","name":"Cinemark Movies 10 Fayetteville","address":"157 Banks Station","city":"Fayetteville","state":"GA","zip":"30214","distance":"21.50930404663086","lon":"-84.444695","lat":"33.466286","theaterChainName":"Cinemark","ticketType":"STANDARD"},{"id":"4467","name":"Griffin Stadium Cinemas","address":"1367 North Expressway","city":"Griffin","state":"GA","zip":"30223","distance":"9.018965721130371","lon":"-84.294655","lat":"33.269337","theaterChainName":"Georgia Theatre Company","ticketType":"STANDARD"},{"id":"5028","name":"NCG Sharpsburg","address":"55  Fischer Crossings Blvd.","city":"Sharpsburg","state":"GA","zip":"30277","distance":"22.895320892333984","lon":"-84.655998","lat":"33.397202","theaterChainName":"NCG Cinemas","ticketType":"STANDARD"},{"id":"3266","name":"Ritz Theatre - Thomaston","address":"114 S. Church St.","city":"Thomaston","state":"GA","zip":"30286","distance":"19.036548614501953","lon":"-84.327156","lat":"32.887817","theaterChainName":"Independent Chains","ticketType":"STANDARD"}]