[{"id":"379","name":"AMC North Dekalb Mall 16","address":"2042 Lawrenceville Hwy","city":"Decatur","state":"GA","zip":"30033","distance":"2.7942662239074707","lon":"-84.278419","lat":"33.807449","theaterChainName":"AMC Theatres","ticketType":"STANDARD"},{"id":"5908","name":"Satellite Cinemas South Dekalb","address":"2801 Candler Road #68","city":"Decatur","state":"GA","zip":"30034","distance":"6.672941207885742","lon":"-84.274025","lat":"33.708344","theaterChainName":"Independent Chains","ticketType":"STANDARD"},{"id":"4502","name":"Northlake Festival Movie Tavern","address":"4043 La Vista Rd","city":"Tucker","state":"GA","zip":"30084","distance":"5.34561824798584","lon":"-84.251503","lat":"33.842918","theaterChainName":"Movie Tavern","ticketType":"STANDARD"},{"id":"4253","name":"Plaza Theatre - Atlanta","address":"1049 Ponce De Leon Aveue N.E.","city":"Atlanta","state":"GA","zip":"30306","distance":"2.212963581085205","lon":"-84.353073","lat":"33.773441","theaterChainName":"Independent Chains","ticketType":"STANDARD"},{"id":"424","name":"Regal Tara Cinemas-Atlanta","address":"2345 Cheshire Bridge Rd NE","city":"Atlanta","state":"GA","zip":"30324","distance":"2.20988130569458","lon":"-84.350479","lat":"33.819023","theaterChainName":"Regal Cinemas","ticketType":"STANDARD"},{"id":"2466","name":"Regal Hollywood Stadium 24  North I-85","address":"3265 N.E. Expressway Access Road","city":"Chamblee","state":"GA","zip":"30341","distance":"5.910444259643555","lon":"-84.277130","lat":"33.871021","theaterChainName":"Regal Cinemas","ticketType":"STANDARD"},{"id":"1143","name":"Cinefest Theatre","address":"66 Courtland Ave","city":"Atlanta","state":"GA","zip":"30303","distance":"4.6125640869140625","lon":"-84.390404","lat":"33.756699","theaterChainName":"Independent Chains","ticketType":"STANDARD"},{"id":"378","name":"AMC Phipps Plaza 14","address":"3500 Peachtree Road N.E.","city":"Atlanta","state":"GA","zip":"30326","distance":"4.525398254394531","lon":"-84.362221","lat":"33.852844","theaterChainName":"AMC Theatres","ticketType":"STANDARD"},{"id":"4105","name":"Regal Atlantic Station Stadium 18","address":"261 19th St. NW","city":"Atlanta","state":"GA","zip":"30363","distance":"4.119157314300537","lon":"-84.396500","lat":"33.793400","theaterChainName":"Regal Cinemas","ticketType":"STANDARD"},{"id":"5576","name":"NCG Stone Mountain","address":"1825 Rockbridge Road","city":"Stone Mountain","state":"GA","zip":"30087","distance":"11.762060165405273","lon":"-84.123199","lat":"33.825500","theaterChainName":"NCG Cinemas","ticketType":"STANDARD"},{"id":"3500","name":"AMC Stonecrest 16","address":"8060 Mall Parkway","city":"Lithonia","state":"GA","zip":"30038","distance":"15.168594360351562","lon":"-84.091599","lat":"33.692299","theaterChainName":"AMC Theatres","ticketType":"STANDARD"},{"id":"423","name":"Regal Perimeter Pointe 10","address":"1155 Mount Vernon Highway","city":"Atlanta","state":"GA","zip":"30338","distance":"9.566545486450195","lon":"-84.348282","lat":"33.932270","theaterChainName":"United Artists","ticketType":"STANDARD"},{"id":"5844","name":"NCG Peachtree Corners","address":"6135 Peachtree Parkway","city":"Peachtree Corners","state":"GA","zip":"30092","distance":"12.029582023620605","lon":"-84.235992","lat":"33.952911","theaterChainName":"NCG Cinemas","ticketType":"STANDARD"},{"id":"3440","name":"Lefont Sandy Springs","address":"5920 Roswell Road NE","city":"Atlanta","state":"GA","zip":"30328","distance":"9.007026672363281","lon":"-84.381721","lat":"33.916679","theaterChainName":"Independent Chains","ticketType":"STANDARD"},{"id":"582","name":"AMC Southlake 24","address":"7065 Mount Zion Circle","city":"Morrow","state":"GA","zip":"30260","distance":"16.030000686645508","lon":"-84.329315","lat":"33.563240","theaterChainName":"AMC Theatres","ticketType":"STANDARD"},{"id":"5254","name":"Studio Movie Grill - Duluth","address":"3850 Venture Drive","city":"Duluth","state":"GA","zip":"30096","distance":"15.246214866638184","lon":"-84.137703","lat":"33.951900","theaterChainName":"Studio Movie Grill","ticketType":"SELECT_SEATING"},{"id":"2005","name":"AMC Parkway Pointe","address":"3101 Cobb Parkway Ste 201","city":"Atlanta","state":"GA","zip":"30339","distance":"9.502850532531738","lon":"-84.457001","lat":"33.877998","theaterChainName":"AMC Theatres","ticketType":"STANDARD"},{"id":"4929","name":"Studio Movie Grill Holcomb Bridge","address":"2880 Holcomb Bridge Rd.","city":"Alpharetta","state":"GA","zip":"30022","distance":"13.850249290466309","lon":"-84.274460","lat":"33.991241","theaterChainName":"Studio Movie Grill","ticketType":"SELECT_SEATING"},{"id":"2281","name":"Regal Medlock Crossing Stadium 18","address":"9700 Medlock Bridge Road Ste 170","city":"Duluth","state":"GA","zip":"30097","distance":"17.12486457824707","lon":"-84.193344","lat":"34.017731","theaterChainName":"Regal Cinemas","ticketType":"STANDARD"},{"id":"452","name":"Carmike 12 Snellville","address":"1905 Scenic Highway","city":"Snellville","state":"GA","zip":"30078","distance":"18.670461654663086","lon":"-84.014748","lat":"33.876957","theaterChainName":"Carmike Cinemas","ticketType":"STANDARD"},{"id":"4425","name":"Movies ATL 14","address":"3760 Princeton Lakes Pkwy","city":"Atlanta","state":"GA","zip":"30331","distance":"14.325976371765137","lon":"-84.514374","lat":"33.660564","theaterChainName":"Carmike Cinemas","ticketType":"STANDARD"},{"id":"422","name":"Regal Snellville Oaks Stadium 14","address":"2125 E.  Main St.","city":"Snellville","state":"GA","zip":"30078","distance":"18.978275299072266","lon":"-84.002617","lat":"33.856869","theaterChainName":"Regal Cinemas","ticketType":"STANDARD"},{"id":"442","name":"Merchants Walk Stadium Cinemas 14","address":"1301 Johnsons Ferry Road","city":"Marietta","state":"GA","zip":"30068","distance":"13.941819190979004","lon":"-84.427559","lat":"33.978050","theaterChainName":"Georgia Theatre Company","ticketType":"STANDARD"},{"id":"3702","name":"Picture Show  Merchants","address":"4400 Roswell Rd.","city":"Marietta","state":"GA","zip":"30062","distance":"14.242390632629395","lon":"-84.423668","lat":"33.984276","theaterChainName":"Picture Show Entertainment","ticketType":"STANDARD"},{"id":"377","name":"AMC Mansell Crossing 14","address":"7730 N. Point Pkwy","city":"Alpharetta","state":"GA","zip":"30022","distance":"16.896825790405273","lon":"-84.303955","lat":"34.039124","theaterChainName":"AMC Theatres","ticketType":"STANDARD"},{"id":"3682","name":"AMC Sugarloaf Mills 18","address":"5900 Sugarloaf Parkway","city":"Lawrenceville","state":"GA","zip":"30043","distance":"19.254783630371094","lon":"-84.076797","lat":"33.983002","theaterChainName":"AMC Theatres","ticketType":"STANDARD"},{"id":"3147","name":"Carmike Crossroads 16","address":"1536 Dogwood Dr.","city":"Conyers","state":"GA","zip":"30013","distance":"21.487531661987305","lon":"-83.994759","lat":"33.649082","theaterChainName":"Carmike Cinemas","ticketType":"STANDARD"},{"id":"4945","name":"Aurora Cineplex","address":"5100 Commerce Parkway","city":"Roswell","state":"GA","zip":"30076","distance":"16.825584411621094","lon":"-84.338951","lat":"34.038422","theaterChainName":"Independent Chains","ticketType":"STANDARD"},{"id":"5410","name":"AMC North Point Mall 12","address":"4500 N. Point Circle","city":"Alpharetta","state":"GA","zip":"30022","distance":"17.54776382446289","lon":"-84.296555","lat":"34.048073","theaterChainName":"AMC Theatres","ticketType":"STANDARD"},{"id":"6047","name":"AMC Dine-in Webb Gin 11","address":"1210 Scenic Highway","city":"Lawrenceville","state":"GA","zip":"30045","distance":"20.04174041748047","lon":"-84.000946","lat":"33.903778","theaterChainName":"AMC Theatres","ticketType":"STANDARD"},{"id":"4138","name":"Great Escape McDonough","address":"115 Fosters Drive","city":"McDonough","state":"GA","zip":"30253","distance":"23.646310806274414","lon":"-84.210258","lat":"33.466541","theaterChainName":"Regal Cinemas","ticketType":"STANDARD"},{"id":"5507","name":"Regal Avalon Stadium 12","address":"3950 1st St.","city":"Alpharetta","state":"GA","zip":"30009","distance":"19.093042373657227","lon":"-84.278198","lat":"34.068802","theaterChainName":"Regal Cinemas","ticketType":"STANDARD"},{"id":"1411","name":"Cinemark Tinseltown 17 Fayetteville","address":"134 Pavilion Parkway","city":"Fayetteville","state":"GA","zip":"30214","distance":"22.949337005615234","lon":"-84.444656","lat":"33.478416","theaterChainName":"Cinemark","ticketType":"STANDARD"},{"id":"5175","name":"Movie Tavern Horizon","address":"2855 Lawrenceville Suwanee Rd.","city":"Suwanee","state":"GA","zip":"30024","distance":"22.734830856323242","lon":"-84.043030","lat":"34.026665","theaterChainName":"Movie Tavern","ticketType":"STANDARD"},{"id":"5487","name":"Movie Tavern at Sandy Plains Village","address":"4651 Woodstock Road","city":"Roswell","state":"GA","zip":"30075","distance":"19.314414978027344","lon":"-84.423485","lat":"34.062462","theaterChainName":"Movie Tavern","ticketType":"STANDARD"},{"id":"443","name":"Cinemark Movies 10 Fayetteville","address":"157 Banks Station","city":"Fayetteville","state":"GA","zip":"30214","distance":"23.750926971435547","lon":"-84.444695","lat":"33.466286","theaterChainName":"Cinemark","ticketType":"STANDARD"},{"id":"451","name":"Park 12 Cobb Stadium Cinemas","address":"2925 W. Frank Gordy Parkway","city":"Marietta","state":"GA","zip":"30066","distance":"18.704801559448242","lon":"-84.466927","lat":"34.038857","theaterChainName":"Georgia Theatre Company","ticketType":"STANDARD"},{"id":"5191","name":"NCG Marietta Cinemas","address":"1050 Powder Springs St.","city":"Marietta","state":"GA","zip":"30064","distance":"16.863643646240234","lon":"-84.571899","lat":"33.927338","theaterChainName":"NCG Cinemas","ticketType":"STANDARD"},{"id":"2662","name":"Regal Stadium 22   Austell","address":"2480 East-West Connector Rd.","city":"Austell","state":"GA","zip":"30106","distance":"17.995746612548828","lon":"-84.625694","lat":"33.868382","theaterChainName":"Regal Cinemas","ticketType":"STANDARD"},{"id":"444","name":"Regal Town Center Stadium 16-Kennesaw","address":"2795 Town Center Drive","city":"Kennesaw","state":"GA","zip":"30144","distance":"20.71857452392578","lon":"-84.561165","lat":"34.021973","theaterChainName":"Regal Cinemas","ticketType":"STANDARD"},{"id":"711","name":"Cherokee Stadium Cinemas","address":"355 Cinema View","city":"Woodstock","state":"GA","zip":"30189","distance":"24.95060157775879","lon":"-84.543068","lat":"34.107620","theaterChainName":"Georgia Theatre Company","ticketType":"STANDARD"},{"id":"2562","name":"AMC Barrett Commons 24","address":"2600 Cobb Place Lane N.W.","city":"Kennesaw","state":"GA","zip":"30144","distance":"20.783201217651367","lon":"-84.571373","lat":"34.015629","theaterChainName":"AMC Theatres","ticketType":"STANDARD"},{"id":"3897","name":"Movies 278 14","address":"185 Metromont Road","city":"Hiram","state":"GA","zip":"30141","distance":"24.57206916809082","lon":"-84.739410","lat":"33.883892","theaterChainName":"Carmike Cinemas","ticketType":"STANDARD"},{"id":"2657","name":"Regal Arbor Place 18 & IMAX","address":"6600 Douglas Blvd","city":"Douglasville","state":"GA","zip":"30135","distance":"24.50469970703125","lon":"-84.744202","lat":"33.730400","theaterChainName":"Regal Cinemas","ticketType":"STANDARD"}]