[{"id":"1143","tribuneTheaterId":"2463","providerTheaterId":"","name":"Cinefest Theatre","address":"66 Courtland Ave","city":"Atlanta","state":"GA","zip":"30303","distance":0.54958390722191,"lon":"-84.390404","lat":"33.756699","theaterChainName":"Independent Chains","ticketType":"STANDARD"},{"id":"4105","tribuneTheaterId":"4639","providerTheaterId":"","name":"Regal Atlantic Station Stadium 18","address":"261 19th St. NW","city":"Atlanta","state":"GA","zip":"30363","distance":3.1063450904797,"lon":"-84.3965","lat":"33.7934","theaterChainName":"Regal Cinemas","ticketType":"STANDARD"},{"id":"4253","tribuneTheaterId":"2788","providerTheaterId":"","name":"Plaza Theatre - Atlanta","address":"1049 Ponce De Leon Aveue N.E.","city":"Atlanta","state":"GA","zip":"30306","distance":2.6223233827043,"lon":"-84.353074","lat":"33.773441","theaterChainName":"Independent Chains","ticketType":"STANDARD"},{"id":"424","tribuneTheaterId":"5623","providerTheaterId":"","name":"Regal Tara Cinemas-Atlanta","address":"2345 Cheshire Bridge Rd NE","city":"Atlanta","state":"GA","zip":"30324","distance":5.2962332755219,"lon":"-84.350479","lat":"33.819023","theaterChainName":"Regal Cinemas","ticketType":"STANDARD"},{"id":"5908","tribuneTheaterId":"11332","providerTheaterId":"","name":"Satellite Cinemas South Dekalb","address":"2801 Candler Road #68","city":"Decatur","state":"GA","zip":"30034","distance":7.1264989690149,"lon":"-84.274022","lat":"33.708345","theaterChainName":"Independent Chains","ticketType":"STANDARD"},{"id":"379","tribuneTheaterId":"5306","providerTheaterId":"402","name":"AMC North Dekalb Mall 16","address":"2042 Lawrenceville Hwy","city":"Decatur","state":"GA","zip":"30033","distance":7.4775198609506,"lon":"-84.278419","lat":"33.807448","theaterChainName":"AMC Theatres","ticketType":"STANDARD"},{"id":"378","tribuneTheaterId":"5304","providerTheaterId":"410","name":"AMC Phipps Plaza 14","address":"3500 Peachtree Road N.E.","city":"Atlanta","state":"GA","zip":"30326","distance":7.3259971470933,"lon":"-84.362221","lat":"33.852844","theaterChainName":"AMC Theatres","ticketType":"STANDARD"},{"id":"2005","tribuneTheaterId":"5305","providerTheaterId":"801","name":"AMC Parkway Pointe","address":"3101 Cobb Parkway Ste 201","city":"Atlanta","state":"GA","zip":"30339","distance":9.7535659187841,"lon":"-84.457","lat":"33.878","theaterChainName":"AMC Theatres","ticketType":"STANDARD"},{"id":"4425","tribuneTheaterId":"9495","providerTheaterId":"","name":"Movies ATL 14","address":"3760 Princeton Lakes Pkwy","city":"Atlanta","state":"GA","zip":"30331","distance":9.492066653553,"lon":"-84.514374","lat":"33.660565","theaterChainName":"Carmike Cinemas","ticketType":"STANDARD"},{"id":"2466","tribuneTheaterId":"5628","providerTheaterId":"","name":"Regal Hollywood Stadium 24  North I-85","address":"3265 N.E. Expressway Access Road","city":"Chamblee","state":"GA","zip":"30341","distance":10.563703726333,"lon":"-84.277132","lat":"33.871023","theaterChainName":"Regal Cinemas","ticketType":"STANDARD"},{"id":"4502","tribuneTheaterId":"9605","providerTheaterId":"","name":"Northlake Festival Movie Tavern","address":"4043 La Vista Rd","city":"Tucker","state":"GA","zip":"30084","distance":10.175225417211,"lon":"-84.2515","lat":"33.842917","theaterChainName":"Movie Tavern","ticketType":"STANDARD"},{"id":"3440","tribuneTheaterId":"6473","providerTheaterId":"","name":"Lefont Sandy Springs","address":"5920 Roswell Road NE","city":"Atlanta","state":"GA","zip":"30328","distance":11.591035650304,"lon":"-84.381718","lat":"33.916678","theaterChainName":"Independent Chains","ticketType":"STANDARD"},{"id":"423","tribuneTheaterId":"5708","providerTheaterId":"","name":"Regal Perimeter Pointe 10","address":"1155 Mount Vernon Highway","city":"Atlanta","state":"GA","zip":"30338","distance":12.866141031374,"lon":"-84.348285","lat":"33.932269","theaterChainName":"United Artists","ticketType":"STANDARD"},{"id":"582","tribuneTheaterId":"5308","providerTheaterId":"416","name":"AMC Southlake 24","address":"7065 Mount Zion Circle","city":"Morrow","state":"GA","zip":"30260","distance":13.271153275807,"lon":"-84.329317","lat":"33.563239","theaterChainName":"AMC Theatres","ticketType":"STANDARD"},{"id":"2662","tribuneTheaterId":"5627","providerTheaterId":"","name":"Regal Stadium 22   Austell","address":"2480 East-West Connector Rd.","city":"Austell","state":"GA","zip":"30106","distance":15.945115946867,"lon":"-84.625692","lat":"33.868383","theaterChainName":"Regal Cinemas","ticketType":"STANDARD"},{"id":"5191","tribuneTheaterId":"10606","providerTheaterId":"","name":"NCG Marietta Cinemas","address":"1050 Powder Springs St.","city":"Marietta","state":"GA","zip":"30064","distance":16.223769521266,"lon":"-84.571896","lat":"33.927337","theaterChainName":"NCG Cinemas","ticketType":"STANDARD"},{"id":"3702","tribuneTheaterId":"1878","providerTheaterId":"","name":"Picture Show  Merchants","address":"4400 Roswell Rd.","city":"Marietta","state":"GA","zip":"30062","distance":16.384337168192,"lon":"-84.423666","lat":"33.984277","theaterChainName":"Picture Show Entertainment","ticketType":"STANDARD"},{"id":"5576","tribuneTheaterId":"11024","providerTheaterId":"","name":"NCG Stone Mountain","address":"1825 Rockbridge Road","city":"Stone Mountain","state":"GA","zip":"30087","distance":16.098338596193,"lon":"-84.1232","lat":"33.8255","theaterChainName":"NCG Cinemas","ticketType":"STANDARD"},{"id":"442","tribuneTheaterId":"3173","providerTheaterId":"","name":"Merchants Walk Stadium Cinemas 14","address":"1301 Johnsons Ferry Road","city":"Marietta","state":"GA","zip":"30068","distance":15.987898028454,"lon":"-84.427562","lat":"33.978052","theaterChainName":"Georgia Theatre Company","ticketType":"STANDARD"},{"id":"5844","tribuneTheaterId":"11255","providerTheaterId":"","name":"NCG Peachtree Corners","address":"6135 Peachtree Parkway","city":"Peachtree Corners","state":"GA","zip":"30092","distance":16.570271420095,"lon":"-84.235995","lat":"33.952911","theaterChainName":"NCG Cinemas","ticketType":"STANDARD"},{"id":"4929","tribuneTheaterId":"10249","providerTheaterId":"","name":"Studio Movie Grill Holcomb Bridge","address":"2880 Holcomb Bridge Rd.","city":"Alpharetta","state":"GA","zip":"30022","distance":17.959941197007,"lon":"-84.27446","lat":"33.99124","theaterChainName":"Studio Movie Grill","ticketType":"SELECT_SEATING"},{"id":"3500","tribuneTheaterId":"4252","providerTheaterId":"707","name":"AMC Stonecrest 16","address":"8060 Mall Parkway","city":"Lithonia","state":"GA","zip":"30038","distance":17.47839629518,"lon":"-84.0916","lat":"33.6923","theaterChainName":"AMC Theatres","ticketType":"STANDARD"},{"id":"1411","tribuneTheaterId":"5222","providerTheaterId":"","name":"Cinemark Tinseltown 17 Fayetteville","address":"134 Pavilion Parkway","city":"Fayetteville","state":"GA","zip":"30214","distance":18.977591477582,"lon":"-84.444658","lat":"33.478417","theaterChainName":"Cinemark","ticketType":"STANDARD"},{"id":"443","tribuneTheaterId":"5221","providerTheaterId":"","name":"Cinemark Movies 10 Fayetteville","address":"157 Banks Station","city":"Fayetteville","state":"GA","zip":"30214","distance":19.804350239732,"lon":"-84.444695","lat":"33.466284","theaterChainName":"Cinemark","ticketType":"STANDARD"},{"id":"2657","tribuneTheaterId":"5626","providerTheaterId":"","name":"Regal Arbor Place 18 & IMAX","address":"6600 Douglas Blvd","city":"Douglasville","state":"GA","zip":"30135","distance":20.50619919183,"lon":"-84.744202","lat":"33.7304","theaterChainName":"Regal Cinemas","ticketType":"STANDARD"},{"id":"451","tribuneTheaterId":"7775","providerTheaterId":"","name":"Park 12 Cobb Stadium Cinemas","address":"2925 W. Frank Gordy Parkway","city":"Marietta","state":"GA","zip":"30066","distance":20.532186659654,"lon":"-84.466923","lat":"34.038855","theaterChainName":"Georgia Theatre Company","ticketType":"STANDARD"},{"id":"4945","tribuneTheaterId":"10300","providerTheaterId":"","name":"Aurora Cineplex","address":"5100 Commerce Parkway","city":"Roswell","state":"GA","zip":"30076","distance":20.193879198317,"lon":"-84.338951","lat":"34.03842","theaterChainName":"Independent Chains","ticketType":"STANDARD"},{"id":"377","tribuneTheaterId":"5303","providerTheaterId":"409","name":"AMC Mansell Crossing 14","address":"7730 N. Point Pkwy","city":"Alpharetta","state":"GA","zip":"30022","distance":20.617102574596,"lon":"-84.303953","lat":"34.039125","theaterChainName":"AMC Theatres","ticketType":"STANDARD"},{"id":"5254","tribuneTheaterId":"10684","providerTheaterId":"","name":"Studio Movie Grill - Duluth","address":"3850 Venture Drive","city":"Duluth","state":"GA","zip":"30096","distance":20.0703085959,"lon":"-84.1377","lat":"33.9519","theaterChainName":"Studio Movie Grill","ticketType":"SELECT_SEATING"},{"id":"2562","tribuneTheaterId":"9210","providerTheaterId":"417","name":"AMC Barrett Commons 24","address":"2600 Cobb Place Lane N.W.","city":"Kennesaw","state":"GA","zip":"30144","distance":21.213634163587,"lon":"-84.571376","lat":"34.015629","theaterChainName":"AMC Theatres","ticketType":"STANDARD"},{"id":"5487","tribuneTheaterId":"10929","providerTheaterId":"","name":"Movie Tavern at Sandy Plains Village","address":"4651 Woodstock Road","city":"Roswell","state":"GA","zip":"30075","distance":21.75350623293,"lon":"-84.423485","lat":"34.062462","theaterChainName":"Movie Tavern","ticketType":"STANDARD"},{"id":"2281","tribuneTheaterId":"8939","providerTheaterId":"","name":"Regal Medlock Crossing Stadium 18","address":"9700 Medlock Bridge Road Ste 170","city":"Duluth","state":"GA","zip":"30097","distance":21.66583414876,"lon":"-84.193347","lat":"34.017729","theaterChainName":"Regal Cinemas","ticketType":"STANDARD"},{"id":"5410","tribuneTheaterId":"10847","providerTheaterId":"405","name":"AMC North Point Mall 12","address":"4500 N. Point Circle","city":"Alpharetta","state":"GA","zip":"30022","distance":21.318868124123,"lon":"-84.296557","lat":"34.048071","theaterChainName":"AMC Theatres","ticketType":"STANDARD"},{"id":"444","tribuneTheaterId":"5625","providerTheaterId":"","name":"Regal Town Center Stadium 16-Kennesaw","address":"2795 Town Center Drive","city":"Kennesaw","state":"GA","zip":"30144","distance":21.315998051326,"lon":"-84.561167","lat":"34.021971","theaterChainName":"Regal Cinemas","ticketType":"STANDARD"},{"id":"3897","tribuneTheaterId":"2285","providerTheaterId":"","name":"Movies 278 14","address":"185 Metromont Road","city":"Hiram","state":"GA","zip":"30141","distance":22.221491280946,"lon":"-84.73941","lat":"33.883893","theaterChainName":"Carmike Cinemas","ticketType":"STANDARD"},{"id":"5507","tribuneTheaterId":"10991","providerTheaterId":"","name":"Regal Avalon Stadium 12","address":"3950 1st St.","city":"Alpharetta","state":"GA","zip":"30009","distance":22.97556535622,"lon":"-84.2782","lat":"34.0688","theaterChainName":"Regal Cinemas","ticketType":"STANDARD"},{"id":"4138","tribuneTheaterId":"7488","providerTheaterId":"","name":"Great Escape McDonough","address":"115 Fosters Drive","city":"McDonough","state":"GA","zip":"30253","distance":22.03379841096,"lon":"-84.210259","lat":"33.46654","theaterChainName":"Regal Cinemas","ticketType":"STANDARD"},{"id":"3682","tribuneTheaterId":"8108","providerTheaterId":"403","name":"AMC Sugarloaf Mills 18","address":"5900 Sugarloaf Parkway","city":"Lawrenceville","state":"GA","zip":"30043","distance":24.086496715922,"lon":"-84.0768","lat":"33.983","theaterChainName":"AMC Theatres","ticketType":"STANDARD"},{"id":"452","tribuneTheaterId":"3174","providerTheaterId":"","name":"Carmike 12 Snellville","address":"1905 Scenic Highway","city":"Snellville","state":"GA","zip":"30078","distance":23.179459797919,"lon":"-84.014747","lat":"33.876956","theaterChainName":"Carmike Cinemas","ticketType":"STANDARD"},{"id":"422","tribuneTheaterId":"6911","providerTheaterId":"","name":"Regal Snellville Oaks Stadium 14","address":"2125 E.  Main St.","city":"Snellville","state":"GA","zip":"30078","distance":23.347659107283,"lon":"-84.002618","lat":"33.85687","theaterChainName":"Regal Cinemas","ticketType":"STANDARD"},{"id":"3147","tribuneTheaterId":"3232","providerTheaterId":"","name":"Carmike Crossroads 16","address":"1536 Dogwood Dr.","city":"Conyers","state":"GA","zip":"30013","distance":23.635370369894,"lon":"-83.994759","lat":"33.649084","theaterChainName":"Carmike Cinemas","ticketType":"STANDARD"},{"id":"6047","tribuneTheaterId":"11450","providerTheaterId":"","name":"AMC Dine-in Webb Gin 11","address":"1210 Scenic Highway","city":"Lawrenceville","state":"GA","zip":"30045","distance":24.655953467958,"lon":"-84.000945","lat":"33.903777","theaterChainName":"AMC Theatres","ticketType":"STANDARD"}]