[{"id":"3682","name":"AMC Sugarloaf Mills 18","address":"5900 Sugarloaf Parkway","city":"Lawrenceville","state":"GA","zip":"30043","distance":"22.643693923950195","lon":"-84.076797","lat":"33.983002","theaterChainName":"AMC Theatres","ticketType":"STANDARD"},{"id":"6047","name":"AMC Dine-in Webb Gin 11","address":"1210 Scenic Highway","city":"Lawrenceville","state":"GA","zip":"30045","distance":"24.406064987182617","lon":"-84.000946","lat":"33.903778","theaterChainName":"AMC Theatres","ticketType":"STANDARD"},{"id":"5175","name":"Movie Tavern Horizon","address":"2855 Lawrenceville Suwanee Rd.","city":"Suwanee","state":"GA","zip":"30024","distance":"19.16361427307129","lon":"-84.043030","lat":"34.026665","theaterChainName":"Movie Tavern","ticketType":"STANDARD"},{"id":"4490","name":"AMC Avenue Forsyth 12","address":"350 Peachtree Pkwy","city":"Cumming","state":"GA","zip":"30041","distance":"22.230331420898438","lon":"-84.177505","lat":"34.155293","theaterChainName":"AMC Theatres","ticketType":"STANDARD"},{"id":"1396","name":"Movies 400","address":"415 Atlanta Road","city":"Cumming","state":"GA","zip":"30040","distance":"19.454450607299805","lon":"-84.134956","lat":"34.199650","theaterChainName":"Carmike Cinemas","ticketType":"STANDARD"},{"id":"2580","name":"Regal Mall Of Georgia Stadium 20","address":"3333 Buford Drive, Suite 3000","city":"Buford","state":"GA","zip":"30519","distance":"14.902408599853516","lon":"-83.984886","lat":"34.065395","theaterChainName":"Regal Cinemas","ticketType":"STANDARD"},{"id":"4532","name":"Great Escape Hamilton Mill 14","address":"2160 Hamilton Creek Parkway","city":"Dacula","state":"GA","zip":"30019","distance":"11.728715896606445","lon":"-83.913605","lat":"34.074581","theaterChainName":"Regal Cinemas","ticketType":"STANDARD"},{"id":"3965","name":"Dawson 400 Stadium Cinemas","address":"189 North 400 Center Lane","city":"Dawsonville","state":"GA","zip":"30534","distance":"17.46687889099121","lon":"-84.035721","lat":"34.368931","theaterChainName":"Georgia Theatre Company","ticketType":"STANDARD"},{"id":"5133","name":"Carmike Gateway 12","address":"416 Exchange Blvd.","city":"Bethlehem","state":"GA","zip":"30620","distance":"18.923856735229492","lon":"-83.739502","lat":"33.943001","theaterChainName":"Carmike Cinemas","ticketType":"STANDARD"},{"id":"1148","name":"Hollywood Stadium Cinemas","address":"120 Green Hill Circle","city":"Gainesville","state":"GA","zip":"30501","distance":"6.702178001403809","lon":"-83.856857","lat":"34.295376","theaterChainName":"Georgia Theatre Company","ticketType":"STANDARD"},{"id":"4245","name":"Commerce Stadium Cinemas","address":"340 Banks Crossing Dr.","city":"Commerce","state":"GA","zip":"30529","distance":"19.35791778564453","lon":"-83.459236","lat":"34.251366","theaterChainName":"Georgia Theatre Company","ticketType":"STANDARD"}]