[{"id":"5254","name":"Studio Movie Grill - Duluth","address":"3850 Venture Drive","city":"Duluth","state":"GA","zip":"30096","distance":"24.157434463500977","lon":"-84.137703","lat":"33.951900","theaterChainName":"Studio Movie Grill","ticketType":"SELECT_SEATING"},{"id":"452","name":"Carmike 12 Snellville","address":"1905 Scenic Highway","city":"Snellville","state":"GA","zip":"30078","distance":"22.506845474243164","lon":"-84.014748","lat":"33.876957","theaterChainName":"Carmike Cinemas","ticketType":"STANDARD"},{"id":"422","name":"Regal Snellville Oaks Stadium 14","address":"2125 E.  Main St.","city":"Snellville","state":"GA","zip":"30078","distance":"23.252126693725586","lon":"-84.002617","lat":"33.856869","theaterChainName":"Regal Cinemas","ticketType":"STANDARD"},{"id":"3682","name":"AMC Sugarloaf Mills 18","address":"5900 Sugarloaf Parkway","city":"Lawrenceville","state":"GA","zip":"30043","distance":"20.05909538269043","lon":"-84.076797","lat":"33.983002","theaterChainName":"AMC Theatres","ticketType":"STANDARD"},{"id":"6047","name":"AMC Dine-in Webb Gin 11","address":"1210 Scenic Highway","city":"Lawrenceville","state":"GA","zip":"30045","distance":"20.55065155029297","lon":"-84.000946","lat":"33.903778","theaterChainName":"AMC Theatres","ticketType":"STANDARD"},{"id":"5175","name":"Movie Tavern Horizon","address":"2855 Lawrenceville Suwanee Rd.","city":"Suwanee","state":"GA","zip":"30024","distance":"16.872289657592773","lon":"-84.043030","lat":"34.026665","theaterChainName":"Movie Tavern","ticketType":"STANDARD"},{"id":"4490","name":"AMC Avenue Forsyth 12","address":"350 Peachtree Pkwy","city":"Cumming","state":"GA","zip":"30041","distance":"22.691238403320312","lon":"-84.177505","lat":"34.155293","theaterChainName":"AMC Theatres","ticketType":"STANDARD"},{"id":"1396","name":"Movies 400","address":"415 Atlanta Road","city":"Cumming","state":"GA","zip":"30040","distance":"20.655481338500977","lon":"-84.134956","lat":"34.199650","theaterChainName":"Carmike Cinemas","ticketType":"STANDARD"},{"id":"2580","name":"Regal Mall Of Georgia Stadium 20","address":"3333 Buford Drive, Suite 3000","city":"Buford","state":"GA","zip":"30519","distance":"12.712871551513672","lon":"-83.984886","lat":"34.065395","theaterChainName":"Regal Cinemas","ticketType":"STANDARD"},{"id":"4532","name":"Great Escape Hamilton Mill 14","address":"2160 Hamilton Creek Parkway","city":"Dacula","state":"GA","zip":"30019","distance":"8.782855987548828","lon":"-83.913605","lat":"34.074581","theaterChainName":"Regal Cinemas","ticketType":"STANDARD"},{"id":"3965","name":"Dawson 400 Stadium Cinemas","address":"189 North 400 Center Lane","city":"Dawsonville","state":"GA","zip":"30534","distance":"21.5394229888916","lon":"-84.035721","lat":"34.368931","theaterChainName":"Georgia Theatre Company","ticketType":"STANDARD"},{"id":"5133","name":"Carmike Gateway 12","address":"416 Exchange Blvd.","city":"Bethlehem","state":"GA","zip":"30620","distance":"13.745119094848633","lon":"-83.739502","lat":"33.943001","theaterChainName":"Carmike Cinemas","ticketType":"STANDARD"},{"id":"1148","name":"Hollywood Stadium Cinemas","address":"120 Green Hill Circle","city":"Gainesville","state":"GA","zip":"30501","distance":"11.64428424835205","lon":"-83.856857","lat":"34.295376","theaterChainName":"Georgia Theatre Company","ticketType":"STANDARD"},{"id":"5347","name":"University 16 Cinemas","address":"1793 Oconee Connector","city":"Athens","state":"GA","zip":"30606","distance":"24.17357063293457","lon":"-83.455582","lat":"33.916260","theaterChainName":"Georgia Theatre Company","ticketType":"STANDARD"},{"id":"4245","name":"Commerce Stadium Cinemas","address":"340 Banks Crossing Dr.","city":"Commerce","state":"GA","zip":"30529","distance":"19.974498748779297","lon":"-83.459236","lat":"34.251366","theaterChainName":"Georgia Theatre Company","ticketType":"STANDARD"}]