[{"id":"3789","name":"Habersham Hills Cinemas 6","address":"Ga. 365 at Cody Road","city":"Mount Airy","state":"GA","zip":"30563","distance":"23.125394821166992","lon":"-83.463074","lat":"34.577557","theaterChainName":"Georgia Theatre Company","ticketType":"STANDARD"},{"id":"4532","name":"Great Escape Hamilton Mill 14","address":"2160 Hamilton Creek Parkway","city":"Dacula","state":"GA","zip":"30019","distance":"23.597652435302734","lon":"-83.913605","lat":"34.074581","theaterChainName":"Regal Cinemas","ticketType":"STANDARD"},{"id":"5133","name":"Carmike Gateway 12","address":"416 Exchange Blvd.","city":"Bethlehem","state":"GA","zip":"30620","distance":"23.709562301635742","lon":"-83.739502","lat":"33.943001","theaterChainName":"Carmike Cinemas","ticketType":"STANDARD"},{"id":"1148","name":"Hollywood Stadium Cinemas","address":"120 Green Hill Circle","city":"Gainesville","state":"GA","zip":"30501","distance":"17.11247444152832","lon":"-83.856857","lat":"34.295376","theaterChainName":"Georgia Theatre Company","ticketType":"STANDARD"},{"id":"5347","name":"University 16 Cinemas","address":"1793 Oconee Connector","city":"Athens","state":"GA","zip":"30606","distance":"24.039188385009766","lon":"-83.455582","lat":"33.916260","theaterChainName":"Georgia Theatre Company","ticketType":"STANDARD"},{"id":"1140","name":"Beechwood Stadium Cinemas","address":"196 Alps Road","city":"Athens","state":"GA","zip":"30606","distance":"22.99904441833496","lon":"-83.411346","lat":"33.944180","theaterChainName":"Georgia Theatre Company","ticketType":"STANDARD"},{"id":"4245","name":"Commerce Stadium Cinemas","address":"340 Banks Crossing Dr.","city":"Commerce","state":"GA","zip":"30529","distance":"5.847344398498535","lon":"-83.459236","lat":"34.251366","theaterChainName":"Georgia Theatre Company","ticketType":"STANDARD"},{"id":"4368","name":"Cine","address":"234 W. Hancock Ave.","city":"Athens","state":"GA","zip":"30601","distance":"22.78525733947754","lon":"-83.379692","lat":"33.959553","theaterChainName":"Independent Chains","ticketType":"STANDARD"},{"id":"2527","name":"Carmike 12 Athens","address":"1570 Lexington Road","city":"Athens","state":"GA","zip":"30605","distance":"24.412620544433594","lon":"-83.351860","lat":"33.945229","theaterChainName":"Carmike Cinemas","ticketType":"STANDARD"}]