[{"id":"5862","name":"Fieldstone Cinemas 6","address":"1159 Jack Daton Circle","city":"Hiawassee","state":"GA","zip":"30546","distance":"21.288890838623047","lon":"-83.815552","lat":"34.966194","theaterChainName":"Independent Chains","ticketType":"STANDARD"},{"id":"5138","name":"Blairsville Cinema","address":"38 Backyard Lane","city":"Blairsville","state":"GA","zip":"30512","distance":"14.279916763305664","lon":"-83.915260","lat":"34.900070","theaterChainName":"Independent Chains","ticketType":"STANDARD"},{"id":"3965","name":"Dawson 400 Stadium Cinemas","address":"189 North 400 Center Lane","city":"Dawsonville","state":"GA","zip":"30534","distance":"24.63690185546875","lon":"-84.035721","lat":"34.368931","theaterChainName":"Georgia Theatre Company","ticketType":"STANDARD"},{"id":"1146","name":"East Town Twin Cinema","address":"240 Maddox Dr","city":"Ellijay","state":"GA","zip":"30540","distance":"24.757902145385742","lon":"-84.481873","lat":"34.679626","theaterChainName":"Independent Chains","ticketType":"STANDARD"}]