[{"id":"1148","tribuneTheaterId":"3220","providerTheaterId":"","name":"Hollywood Stadium Cinemas","address":"120 Green Hill Circle","city":"Gainesville","state":"GA","zip":"30501","distance":10.500727486858,"lon":"-83.856856","lat":"34.295374","theaterChainName":"Georgia Theatre Company","ticketType":"STANDARD"},{"id":"4532","tribuneTheaterId":"9664","providerTheaterId":"","name":"Great Escape Hamilton Mill 14","address":"2160 Hamilton Creek Parkway","city":"Dacula","state":"GA","zip":"30019","distance":13.913299795012,"lon":"-83.913601","lat":"34.074582","theaterChainName":"Regal Cinemas","ticketType":"STANDARD"},{"id":"4245","tribuneTheaterId":"1063","providerTheaterId":"","name":"Commerce Stadium Cinemas","address":"340 Banks Crossing Dr.","city":"Commerce","state":"GA","zip":"30529","distance":15.324370984287,"lon":"-83.459238","lat":"34.251366","theaterChainName":"Georgia Theatre Company","ticketType":"STANDARD"},{"id":"2580","tribuneTheaterId":"8655","providerTheaterId":"","name":"Regal Mall Of Georgia Stadium 20","address":"3333 Buford Drive, Suite 3000","city":"Buford","state":"GA","zip":"30519","distance":17.665911990227,"lon":"-83.984889","lat":"34.065397","theaterChainName":"Regal Cinemas","ticketType":"STANDARD"},{"id":"5133","tribuneTheaterId":"10539","providerTheaterId":"","name":"Carmike Gateway 12","address":"416 Exchange Blvd.","city":"Bethlehem","state":"GA","zip":"30620","distance":17.459055974393,"lon":"-83.7395","lat":"33.943","theaterChainName":"Carmike Cinemas","ticketType":"STANDARD"},{"id":"3965","tribuneTheaterId":"7169","providerTheaterId":"","name":"Dawson 400 Stadium Cinemas","address":"189 North 400 Center Lane","city":"Dawsonville","state":"GA","zip":"30534","distance":21.721303906015,"lon":"-84.035719","lat":"34.368932","theaterChainName":"Georgia Theatre Company","ticketType":"STANDARD"},{"id":"5175","tribuneTheaterId":"10587","providerTheaterId":"","name":"Movie Tavern Horizon","address":"2855 Lawrenceville Suwanee Rd.","city":"Suwanee","state":"GA","zip":"30024","distance":21.901317414352,"lon":"-84.043028","lat":"34.026666","theaterChainName":"Movie Tavern","ticketType":"STANDARD"},{"id":"1396","tribuneTheaterId":"3183","providerTheaterId":"","name":"Movies 400","address":"415 Atlanta Road","city":"Cumming","state":"GA","zip":"30040","distance":23.790054462537,"lon":"-84.134956","lat":"34.199651","theaterChainName":"Carmike Cinemas","ticketType":"STANDARD"},{"id":"5347","tribuneTheaterId":"10785","providerTheaterId":"","name":"University 16 Cinemas","address":"1793 Oconee Connector","city":"Athens","state":"GA","zip":"30606","distance":24.454828588528,"lon":"-83.455582","lat":"33.916258","theaterChainName":"Georgia Theatre Company","ticketType":"STANDARD"},{"id":"1140","tribuneTheaterId":"7304","providerTheaterId":"","name":"Beechwood Stadium Cinemas","address":"196 Alps Road","city":"Athens","state":"GA","zip":"30606","distance":24.698342255972,"lon":"-83.411347","lat":"33.944181","theaterChainName":"Georgia Theatre Company","ticketType":"STANDARD"}]