[{"id":"5133","name":"Carmike Gateway 12","address":"416 Exchange Blvd.","city":"Bethlehem","state":"GA","zip":"30620","distance":"17.676536560058594","lon":"-83.739502","lat":"33.943001","theaterChainName":"Carmike Cinemas","ticketType":"STANDARD"},{"id":"5347","name":"University 16 Cinemas","address":"1793 Oconee Connector","city":"Athens","state":"GA","zip":"30606","distance":"7.580445289611816","lon":"-83.455582","lat":"33.916260","theaterChainName":"Georgia Theatre Company","ticketType":"STANDARD"},{"id":"1140","name":"Beechwood Stadium Cinemas","address":"196 Alps Road","city":"Athens","state":"GA","zip":"30606","distance":"10.143938064575195","lon":"-83.411346","lat":"33.944180","theaterChainName":"Georgia Theatre Company","ticketType":"STANDARD"},{"id":"4368","name":"Cine","address":"234 W. Hancock Ave.","city":"Athens","state":"GA","zip":"30601","distance":"11.87942123413086","lon":"-83.379692","lat":"33.959553","theaterChainName":"Independent Chains","ticketType":"STANDARD"},{"id":"2527","name":"Carmike 12 Athens","address":"1570 Lexington Road","city":"Athens","state":"GA","zip":"30605","distance":"11.91190242767334","lon":"-83.351860","lat":"33.945229","theaterChainName":"Carmike Cinemas","ticketType":"STANDARD"}]