[{"id":"2527","tribuneTheaterId":"5773","providerTheaterId":"","name":"Carmike 12 Athens","address":"1570 Lexington Road","city":"Athens","state":"GA","zip":"30605","distance":11.045985617275,"lon":"-83.351859","lat":"33.945229","theaterChainName":"Carmike Cinemas","ticketType":"STANDARD"},{"id":"4368","tribuneTheaterId":"9401","providerTheaterId":"","name":"Cine","address":"234 W. Hancock Ave.","city":"Athens","state":"GA","zip":"30601","distance":12.842138817303,"lon":"-83.379691","lat":"33.959554","theaterChainName":"Independent Chains","ticketType":"STANDARD"},{"id":"1140","tribuneTheaterId":"7304","providerTheaterId":"","name":"Beechwood Stadium Cinemas","address":"196 Alps Road","city":"Athens","state":"GA","zip":"30606","distance":14.370236749641,"lon":"-83.411347","lat":"33.944181","theaterChainName":"Georgia Theatre Company","ticketType":"STANDARD"},{"id":"5347","tribuneTheaterId":"10785","providerTheaterId":"","name":"University 16 Cinemas","address":"1793 Oconee Connector","city":"Athens","state":"GA","zip":"30606","distance":16.69569995887,"lon":"-83.455582","lat":"33.916258","theaterChainName":"Georgia Theatre Company","ticketType":"STANDARD"}]