[{"id":"5133","name":"Carmike Gateway 12","address":"416 Exchange Blvd.","city":"Bethlehem","state":"GA","zip":"30620","distance":"22.43396759033203","lon":"-83.739502","lat":"33.943001","theaterChainName":"Carmike Cinemas","ticketType":"STANDARD"},{"id":"5347","name":"University 16 Cinemas","address":"1793 Oconee Connector","city":"Athens","state":"GA","zip":"30606","distance":"11.272994041442871","lon":"-83.455582","lat":"33.916260","theaterChainName":"Georgia Theatre Company","ticketType":"STANDARD"},{"id":"1140","name":"Beechwood Stadium Cinemas","address":"196 Alps Road","city":"Athens","state":"GA","zip":"30606","distance":"13.026369094848633","lon":"-83.411346","lat":"33.944180","theaterChainName":"Georgia Theatre Company","ticketType":"STANDARD"},{"id":"4368","name":"Cine","address":"234 W. Hancock Ave.","city":"Athens","state":"GA","zip":"30601","distance":"14.268559455871582","lon":"-83.379692","lat":"33.959553","theaterChainName":"Independent Chains","ticketType":"STANDARD"},{"id":"2527","name":"Carmike 12 Athens","address":"1570 Lexington Road","city":"Athens","state":"GA","zip":"30605","distance":"13.662354469299316","lon":"-83.351860","lat":"33.945229","theaterChainName":"Carmike Cinemas","ticketType":"STANDARD"},{"id":"4655","name":"Parkside Main 8","address":"1050 Parkside Main","city":"Greensboro","state":"GA","zip":"30642","distance":"23.035602569580078","lon":"-83.247231","lat":"33.455112","theaterChainName":"Independent Chains","ticketType":"STANDARD"}]