[{"id":"422","name":"Regal Snellville Oaks Stadium 14","address":"2125 E.  Main St.","city":"Snellville","state":"GA","zip":"30078","distance":"24.754058837890625","lon":"-84.002617","lat":"33.856869","theaterChainName":"Regal Cinemas","ticketType":"STANDARD"},{"id":"6047","name":"AMC Dine-in Webb Gin 11","address":"1210 Scenic Highway","city":"Lawrenceville","state":"GA","zip":"30045","distance":"23.919530868530273","lon":"-84.000946","lat":"33.903778","theaterChainName":"AMC Theatres","ticketType":"STANDARD"},{"id":"2580","name":"Regal Mall Of Georgia Stadium 20","address":"3333 Buford Drive, Suite 3000","city":"Buford","state":"GA","zip":"30519","distance":"23.794771194458008","lon":"-83.984886","lat":"34.065395","theaterChainName":"Regal Cinemas","ticketType":"STANDARD"},{"id":"4532","name":"Great Escape Hamilton Mill 14","address":"2160 Hamilton Creek Parkway","city":"Dacula","state":"GA","zip":"30019","distance":"20.185277938842773","lon":"-83.913605","lat":"34.074581","theaterChainName":"Regal Cinemas","ticketType":"STANDARD"},{"id":"5133","name":"Carmike Gateway 12","address":"416 Exchange Blvd.","city":"Bethlehem","state":"GA","zip":"30620","distance":"8.690675735473633","lon":"-83.739502","lat":"33.943001","theaterChainName":"Carmike Cinemas","ticketType":"STANDARD"},{"id":"5347","name":"University 16 Cinemas","address":"1793 Oconee Connector","city":"Athens","state":"GA","zip":"30606","distance":"8.245079040527344","lon":"-83.455582","lat":"33.916260","theaterChainName":"Georgia Theatre Company","ticketType":"STANDARD"},{"id":"1140","name":"Beechwood Stadium Cinemas","address":"196 Alps Road","city":"Athens","state":"GA","zip":"30606","distance":"10.259734153747559","lon":"-83.411346","lat":"33.944180","theaterChainName":"Georgia Theatre Company","ticketType":"STANDARD"},{"id":"4245","name":"Commerce Stadium Cinemas","address":"340 Banks Crossing Dr.","city":"Commerce","state":"GA","zip":"30529","distance":"21.450862884521484","lon":"-83.459236","lat":"34.251366","theaterChainName":"Georgia Theatre Company","ticketType":"STANDARD"},{"id":"4368","name":"Cine","address":"234 W. Hancock Ave.","city":"Athens","state":"GA","zip":"30601","distance":"12.013152122497559","lon":"-83.379692","lat":"33.959553","theaterChainName":"Independent Chains","ticketType":"STANDARD"},{"id":"2527","name":"Carmike 12 Athens","address":"1570 Lexington Road","city":"Athens","state":"GA","zip":"30605","distance":"13.648576736450195","lon":"-83.351860","lat":"33.945229","theaterChainName":"Carmike Cinemas","ticketType":"STANDARD"}]