[{"id":"5347","tribuneTheaterId":"10785","providerTheaterId":"","name":"University 16 Cinemas","address":"1793 Oconee Connector","city":"Athens","state":"GA","zip":"30606","distance":8.2444527393115,"lon":"-83.455582","lat":"33.916258","theaterChainName":"Georgia Theatre Company","ticketType":"STANDARD"},{"id":"5133","tribuneTheaterId":"10539","providerTheaterId":"","name":"Carmike Gateway 12","address":"416 Exchange Blvd.","city":"Bethlehem","state":"GA","zip":"30620","distance":8.6901386923933,"lon":"-83.7395","lat":"33.943","theaterChainName":"Carmike Cinemas","ticketType":"STANDARD"},{"id":"1140","tribuneTheaterId":"7304","providerTheaterId":"","name":"Beechwood Stadium Cinemas","address":"196 Alps Road","city":"Athens","state":"GA","zip":"30606","distance":10.258927808584,"lon":"-83.411347","lat":"33.944181","theaterChainName":"Georgia Theatre Company","ticketType":"STANDARD"},{"id":"4368","tribuneTheaterId":"9401","providerTheaterId":"","name":"Cine","address":"234 W. Hancock Ave.","city":"Athens","state":"GA","zip":"30601","distance":12.012350524273,"lon":"-83.379691","lat":"33.959554","theaterChainName":"Independent Chains","ticketType":"STANDARD"},{"id":"2527","tribuneTheaterId":"5773","providerTheaterId":"","name":"Carmike 12 Athens","address":"1570 Lexington Road","city":"Athens","state":"GA","zip":"30605","distance":13.647664338615,"lon":"-83.351859","lat":"33.945229","theaterChainName":"Carmike Cinemas","ticketType":"STANDARD"},{"id":"4532","tribuneTheaterId":"9664","providerTheaterId":"","name":"Great Escape Hamilton Mill 14","address":"2160 Hamilton Creek Parkway","city":"Dacula","state":"GA","zip":"30019","distance":20.183996685981,"lon":"-83.913601","lat":"34.074582","theaterChainName":"Regal Cinemas","ticketType":"STANDARD"},{"id":"4245","tribuneTheaterId":"1063","providerTheaterId":"","name":"Commerce Stadium Cinemas","address":"340 Banks Crossing Dr.","city":"Commerce","state":"GA","zip":"30529","distance":21.449560140498,"lon":"-83.459238","lat":"34.251366","theaterChainName":"Georgia Theatre Company","ticketType":"STANDARD"},{"id":"6047","tribuneTheaterId":"11450","providerTheaterId":"","name":"AMC Dine-in Webb Gin 11","address":"1210 Scenic Highway","city":"Lawrenceville","state":"GA","zip":"30045","distance":23.918104666568,"lon":"-84.000945","lat":"33.903777","theaterChainName":"AMC Theatres","ticketType":"STANDARD"},{"id":"422","tribuneTheaterId":"6911","providerTheaterId":"","name":"Regal Snellville Oaks Stadium 14","address":"2125 E.  Main St.","city":"Snellville","state":"GA","zip":"30078","distance":24.752648647298,"lon":"-84.002618","lat":"33.85687","theaterChainName":"Regal Cinemas","ticketType":"STANDARD"},{"id":"2580","tribuneTheaterId":"8655","providerTheaterId":"","name":"Regal Mall Of Georgia Stadium 20","address":"3333 Buford Drive, Suite 3000","city":"Buford","state":"GA","zip":"30519","distance":23.793624296687,"lon":"-83.984889","lat":"34.065397","theaterChainName":"Regal Cinemas","ticketType":"STANDARD"}]