[{"id":"5347","tribuneTheaterId":"10785","providerTheaterId":"","name":"University 16 Cinemas","address":"1793 Oconee Connector","city":"Athens","state":"GA","zip":"30606","distance":22.372898892276,"lon":"-83.455582","lat":"33.916258","theaterChainName":"Georgia Theatre Company","ticketType":"STANDARD"},{"id":"3147","tribuneTheaterId":"3232","providerTheaterId":"","name":"Carmike Crossroads 16","address":"1536 Dogwood Dr.","city":"Conyers","state":"GA","zip":"30013","distance":22.69049903379,"lon":"-83.994759","lat":"33.649084","theaterChainName":"Carmike Cinemas","ticketType":"STANDARD"},{"id":"4655","tribuneTheaterId":"9854","providerTheaterId":"","name":"Parkside Main 8","address":"1050 Parkside Main","city":"Greensboro","state":"GA","zip":"30642","distance":23.285333038671,"lon":"-83.247228","lat":"33.455113","theaterChainName":"Independent Chains","ticketType":"STANDARD"},{"id":"5133","tribuneTheaterId":"10539","providerTheaterId":"","name":"Carmike Gateway 12","address":"416 Exchange Blvd.","city":"Bethlehem","state":"GA","zip":"30620","distance":23.908430325174,"lon":"-83.7395","lat":"33.943","theaterChainName":"Carmike Cinemas","ticketType":"STANDARD"}]