[{"id":"5254","name":"Studio Movie Grill - Duluth","address":"3850 Venture Drive","city":"Duluth","state":"GA","zip":"30096","distance":"24.633167266845703","lon":"-84.137703","lat":"33.951900","theaterChainName":"Studio Movie Grill","ticketType":"SELECT_SEATING"},{"id":"452","name":"Carmike 12 Snellville","address":"1905 Scenic Highway","city":"Snellville","state":"GA","zip":"30078","distance":"19.30636215209961","lon":"-84.014748","lat":"33.876957","theaterChainName":"Carmike Cinemas","ticketType":"STANDARD"},{"id":"422","name":"Regal Snellville Oaks Stadium 14","address":"2125 E.  Main St.","city":"Snellville","state":"GA","zip":"30078","distance":"19.348079681396484","lon":"-84.002617","lat":"33.856869","theaterChainName":"Regal Cinemas","ticketType":"STANDARD"},{"id":"3682","name":"AMC Sugarloaf Mills 18","address":"5900 Sugarloaf Parkway","city":"Lawrenceville","state":"GA","zip":"30043","distance":"20.955413818359375","lon":"-84.076797","lat":"33.983002","theaterChainName":"AMC Theatres","ticketType":"STANDARD"},{"id":"6047","name":"AMC Dine-in Webb Gin 11","address":"1210 Scenic Highway","city":"Lawrenceville","state":"GA","zip":"30045","distance":"17.834583282470703","lon":"-84.000946","lat":"33.903778","theaterChainName":"AMC Theatres","ticketType":"STANDARD"},{"id":"5175","name":"Movie Tavern Horizon","address":"2855 Lawrenceville Suwanee Rd.","city":"Suwanee","state":"GA","zip":"30024","distance":"19.088035583496094","lon":"-84.043030","lat":"34.026665","theaterChainName":"Movie Tavern","ticketType":"STANDARD"},{"id":"2580","name":"Regal Mall Of Georgia Stadium 20","address":"3333 Buford Drive, Suite 3000","city":"Buford","state":"GA","zip":"30519","distance":"16.322898864746094","lon":"-83.984886","lat":"34.065395","theaterChainName":"Regal Cinemas","ticketType":"STANDARD"},{"id":"4532","name":"Great Escape Hamilton Mill 14","address":"2160 Hamilton Creek Parkway","city":"Dacula","state":"GA","zip":"30019","distance":"12.71043872833252","lon":"-83.913605","lat":"34.074581","theaterChainName":"Regal Cinemas","ticketType":"STANDARD"},{"id":"5133","name":"Carmike Gateway 12","address":"416 Exchange Blvd.","city":"Bethlehem","state":"GA","zip":"30620","distance":"4.157048225402832","lon":"-83.739502","lat":"33.943001","theaterChainName":"Carmike Cinemas","ticketType":"STANDARD"},{"id":"1148","name":"Hollywood Stadium Cinemas","address":"120 Green Hill Circle","city":"Gainesville","state":"GA","zip":"30501","distance":"22.133440017700195","lon":"-83.856857","lat":"34.295376","theaterChainName":"Georgia Theatre Company","ticketType":"STANDARD"},{"id":"5347","name":"University 16 Cinemas","address":"1793 Oconee Connector","city":"Athens","state":"GA","zip":"30606","distance":"15.729957580566406","lon":"-83.455582","lat":"33.916260","theaterChainName":"Georgia Theatre Company","ticketType":"STANDARD"},{"id":"1140","name":"Beechwood Stadium Cinemas","address":"196 Alps Road","city":"Athens","state":"GA","zip":"30606","distance":"17.604841232299805","lon":"-83.411346","lat":"33.944180","theaterChainName":"Georgia Theatre Company","ticketType":"STANDARD"},{"id":"4245","name":"Commerce Stadium Cinemas","address":"340 Banks Crossing Dr.","city":"Commerce","state":"GA","zip":"30529","distance":"22.66046142578125","lon":"-83.459236","lat":"34.251366","theaterChainName":"Georgia Theatre Company","ticketType":"STANDARD"},{"id":"4368","name":"Cine","address":"234 W. Hancock Ave.","city":"Athens","state":"GA","zip":"30601","distance":"19.201778411865234","lon":"-83.379692","lat":"33.959553","theaterChainName":"Independent Chains","ticketType":"STANDARD"},{"id":"2527","name":"Carmike 12 Athens","address":"1570 Lexington Road","city":"Athens","state":"GA","zip":"30605","distance":"20.93487548828125","lon":"-83.351860","lat":"33.945229","theaterChainName":"Carmike Cinemas","ticketType":"STANDARD"}]