[{"id":"5133","tribuneTheaterId":"10539","providerTheaterId":"","name":"Carmike Gateway 12","address":"416 Exchange Blvd.","city":"Bethlehem","state":"GA","zip":"30620","distance":4.156791542814,"lon":"-83.7395","lat":"33.943","theaterChainName":"Carmike Cinemas","ticketType":"STANDARD"},{"id":"4532","tribuneTheaterId":"9664","providerTheaterId":"","name":"Great Escape Hamilton Mill 14","address":"2160 Hamilton Creek Parkway","city":"Dacula","state":"GA","zip":"30019","distance":12.709612787645,"lon":"-83.913601","lat":"34.074582","theaterChainName":"Regal Cinemas","ticketType":"STANDARD"},{"id":"2580","tribuneTheaterId":"8655","providerTheaterId":"","name":"Regal Mall Of Georgia Stadium 20","address":"3333 Buford Drive, Suite 3000","city":"Buford","state":"GA","zip":"30519","distance":16.322205079801,"lon":"-83.984889","lat":"34.065397","theaterChainName":"Regal Cinemas","ticketType":"STANDARD"},{"id":"5347","tribuneTheaterId":"10785","providerTheaterId":"","name":"University 16 Cinemas","address":"1793 Oconee Connector","city":"Athens","state":"GA","zip":"30606","distance":15.728877688349,"lon":"-83.455582","lat":"33.916258","theaterChainName":"Georgia Theatre Company","ticketType":"STANDARD"},{"id":"1140","tribuneTheaterId":"7304","providerTheaterId":"","name":"Beechwood Stadium Cinemas","address":"196 Alps Road","city":"Athens","state":"GA","zip":"30606","distance":17.603568858732,"lon":"-83.411347","lat":"33.944181","theaterChainName":"Georgia Theatre Company","ticketType":"STANDARD"},{"id":"6047","tribuneTheaterId":"11450","providerTheaterId":"","name":"AMC Dine-in Webb Gin 11","address":"1210 Scenic Highway","city":"Lawrenceville","state":"GA","zip":"30045","distance":17.833538785869,"lon":"-84.000945","lat":"33.903777","theaterChainName":"AMC Theatres","ticketType":"STANDARD"},{"id":"4368","tribuneTheaterId":"9401","providerTheaterId":"","name":"Cine","address":"234 W. Hancock Ave.","city":"Athens","state":"GA","zip":"30601","distance":19.200512409815,"lon":"-83.379691","lat":"33.959554","theaterChainName":"Independent Chains","ticketType":"STANDARD"},{"id":"422","tribuneTheaterId":"6911","providerTheaterId":"","name":"Regal Snellville Oaks Stadium 14","address":"2125 E.  Main St.","city":"Snellville","state":"GA","zip":"30078","distance":19.346965605501,"lon":"-84.002618","lat":"33.85687","theaterChainName":"Regal Cinemas","ticketType":"STANDARD"},{"id":"452","tribuneTheaterId":"3174","providerTheaterId":"","name":"Carmike 12 Snellville","address":"1905 Scenic Highway","city":"Snellville","state":"GA","zip":"30078","distance":19.305244504962,"lon":"-84.014747","lat":"33.876956","theaterChainName":"Carmike Cinemas","ticketType":"STANDARD"},{"id":"5175","tribuneTheaterId":"10587","providerTheaterId":"","name":"Movie Tavern Horizon","address":"2855 Lawrenceville Suwanee Rd.","city":"Suwanee","state":"GA","zip":"30024","distance":19.086884136195,"lon":"-84.043028","lat":"34.026666","theaterChainName":"Movie Tavern","ticketType":"STANDARD"},{"id":"2527","tribuneTheaterId":"5773","providerTheaterId":"","name":"Carmike 12 Athens","address":"1570 Lexington Road","city":"Athens","state":"GA","zip":"30605","distance":20.933504836031,"lon":"-83.351859","lat":"33.945229","theaterChainName":"Carmike Cinemas","ticketType":"STANDARD"},{"id":"3682","tribuneTheaterId":"8108","providerTheaterId":"403","name":"AMC Sugarloaf Mills 18","address":"5900 Sugarloaf Parkway","city":"Lawrenceville","state":"GA","zip":"30043","distance":20.95438103496,"lon":"-84.0768","lat":"33.983","theaterChainName":"AMC Theatres","ticketType":"STANDARD"},{"id":"4245","tribuneTheaterId":"1063","providerTheaterId":"","name":"Commerce Stadium Cinemas","address":"340 Banks Crossing Dr.","city":"Commerce","state":"GA","zip":"30529","distance":22.658976574107,"lon":"-83.459238","lat":"34.251366","theaterChainName":"Georgia Theatre Company","ticketType":"STANDARD"},{"id":"1148","tribuneTheaterId":"3220","providerTheaterId":"","name":"Hollywood Stadium Cinemas","address":"120 Green Hill Circle","city":"Gainesville","state":"GA","zip":"30501","distance":22.132020162618,"lon":"-83.856856","lat":"34.295374","theaterChainName":"Georgia Theatre Company","ticketType":"STANDARD"},{"id":"5254","tribuneTheaterId":"10684","providerTheaterId":"","name":"Studio Movie Grill - Duluth","address":"3850 Venture Drive","city":"Duluth","state":"GA","zip":"30096","distance":24.631587731929,"lon":"-84.1377","lat":"33.9519","theaterChainName":"Studio Movie Grill","ticketType":"SELECT_SEATING"}]