[{"id":"4687","tribuneTheaterId":"9894","providerTheaterId":"","name":"Carmike 12 Dalton","address":"875 Walnut Square Blvd.","city":"Dalton","state":"GA","zip":"30721","distance":17.561068895351,"lon":"-84.933529","lat":"34.756353","theaterChainName":"Carmike Cinemas","ticketType":"STANDARD"},{"id":"1774","tribuneTheaterId":"3124","providerTheaterId":"","name":"Movies at Berry Square","address":"2820 Martha Berry Hwy. N.E.","city":"Rome","state":"GA","zip":"30165","distance":18.634539941417,"lon":"-85.173172","lat":"34.304694","theaterChainName":"Independent Chains","ticketType":"STANDARD"},{"id":"1128","tribuneTheaterId":"5772","providerTheaterId":"","name":"Carmike 12 Cartersville","address":"1129 Tennessee St.","city":"Cartersville","state":"GA","zip":"30120","distance":23.061241312168,"lon":"-84.796082","lat":"34.194344","theaterChainName":"Carmike Cinemas","ticketType":"STANDARD"},{"id":"1149","tribuneTheaterId":"3037","providerTheaterId":"","name":"Rome Cinemas - Rome, GA","address":"2535 Shorter Ave.","city":"Rome","state":"GA","zip":"30165","distance":23.113477779615,"lon":"-85.243499","lat":"34.270907","theaterChainName":"Independent Chains","ticketType":"STANDARD"}]