[{"id":"4687","tribuneTheaterId":"9894","providerTheaterId":"","name":"Carmike 12 Dalton","address":"875 Walnut Square Blvd.","city":"Dalton","state":"GA","zip":"30721","distance":15.967947583399,"lon":"-84.933529","lat":"34.756353","theaterChainName":"Carmike Cinemas","ticketType":"STANDARD"},{"id":"4077","tribuneTheaterId":"2272","providerTheaterId":"","name":"Cleveland UEC Theatres 14","address":"137 Pleasant Grove Rd. SW","city":"Cleveland","state":"TN","zip":"37311","distance":18.032306820789,"lon":"-84.952172","lat":"35.152166","theaterChainName":"UEC Theatres","ticketType":"STANDARD"},{"id":"5268","tribuneTheaterId":"10701","providerTheaterId":"","name":"Carmike Bradley Square 12","address":"200 Paul Huff Pkwy Ste. 72","city":"Cleveland","state":"TN","zip":"37312","distance":18.880076845488,"lon":"-84.8502","lat":"35.2053","theaterChainName":"Carmike Cinemas","ticketType":"STANDARD"},{"id":"653","tribuneTheaterId":"8412","providerTheaterId":"","name":"Regal Hamilton Place 10-17","address":"2000 Hamilton Place Blvd","city":"Chattanooga","state":"TN","zip":"37421","distance":23.588662240039,"lon":"-85.1662","lat":"35.032","theaterChainName":"Regal Cinemas","ticketType":"STANDARD"},{"id":"1386","tribuneTheaterId":"4787","providerTheaterId":"","name":"Carmike Wynnsong 10 Chattanooga","address":"2210 Gunbarrel Rd.","city":"Chattanooga","state":"TN","zip":"37421","distance":22.651616428087,"lon":"-85.148667","lat":"35.03295","theaterChainName":"Carmike Cinemas","ticketType":"STANDARD"},{"id":"1146","tribuneTheaterId":"2688","providerTheaterId":"","name":"East Town Twin Cinema","address":"240 Maddox Dr","city":"Ellijay","state":"GA","zip":"30540","distance":24.15970369704,"lon":"-84.481872","lat":"34.679627","theaterChainName":"Independent Chains","ticketType":"STANDARD"}]