[{"id":"4687","name":"Carmike 12 Dalton","address":"875 Walnut Square Blvd.","city":"Dalton","state":"GA","zip":"30721","distance":"19.077373504638672","lon":"-84.933533","lat":"34.756351","theaterChainName":"Carmike Cinemas","ticketType":"STANDARD"},{"id":"1129","name":"Carmike Battlefield Cinemas 10","address":"1099 Battlefield Parkway","city":"Fort Oglethorpe","state":"GA","zip":"30742","distance":"18.119956970214844","lon":"-85.246216","lat":"34.953987","theaterChainName":"Carmike Cinemas","ticketType":"STANDARD"},{"id":"1386","name":"Carmike Wynnsong 10 Chattanooga","address":"2210 Gunbarrel Rd.","city":"Chattanooga","state":"TN","zip":"37421","distance":"24.39273452758789","lon":"-85.148666","lat":"35.032951","theaterChainName":"Carmike Cinemas","ticketType":"STANDARD"},{"id":"653","name":"Regal Hamilton Place 10-17","address":"2000 Hamilton Place Blvd","city":"Chattanooga","state":"TN","zip":"37421","distance":"24.09012794494629","lon":"-85.166199","lat":"35.032001","theaterChainName":"Regal Cinemas","ticketType":"STANDARD"},{"id":"4198","name":"Carmike East Ridge 18","address":"5080 South Terrance","city":"East Ridge","state":"TN","zip":"37412","distance":"21.66741943359375","lon":"-85.220703","lat":"35.003899","theaterChainName":"Carmike Cinemas","ticketType":"STANDARD"}]