[{"id":"4687","tribuneTheaterId":"9894","providerTheaterId":"","name":"Carmike 12 Dalton","address":"875 Walnut Square Blvd.","city":"Dalton","state":"GA","zip":"30721","distance":7.0691750042379,"lon":"-84.933529","lat":"34.756353","theaterChainName":"Carmike Cinemas","ticketType":"STANDARD"},{"id":"1129","tribuneTheaterId":"4798","providerTheaterId":"","name":"Carmike Battlefield Cinemas 10","address":"1099 Battlefield Parkway","city":"Fort Oglethorpe","state":"GA","zip":"30742","distance":16.430333804983,"lon":"-85.246214","lat":"34.953987","theaterChainName":"Carmike Cinemas","ticketType":"STANDARD"},{"id":"4198","tribuneTheaterId":"2412","providerTheaterId":"","name":"Carmike East Ridge 18","address":"5080 South Terrance","city":"East Ridge","state":"TN","zip":"37412","distance":18.391474889388,"lon":"-85.220703","lat":"35.003899","theaterChainName":"Carmike Cinemas","ticketType":"STANDARD"},{"id":"1386","tribuneTheaterId":"4787","providerTheaterId":"","name":"Carmike Wynnsong 10 Chattanooga","address":"2210 Gunbarrel Rd.","city":"Chattanooga","state":"TN","zip":"37421","distance":18.611579947059,"lon":"-85.148667","lat":"35.03295","theaterChainName":"Carmike Cinemas","ticketType":"STANDARD"},{"id":"653","tribuneTheaterId":"8412","providerTheaterId":"","name":"Regal Hamilton Place 10-17","address":"2000 Hamilton Place Blvd","city":"Chattanooga","state":"TN","zip":"37421","distance":18.853665796889,"lon":"-85.1662","lat":"35.032","theaterChainName":"Regal Cinemas","ticketType":"STANDARD"},{"id":"4828","tribuneTheaterId":"10102","providerTheaterId":"","name":"Carmike Majestic 12","address":"311 Broad St.","city":"Chattanooga","state":"TN","zip":"37402","distance":24.047836070442,"lon":"-85.311152","lat":"35.052701","theaterChainName":"Carmike Cinemas","ticketType":"STANDARD"}]