[{"id":"4828","tribuneTheaterId":"10102","providerTheaterId":"","name":"Carmike Majestic 12","address":"311 Broad St.","city":"Chattanooga","state":"TN","zip":"37402","distance":8.5042155115564,"lon":"-85.311152","lat":"35.052701","theaterChainName":"Carmike Cinemas","ticketType":"STANDARD"},{"id":"1129","tribuneTheaterId":"4798","providerTheaterId":"","name":"Carmike Battlefield Cinemas 10","address":"1099 Battlefield Parkway","city":"Fort Oglethorpe","state":"GA","zip":"30742","distance":10.564540797904,"lon":"-85.246214","lat":"34.953987","theaterChainName":"Carmike Cinemas","ticketType":"STANDARD"},{"id":"4198","tribuneTheaterId":"2412","providerTheaterId":"","name":"Carmike East Ridge 18","address":"5080 South Terrance","city":"East Ridge","state":"TN","zip":"37412","distance":12.010488328191,"lon":"-85.220703","lat":"35.003899","theaterChainName":"Carmike Cinemas","ticketType":"STANDARD"},{"id":"4112","tribuneTheaterId":"4789","providerTheaterId":"","name":"Carmike Northgate 14","address":"310 Ring Rd","city":"Hixson","state":"TN","zip":"37343","distance":15.14816982189,"lon":"-85.236941","lat":"35.129428","theaterChainName":"Carmike Cinemas","ticketType":"STANDARD"},{"id":"653","tribuneTheaterId":"8412","providerTheaterId":"","name":"Regal Hamilton Place 10-17","address":"2000 Hamilton Place Blvd","city":"Chattanooga","state":"TN","zip":"37421","distance":15.417899069909,"lon":"-85.1662","lat":"35.032","theaterChainName":"Regal Cinemas","ticketType":"STANDARD"},{"id":"1386","tribuneTheaterId":"4787","providerTheaterId":"","name":"Carmike Wynnsong 10 Chattanooga","address":"2210 Gunbarrel Rd.","city":"Chattanooga","state":"TN","zip":"37421","distance":16.397343395674,"lon":"-85.148667","lat":"35.03295","theaterChainName":"Carmike Cinemas","ticketType":"STANDARD"}]