[{"id":"2480","name":"Masters Value Cinemas","address":"2824 Washington Rd","city":"Augusta","state":"GA","zip":"30909","distance":"24.024953842163086","lon":"-82.032913","lat":"33.509350","theaterChainName":"Georgia Theatre Company","ticketType":"STANDARD"},{"id":"2659","name":"Regal Augusta Exchange Stadium 20 & IMAX","address":"1144 Agerton Lane","city":"Augusta","state":"GA","zip":"30909","distance":"21.17169189453125","lon":"-82.077393","lat":"33.487904","theaterChainName":"Regal Cinemas","ticketType":"STANDARD"},{"id":"1861","name":"Evans Stadium Cinemas","address":"4365 Towne Center Dr.","city":"Evans","state":"GA","zip":"30809","distance":"21.93317222595215","lon":"-82.128555","lat":"33.534725","theaterChainName":"Georgia Theatre Company","ticketType":"STANDARD"},{"id":"3471","name":"Thomson Twin Cinema","address":"131 Main St.","city":"Thomson","state":"GA","zip":"30824","distance":"17.138004302978516","lon":"-82.502769","lat":"33.466576","theaterChainName":"Independent Chains","ticketType":"STANDARD"}]