[{"id":"650","name":"Regal Aiken Mall Cinema 8","address":"300 East Gate Drive","city":"Aiken","state":"SC","zip":"29802","distance":"21.213134765625","lon":"-81.717278","lat":"33.510307","theaterChainName":"Regal Cinemas","ticketType":"STANDARD"},{"id":"2480","name":"Masters Value Cinemas","address":"2824 Washington Rd","city":"Augusta","state":"GA","zip":"30909","distance":"3.154188871383667","lon":"-82.032913","lat":"33.509350","theaterChainName":"Georgia Theatre Company","ticketType":"STANDARD"},{"id":"2659","name":"Regal Augusta Exchange Stadium 20 & IMAX","address":"1144 Agerton Lane","city":"Augusta","state":"GA","zip":"30909","distance":"2.4595983028411865","lon":"-82.077393","lat":"33.487904","theaterChainName":"Regal Cinemas","ticketType":"STANDARD"},{"id":"1861","name":"Evans Stadium Cinemas","address":"4365 Towne Center Dr.","city":"Evans","state":"GA","zip":"30809","distance":"2.6277015209198","lon":"-82.128555","lat":"33.534725","theaterChainName":"Georgia Theatre Company","ticketType":"STANDARD"},{"id":"3471","name":"Thomson Twin Cinema","address":"131 Main St.","city":"Thomson","state":"GA","zip":"30824","distance":"24.37444496154785","lon":"-82.502769","lat":"33.466576","theaterChainName":"Independent Chains","ticketType":"STANDARD"}]