[{"id":"4471","tribuneTheaterId":"9559","providerTheaterId":"","name":"Heart of Georgia Stadium Cinemas","address":"1167 Cochran Highway","city":"Eastman","state":"GA","zip":"31023","distance":14.256174274821,"lon":"-83.211404","lat":"32.214545","theaterChainName":"Georgia Theatre Company","ticketType":"STANDARD"},{"id":"4473","tribuneTheaterId":"9563","providerTheaterId":"","name":"Parkway Value Cinemas","address":"821 Russell Parkway","city":"Warner Robins","state":"GA","zip":"31088","distance":22.852211749495,"lon":"-83.639916","lat":"32.592776","theaterChainName":"Georgia Theatre Company","ticketType":"STANDARD"},{"id":"4909","tribuneTheaterId":"10226","providerTheaterId":"","name":"Houston Lakes Stadium Cinemas","address":"1121 Highway 96","city":"Warner Robins","state":"GA","zip":"31099","distance":24.150235741994,"lon":"-83.694178","lat":"32.553235","theaterChainName":"Georgia Theatre Company","ticketType":"STANDARD"},{"id":"1735","tribuneTheaterId":"6720","providerTheaterId":"","name":"Carmike 8 Dublin","address":"2103 Veterans Blvd.","city":"Dublin","state":"GA","zip":"31040","distance":23.927672507864,"lon":"-82.951162","lat":"32.544978","theaterChainName":"Carmike Cinemas","ticketType":"STANDARD"}]