[{"id":"3266","name":"Ritz Theatre - Thomaston","address":"114 S. Church St.","city":"Thomaston","state":"GA","zip":"30286","distance":"22.22060775756836","lon":"-84.327156","lat":"32.887817","theaterChainName":"Independent Chains","ticketType":"STANDARD"},{"id":"2928","name":"Amstar Cinemas 16","address":"5996 Zebulon Road","city":"Macon","state":"GA","zip":"31210","distance":"17.31230354309082","lon":"-83.762489","lat":"32.878201","theaterChainName":"Southern Theatres","ticketType":"STANDARD"},{"id":"4909","name":"Houston Lakes Stadium Cinemas","address":"1121 Highway 96","city":"Warner Robins","state":"GA","zip":"31099","distance":"21.251676559448242","lon":"-83.694176","lat":"32.553234","theaterChainName":"Georgia Theatre Company","ticketType":"STANDARD"},{"id":"4473","name":"Parkway Value Cinemas","address":"821 Russell Parkway","city":"Warner Robins","state":"GA","zip":"31088","distance":"22.711257934570312","lon":"-83.639915","lat":"32.592777","theaterChainName":"Georgia Theatre Company","ticketType":"STANDARD"},{"id":"1876","name":"Galleria Mall Stadium Cinemas","address":"2980 Watson Blvd.","city":"Centerville","state":"GA","zip":"31028","distance":"19.32217788696289","lon":"-83.688835","lat":"32.621349","theaterChainName":"Georgia Theatre Company","ticketType":"STANDARD"}]