[{"id":"4291","name":"Victory Square Stadium 9","address":"1901 E. Victory Dr.","city":"Savannah","state":"GA","zip":"31404","distance":"24.136972427368164","lon":"-81.066612","lat":"32.039078","theaterChainName":"Frank Theatres","ticketType":"STANDARD"},{"id":"4988","name":"Pooler Stadium Cinemas 12","address":"425 Pooler Parkway","city":"Pooler","state":"GA","zip":"31322","distance":"21.362688064575195","lon":"-81.249817","lat":"32.136463","theaterChainName":"Georgia Theatre Company","ticketType":"STANDARD"},{"id":"5006","name":"Royal Cinemas 13 & IMAX","address":"5 Towne Center Ct","city":"Pooler","state":"GA","zip":"31322","distance":"21.46078109741211","lon":"-81.254387","lat":"32.140125","theaterChainName":"Independent Chains","ticketType":"STANDARD"},{"id":"2195","name":"Carmike 10 Savannah","address":"511 Stephenson Ave.","city":"Savannah","state":"GA","zip":"31405","distance":"21.16822052001953","lon":"-81.106064","lat":"32.010857","theaterChainName":"Carmike Cinemas","ticketType":"STANDARD"},{"id":"605","name":"Spotlight Theatres Eisenhower Square Cinema 6","address":"1100 Eisenhower Dr.","city":"Savannah","state":"GA","zip":"31406","distance":"21.412599563598633","lon":"-81.098862","lat":"32.006870","theaterChainName":"Spotlight Theatres","ticketType":"STANDARD"},{"id":"1487","name":"Regal Savannah Stadium 10","address":"1132-34 Shawnee St.","city":"Savannah","state":"GA","zip":"31419","distance":"17.042482376098633","lon":"-81.170654","lat":"31.986519","theaterChainName":"Regal Cinemas","ticketType":"STANDARD"},{"id":"1649","name":"Carmike Wynnsong 11","address":"1150 Shawnee Street","city":"Savannah","state":"GA","zip":"31419","distance":"16.975448608398438","lon":"-81.171967","lat":"31.986513","theaterChainName":"Carmike Cinemas","ticketType":"STANDARD"},{"id":"3446","name":"Liberty Stadium Cinemas","address":"565 W. Oglethorpe Hwy.","city":"Hinesville","state":"GA","zip":"31313","distance":"10.476826667785645","lon":"-81.598198","lat":"31.834606","theaterChainName":"Georgia Theatre Company","ticketType":"STANDARD"}]