[{"id":"1869","name":"Northridge 10","address":"435 William Hilton Parkway","city":"Hilton Head Island","state":"SC","zip":"29926","distance":"24.870704650878906","lon":"-80.703171","lat":"32.215996","theaterChainName":"Southeast Cinemas","ticketType":"STANDARD"},{"id":"5041","name":"Cinemark Blufton","address":"106 Buckwalter Parkway","city":"Bluffton","state":"SC","zip":"29910","distance":"20.808055877685547","lon":"-80.912369","lat":"32.283787","theaterChainName":"Cinemark","ticketType":"STANDARD"},{"id":"2149","name":"Park Plaza Cinemas","address":"33 Park Plaza Suite 201","city":"Hilton Head Island","state":"SC","zip":"29928","distance":"19.409461975097656","lon":"-80.766296","lat":"32.153801","theaterChainName":"Independent Chains","ticketType":"STANDARD"},{"id":"3566","name":"Coligny Theatre","address":"1 North Forest Beach Drive","city":"Hilton Head Island","state":"SC","zip":"29928","distance":"19.899869918823242","lon":"-80.749886","lat":"32.144077","theaterChainName":"Independent Chains","ticketType":"STANDARD"},{"id":"4291","name":"Victory Square Stadium 9","address":"1901 E. Victory Dr.","city":"Savannah","state":"GA","zip":"31404","distance":"2.5837020874023438","lon":"-81.066612","lat":"32.039078","theaterChainName":"Frank Theatres","ticketType":"STANDARD"},{"id":"4988","name":"Pooler Stadium Cinemas 12","address":"425 Pooler Parkway","city":"Pooler","state":"GA","zip":"31322","distance":"14.90628433227539","lon":"-81.249817","lat":"32.136463","theaterChainName":"Georgia Theatre Company","ticketType":"STANDARD"},{"id":"5006","name":"Royal Cinemas 13 & IMAX","address":"5 Towne Center Ct","city":"Pooler","state":"GA","zip":"31322","distance":"15.27243709564209","lon":"-81.254387","lat":"32.140125","theaterChainName":"Independent Chains","ticketType":"STANDARD"},{"id":"2195","name":"Carmike 10 Savannah","address":"511 Stephenson Ave.","city":"Savannah","state":"GA","zip":"31405","distance":"3.4412643909454346","lon":"-81.106064","lat":"32.010857","theaterChainName":"Carmike Cinemas","ticketType":"STANDARD"},{"id":"605","name":"Spotlight Theatres Eisenhower Square Cinema 6","address":"1100 Eisenhower Dr.","city":"Savannah","state":"GA","zip":"31406","distance":"2.9998042583465576","lon":"-81.098862","lat":"32.006870","theaterChainName":"Spotlight Theatres","ticketType":"STANDARD"},{"id":"1487","name":"Regal Savannah Stadium 10","address":"1132-34 Shawnee St.","city":"Savannah","state":"GA","zip":"31419","distance":"7.321183204650879","lon":"-81.170654","lat":"31.986519","theaterChainName":"Regal Cinemas","ticketType":"STANDARD"},{"id":"1649","name":"Carmike Wynnsong 11","address":"1150 Shawnee Street","city":"Savannah","state":"GA","zip":"31419","distance":"7.396946907043457","lon":"-81.171967","lat":"31.986513","theaterChainName":"Carmike Cinemas","ticketType":"STANDARD"}]