[{"id":"4291","name":"Victory Square Stadium 9","address":"1901 E. Victory Dr.","city":"Savannah","state":"GA","zip":"31404","distance":"10.3515625","lon":"-81.066612","lat":"32.039078","theaterChainName":"Frank Theatres","ticketType":"STANDARD"},{"id":"4988","name":"Pooler Stadium Cinemas 12","address":"425 Pooler Parkway","city":"Pooler","state":"GA","zip":"31322","distance":"9.74724006652832","lon":"-81.249817","lat":"32.136463","theaterChainName":"Georgia Theatre Company","ticketType":"STANDARD"},{"id":"5006","name":"Royal Cinemas 13 & IMAX","address":"5 Towne Center Ct","city":"Pooler","state":"GA","zip":"31322","distance":"10.02491569519043","lon":"-81.254387","lat":"32.140125","theaterChainName":"Independent Chains","ticketType":"STANDARD"},{"id":"2195","name":"Carmike 10 Savannah","address":"511 Stephenson Ave.","city":"Savannah","state":"GA","zip":"31405","distance":"7.672040939331055","lon":"-81.106064","lat":"32.010857","theaterChainName":"Carmike Cinemas","ticketType":"STANDARD"},{"id":"605","name":"Spotlight Theatres Eisenhower Square Cinema 6","address":"1100 Eisenhower Dr.","city":"Savannah","state":"GA","zip":"31406","distance":"8.060028076171875","lon":"-81.098862","lat":"32.006870","theaterChainName":"Spotlight Theatres","ticketType":"STANDARD"},{"id":"1487","name":"Regal Savannah Stadium 10","address":"1132-34 Shawnee St.","city":"Savannah","state":"GA","zip":"31419","distance":"3.8725061416625977","lon":"-81.170654","lat":"31.986519","theaterChainName":"Regal Cinemas","ticketType":"STANDARD"},{"id":"1649","name":"Carmike Wynnsong 11","address":"1150 Shawnee Street","city":"Savannah","state":"GA","zip":"31419","distance":"3.7967772483825684","lon":"-81.171967","lat":"31.986513","theaterChainName":"Carmike Cinemas","ticketType":"STANDARD"},{"id":"3446","name":"Liberty Stadium Cinemas","address":"565 W. Oglethorpe Hwy.","city":"Hinesville","state":"GA","zip":"31313","distance":"23.999956130981445","lon":"-81.598198","lat":"31.834606","theaterChainName":"Georgia Theatre Company","ticketType":"STANDARD"}]