[{"id":"1487","tribuneTheaterId":"5624","providerTheaterId":"","name":"Regal Savannah Stadium 10","address":"1132-34 Shawnee St.","city":"Savannah","state":"GA","zip":"31419","distance":3.8722506031223,"lon":"-81.170653","lat":"31.986519","theaterChainName":"Regal Cinemas","ticketType":"STANDARD"},{"id":"1649","tribuneTheaterId":"5771","providerTheaterId":"","name":"Carmike Wynnsong 11","address":"1150 Shawnee Street","city":"Savannah","state":"GA","zip":"31419","distance":3.796244267213,"lon":"-81.17197","lat":"31.986514","theaterChainName":"Carmike Cinemas","ticketType":"STANDARD"},{"id":"605","tribuneTheaterId":"8191","providerTheaterId":"","name":"Spotlight Theatres Eisenhower Square Cinema 6","address":"1100 Eisenhower Dr.","city":"Savannah","state":"GA","zip":"31406","distance":8.059294327392,"lon":"-81.098864","lat":"32.006871","theaterChainName":"Spotlight Theatres","ticketType":"STANDARD"},{"id":"2195","tribuneTheaterId":"6926","providerTheaterId":"","name":"Carmike 10 Savannah","address":"511 Stephenson Ave.","city":"Savannah","state":"GA","zip":"31405","distance":7.6715026858819,"lon":"-81.106063","lat":"32.010856","theaterChainName":"Carmike Cinemas","ticketType":"STANDARD"},{"id":"4988","tribuneTheaterId":"10355","providerTheaterId":"","name":"Pooler Stadium Cinemas 12","address":"425 Pooler Parkway","city":"Pooler","state":"GA","zip":"31322","distance":9.746726084131,"lon":"-81.249819","lat":"32.136465","theaterChainName":"Georgia Theatre Company","ticketType":"STANDARD"},{"id":"5006","tribuneTheaterId":"10377","providerTheaterId":"","name":"Royal Cinemas 13 & IMAX","address":"5 Towne Center Ct","city":"Pooler","state":"GA","zip":"31322","distance":10.02423183496,"lon":"-81.254387","lat":"32.140125","theaterChainName":"Independent Chains","ticketType":"STANDARD"},{"id":"4291","tribuneTheaterId":"2216","providerTheaterId":"","name":"Victory Square Stadium 9","address":"1901 E. Victory Dr.","city":"Savannah","state":"GA","zip":"31404","distance":10.350732085854,"lon":"-81.066613","lat":"32.039076","theaterChainName":"Frank Theatres","ticketType":"STANDARD"},{"id":"3446","tribuneTheaterId":"5976","providerTheaterId":"","name":"Liberty Stadium Cinemas","address":"565 W. Oglethorpe Hwy.","city":"Hinesville","state":"GA","zip":"31313","distance":23.998592063422,"lon":"-81.598198","lat":"31.834606","theaterChainName":"Georgia Theatre Company","ticketType":"STANDARD"}]