[{"id":"1560","name":"Glynn Place Stadium Cinemas","address":"551 Mall Blvd.","city":"Brunswick","state":"GA","zip":"31525","distance":"21.924528121948242","lon":"-81.489616","lat":"31.216766","theaterChainName":"Georgia Theatre Company","ticketType":"STANDARD"},{"id":"1561","name":"Island Cinemas - Saint Simons Island","address":"44 Cinema Lane","city":"Saint Simons Island","state":"GA","zip":"31522","distance":"24.16035270690918","lon":"-81.381760","lat":"31.183985","theaterChainName":"Georgia Theatre Company","ticketType":"STANDARD"},{"id":"894","name":"Kings Bay Stadium Cinemas","address":"201 City Smitty Dr","city":"Saint Marys","state":"GA","zip":"31558","distance":"14.850149154663086","lon":"-81.576134","lat":"30.747499","theaterChainName":"Georgia Theatre Company","ticketType":"STANDARD"},{"id":"6117","name":"B&B Theatres Amelia Island 7","address":"1132 S 14th St","city":"Fernandina Beach","state":"FL","zip":"32034","distance":"24.00299644470215","lon":"-81.452454","lat":"30.655537","theaterChainName":"B&B Theatres","ticketType":"STANDARD"},{"id":"5624","name":"Coastal Cinema 10","address":"96012 Lofton Square","city":"Yulee","state":"FL","zip":"32097","distance":"23.49355125427246","lon":"-81.545197","lat":"30.623501","theaterChainName":"Carmike Cinemas","ticketType":"STANDARD"}]