[{"id":"894","tribuneTheaterId":"5973","providerTheaterId":"","name":"Kings Bay Stadium Cinemas","address":"201 City Smitty Dr","city":"Saint Marys","state":"GA","zip":"31558","distance":14.849179142745,"lon":"-81.576136","lat":"30.747499","theaterChainName":"Georgia Theatre Company","ticketType":"STANDARD"},{"id":"1560","tribuneTheaterId":"5975","providerTheaterId":"","name":"Glynn Place Stadium Cinemas","address":"551 Mall Blvd.","city":"Brunswick","state":"GA","zip":"31525","distance":21.923299589995,"lon":"-81.489614","lat":"31.216766","theaterChainName":"Georgia Theatre Company","ticketType":"STANDARD"},{"id":"5624","tribuneTheaterId":"11087","providerTheaterId":"","name":"Coastal Cinema 10","address":"96012 Lofton Square","city":"Yulee","state":"FL","zip":"32097","distance":23.492050067358,"lon":"-81.5452","lat":"30.6235","theaterChainName":"Carmike Cinemas","ticketType":"STANDARD"},{"id":"6117","tribuneTheaterId":"11532","providerTheaterId":"","name":"B&B Theatres Amelia Island 7","address":"1132 S 14th St","city":"Fernandina Beach","state":"FL","zip":"32034","distance":24.001588395057,"lon":"-81.452452","lat":"30.655536","theaterChainName":"B&B Theatres","ticketType":"STANDARD"},{"id":"1561","tribuneTheaterId":"5054","providerTheaterId":"","name":"Island Cinemas - Saint Simons Island","address":"44 Cinema Lane","city":"Saint Simons Island","state":"GA","zip":"31522","distance":24.159062918008,"lon":"-81.381757","lat":"31.183985","theaterChainName":"Georgia Theatre Company","ticketType":"STANDARD"}]