[{"id":"3661","name":"Carmike 15 Columbus","address":"5555 Whittelesey Blvd.","city":"Columbus","state":"GA","zip":"31904","distance":"6.5398688316345215","lon":"-84.941856","lat":"32.548702","theaterChainName":"Carmike Cinemas","ticketType":"STANDARD"},{"id":"2186","name":"Carmike Ritz 13","address":"1683 Whittlesey Road","city":"Columbus","state":"GA","zip":"31904","distance":"6.535575866699219","lon":"-84.964699","lat":"32.539501","theaterChainName":"Carmike Cinemas","ticketType":"STANDARD"},{"id":"1127","name":"Carmike Peachtree 8","address":"3131 Manchester Expy.","city":"Columbus","state":"GA","zip":"31909","distance":"8.965993881225586","lon":"-84.943626","lat":"32.508625","theaterChainName":"Carmike Cinemas","ticketType":"STANDARD"},{"id":"2196","name":"Carmike Wynnsong 10 - Fort Benning","address":"72904 Ingersol St.","city":"Fort Benning","state":"GA","zip":"31905","distance":"18.80204200744629","lon":"-84.962944","lat":"32.358662","theaterChainName":"Carmike Cinemas","ticketType":"STANDARD"},{"id":"5516","name":"Carmike Tiger 13","address":"1900 Capps Landing","city":"Opelika","state":"AL","zip":"36804","distance":"22.69495964050293","lon":"-85.391159","lat":"32.612125","theaterChainName":"Carmike Cinemas","ticketType":"STANDARD"}]