[{"id":"1127","tribuneTheaterId":"4801","providerTheaterId":"","name":"Carmike Peachtree 8","address":"3131 Manchester Expy.","city":"Columbus","state":"GA","zip":"31909","distance":23.40385830717,"lon":"-84.943628","lat":"32.508624","theaterChainName":"Carmike Cinemas","ticketType":"STANDARD"},{"id":"3661","tribuneTheaterId":"4804","providerTheaterId":"","name":"Carmike 15 Columbus","address":"5555 Whittelesey Blvd.","city":"Columbus","state":"GA","zip":"31904","distance":22.873468104149,"lon":"-84.941858","lat":"32.548704","theaterChainName":"Carmike Cinemas","ticketType":"STANDARD"},{"id":"3266","tribuneTheaterId":"557","providerTheaterId":"","name":"Ritz Theatre - Thomaston","address":"114 S. Church St.","city":"Thomaston","state":"GA","zip":"30286","distance":24.931718715185,"lon":"-84.327154","lat":"32.887819","theaterChainName":"Independent Chains","ticketType":"STANDARD"},{"id":"2186","tribuneTheaterId":"4803","providerTheaterId":"","name":"Carmike Ritz 13","address":"1683 Whittlesey Road","city":"Columbus","state":"GA","zip":"31904","distance":24.264126802801,"lon":"-84.9647","lat":"32.5395","theaterChainName":"Carmike Cinemas","ticketType":"STANDARD"}]