[{"id":"4257","name":"Regal River City Marketplace Stadium 14","address":"12884 City Center Blvd","city":"Jacksonville","state":"FL","zip":"32218","distance":"19.934982299804688","lon":"-81.643661","lat":"30.473310","theaterChainName":"Regal Cinemas","ticketType":"STANDARD"},{"id":"4605","name":"Sun-Ray Cinema","address":"1028 Park St.","city":"Jacksonville","state":"FL","zip":"32204","distance":"18.81974220275879","lon":"-81.680931","lat":"30.314699","theaterChainName":"Independent Chains","ticketType":"STANDARD"},{"id":"901","name":"San Marco Theatre","address":"1996 San Marco Blvd.","city":"Jacksonville","state":"FL","zip":"32207","distance":"20.57230567932129","lon":"-81.654343","lat":"30.303852","theaterChainName":"Independent Chains","ticketType":"STANDARD"},{"id":"581","name":"AMC Orange Park 24","address":"1910 Wells Road","city":"Orange Park","state":"FL","zip":"32073","distance":"21.45133399963379","lon":"-81.735870","lat":"30.185469","theaterChainName":"AMC Theatres","ticketType":"STANDARD"},{"id":"5911","name":"Epic Theatres at Oakleaf","address":"8368 Merchants Way","city":"Jacksonville","state":"FL","zip":"32222","distance":"17.64185905456543","lon":"-81.832008","lat":"30.194584","theaterChainName":"Epic Theatres","ticketType":"STANDARD"}]