[{"id":"4257","tribuneTheaterId":"5142","providerTheaterId":"","name":"Regal River City Marketplace Stadium 14","address":"12884 City Center Blvd","city":"Jacksonville","state":"FL","zip":"32218","distance":11.531394079244,"lon":"-81.643661","lat":"30.47331","theaterChainName":"Regal Cinemas","ticketType":"STANDARD"},{"id":"5624","tribuneTheaterId":"11087","providerTheaterId":"","name":"Coastal Cinema 10","address":"96012 Lofton Square","city":"Yulee","state":"FL","zip":"32097","distance":16.762215970065,"lon":"-81.5452","lat":"30.6235","theaterChainName":"Carmike Cinemas","ticketType":"STANDARD"},{"id":"4605","tribuneTheaterId":"9777","providerTheaterId":"","name":"Sun-Ray Cinema","address":"1028 Park St.","city":"Jacksonville","state":"FL","zip":"32204","distance":18.224800047373,"lon":"-81.68093","lat":"30.314699","theaterChainName":"Independent Chains","ticketType":"STANDARD"},{"id":"901","tribuneTheaterId":"2422","providerTheaterId":"","name":"San Marco Theatre","address":"1996 San Marco Blvd.","city":"Jacksonville","state":"FL","zip":"32207","distance":19.621547749684,"lon":"-81.654342","lat":"30.303853","theaterChainName":"Independent Chains","ticketType":"STANDARD"},{"id":"894","tribuneTheaterId":"5973","providerTheaterId":"","name":"Kings Bay Stadium Cinemas","address":"201 City Smitty Dr","city":"Saint Marys","state":"GA","zip":"31558","distance":19.575633746264,"lon":"-81.576136","lat":"30.747499","theaterChainName":"Georgia Theatre Company","ticketType":"STANDARD"},{"id":"2296","tribuneTheaterId":"9209","providerTheaterId":"309","name":"AMC Regency 24","address":"9451 Regency Square Blvd.","city":"Jacksonville","state":"FL","zip":"32225","distance":21.947357706204,"lon":"-81.554695","lat":"30.326774","theaterChainName":"AMC Theatres","ticketType":"STANDARD"},{"id":"6117","tribuneTheaterId":"11532","providerTheaterId":"","name":"B&B Theatres Amelia Island 7","address":"1132 S 14th St","city":"Fernandina Beach","state":"FL","zip":"32034","distance":22.687996038322,"lon":"-81.452452","lat":"30.655536","theaterChainName":"B&B Theatres","ticketType":"STANDARD"},{"id":"5911","tribuneTheaterId":"11335","providerTheaterId":"","name":"Epic Theatres at Oakleaf","address":"8368 Merchants Way","city":"Jacksonville","state":"FL","zip":"32222","distance":24.717159258676,"lon":"-81.832006","lat":"30.194583","theaterChainName":"Epic Theatres","ticketType":"STANDARD"}]