[{"id":"4764","tribuneTheaterId":"10002","providerTheaterId":"","name":"Epic Theatres of St. Augustine","address":"112 Theatre Drive","city":"Saint Augustine","state":"FL","zip":"32086","distance":7.0722769204918,"lon":"-81.341684","lat":"29.861562","theaterChainName":"Epic Theatres","ticketType":"STANDARD"},{"id":"5567","tribuneTheaterId":"11014","providerTheaterId":"","name":"The Corazon Cinema and Cafe","address":"36 Granada Street","city":"Saint Augustine","state":"FL","zip":"32084","distance":7.1825194740576,"lon":"-81.314024","lat":"29.890026","theaterChainName":"Independent Chains","ticketType":"STANDARD"},{"id":"2767","tribuneTheaterId":"8409","providerTheaterId":"","name":"Regal The Avenues Stadium 20","address":"9525 Phillips Highway","city":"Jacksonville","state":"FL","zip":"32256","distance":19.609803353445,"lon":"-81.565","lat":"30.192521","theaterChainName":"Regal Cinemas","ticketType":"STANDARD"},{"id":"4714","tribuneTheaterId":"9929","providerTheaterId":"","name":"Carmike Fleming Island 12","address":"1820 Town Center Blvd","city":"Fleming Island","state":"FL","zip":"32003","distance":20.795752769976,"lon":"-81.714646","lat":"30.098217","theaterChainName":"Carmike Cinemas","ticketType":"STANDARD"},{"id":"1306","tribuneTheaterId":"5219","providerTheaterId":"","name":"Cinemark Tinseltown Jacksonville","address":"4535 Southside Blvd","city":"Jacksonville","state":"FL","zip":"32216","distance":23.919798820579,"lon":"-81.5572","lat":"30.2631","theaterChainName":"Cinemark","ticketType":"STANDARD"},{"id":"628","tribuneTheaterId":"7413","providerTheaterId":"","name":"Regal Beach Boulevard Stadium 18","address":"14051 Beach Blvd","city":"Jacksonville","state":"FL","zip":"32250","distance":24.329166974109,"lon":"-81.4465","lat":"30.289107","theaterChainName":"Regal Cinemas","ticketType":"STANDARD"}]