[{"id":"894","name":"Kings Bay Stadium Cinemas","address":"201 City Smitty Dr","city":"Saint Marys","state":"GA","zip":"31558","distance":"8.700454711914062","lon":"-81.576134","lat":"30.747499","theaterChainName":"Georgia Theatre Company","ticketType":"STANDARD"},{"id":"6117","name":"B&B Theatres Amelia Island 7","address":"1132 S 14th St","city":"Fernandina Beach","state":"FL","zip":"32034","distance":"8.5298433303833","lon":"-81.452454","lat":"30.655537","theaterChainName":"B&B Theatres","ticketType":"STANDARD"},{"id":"5624","name":"Coastal Cinema 10","address":"96012 Lofton Square","city":"Yulee","state":"FL","zip":"32097","distance":"2.7011828422546387","lon":"-81.545197","lat":"30.623501","theaterChainName":"Carmike Cinemas","ticketType":"STANDARD"},{"id":"4257","name":"Regal River City Marketplace Stadium 14","address":"12884 City Center Blvd","city":"Jacksonville","state":"FL","zip":"32218","distance":"10.761573791503906","lon":"-81.643661","lat":"30.473310","theaterChainName":"Regal Cinemas","ticketType":"STANDARD"},{"id":"2296","name":"AMC Regency 24","address":"9451 Regency Square Blvd.","city":"Jacksonville","state":"FL","zip":"32225","distance":"20.524856567382812","lon":"-81.554695","lat":"30.326775","theaterChainName":"AMC Theatres","ticketType":"STANDARD"},{"id":"4605","name":"Sun-Ray Cinema","address":"1028 Park St.","city":"Jacksonville","state":"FL","zip":"32204","distance":"21.918054580688477","lon":"-81.680931","lat":"30.314699","theaterChainName":"Independent Chains","ticketType":"STANDARD"},{"id":"901","name":"San Marco Theatre","address":"1996 San Marco Blvd.","city":"Jacksonville","state":"FL","zip":"32207","distance":"22.322290420532227","lon":"-81.654343","lat":"30.303852","theaterChainName":"Independent Chains","ticketType":"STANDARD"},{"id":"628","name":"Regal Beach Boulevard Stadium 18","address":"14051 Beach Blvd","city":"Jacksonville","state":"FL","zip":"32250","distance":"24.564210891723633","lon":"-81.446503","lat":"30.289106","theaterChainName":"Regal Cinemas","ticketType":"STANDARD"},{"id":"1306","name":"Cinemark Tinseltown Jacksonville","address":"4535 Southside Blvd","city":"Jacksonville","state":"FL","zip":"32216","distance":"24.892620086669922","lon":"-81.557198","lat":"30.263100","theaterChainName":"Cinemark","ticketType":"STANDARD"}]