[{"id":"2296","name":"AMC Regency 24","address":"9451 Regency Square Blvd.","city":"Jacksonville","state":"FL","zip":"32225","distance":"23.451557159423828","lon":"-81.554695","lat":"30.326775","theaterChainName":"AMC Theatres","ticketType":"STANDARD"},{"id":"901","name":"San Marco Theatre","address":"1996 San Marco Blvd.","city":"Jacksonville","state":"FL","zip":"32207","distance":"24.923717498779297","lon":"-81.654343","lat":"30.303852","theaterChainName":"Independent Chains","ticketType":"STANDARD"},{"id":"628","name":"Regal Beach Boulevard Stadium 18","address":"14051 Beach Blvd","city":"Jacksonville","state":"FL","zip":"32250","distance":"19.33456039428711","lon":"-81.446503","lat":"30.289106","theaterChainName":"Regal Cinemas","ticketType":"STANDARD"},{"id":"1306","name":"Cinemark Tinseltown Jacksonville","address":"4535 Southside Blvd","city":"Jacksonville","state":"FL","zip":"32216","distance":"19.492956161499023","lon":"-81.557198","lat":"30.263100","theaterChainName":"Cinemark","ticketType":"STANDARD"},{"id":"581","name":"AMC Orange Park 24","address":"1910 Wells Road","city":"Orange Park","state":"FL","zip":"32073","distance":"22.868759155273438","lon":"-81.735870","lat":"30.185469","theaterChainName":"AMC Theatres","ticketType":"STANDARD"},{"id":"4714","name":"Carmike Fleming Island 12","address":"1820 Town Center Blvd","city":"Fleming Island","state":"FL","zip":"32003","distance":"19.145565032958984","lon":"-81.714645","lat":"30.098217","theaterChainName":"Carmike Cinemas","ticketType":"STANDARD"},{"id":"2767","name":"Regal The Avenues Stadium 20","address":"9525 Phillips Highway","city":"Jacksonville","state":"FL","zip":"32256","distance":"15.565753936767578","lon":"-81.565002","lat":"30.192520","theaterChainName":"Regal Cinemas","ticketType":"STANDARD"},{"id":"4764","name":"Epic Theatres of St. Augustine","address":"112 Theatre Drive","city":"Saint Augustine","state":"FL","zip":"32086","distance":"11.124201774597168","lon":"-81.341682","lat":"29.861563","theaterChainName":"Epic Theatres","ticketType":"STANDARD"},{"id":"5567","name":"The Corazon Cinema and Cafe","address":"36 Granada Street","city":"Saint Augustine","state":"FL","zip":"32084","distance":"10.170523643493652","lon":"-81.314026","lat":"29.890026","theaterChainName":"Independent Chains","ticketType":"STANDARD"}]