[{"id":"4934","name":"Epic Theatres of Palm Coast","address":"1185 Cetral Ave.","city":"Palm Coast","state":"FL","zip":"32164","distance":"23.024808883666992","lon":"-81.203705","lat":"29.482964","theaterChainName":"Epic Theatres","ticketType":"STANDARD"},{"id":"5131","name":"Epic Theatres of West Volusia","address":"939 Hollywood Blvd","city":"Deltona","state":"FL","zip":"32725","distance":"20.106870651245117","lon":"-81.253189","lat":"28.942196","theaterChainName":"Epic Theatres","ticketType":"STANDARD"},{"id":"618","name":"Regal Ormond Beach Cinema 12","address":"215 Williamson Blvd","city":"Ormond Beach","state":"FL","zip":"32174","distance":"18.246322631835938","lon":"-81.110321","lat":"29.254560","theaterChainName":"Regal Cinemas","ticketType":"STANDARD"},{"id":"6048","name":"Cobb Daytona Luxury","address":"1850 Legends Lane","city":"Daytona Beach","state":"FL","zip":"32114","distance":"20.254451751708984","lon":"-81.070763","lat":"29.195192","theaterChainName":"Cobb Theatres","ticketType":"STANDARD"},{"id":"4836","name":"Regal Pavilion Stadium 14","address":"5547 S Williamson Blvd.","city":"Port Orange","state":"FL","zip":"32128","distance":"23.569759368896484","lon":"-81.031502","lat":"29.105101","theaterChainName":"Regal Cinemas","ticketType":"STANDARD"},{"id":"4743","name":"Cinematique Theater","address":"242 S. Beach St.","city":"Daytona Beach","state":"FL","zip":"32114","distance":"23.42655372619629","lon":"-81.018211","lat":"29.208906","theaterChainName":"Independent Chains","ticketType":"STANDARD"},{"id":"5178","name":"Paragon Ocean Walk 10","address":"250 N. Atlantic Ave.","city":"Daytona Beach","state":"FL","zip":"32118","distance":"24.017852783203125","lon":"-81.009789","lat":"29.231071","theaterChainName":"Paragon Theaters","ticketType":"STANDARD"}]