[{"id":"4934","tribuneTheaterId":"10284","providerTheaterId":"","name":"Epic Theatres of Palm Coast","address":"1185 Cetral Ave.","city":"Palm Coast","state":"FL","zip":"32164","distance":7.491987600498,"lon":"-81.203706","lat":"29.482963","theaterChainName":"Epic Theatres","ticketType":"STANDARD"},{"id":"618","tribuneTheaterId":"7887","providerTheaterId":"","name":"Regal Ormond Beach Cinema 12","address":"215 Williamson Blvd","city":"Ormond Beach","state":"FL","zip":"32174","distance":18.981710925295,"lon":"-81.110322","lat":"29.25456","theaterChainName":"Regal Cinemas","ticketType":"STANDARD"},{"id":"5178","tribuneTheaterId":"10591","providerTheaterId":"","name":"Paragon Ocean Walk 10","address":"250 N. Atlantic Ave.","city":"Daytona Beach","state":"FL","zip":"32118","distance":24.515304418575,"lon":"-81.009788","lat":"29.231072","theaterChainName":"Paragon Theaters","ticketType":"STANDARD"},{"id":"6048","tribuneTheaterId":"11451","providerTheaterId":"","name":"Cobb Daytona Luxury","address":"1850 Legends Lane","city":"Daytona Beach","state":"FL","zip":"32114","distance":23.636143212298,"lon":"-81.070761","lat":"29.195192","theaterChainName":"Cobb Theatres","ticketType":"STANDARD"}]