[{"id":"5131","name":"Epic Theatres of West Volusia","address":"939 Hollywood Blvd","city":"Deltona","state":"FL","zip":"32725","distance":"13.363863945007324","lon":"-81.253189","lat":"28.942196","theaterChainName":"Epic Theatres","ticketType":"STANDARD"},{"id":"618","name":"Regal Ormond Beach Cinema 12","address":"215 Williamson Blvd","city":"Ormond Beach","state":"FL","zip":"32174","distance":"17.258037567138672","lon":"-81.110321","lat":"29.254560","theaterChainName":"Regal Cinemas","ticketType":"STANDARD"},{"id":"6048","name":"Cobb Daytona Luxury","address":"1850 Legends Lane","city":"Daytona Beach","state":"FL","zip":"32114","distance":"17.63455581665039","lon":"-81.070763","lat":"29.195192","theaterChainName":"Cobb Theatres","ticketType":"STANDARD"},{"id":"219","name":"United Artists Seminole Towne Center 10","address":"430 Towne Center Circle","city":"Sanford","state":"FL","zip":"32771","distance":"21.942766189575195","lon":"-81.341919","lat":"28.799095","theaterChainName":"United Artists","ticketType":"STANDARD"},{"id":"3665","name":"AmStar 12 Lake Mary","address":"950 Colonial Grand Lane","city":"Lake Mary","state":"FL","zip":"32746","distance":"22.58058738708496","lon":"-81.356186","lat":"28.789871","theaterChainName":"Southern Theatres","ticketType":"STANDARD"},{"id":"4836","name":"Regal Pavilion Stadium 14","address":"5547 S Williamson Blvd.","city":"Port Orange","state":"FL","zip":"32128","distance":"19.17154312133789","lon":"-81.031502","lat":"29.105101","theaterChainName":"Regal Cinemas","ticketType":"STANDARD"},{"id":"4743","name":"Cinematique Theater","address":"242 S. Beach St.","city":"Daytona Beach","state":"FL","zip":"32114","distance":"20.942209243774414","lon":"-81.018211","lat":"29.208906","theaterChainName":"Independent Chains","ticketType":"STANDARD"},{"id":"5178","name":"Paragon Ocean Walk 10","address":"250 N. Atlantic Ave.","city":"Daytona Beach","state":"FL","zip":"32118","distance":"21.929481506347656","lon":"-81.009789","lat":"29.231071","theaterChainName":"Paragon Theaters","ticketType":"STANDARD"}]