[{"id":"4934","tribuneTheaterId":"10284","providerTheaterId":"","name":"Epic Theatres of Palm Coast","address":"1185 Cetral Ave.","city":"Palm Coast","state":"FL","zip":"32164","distance":5.1634520475523,"lon":"-81.203706","lat":"29.482963","theaterChainName":"Epic Theatres","ticketType":"STANDARD"},{"id":"4764","tribuneTheaterId":"10002","providerTheaterId":"","name":"Epic Theatres of St. Augustine","address":"112 Theatre Drive","city":"Saint Augustine","state":"FL","zip":"32086","distance":22.326578250683,"lon":"-81.341684","lat":"29.861562","theaterChainName":"Epic Theatres","ticketType":"STANDARD"},{"id":"618","tribuneTheaterId":"7887","providerTheaterId":"","name":"Regal Ormond Beach Cinema 12","address":"215 Williamson Blvd","city":"Ormond Beach","state":"FL","zip":"32174","distance":21.863569449088,"lon":"-81.110322","lat":"29.25456","theaterChainName":"Regal Cinemas","ticketType":"STANDARD"},{"id":"5567","tribuneTheaterId":"11014","providerTheaterId":"","name":"The Corazon Cinema and Cafe","address":"36 Granada Street","city":"Saint Augustine","state":"FL","zip":"32084","distance":23.739295348544,"lon":"-81.314024","lat":"29.890026","theaterChainName":"Independent Chains","ticketType":"STANDARD"}]