[{"id":"4934","name":"Epic Theatres of Palm Coast","address":"1185 Cetral Ave.","city":"Palm Coast","state":"FL","zip":"32164","distance":"4.898460865020752","lon":"-81.203705","lat":"29.482964","theaterChainName":"Epic Theatres","ticketType":"STANDARD"},{"id":"618","name":"Regal Ormond Beach Cinema 12","address":"215 Williamson Blvd","city":"Ormond Beach","state":"FL","zip":"32174","distance":"17.931640625","lon":"-81.110321","lat":"29.254560","theaterChainName":"Regal Cinemas","ticketType":"STANDARD"},{"id":"6048","name":"Cobb Daytona Luxury","address":"1850 Legends Lane","city":"Daytona Beach","state":"FL","zip":"32114","distance":"22.6617374420166","lon":"-81.070763","lat":"29.195192","theaterChainName":"Cobb Theatres","ticketType":"STANDARD"},{"id":"4743","name":"Cinematique Theater","address":"242 S. Beach St.","city":"Daytona Beach","state":"FL","zip":"32114","distance":"23.871187210083008","lon":"-81.018211","lat":"29.208906","theaterChainName":"Independent Chains","ticketType":"STANDARD"},{"id":"5178","name":"Paragon Ocean Walk 10","address":"250 N. Atlantic Ave.","city":"Daytona Beach","state":"FL","zip":"32118","distance":"23.11089515686035","lon":"-81.009789","lat":"29.231071","theaterChainName":"Paragon Theaters","ticketType":"STANDARD"}]