[{"id":"4934","name":"Epic Theatres of Palm Coast","address":"1185 Cetral Ave.","city":"Palm Coast","state":"FL","zip":"32164","distance":"15.449823379516602","lon":"-81.203705","lat":"29.482964","theaterChainName":"Epic Theatres","ticketType":"STANDARD"},{"id":"618","name":"Regal Ormond Beach Cinema 12","address":"215 Williamson Blvd","city":"Ormond Beach","state":"FL","zip":"32174","distance":"2.391855001449585","lon":"-81.110321","lat":"29.254560","theaterChainName":"Regal Cinemas","ticketType":"STANDARD"},{"id":"6048","name":"Cobb Daytona Luxury","address":"1850 Legends Lane","city":"Daytona Beach","state":"FL","zip":"32114","distance":"6.17820405960083","lon":"-81.070763","lat":"29.195192","theaterChainName":"Cobb Theatres","ticketType":"STANDARD"},{"id":"4836","name":"Regal Pavilion Stadium 14","address":"5547 S Williamson Blvd.","city":"Port Orange","state":"FL","zip":"32128","distance":"12.779373168945312","lon":"-81.031502","lat":"29.105101","theaterChainName":"Regal Cinemas","ticketType":"STANDARD"},{"id":"4743","name":"Cinematique Theater","address":"242 S. Beach St.","city":"Daytona Beach","state":"FL","zip":"32114","distance":"6.650641441345215","lon":"-81.018211","lat":"29.208906","theaterChainName":"Independent Chains","ticketType":"STANDARD"},{"id":"5178","name":"Paragon Ocean Walk 10","address":"250 N. Atlantic Ave.","city":"Daytona Beach","state":"FL","zip":"32118","distance":"5.947230339050293","lon":"-81.009789","lat":"29.231071","theaterChainName":"Paragon Theaters","ticketType":"STANDARD"},{"id":"5625","name":"New SmyrnaLux 12","address":"1401 S Dixie Freeway","city":"New Smyrna","state":"FL","zip":"32168","distance":"21.475772857666016","lon":"-80.919800","lat":"29.009501","theaterChainName":"Carmike Cinemas","ticketType":"STANDARD"}]