[{"id":"618","tribuneTheaterId":"7887","providerTheaterId":"","name":"Regal Ormond Beach Cinema 12","address":"215 Williamson Blvd","city":"Ormond Beach","state":"FL","zip":"32174","distance":5.624159260982,"lon":"-81.110322","lat":"29.25456","theaterChainName":"Regal Cinemas","ticketType":"STANDARD"},{"id":"5178","tribuneTheaterId":"10591","providerTheaterId":"","name":"Paragon Ocean Walk 10","address":"250 N. Atlantic Ave.","city":"Daytona Beach","state":"FL","zip":"32118","distance":6.9445826211645,"lon":"-81.009788","lat":"29.231072","theaterChainName":"Paragon Theaters","ticketType":"STANDARD"},{"id":"6048","tribuneTheaterId":"11451","providerTheaterId":"","name":"Cobb Daytona Luxury","address":"1850 Legends Lane","city":"Daytona Beach","state":"FL","zip":"32114","distance":8.8069779828847,"lon":"-81.070761","lat":"29.195192","theaterChainName":"Cobb Theatres","ticketType":"STANDARD"},{"id":"4743","tribuneTheaterId":"9967","providerTheaterId":"","name":"Cinematique Theater","address":"242 S. Beach St.","city":"Daytona Beach","state":"FL","zip":"32114","distance":8.1939946700661,"lon":"-81.018213","lat":"29.208907","theaterChainName":"Independent Chains","ticketType":"STANDARD"},{"id":"4836","tribuneTheaterId":"10112","providerTheaterId":"","name":"Regal Pavilion Stadium 14","address":"5547 S Williamson Blvd.","city":"Port Orange","state":"FL","zip":"32128","distance":15.087618284506,"lon":"-81.0315","lat":"29.1051","theaterChainName":"Regal Cinemas","ticketType":"STANDARD"},{"id":"4934","tribuneTheaterId":"10284","providerTheaterId":"","name":"Epic Theatres of Palm Coast","address":"1185 Cetral Ave.","city":"Palm Coast","state":"FL","zip":"32164","distance":14.137913196218,"lon":"-81.203706","lat":"29.482963","theaterChainName":"Epic Theatres","ticketType":"STANDARD"},{"id":"5625","tribuneTheaterId":"11088","providerTheaterId":"","name":"New SmyrnaLux 12","address":"1401 S Dixie Freeway","city":"New Smyrna","state":"FL","zip":"32168","distance":23.167265751224,"lon":"-80.9198","lat":"29.0095","theaterChainName":"Carmike Cinemas","ticketType":"STANDARD"}]