[{"id":"6117","name":"B&B Theatres Amelia Island 7","address":"1132 S 14th St","city":"Fernandina Beach","state":"FL","zip":"32034","distance":"18.895750045776367","lon":"-81.452454","lat":"30.655537","theaterChainName":"B&B Theatres","ticketType":"STANDARD"},{"id":"5624","name":"Coastal Cinema 10","address":"96012 Lofton Square","city":"Yulee","state":"FL","zip":"32097","distance":"17.86359977722168","lon":"-81.545197","lat":"30.623501","theaterChainName":"Carmike Cinemas","ticketType":"STANDARD"},{"id":"4257","name":"Regal River City Marketplace Stadium 14","address":"12884 City Center Blvd","city":"Jacksonville","state":"FL","zip":"32218","distance":"13.828242301940918","lon":"-81.643661","lat":"30.473310","theaterChainName":"Regal Cinemas","ticketType":"STANDARD"},{"id":"2296","name":"AMC Regency 24","address":"9451 Regency Square Blvd.","city":"Jacksonville","state":"FL","zip":"32225","distance":"8.006634712219238","lon":"-81.554695","lat":"30.326775","theaterChainName":"AMC Theatres","ticketType":"STANDARD"},{"id":"4605","name":"Sun-Ray Cinema","address":"1028 Park St.","city":"Jacksonville","state":"FL","zip":"32204","distance":"15.284939765930176","lon":"-81.680931","lat":"30.314699","theaterChainName":"Independent Chains","ticketType":"STANDARD"},{"id":"901","name":"San Marco Theatre","address":"1996 San Marco Blvd.","city":"Jacksonville","state":"FL","zip":"32207","distance":"14.056839942932129","lon":"-81.654343","lat":"30.303852","theaterChainName":"Independent Chains","ticketType":"STANDARD"},{"id":"628","name":"Regal Beach Boulevard Stadium 18","address":"14051 Beach Blvd","city":"Jacksonville","state":"FL","zip":"32250","distance":"6.471801280975342","lon":"-81.446503","lat":"30.289106","theaterChainName":"Regal Cinemas","ticketType":"STANDARD"},{"id":"1306","name":"Cinemark Tinseltown Jacksonville","address":"4535 Southside Blvd","city":"Jacksonville","state":"FL","zip":"32216","distance":"10.928777694702148","lon":"-81.557198","lat":"30.263100","theaterChainName":"Cinemark","ticketType":"STANDARD"},{"id":"581","name":"AMC Orange Park 24","address":"1910 Wells Road","city":"Orange Park","state":"FL","zip":"32073","distance":"22.436609268188477","lon":"-81.735870","lat":"30.185469","theaterChainName":"AMC Theatres","ticketType":"STANDARD"},{"id":"2767","name":"Regal The Avenues Stadium 20","address":"9525 Phillips Highway","city":"Jacksonville","state":"FL","zip":"32256","distance":"15.18437671661377","lon":"-81.565002","lat":"30.192520","theaterChainName":"Regal Cinemas","ticketType":"STANDARD"}]