[{"id":"628","tribuneTheaterId":"7413","providerTheaterId":"","name":"Regal Beach Boulevard Stadium 18","address":"14051 Beach Blvd","city":"Jacksonville","state":"FL","zip":"32250","distance":6.4712931009243,"lon":"-81.4465","lat":"30.289107","theaterChainName":"Regal Cinemas","ticketType":"STANDARD"},{"id":"2296","tribuneTheaterId":"9209","providerTheaterId":"309","name":"AMC Regency 24","address":"9451 Regency Square Blvd.","city":"Jacksonville","state":"FL","zip":"32225","distance":8.0059922627838,"lon":"-81.554695","lat":"30.326774","theaterChainName":"AMC Theatres","ticketType":"STANDARD"},{"id":"1306","tribuneTheaterId":"5219","providerTheaterId":"","name":"Cinemark Tinseltown Jacksonville","address":"4535 Southside Blvd","city":"Jacksonville","state":"FL","zip":"32216","distance":10.928044624662,"lon":"-81.5572","lat":"30.2631","theaterChainName":"Cinemark","ticketType":"STANDARD"},{"id":"901","tribuneTheaterId":"2422","providerTheaterId":"","name":"San Marco Theatre","address":"1996 San Marco Blvd.","city":"Jacksonville","state":"FL","zip":"32207","distance":14.055744610675,"lon":"-81.654342","lat":"30.303853","theaterChainName":"Independent Chains","ticketType":"STANDARD"},{"id":"4257","tribuneTheaterId":"5142","providerTheaterId":"","name":"Regal River City Marketplace Stadium 14","address":"12884 City Center Blvd","city":"Jacksonville","state":"FL","zip":"32218","distance":13.827215334664,"lon":"-81.643661","lat":"30.47331","theaterChainName":"Regal Cinemas","ticketType":"STANDARD"},{"id":"2767","tribuneTheaterId":"8409","providerTheaterId":"","name":"Regal The Avenues Stadium 20","address":"9525 Phillips Highway","city":"Jacksonville","state":"FL","zip":"32256","distance":15.183198446643,"lon":"-81.565","lat":"30.192521","theaterChainName":"Regal Cinemas","ticketType":"STANDARD"},{"id":"4605","tribuneTheaterId":"9777","providerTheaterId":"","name":"Sun-Ray Cinema","address":"1028 Park St.","city":"Jacksonville","state":"FL","zip":"32204","distance":15.283768462245,"lon":"-81.68093","lat":"30.314699","theaterChainName":"Independent Chains","ticketType":"STANDARD"},{"id":"5624","tribuneTheaterId":"11087","providerTheaterId":"","name":"Coastal Cinema 10","address":"96012 Lofton Square","city":"Yulee","state":"FL","zip":"32097","distance":17.862488231617,"lon":"-81.5452","lat":"30.6235","theaterChainName":"Carmike Cinemas","ticketType":"STANDARD"},{"id":"6117","tribuneTheaterId":"11532","providerTheaterId":"","name":"B&B Theatres Amelia Island 7","address":"1132 S 14th St","city":"Fernandina Beach","state":"FL","zip":"32034","distance":18.894556968613,"lon":"-81.452452","lat":"30.655536","theaterChainName":"B&B Theatres","ticketType":"STANDARD"},{"id":"581","tribuneTheaterId":"7206","providerTheaterId":"587","name":"AMC Orange Park 24","address":"1910 Wells Road","city":"Orange Park","state":"FL","zip":"32073","distance":22.434895642091,"lon":"-81.735867","lat":"30.185469","theaterChainName":"AMC Theatres","ticketType":"STANDARD"}]