[{"id":"5624","name":"Coastal Cinema 10","address":"96012 Lofton Square","city":"Yulee","state":"FL","zip":"32097","distance":"22.916545867919922","lon":"-81.545197","lat":"30.623501","theaterChainName":"Carmike Cinemas","ticketType":"STANDARD"},{"id":"4257","name":"Regal River City Marketplace Stadium 14","address":"12884 City Center Blvd","city":"Jacksonville","state":"FL","zip":"32218","distance":"14.79690170288086","lon":"-81.643661","lat":"30.473310","theaterChainName":"Regal Cinemas","ticketType":"STANDARD"},{"id":"2296","name":"AMC Regency 24","address":"9451 Regency Square Blvd.","city":"Jacksonville","state":"FL","zip":"32225","distance":"3.5657706260681152","lon":"-81.554695","lat":"30.326775","theaterChainName":"AMC Theatres","ticketType":"STANDARD"},{"id":"4605","name":"Sun-Ray Cinema","address":"1028 Park St.","city":"Jacksonville","state":"FL","zip":"32204","distance":"10.350895881652832","lon":"-81.680931","lat":"30.314699","theaterChainName":"Independent Chains","ticketType":"STANDARD"},{"id":"901","name":"San Marco Theatre","address":"1996 San Marco Blvd.","city":"Jacksonville","state":"FL","zip":"32207","distance":"8.689702033996582","lon":"-81.654343","lat":"30.303852","theaterChainName":"Independent Chains","ticketType":"STANDARD"},{"id":"628","name":"Regal Beach Boulevard Stadium 18","address":"14051 Beach Blvd","city":"Jacksonville","state":"FL","zip":"32250","distance":"3.7520384788513184","lon":"-81.446503","lat":"30.289106","theaterChainName":"Regal Cinemas","ticketType":"STANDARD"},{"id":"1306","name":"Cinemark Tinseltown Jacksonville","address":"4535 Southside Blvd","city":"Jacksonville","state":"FL","zip":"32216","distance":"3.5436575412750244","lon":"-81.557198","lat":"30.263100","theaterChainName":"Cinemark","ticketType":"STANDARD"},{"id":"581","name":"AMC Orange Park 24","address":"1910 Wells Road","city":"Orange Park","state":"FL","zip":"32073","distance":"15.446915626525879","lon":"-81.735870","lat":"30.185469","theaterChainName":"AMC Theatres","ticketType":"STANDARD"},{"id":"4714","name":"Carmike Fleming Island 12","address":"1820 Town Center Blvd","city":"Fleming Island","state":"FL","zip":"32003","distance":"18.227617263793945","lon":"-81.714645","lat":"30.098217","theaterChainName":"Carmike Cinemas","ticketType":"STANDARD"},{"id":"5911","name":"Epic Theatres at Oakleaf","address":"8368 Merchants Way","city":"Jacksonville","state":"FL","zip":"32222","distance":"20.44087791442871","lon":"-81.832008","lat":"30.194584","theaterChainName":"Epic Theatres","ticketType":"STANDARD"},{"id":"2767","name":"Regal The Avenues Stadium 20","address":"9525 Phillips Highway","city":"Jacksonville","state":"FL","zip":"32256","distance":"7.7193450927734375","lon":"-81.565002","lat":"30.192520","theaterChainName":"Regal Cinemas","ticketType":"STANDARD"}]