[{"id":"2767","tribuneTheaterId":"8409","providerTheaterId":"","name":"Regal The Avenues Stadium 20","address":"9525 Phillips Highway","city":"Jacksonville","state":"FL","zip":"32256","distance":3.2647753185583,"lon":"-81.565","lat":"30.192521","theaterChainName":"Regal Cinemas","ticketType":"STANDARD"},{"id":"4714","tribuneTheaterId":"9929","providerTheaterId":"","name":"Carmike Fleming Island 12","address":"1820 Town Center Blvd","city":"Fleming Island","state":"FL","zip":"32003","distance":9.0335763151506,"lon":"-81.714646","lat":"30.098217","theaterChainName":"Carmike Cinemas","ticketType":"STANDARD"},{"id":"1306","tribuneTheaterId":"5219","providerTheaterId":"","name":"Cinemark Tinseltown Jacksonville","address":"4535 Southside Blvd","city":"Jacksonville","state":"FL","zip":"32216","distance":8.1589049806102,"lon":"-81.5572","lat":"30.2631","theaterChainName":"Cinemark","ticketType":"STANDARD"},{"id":"581","tribuneTheaterId":"7206","providerTheaterId":"587","name":"AMC Orange Park 24","address":"1910 Wells Road","city":"Orange Park","state":"FL","zip":"32073","distance":10.054174048286,"lon":"-81.735867","lat":"30.185469","theaterChainName":"AMC Theatres","ticketType":"STANDARD"},{"id":"2296","tribuneTheaterId":"9209","providerTheaterId":"309","name":"AMC Regency 24","address":"9451 Regency Square Blvd.","city":"Jacksonville","state":"FL","zip":"32225","distance":12.549654305683,"lon":"-81.554695","lat":"30.326774","theaterChainName":"AMC Theatres","ticketType":"STANDARD"},{"id":"628","tribuneTheaterId":"7413","providerTheaterId":"","name":"Regal Beach Boulevard Stadium 18","address":"14051 Beach Blvd","city":"Jacksonville","state":"FL","zip":"32250","distance":12.480443358424,"lon":"-81.4465","lat":"30.289107","theaterChainName":"Regal Cinemas","ticketType":"STANDARD"},{"id":"901","tribuneTheaterId":"2422","providerTheaterId":"","name":"San Marco Theatre","address":"1996 San Marco Blvd.","city":"Jacksonville","state":"FL","zip":"32207","distance":11.923407466366,"lon":"-81.654342","lat":"30.303853","theaterChainName":"Independent Chains","ticketType":"STANDARD"},{"id":"4605","tribuneTheaterId":"9777","providerTheaterId":"","name":"Sun-Ray Cinema","address":"1028 Park St.","city":"Jacksonville","state":"FL","zip":"32204","distance":13.298385453789,"lon":"-81.68093","lat":"30.314699","theaterChainName":"Independent Chains","ticketType":"STANDARD"},{"id":"5911","tribuneTheaterId":"11335","providerTheaterId":"","name":"Epic Theatres at Oakleaf","address":"8368 Merchants Way","city":"Jacksonville","state":"FL","zip":"32222","distance":15.780269219426,"lon":"-81.832006","lat":"30.194583","theaterChainName":"Epic Theatres","ticketType":"STANDARD"},{"id":"5567","tribuneTheaterId":"11014","providerTheaterId":"","name":"The Corazon Cinema and Cafe","address":"36 Granada Street","city":"Saint Augustine","state":"FL","zip":"32084","distance":23.54294097348,"lon":"-81.314024","lat":"29.890026","theaterChainName":"Independent Chains","ticketType":"STANDARD"},{"id":"4257","tribuneTheaterId":"5142","providerTheaterId":"","name":"Regal River City Marketplace Stadium 14","address":"12884 City Center Blvd","city":"Jacksonville","state":"FL","zip":"32218","distance":23.001366080151,"lon":"-81.643661","lat":"30.47331","theaterChainName":"Regal Cinemas","ticketType":"STANDARD"},{"id":"4764","tribuneTheaterId":"10002","providerTheaterId":"","name":"Epic Theatres of St. Augustine","address":"112 Theatre Drive","city":"Saint Augustine","state":"FL","zip":"32086","distance":24.062736435564,"lon":"-81.341684","lat":"29.861562","theaterChainName":"Epic Theatres","ticketType":"STANDARD"}]