[{"id":"628","name":"Regal Beach Boulevard Stadium 18","address":"14051 Beach Blvd","city":"Jacksonville","state":"FL","zip":"32250","distance":"24.33061981201172","lon":"-81.446503","lat":"30.289106","theaterChainName":"Regal Cinemas","ticketType":"STANDARD"},{"id":"1306","name":"Cinemark Tinseltown Jacksonville","address":"4535 Southside Blvd","city":"Jacksonville","state":"FL","zip":"32216","distance":"23.921175003051758","lon":"-81.557198","lat":"30.263100","theaterChainName":"Cinemark","ticketType":"STANDARD"},{"id":"4714","name":"Carmike Fleming Island 12","address":"1820 Town Center Blvd","city":"Fleming Island","state":"FL","zip":"32003","distance":"20.796955108642578","lon":"-81.714645","lat":"30.098217","theaterChainName":"Carmike Cinemas","ticketType":"STANDARD"},{"id":"2767","name":"Regal The Avenues Stadium 20","address":"9525 Phillips Highway","city":"Jacksonville","state":"FL","zip":"32256","distance":"19.61098861694336","lon":"-81.565002","lat":"30.192520","theaterChainName":"Regal Cinemas","ticketType":"STANDARD"},{"id":"4764","name":"Epic Theatres of St. Augustine","address":"112 Theatre Drive","city":"Saint Augustine","state":"FL","zip":"32086","distance":"7.072790145874023","lon":"-81.341682","lat":"29.861563","theaterChainName":"Epic Theatres","ticketType":"STANDARD"},{"id":"5567","name":"The Corazon Cinema and Cafe","address":"36 Granada Street","city":"Saint Augustine","state":"FL","zip":"32084","distance":"7.182917594909668","lon":"-81.314026","lat":"29.890026","theaterChainName":"Independent Chains","ticketType":"STANDARD"}]