[{"id":"858","name":"Regal Regency Eleven","address":"1515 W 23rd Street","city":"Panama City","state":"FL","zip":"32406","distance":"8.505952835083008","lon":"-85.686356","lat":"30.188707","theaterChainName":"Regal Cinemas","ticketType":"STANDARD"},{"id":"2164","name":"Carmike Panama City 4","address":"2218 North Cove Blvd","city":"Panama City","state":"FL","zip":"32405","distance":"8.927462577819824","lon":"-85.649902","lat":"30.187799","theaterChainName":"Carmike Cinemas","ticketType":"STANDARD"},{"id":"2163","name":"Carmike 10 Panama City","address":"4049 West 23rd St","city":"Panama City","state":"FL","zip":"32405","distance":"8.572434425354004","lon":"-85.711494","lat":"30.188751","theaterChainName":"Carmike Cinemas","ticketType":"STANDARD"},{"id":"4341","name":"Grand Theatre 16","address":"500 South Pier Park","city":"Panama City","state":"FL","zip":"32413","distance":"12.589813232421875","lon":"-85.873589","lat":"30.218531","theaterChainName":"Southern Theatres","ticketType":"STANDARD"}]