[{"id":"5316","tribuneTheaterId":"10753","providerTheaterId":"","name":"Carmike Cinemas Boulevard 10 Theatre","address":"465 Grand Blvd.","city":"Miramar Beach","state":"FL","zip":"32550","distance":4.2567673272098,"lon":"-86.3155","lat":"30.3793","theaterChainName":"Carmike Cinemas","ticketType":"STANDARD"},{"id":"5279","tribuneTheaterId":"10713","providerTheaterId":"462","name":"AMC Destin Commons 14","address":"4000 Legendary Dr.","city":"Destin","state":"FL","zip":"32541","distance":10.911437104922,"lon":"-86.426","lat":"30.3937","theaterChainName":"AMC Theatres","ticketType":"STANDARD"},{"id":"715","tribuneTheaterId":"6481","providerTheaterId":"","name":"Lively Cinema 10","address":"759 Hwy 98 East","city":"Destin","state":"FL","zip":"32541","distance":14.442178188037,"lon":"-86.486105","lat":"30.392613","theaterChainName":"Independent Chains","ticketType":"STANDARD"},{"id":"4569","tribuneTheaterId":"9712","providerTheaterId":"","name":"Cinema Plus","address":"174 Miracle Strip Pkwy","city":"Fort Walton Beach","state":"FL","zip":"32548","distance":21.625836854681,"lon":"-86.605998","lat":"30.403532","theaterChainName":"Independent Chains","ticketType":"STANDARD"},{"id":"806","tribuneTheaterId":"8059","providerTheaterId":"","name":"United Artists Santa Rosa 10","address":"300 Mary Esther Blvd","city":"Mary Esther","state":"FL","zip":"32569","distance":24.889260299261,"lon":"-86.659282","lat":"30.416425","theaterChainName":"United Artists","ticketType":"STANDARD"},{"id":"857","tribuneTheaterId":"8301","providerTheaterId":"","name":"Regal Sun Plaza Stadium","address":"427 Mary Esther Cutoff NW","city":"Fort Walton Beach","state":"FL","zip":"32548","distance":24.15529836099,"lon":"-86.645221","lat":"30.425297","theaterChainName":"Regal Cinemas","ticketType":"STANDARD"},{"id":"4341","tribuneTheaterId":"9324","providerTheaterId":"","name":"Grand Theatre 16","address":"500 South Pier Park","city":"Panama City","state":"FL","zip":"32413","distance":24.429181059035,"lon":"-85.873588","lat":"30.21853","theaterChainName":"Southern Theatres","ticketType":"STANDARD"}]