[{"id":"4341","name":"Grand Theatre 16","address":"500 South Pier Park","city":"Panama City","state":"FL","zip":"32413","distance":"24.43044090270996","lon":"-85.873589","lat":"30.218531","theaterChainName":"Southern Theatres","ticketType":"STANDARD"},{"id":"5316","name":"Carmike Cinemas Boulevard 10 Theatre","address":"465 Grand Blvd.","city":"Miramar Beach","state":"FL","zip":"32550","distance":"4.257143020629883","lon":"-86.315498","lat":"30.379299","theaterChainName":"Carmike Cinemas","ticketType":"STANDARD"},{"id":"5279","name":"AMC Destin Commons 14","address":"4000 Legendary Dr.","city":"Destin","state":"FL","zip":"32541","distance":"10.91247844696045","lon":"-86.426003","lat":"30.393700","theaterChainName":"AMC Theatres","ticketType":"STANDARD"},{"id":"715","name":"Lively Cinema 10","address":"759 Hwy 98 East","city":"Destin","state":"FL","zip":"32541","distance":"14.443403244018555","lon":"-86.486107","lat":"30.392612","theaterChainName":"Independent Chains","ticketType":"STANDARD"},{"id":"4569","name":"Cinema Plus","address":"174 Miracle Strip Pkwy","city":"Fort Walton Beach","state":"FL","zip":"32548","distance":"21.627235412597656","lon":"-86.605995","lat":"30.403532","theaterChainName":"Independent Chains","ticketType":"STANDARD"},{"id":"857","name":"Regal Sun Plaza Stadium","address":"427 Mary Esther Cutoff NW","city":"Fort Walton Beach","state":"FL","zip":"32548","distance":"24.15683364868164","lon":"-86.645218","lat":"30.425297","theaterChainName":"Regal Cinemas","ticketType":"STANDARD"},{"id":"806","name":"United Artists Santa Rosa 10","address":"300 Mary Esther Blvd","city":"Mary Esther","state":"FL","zip":"32569","distance":"24.89084815979004","lon":"-86.659279","lat":"30.416426","theaterChainName":"United Artists","ticketType":"STANDARD"}]