[{"id":"4341","tribuneTheaterId":"9324","providerTheaterId":"","name":"Grand Theatre 16","address":"500 South Pier Park","city":"Panama City","state":"FL","zip":"32413","distance":10.385501423577,"lon":"-85.873588","lat":"30.21853","theaterChainName":"Southern Theatres","ticketType":"STANDARD"},{"id":"5316","tribuneTheaterId":"10753","providerTheaterId":"","name":"Carmike Cinemas Boulevard 10 Theatre","address":"465 Grand Blvd.","city":"Miramar Beach","state":"FL","zip":"32550","distance":18.2396000955,"lon":"-86.3155","lat":"30.3793","theaterChainName":"Carmike Cinemas","ticketType":"STANDARD"},{"id":"2163","tribuneTheaterId":"5728","providerTheaterId":"","name":"Carmike 10 Panama City","address":"4049 West 23rd St","city":"Panama City","state":"FL","zip":"32405","distance":20.136366126678,"lon":"-85.711496","lat":"30.188752","theaterChainName":"Carmike Cinemas","ticketType":"STANDARD"},{"id":"858","tribuneTheaterId":"7732","providerTheaterId":"","name":"Regal Regency Eleven","address":"1515 W 23rd Street","city":"Panama City","state":"FL","zip":"32406","distance":21.562181700974,"lon":"-85.686353","lat":"30.188707","theaterChainName":"Regal Cinemas","ticketType":"STANDARD"},{"id":"2164","tribuneTheaterId":"5723","providerTheaterId":"","name":"Carmike Panama City 4","address":"2218 North Cove Blvd","city":"Panama City","state":"FL","zip":"32405","distance":23.662059376013,"lon":"-85.649902","lat":"30.187799","theaterChainName":"Carmike Cinemas","ticketType":"STANDARD"},{"id":"5279","tribuneTheaterId":"10713","providerTheaterId":"462","name":"AMC Destin Commons 14","address":"4000 Legendary Dr.","city":"Destin","state":"FL","zip":"32541","distance":24.78281274829,"lon":"-86.426","lat":"30.3937","theaterChainName":"AMC Theatres","ticketType":"STANDARD"}]