[{"id":"4392","name":"Carmike Bayou 15","address":"5149 Bayou Boulevard","city":"Pensacola","state":"FL","zip":"32503","distance":"6.418761253356934","lon":"-87.216812","lat":"30.472885","theaterChainName":"Carmike Cinemas","ticketType":"STANDARD"},{"id":"3220","name":"Carmike Pensacola W. Street 18","address":"6595 North W Street","city":"Pensacola","state":"FL","zip":"32534","distance":"5.844112873077393","lon":"-87.259201","lat":"30.485901","theaterChainName":"Cinemark","ticketType":"STANDARD"},{"id":"2666","name":"The Breeze Cinema 8","address":"1233 Crane Cove","city":"Gulf Breeze","state":"FL","zip":"32563","distance":"11.293734550476074","lon":"-87.104256","lat":"30.382170","theaterChainName":"Independent Chains","ticketType":"STANDARD"},{"id":"1637","name":"Carmike 10 Pensacola","address":"161 E 9 Mile Road","city":"Pensacola","state":"FL","zip":"32534","distance":"8.735149383544922","lon":"-87.266167","lat":"30.530586","theaterChainName":"Carmike Cinemas","ticketType":"STANDARD"},{"id":"5170","name":"The Ridge Cinema 8","address":"4915 Hwy. 90","city":"Pace","state":"FL","zip":"32571","distance":"16.95838737487793","lon":"-87.119118","lat":"30.601351","theaterChainName":"Independent Chains","ticketType":"STANDARD"},{"id":"4213","name":"Carmike Wharf 15","address":"23101 Canal Road","city":"Orange Beach","state":"AL","zip":"36561","distance":"21.58879852294922","lon":"-87.628952","lat":"30.292442","theaterChainName":"Carmike Cinemas","ticketType":"STANDARD"},{"id":"4086","name":"Cobb Pinnacle 14","address":"3780 Gulfshores Pkwy.","city":"Gulf Shores","state":"AL","zip":"36542","distance":"24.344234466552734","lon":"-87.681190","lat":"30.300438","theaterChainName":"Cobb Theatres","ticketType":"STANDARD"}]