[{"id":"806","tribuneTheaterId":"8059","providerTheaterId":"","name":"United Artists Santa Rosa 10","address":"300 Mary Esther Blvd","city":"Mary Esther","state":"FL","zip":"32569","distance":2.3791255065371,"lon":"-86.659282","lat":"30.416425","theaterChainName":"United Artists","ticketType":"STANDARD"},{"id":"857","tribuneTheaterId":"8301","providerTheaterId":"","name":"Regal Sun Plaza Stadium","address":"427 Mary Esther Cutoff NW","city":"Fort Walton Beach","state":"FL","zip":"32548","distance":3.178638047264,"lon":"-86.645221","lat":"30.425297","theaterChainName":"Regal Cinemas","ticketType":"STANDARD"},{"id":"4569","tribuneTheaterId":"9712","providerTheaterId":"","name":"Cinema Plus","address":"174 Miracle Strip Pkwy","city":"Fort Walton Beach","state":"FL","zip":"32548","distance":5.6719334457951,"lon":"-86.605998","lat":"30.403532","theaterChainName":"Independent Chains","ticketType":"STANDARD"},{"id":"715","tribuneTheaterId":"6481","providerTheaterId":"","name":"Lively Cinema 10","address":"759 Hwy 98 East","city":"Destin","state":"FL","zip":"32541","distance":12.828274861349,"lon":"-86.486105","lat":"30.392613","theaterChainName":"Independent Chains","ticketType":"STANDARD"},{"id":"5279","tribuneTheaterId":"10713","providerTheaterId":"462","name":"AMC Destin Commons 14","address":"4000 Legendary Dr.","city":"Destin","state":"FL","zip":"32541","distance":16.36281413182,"lon":"-86.426","lat":"30.3937","theaterChainName":"AMC Theatres","ticketType":"STANDARD"},{"id":"5316","tribuneTheaterId":"10753","providerTheaterId":"","name":"Carmike Cinemas Boulevard 10 Theatre","address":"465 Grand Blvd.","city":"Miramar Beach","state":"FL","zip":"32550","distance":23.022144534733,"lon":"-86.3155","lat":"30.3793","theaterChainName":"Carmike Cinemas","ticketType":"STANDARD"},{"id":"2666","tribuneTheaterId":"3096","providerTheaterId":"","name":"The Breeze Cinema 8","address":"1233 Crane Cove","city":"Gulf Breeze","state":"FL","zip":"32563","distance":24.343227463946,"lon":"-87.104257","lat":"30.382169","theaterChainName":"Independent Chains","ticketType":"STANDARD"}]