[{"id":"5279","name":"AMC Destin Commons 14","address":"4000 Legendary Dr.","city":"Destin","state":"FL","zip":"32541","distance":"18.455516815185547","lon":"-86.426003","lat":"30.393700","theaterChainName":"AMC Theatres","ticketType":"STANDARD"},{"id":"715","name":"Lively Cinema 10","address":"759 Hwy 98 East","city":"Destin","state":"FL","zip":"32541","distance":"14.88574504852295","lon":"-86.486107","lat":"30.392612","theaterChainName":"Independent Chains","ticketType":"STANDARD"},{"id":"4569","name":"Cinema Plus","address":"174 Miracle Strip Pkwy","city":"Fort Walton Beach","state":"FL","zip":"32548","distance":"7.707413196563721","lon":"-86.605995","lat":"30.403532","theaterChainName":"Independent Chains","ticketType":"STANDARD"},{"id":"857","name":"Regal Sun Plaza Stadium","address":"427 Mary Esther Cutoff NW","city":"Fort Walton Beach","state":"FL","zip":"32548","distance":"5.485896587371826","lon":"-86.645218","lat":"30.425297","theaterChainName":"Regal Cinemas","ticketType":"STANDARD"},{"id":"806","name":"United Artists Santa Rosa 10","address":"300 Mary Esther Blvd","city":"Mary Esther","state":"FL","zip":"32569","distance":"4.55709981918335","lon":"-86.659279","lat":"30.416426","theaterChainName":"United Artists","ticketType":"STANDARD"},{"id":"2666","name":"The Breeze Cinema 8","address":"1233 Crane Cove","city":"Gulf Breeze","state":"FL","zip":"32563","distance":"22.071056365966797","lon":"-87.104256","lat":"30.382170","theaterChainName":"Independent Chains","ticketType":"STANDARD"}]