[{"id":"857","name":"Regal Sun Plaza Stadium","address":"427 Mary Esther Cutoff NW","city":"Fort Walton Beach","state":"FL","zip":"32548","distance":"22.86302375793457","lon":"-86.645218","lat":"30.425297","theaterChainName":"Regal Cinemas","ticketType":"STANDARD"},{"id":"806","name":"United Artists Santa Rosa 10","address":"300 Mary Esther Blvd","city":"Mary Esther","state":"FL","zip":"32569","distance":"21.982011795043945","lon":"-86.659279","lat":"30.416426","theaterChainName":"United Artists","ticketType":"STANDARD"},{"id":"4392","name":"Carmike Bayou 15","address":"5149 Bayou Boulevard","city":"Pensacola","state":"FL","zip":"32503","distance":"12.46678638458252","lon":"-87.216812","lat":"30.472885","theaterChainName":"Carmike Cinemas","ticketType":"STANDARD"},{"id":"3220","name":"Carmike Pensacola W. Street 18","address":"6595 North W Street","city":"Pensacola","state":"FL","zip":"32534","distance":"15.136343002319336","lon":"-87.259201","lat":"30.485901","theaterChainName":"Cinemark","ticketType":"STANDARD"},{"id":"2666","name":"The Breeze Cinema 8","address":"1233 Crane Cove","city":"Gulf Breeze","state":"FL","zip":"32563","distance":"4.682549476623535","lon":"-87.104256","lat":"30.382170","theaterChainName":"Independent Chains","ticketType":"STANDARD"},{"id":"1637","name":"Carmike 10 Pensacola","address":"161 E 9 Mile Road","city":"Pensacola","state":"FL","zip":"32534","distance":"16.98403549194336","lon":"-87.266167","lat":"30.530586","theaterChainName":"Carmike Cinemas","ticketType":"STANDARD"},{"id":"5170","name":"The Ridge Cinema 8","address":"4915 Hwy. 90","city":"Pace","state":"FL","zip":"32571","distance":"15.19086742401123","lon":"-87.119118","lat":"30.601351","theaterChainName":"Independent Chains","ticketType":"STANDARD"}]