[{"id":"4392","name":"Carmike Bayou 15","address":"5149 Bayou Boulevard","city":"Pensacola","state":"FL","zip":"32503","distance":"16.41916847229004","lon":"-87.216812","lat":"30.472885","theaterChainName":"Carmike Cinemas","ticketType":"STANDARD"},{"id":"3220","name":"Carmike Pensacola W. Street 18","address":"6595 North W Street","city":"Pensacola","state":"FL","zip":"32534","distance":"17.444183349609375","lon":"-87.259201","lat":"30.485901","theaterChainName":"Cinemark","ticketType":"STANDARD"},{"id":"2666","name":"The Breeze Cinema 8","address":"1233 Crane Cove","city":"Gulf Breeze","state":"FL","zip":"32563","distance":"19.52167320251465","lon":"-87.104256","lat":"30.382170","theaterChainName":"Independent Chains","ticketType":"STANDARD"},{"id":"1637","name":"Carmike 10 Pensacola","address":"161 E 9 Mile Road","city":"Pensacola","state":"FL","zip":"32534","distance":"15.808734893798828","lon":"-87.266167","lat":"30.530586","theaterChainName":"Carmike Cinemas","ticketType":"STANDARD"},{"id":"5170","name":"The Ridge Cinema 8","address":"4915 Hwy. 90","city":"Pace","state":"FL","zip":"32571","distance":"5.905909538269043","lon":"-87.119118","lat":"30.601351","theaterChainName":"Independent Chains","ticketType":"STANDARD"}]