[{"id":"676","tribuneTheaterId":"8880","providerTheaterId":"","name":"Butler Plaza Stadium 14","address":"3101 SW 35th Blvd","city":"Gainesville","state":"FL","zip":"32608","distance":15.803196897581,"lon":"-82.377208","lat":"29.627202","theaterChainName":"Regal Cinemas","ticketType":"STANDARD"},{"id":"2795","tribuneTheaterId":"2585","providerTheaterId":"","name":"Hippodrome State Theatre","address":"25 SE 2nd Place","city":"Gainesville","state":"FL","zip":"32601","distance":15.682072147075,"lon":"-82.323981","lat":"29.649563","theaterChainName":"Independent Chains","ticketType":"STANDARD"},{"id":"859","tribuneTheaterId":"7734","providerTheaterId":"","name":"Regal Royal Park Stadium","address":"3702 Newberry Road","city":"Gainesville","state":"FL","zip":"32607","distance":17.439091120372,"lon":"-82.380209","lat":"29.653674","theaterChainName":"Regal Cinemas","ticketType":"STANDARD"},{"id":"632","tribuneTheaterId":"7888","providerTheaterId":"","name":"Regal Hollywood Stadium 16-Ocala","address":"2801 SW 27th Avenue","city":"Ocala","state":"FL","zip":"34474","distance":19.420366101743,"lon":"-82.167091","lat":"29.162245","theaterChainName":"Regal Cinemas","ticketType":"STANDARD"},{"id":"3405","tribuneTheaterId":"1959","providerTheaterId":"","name":"Ocala Centre 6","address":"2021 E. Silver Springs Blvd.","city":"Ocala","state":"FL","zip":"34470","distance":18.707079672864,"lon":"-82.111988","lat":"29.187387","theaterChainName":"Independent Chains","ticketType":"STANDARD"},{"id":"5262","tribuneTheaterId":"10693","providerTheaterId":"","name":"Marion Theater - Ocala","address":"50 S. Magnolia Ave.","city":"Ocala","state":"FL","zip":"34471","distance":18.283449934066,"lon":"-82.1369","lat":"29.186","theaterChainName":"Independent Chains","ticketType":"STANDARD"}]