[{"id":"859","name":"Regal Royal Park Stadium","address":"3702 Newberry Road","city":"Gainesville","state":"FL","zip":"32607","distance":"20.899642944335938","lon":"-82.380211","lat":"29.653673","theaterChainName":"Regal Cinemas","ticketType":"STANDARD"},{"id":"676","name":"Butler Plaza Stadium 14","address":"3101 SW 35th Blvd","city":"Gainesville","state":"FL","zip":"32608","distance":"19.15431022644043","lon":"-82.377205","lat":"29.627201","theaterChainName":"Regal Cinemas","ticketType":"STANDARD"},{"id":"2795","name":"Hippodrome State Theatre","address":"25 SE 2nd Place","city":"Gainesville","state":"FL","zip":"32601","distance":"19.54488754272461","lon":"-82.323982","lat":"29.649563","theaterChainName":"Independent Chains","ticketType":"STANDARD"},{"id":"3405","name":"Ocala Centre 6","address":"2021 E. Silver Springs Blvd.","city":"Ocala","state":"FL","zip":"34470","distance":"15.2341890335083","lon":"-82.111984","lat":"29.187387","theaterChainName":"Independent Chains","ticketType":"STANDARD"},{"id":"5262","name":"Marion Theater - Ocala","address":"50 S. Magnolia Ave.","city":"Ocala","state":"FL","zip":"34471","distance":"14.592368125915527","lon":"-82.136902","lat":"29.186001","theaterChainName":"Independent Chains","ticketType":"STANDARD"},{"id":"632","name":"Regal Hollywood Stadium 16-Ocala","address":"2801 SW 27th Avenue","city":"Ocala","state":"FL","zip":"34474","distance":"15.440926551818848","lon":"-82.167091","lat":"29.162245","theaterChainName":"Regal Cinemas","ticketType":"STANDARD"}]