[{"id":"859","tribuneTheaterId":"7734","providerTheaterId":"","name":"Regal Royal Park Stadium","address":"3702 Newberry Road","city":"Gainesville","state":"FL","zip":"32607","distance":19.387062869959,"lon":"-82.380209","lat":"29.653674","theaterChainName":"Regal Cinemas","ticketType":"STANDARD"},{"id":"2795","tribuneTheaterId":"2585","providerTheaterId":"","name":"Hippodrome State Theatre","address":"25 SE 2nd Place","city":"Gainesville","state":"FL","zip":"32601","distance":20.408924525475,"lon":"-82.323981","lat":"29.649563","theaterChainName":"Independent Chains","ticketType":"STANDARD"},{"id":"676","tribuneTheaterId":"8880","providerTheaterId":"","name":"Butler Plaza Stadium 14","address":"3101 SW 35th Blvd","city":"Gainesville","state":"FL","zip":"32608","distance":21.2234690021,"lon":"-82.377208","lat":"29.627202","theaterChainName":"Regal Cinemas","ticketType":"STANDARD"},{"id":"805","tribuneTheaterId":"7277","providerTheaterId":"","name":"United Artists Cinema 90","address":"Highway 90 West","city":"Lake City","state":"FL","zip":"32055","distance":22.801563823028,"lon":"-82.678975","lat":"30.178023","theaterChainName":"United Artists","ticketType":"STANDARD"}]