[{"id":"5399","name":"Satellite Cinemas Titusville","address":"3550 S. Washington Ave.","city":"Titusville","state":"FL","zip":"32780","distance":"13.052963256835938","lon":"-80.799301","lat":"28.576500","theaterChainName":"Independent Chains","ticketType":"STANDARD"},{"id":"777","name":"Oviedo Marketplace Stadium 22","address":"1500 Oviedo Marketplace Blvd.","city":"Oviedo","state":"FL","zip":"32765","distance":"15.782917022705078","lon":"-81.234970","lat":"28.663309","theaterChainName":"Regal Cinemas","ticketType":"STANDARD"},{"id":"2960","name":"Regal Waterford Lakes Stadium 20 & IMAX","address":"541 N. Alafaya Trail","city":"Orlando","state":"FL","zip":"32828","distance":"11.799408912658691","lon":"-81.205803","lat":"28.553900","theaterChainName":"Regal Cinemas","ticketType":"STANDARD"},{"id":"3510","name":"Picture Show at Altamonte","address":"130 E. Altamonte Dr.","city":"Altamonte Springs","state":"FL","zip":"32701","distance":"24.03839111328125","lon":"-81.386246","lat":"28.659492","theaterChainName":"Picture Show Entertainment","ticketType":"STANDARD"},{"id":"3637","name":"AMC Altamonte Mall 18","address":"433 E. Altamonte Dr.","city":"Altamonte Springs","state":"FL","zip":"32701","distance":"23.712621688842773","lon":"-81.378899","lat":"28.663601","theaterChainName":"AMC Theatres","ticketType":"STANDARD"},{"id":"761","name":"Enzian Theater","address":"1300 S. Orlando Ave.","city":"Maitland","state":"FL","zip":"32751","distance":"21.94929313659668","lon":"-81.364380","lat":"28.616444","theaterChainName":"Independent Chains","ticketType":"STANDARD"},{"id":"2759","name":"Regal Winter Park Village Stadium 20","address":"510 N. Orlando Ave.","city":"Winter Park","state":"FL","zip":"32789","distance":"21.612958908081055","lon":"-81.362076","lat":"28.601894","theaterChainName":"Regal Cinemas","ticketType":"STANDARD"},{"id":"778","name":"Aloma Cinema Grill","address":"2155 Aloma Ave.","city":"Winter Park","state":"FL","zip":"32792","distance":"19.313982009887695","lon":"-81.323425","lat":"28.602215","theaterChainName":"Independent Chains","ticketType":"STANDARD"},{"id":"750","name":"Premiere Cinema at Fashion Square Mall","address":"3201 E. Colonial Drive","city":"Orlando","state":"FL","zip":"32803","distance":"19.990097045898438","lon":"-81.340706","lat":"28.557425","theaterChainName":"Premiere Cinemas","ticketType":"STANDARD"},{"id":"4762","name":"Cobb Plaza Cinema Cafe","address":"155 South Orange Ave","city":"Orlando","state":"FL","zip":"32801","distance":"22.28176498413086","lon":"-81.378632","lat":"28.540829","theaterChainName":"Cobb Theatres","ticketType":"STANDARD"},{"id":"5887","name":"Epic Theatres at Lee Vista","address":"5901 Hazeltine National Dr","city":"Orlando","state":"FL","zip":"32822","distance":"18.749488830566406","lon":"-81.306122","lat":"28.464703","theaterChainName":"Epic Theatres","ticketType":"STANDARD"},{"id":"224","name":"Cobb Merritt Square 16","address":"777 E. Merritt Island Causeway","city":"Merritt Island","state":"FL","zip":"32952","distance":"23.727874755859375","lon":"-80.688103","lat":"28.353786","theaterChainName":"Cobb Theatres","ticketType":"STANDARD"}]