[{"id":"5131","name":"Epic Theatres of West Volusia","address":"939 Hollywood Blvd","city":"Deltona","state":"FL","zip":"32725","distance":"16.496376037597656","lon":"-81.253189","lat":"28.942196","theaterChainName":"Epic Theatres","ticketType":"STANDARD"},{"id":"219","name":"United Artists Seminole Towne Center 10","address":"430 Towne Center Circle","city":"Sanford","state":"FL","zip":"32771","distance":"13.405057907104492","lon":"-81.341919","lat":"28.799095","theaterChainName":"United Artists","ticketType":"STANDARD"},{"id":"3665","name":"AmStar 12 Lake Mary","address":"950 Colonial Grand Lane","city":"Lake Mary","state":"FL","zip":"32746","distance":"13.102142333984375","lon":"-81.356186","lat":"28.789871","theaterChainName":"Southern Theatres","ticketType":"STANDARD"},{"id":"265","name":"AMC Lake Square 12","address":"10401-015 US Hwy 441 South","city":"Leesburg","state":"FL","zip":"34788","distance":"16.855918884277344","lon":"-81.784676","lat":"28.825378","theaterChainName":"AMC Theatres","ticketType":"STANDARD"},{"id":"777","name":"Oviedo Marketplace Stadium 22","address":"1500 Oviedo Marketplace Blvd.","city":"Oviedo","state":"FL","zip":"32765","distance":"24.419811248779297","lon":"-81.234970","lat":"28.663309","theaterChainName":"Regal Cinemas","ticketType":"STANDARD"},{"id":"91","name":"United Artists Wekiva Riverwalk 8","address":"2141 N. Semoran Blvd.","city":"Apopka","state":"FL","zip":"32703","distance":"16.605619430541992","lon":"-81.471504","lat":"28.674238","theaterChainName":"United Artists","ticketType":"STANDARD"},{"id":"3510","name":"Picture Show at Altamonte","address":"130 E. Altamonte Dr.","city":"Altamonte Springs","state":"FL","zip":"32701","distance":"19.214183807373047","lon":"-81.386246","lat":"28.659492","theaterChainName":"Picture Show Entertainment","ticketType":"STANDARD"},{"id":"3637","name":"AMC Altamonte Mall 18","address":"433 E. Altamonte Dr.","city":"Altamonte Springs","state":"FL","zip":"32701","distance":"19.15780258178711","lon":"-81.378899","lat":"28.663601","theaterChainName":"AMC Theatres","ticketType":"STANDARD"},{"id":"761","name":"Enzian Theater","address":"1300 S. Orlando Ave.","city":"Maitland","state":"FL","zip":"32751","distance":"22.469900131225586","lon":"-81.364380","lat":"28.616444","theaterChainName":"Independent Chains","ticketType":"STANDARD"},{"id":"2759","name":"Regal Winter Park Village Stadium 20","address":"510 N. Orlando Ave.","city":"Winter Park","state":"FL","zip":"32789","distance":"23.440174102783203","lon":"-81.362076","lat":"28.601894","theaterChainName":"Regal Cinemas","ticketType":"STANDARD"},{"id":"778","name":"Aloma Cinema Grill","address":"2155 Aloma Ave.","city":"Winter Park","state":"FL","zip":"32792","distance":"24.490161895751953","lon":"-81.323425","lat":"28.602215","theaterChainName":"Independent Chains","ticketType":"STANDARD"},{"id":"338","name":"AMC West Oaks 14","address":"9415 W. Colonial Drive","city":"Ocoee","state":"FL","zip":"34761","distance":"24.603286743164062","lon":"-81.515633","lat":"28.554201","theaterChainName":"AMC Theatres","ticketType":"STANDARD"}]