[{"id":"777","tribuneTheaterId":"8842","providerTheaterId":"","name":"Oviedo Marketplace Stadium 22","address":"1500 Oviedo Marketplace Blvd.","city":"Oviedo","state":"FL","zip":"32765","distance":9.6022454988761,"lon":"-81.23497","lat":"28.663309","theaterChainName":"Regal Cinemas","ticketType":"STANDARD"},{"id":"3665","tribuneTheaterId":"7035","providerTheaterId":"","name":"AmStar 12 Lake Mary","address":"950 Colonial Grand Lane","city":"Lake Mary","state":"FL","zip":"32746","distance":15.075184924002,"lon":"-81.356184","lat":"28.789872","theaterChainName":"Southern Theatres","ticketType":"STANDARD"},{"id":"219","tribuneTheaterId":"7905","providerTheaterId":"","name":"United Artists Seminole Towne Center 10","address":"430 Towne Center Circle","city":"Sanford","state":"FL","zip":"32771","distance":14.361978979257,"lon":"-81.34192","lat":"28.799095","theaterChainName":"United Artists","ticketType":"STANDARD"},{"id":"2960","tribuneTheaterId":"5622","providerTheaterId":"","name":"Regal Waterford Lakes Stadium 20 & IMAX","address":"541 N. Alafaya Trail","city":"Orlando","state":"FL","zip":"32828","distance":14.727653616218,"lon":"-81.2058","lat":"28.5539","theaterChainName":"Regal Cinemas","ticketType":"STANDARD"},{"id":"778","tribuneTheaterId":"5167","providerTheaterId":"","name":"Aloma Cinema Grill","address":"2155 Aloma Ave.","city":"Winter Park","state":"FL","zip":"32792","distance":16.428163030686,"lon":"-81.323429","lat":"28.602215","theaterChainName":"Independent Chains","ticketType":"STANDARD"},{"id":"5131","tribuneTheaterId":"10537","providerTheaterId":"","name":"Epic Theatres of West Volusia","address":"939 Hollywood Blvd","city":"Deltona","state":"FL","zip":"32725","distance":15.793217600677,"lon":"-81.253188","lat":"28.942195","theaterChainName":"Epic Theatres","ticketType":"STANDARD"},{"id":"2759","tribuneTheaterId":"8503","providerTheaterId":"","name":"Regal Winter Park Village Stadium 20","address":"510 N. Orlando Ave.","city":"Winter Park","state":"FL","zip":"32789","distance":18.331568986896,"lon":"-81.362075","lat":"28.601895","theaterChainName":"Regal Cinemas","ticketType":"STANDARD"},{"id":"761","tribuneTheaterId":"6315","providerTheaterId":"","name":"Enzian Theater","address":"1300 S. Orlando Ave.","city":"Maitland","state":"FL","zip":"32751","distance":17.907599508851,"lon":"-81.364383","lat":"28.616443","theaterChainName":"Independent Chains","ticketType":"STANDARD"},{"id":"3510","tribuneTheaterId":"1968","providerTheaterId":"","name":"Picture Show at Altamonte","address":"130 E. Altamonte Dr.","city":"Altamonte Springs","state":"FL","zip":"32701","distance":17.798935815716,"lon":"-81.386249","lat":"28.659492","theaterChainName":"Picture Show Entertainment","ticketType":"STANDARD"},{"id":"3637","tribuneTheaterId":"4251","providerTheaterId":"283","name":"AMC Altamonte Mall 18","address":"433 E. Altamonte Dr.","city":"Altamonte Springs","state":"FL","zip":"32701","distance":17.282149081927,"lon":"-81.3789","lat":"28.6636","theaterChainName":"AMC Theatres","ticketType":"STANDARD"},{"id":"750","tribuneTheaterId":"7940","providerTheaterId":"","name":"Premiere Cinema at Fashion Square Mall","address":"3201 E. Colonial Drive","city":"Orlando","state":"FL","zip":"32803","distance":19.258655333795,"lon":"-81.340708","lat":"28.557424","theaterChainName":"Premiere Cinemas","ticketType":"STANDARD"},{"id":"4762","tribuneTheaterId":"9999","providerTheaterId":"","name":"Cobb Plaza Cinema Cafe","address":"155 South Orange Ave","city":"Orlando","state":"FL","zip":"32801","distance":21.726382994092,"lon":"-81.378631","lat":"28.540829","theaterChainName":"Cobb Theatres","ticketType":"STANDARD"},{"id":"5625","tribuneTheaterId":"11088","providerTheaterId":"","name":"New SmyrnaLux 12","address":"1401 S Dixie Freeway","city":"New Smyrna","state":"FL","zip":"32168","distance":21.333144439039,"lon":"-80.9198","lat":"29.0095","theaterChainName":"Carmike Cinemas","ticketType":"STANDARD"},{"id":"5887","tribuneTheaterId":"11306","providerTheaterId":"","name":"Epic Theatres at Lee Vista","address":"5901 Hazeltine National Dr","city":"Orlando","state":"FL","zip":"32822","distance":22.997873188594,"lon":"-81.306124","lat":"28.464702","theaterChainName":"Epic Theatres","ticketType":"STANDARD"},{"id":"5399","tribuneTheaterId":"10837","providerTheaterId":"","name":"Satellite Cinemas Titusville","address":"3550 S. Washington Ave.","city":"Titusville","state":"FL","zip":"32780","distance":22.410288416832,"lon":"-80.7993","lat":"28.5765","theaterChainName":"Independent Chains","ticketType":"STANDARD"},{"id":"91","tribuneTheaterId":"9213","providerTheaterId":"","name":"United Artists Wekiva Riverwalk 8","address":"2141 N. Semoran Blvd.","city":"Apopka","state":"FL","zip":"32703","distance":22.445349173352,"lon":"-81.471503","lat":"28.674239","theaterChainName":"United Artists","ticketType":"STANDARD"},{"id":"4836","tribuneTheaterId":"10112","providerTheaterId":"","name":"Regal Pavilion Stadium 14","address":"5547 S Williamson Blvd.","city":"Port Orange","state":"FL","zip":"32128","distance":24.985933010018,"lon":"-81.0315","lat":"29.1051","theaterChainName":"Regal Cinemas","ticketType":"STANDARD"}]