[{"id":"5131","tribuneTheaterId":"10537","providerTheaterId":"","name":"Epic Theatres of West Volusia","address":"939 Hollywood Blvd","city":"Deltona","state":"FL","zip":"32725","distance":2.8083789740283,"lon":"-81.253188","lat":"28.942195","theaterChainName":"Epic Theatres","ticketType":"STANDARD"},{"id":"3665","tribuneTheaterId":"7035","providerTheaterId":"","name":"AmStar 12 Lake Mary","address":"950 Colonial Grand Lane","city":"Lake Mary","state":"FL","zip":"32746","distance":11.273440315995,"lon":"-81.356184","lat":"28.789872","theaterChainName":"Southern Theatres","ticketType":"STANDARD"},{"id":"219","tribuneTheaterId":"7905","providerTheaterId":"","name":"United Artists Seminole Towne Center 10","address":"430 Towne Center Circle","city":"Sanford","state":"FL","zip":"32771","distance":10.422745045081,"lon":"-81.34192","lat":"28.799095","theaterChainName":"United Artists","ticketType":"STANDARD"},{"id":"3510","tribuneTheaterId":"1968","providerTheaterId":"","name":"Picture Show at Altamonte","address":"130 E. Altamonte Dr.","city":"Altamonte Springs","state":"FL","zip":"32701","distance":20.433959816946,"lon":"-81.386249","lat":"28.659492","theaterChainName":"Picture Show Entertainment","ticketType":"STANDARD"},{"id":"777","tribuneTheaterId":"8842","providerTheaterId":"","name":"Oviedo Marketplace Stadium 22","address":"1500 Oviedo Marketplace Blvd.","city":"Oviedo","state":"FL","zip":"32765","distance":19.871542794714,"lon":"-81.23497","lat":"28.663309","theaterChainName":"Regal Cinemas","ticketType":"STANDARD"},{"id":"4836","tribuneTheaterId":"10112","providerTheaterId":"","name":"Regal Pavilion Stadium 14","address":"5547 S Williamson Blvd.","city":"Port Orange","state":"FL","zip":"32128","distance":19.597619755526,"lon":"-81.0315","lat":"29.1051","theaterChainName":"Regal Cinemas","ticketType":"STANDARD"},{"id":"3637","tribuneTheaterId":"4251","providerTheaterId":"283","name":"AMC Altamonte Mall 18","address":"433 E. Altamonte Dr.","city":"Altamonte Springs","state":"FL","zip":"32701","distance":20.048450227602,"lon":"-81.3789","lat":"28.6636","theaterChainName":"AMC Theatres","ticketType":"STANDARD"},{"id":"91","tribuneTheaterId":"9213","providerTheaterId":"","name":"United Artists Wekiva Riverwalk 8","address":"2141 N. Semoran Blvd.","city":"Apopka","state":"FL","zip":"32703","distance":21.428780054151,"lon":"-81.471503","lat":"28.674239","theaterChainName":"United Artists","ticketType":"STANDARD"},{"id":"6048","tribuneTheaterId":"11451","providerTheaterId":"","name":"Cobb Daytona Luxury","address":"1850 Legends Lane","city":"Daytona Beach","state":"FL","zip":"32114","distance":22.111507906587,"lon":"-81.070761","lat":"29.195192","theaterChainName":"Cobb Theatres","ticketType":"STANDARD"},{"id":"2759","tribuneTheaterId":"8503","providerTheaterId":"","name":"Regal Winter Park Village Stadium 20","address":"510 N. Orlando Ave.","city":"Winter Park","state":"FL","zip":"32789","distance":24.027722803325,"lon":"-81.362075","lat":"28.601895","theaterChainName":"Regal Cinemas","ticketType":"STANDARD"},{"id":"778","tribuneTheaterId":"5167","providerTheaterId":"","name":"Aloma Cinema Grill","address":"2155 Aloma Ave.","city":"Winter Park","state":"FL","zip":"32792","distance":23.749132217958,"lon":"-81.323429","lat":"28.602215","theaterChainName":"Independent Chains","ticketType":"STANDARD"},{"id":"761","tribuneTheaterId":"6315","providerTheaterId":"","name":"Enzian Theater","address":"1300 S. Orlando Ave.","city":"Maitland","state":"FL","zip":"32751","distance":23.059040791259,"lon":"-81.364383","lat":"28.616443","theaterChainName":"Independent Chains","ticketType":"STANDARD"},{"id":"5625","tribuneTheaterId":"11088","providerTheaterId":"","name":"New SmyrnaLux 12","address":"1401 S Dixie Freeway","city":"New Smyrna","state":"FL","zip":"32168","distance":23.375150368138,"lon":"-80.9198","lat":"29.0095","theaterChainName":"Carmike Cinemas","ticketType":"STANDARD"},{"id":"4743","tribuneTheaterId":"9967","providerTheaterId":"","name":"Cinematique Theater","address":"242 S. Beach St.","city":"Daytona Beach","state":"FL","zip":"32114","distance":24.904610566274,"lon":"-81.018213","lat":"29.208907","theaterChainName":"Independent Chains","ticketType":"STANDARD"},{"id":"618","tribuneTheaterId":"7887","providerTheaterId":"","name":"Regal Ormond Beach Cinema 12","address":"215 Williamson Blvd","city":"Ormond Beach","state":"FL","zip":"32174","distance":24.228533725884,"lon":"-81.110322","lat":"29.25456","theaterChainName":"Regal Cinemas","ticketType":"STANDARD"}]