[{"id":"5131","tribuneTheaterId":"10537","providerTheaterId":"","name":"Epic Theatres of West Volusia","address":"939 Hollywood Blvd","city":"Deltona","state":"FL","zip":"32725","distance":15.607451433677,"lon":"-81.253188","lat":"28.942195","theaterChainName":"Epic Theatres","ticketType":"STANDARD"},{"id":"3665","tribuneTheaterId":"7035","providerTheaterId":"","name":"AmStar 12 Lake Mary","address":"950 Colonial Grand Lane","city":"Lake Mary","state":"FL","zip":"32746","distance":16.978166091622,"lon":"-81.356184","lat":"28.789872","theaterChainName":"Southern Theatres","ticketType":"STANDARD"},{"id":"219","tribuneTheaterId":"7905","providerTheaterId":"","name":"United Artists Seminole Towne Center 10","address":"430 Towne Center Circle","city":"Sanford","state":"FL","zip":"32771","distance":16.919946720154,"lon":"-81.34192","lat":"28.799095","theaterChainName":"United Artists","ticketType":"STANDARD"},{"id":"265","tribuneTheaterId":"8985","providerTheaterId":"296","name":"AMC Lake Square 12","address":"10401-015 US Hwy 441 South","city":"Leesburg","state":"FL","zip":"34788","distance":20.847739583894,"lon":"-81.784673","lat":"28.825379","theaterChainName":"AMC Theatres","ticketType":"STANDARD"},{"id":"91","tribuneTheaterId":"9213","providerTheaterId":"","name":"United Artists Wekiva Riverwalk 8","address":"2141 N. Semoran Blvd.","city":"Apopka","state":"FL","zip":"32703","distance":22.540299275348,"lon":"-81.471503","lat":"28.674239","theaterChainName":"United Artists","ticketType":"STANDARD"},{"id":"3510","tribuneTheaterId":"1968","providerTheaterId":"","name":"Picture Show at Altamonte","address":"130 E. Altamonte Dr.","city":"Altamonte Springs","state":"FL","zip":"32701","distance":24.518951962241,"lon":"-81.386249","lat":"28.659492","theaterChainName":"Picture Show Entertainment","ticketType":"STANDARD"},{"id":"3637","tribuneTheaterId":"4251","providerTheaterId":"283","name":"AMC Altamonte Mall 18","address":"433 E. Altamonte Dr.","city":"Altamonte Springs","state":"FL","zip":"32701","distance":24.380614583761,"lon":"-81.3789","lat":"28.6636","theaterChainName":"AMC Theatres","ticketType":"STANDARD"}]