[{"id":"5131","name":"Epic Theatres of West Volusia","address":"939 Hollywood Blvd","city":"Deltona","state":"FL","zip":"32725","distance":"21.212465286254883","lon":"-81.253189","lat":"28.942196","theaterChainName":"Epic Theatres","ticketType":"STANDARD"},{"id":"219","name":"United Artists Seminole Towne Center 10","address":"430 Towne Center Circle","city":"Sanford","state":"FL","zip":"32771","distance":"16.82736587524414","lon":"-81.341919","lat":"28.799095","theaterChainName":"United Artists","ticketType":"STANDARD"},{"id":"3665","name":"AmStar 12 Lake Mary","address":"950 Colonial Grand Lane","city":"Lake Mary","state":"FL","zip":"32746","distance":"17.2070255279541","lon":"-81.356186","lat":"28.789871","theaterChainName":"Southern Theatres","ticketType":"STANDARD"},{"id":"5399","name":"Satellite Cinemas Titusville","address":"3550 S. Washington Ave.","city":"Titusville","state":"FL","zip":"32780","distance":"19.920635223388672","lon":"-80.799301","lat":"28.576500","theaterChainName":"Independent Chains","ticketType":"STANDARD"},{"id":"777","name":"Oviedo Marketplace Stadium 22","address":"1500 Oviedo Marketplace Blvd.","city":"Oviedo","state":"FL","zip":"32765","distance":"7.372879505157471","lon":"-81.234970","lat":"28.663309","theaterChainName":"Regal Cinemas","ticketType":"STANDARD"},{"id":"2960","name":"Regal Waterford Lakes Stadium 20 & IMAX","address":"541 N. Alafaya Trail","city":"Orlando","state":"FL","zip":"32828","distance":"9.266975402832031","lon":"-81.205803","lat":"28.553900","theaterChainName":"Regal Cinemas","ticketType":"STANDARD"},{"id":"91","name":"United Artists Wekiva Riverwalk 8","address":"2141 N. Semoran Blvd.","city":"Apopka","state":"FL","zip":"32703","distance":"21.73090171813965","lon":"-81.471504","lat":"28.674238","theaterChainName":"United Artists","ticketType":"STANDARD"},{"id":"3510","name":"Picture Show at Altamonte","address":"130 E. Altamonte Dr.","city":"Altamonte Springs","state":"FL","zip":"32701","distance":"16.543127059936523","lon":"-81.386246","lat":"28.659492","theaterChainName":"Picture Show Entertainment","ticketType":"STANDARD"},{"id":"3637","name":"AMC Altamonte Mall 18","address":"433 E. Altamonte Dr.","city":"Altamonte Springs","state":"FL","zip":"32701","distance":"16.09838104248047","lon":"-81.378899","lat":"28.663601","theaterChainName":"AMC Theatres","ticketType":"STANDARD"},{"id":"761","name":"Enzian Theater","address":"1300 S. Orlando Ave.","city":"Maitland","state":"FL","zip":"32751","distance":"15.524435997009277","lon":"-81.364380","lat":"28.616444","theaterChainName":"Independent Chains","ticketType":"STANDARD"},{"id":"2759","name":"Regal Winter Park Village Stadium 20","address":"510 N. Orlando Ave.","city":"Winter Park","state":"FL","zip":"32789","distance":"15.619376182556152","lon":"-81.362076","lat":"28.601894","theaterChainName":"Regal Cinemas","ticketType":"STANDARD"},{"id":"778","name":"Aloma Cinema Grill","address":"2155 Aloma Ave.","city":"Winter Park","state":"FL","zip":"32792","distance":"13.363176345825195","lon":"-81.323425","lat":"28.602215","theaterChainName":"Independent Chains","ticketType":"STANDARD"},{"id":"750","name":"Premiere Cinema at Fashion Square Mall","address":"3201 E. Colonial Drive","city":"Orlando","state":"FL","zip":"32803","distance":"15.525626182556152","lon":"-81.340706","lat":"28.557425","theaterChainName":"Premiere Cinemas","ticketType":"STANDARD"},{"id":"4762","name":"Cobb Plaza Cinema Cafe","address":"155 South Orange Ave","city":"Orlando","state":"FL","zip":"32801","distance":"18.097074508666992","lon":"-81.378632","lat":"28.540829","theaterChainName":"Cobb Theatres","ticketType":"STANDARD"},{"id":"2898","name":"Cinemark Artegon Marketplace and XD","address":"5150 International Drive","city":"Orlando","state":"FL","zip":"32819","distance":"24.121427536010742","lon":"-81.446373","lat":"28.470055","theaterChainName":"Cinemark","ticketType":"STANDARD"},{"id":"2503","name":"AMC Loews Universal 20","address":"6000 Universal Blvd.","city":"Orlando","state":"FL","zip":"32819","distance":"24.945363998413086","lon":"-81.465080","lat":"28.473785","theaterChainName":"AMC Theatres","ticketType":"STANDARD"},{"id":"5887","name":"Epic Theatres at Lee Vista","address":"5901 Hazeltine National Dr","city":"Orlando","state":"FL","zip":"32822","distance":"17.894142150878906","lon":"-81.306122","lat":"28.464703","theaterChainName":"Epic Theatres","ticketType":"STANDARD"}]