[{"id":"5131","name":"Epic Theatres of West Volusia","address":"939 Hollywood Blvd","city":"Deltona","state":"FL","zip":"32725","distance":"2.8084487915039062","lon":"-81.253189","lat":"28.942196","theaterChainName":"Epic Theatres","ticketType":"STANDARD"},{"id":"618","name":"Regal Ormond Beach Cinema 12","address":"215 Williamson Blvd","city":"Ormond Beach","state":"FL","zip":"32174","distance":"24.23012924194336","lon":"-81.110321","lat":"29.254560","theaterChainName":"Regal Cinemas","ticketType":"STANDARD"},{"id":"6048","name":"Cobb Daytona Luxury","address":"1850 Legends Lane","city":"Daytona Beach","state":"FL","zip":"32114","distance":"22.11286163330078","lon":"-81.070763","lat":"29.195192","theaterChainName":"Cobb Theatres","ticketType":"STANDARD"},{"id":"219","name":"United Artists Seminole Towne Center 10","address":"430 Towne Center Circle","city":"Sanford","state":"FL","zip":"32771","distance":"10.423315048217773","lon":"-81.341919","lat":"28.799095","theaterChainName":"United Artists","ticketType":"STANDARD"},{"id":"3665","name":"AmStar 12 Lake Mary","address":"950 Colonial Grand Lane","city":"Lake Mary","state":"FL","zip":"32746","distance":"11.274178504943848","lon":"-81.356186","lat":"28.789871","theaterChainName":"Southern Theatres","ticketType":"STANDARD"},{"id":"4836","name":"Regal Pavilion Stadium 14","address":"5547 S Williamson Blvd.","city":"Port Orange","state":"FL","zip":"32128","distance":"19.598779678344727","lon":"-81.031502","lat":"29.105101","theaterChainName":"Regal Cinemas","ticketType":"STANDARD"},{"id":"4743","name":"Cinematique Theater","address":"242 S. Beach St.","city":"Daytona Beach","state":"FL","zip":"32114","distance":"24.90620231628418","lon":"-81.018211","lat":"29.208906","theaterChainName":"Independent Chains","ticketType":"STANDARD"},{"id":"5625","name":"New SmyrnaLux 12","address":"1401 S Dixie Freeway","city":"New Smyrna","state":"FL","zip":"32168","distance":"23.37660026550293","lon":"-80.919800","lat":"29.009501","theaterChainName":"Carmike Cinemas","ticketType":"STANDARD"},{"id":"777","name":"Oviedo Marketplace Stadium 22","address":"1500 Oviedo Marketplace Blvd.","city":"Oviedo","state":"FL","zip":"32765","distance":"19.872703552246094","lon":"-81.234970","lat":"28.663309","theaterChainName":"Regal Cinemas","ticketType":"STANDARD"},{"id":"91","name":"United Artists Wekiva Riverwalk 8","address":"2141 N. Semoran Blvd.","city":"Apopka","state":"FL","zip":"32703","distance":"21.43015480041504","lon":"-81.471504","lat":"28.674238","theaterChainName":"United Artists","ticketType":"STANDARD"},{"id":"3510","name":"Picture Show at Altamonte","address":"130 E. Altamonte Dr.","city":"Altamonte Springs","state":"FL","zip":"32701","distance":"20.43509292602539","lon":"-81.386246","lat":"28.659492","theaterChainName":"Picture Show Entertainment","ticketType":"STANDARD"},{"id":"3637","name":"AMC Altamonte Mall 18","address":"433 E. Altamonte Dr.","city":"Altamonte Springs","state":"FL","zip":"32701","distance":"20.049560546875","lon":"-81.378899","lat":"28.663601","theaterChainName":"AMC Theatres","ticketType":"STANDARD"},{"id":"761","name":"Enzian Theater","address":"1300 S. Orlando Ave.","city":"Maitland","state":"FL","zip":"32751","distance":"23.060340881347656","lon":"-81.364380","lat":"28.616444","theaterChainName":"Independent Chains","ticketType":"STANDARD"},{"id":"2759","name":"Regal Winter Park Village Stadium 20","address":"510 N. Orlando Ave.","city":"Winter Park","state":"FL","zip":"32789","distance":"24.02920913696289","lon":"-81.362076","lat":"28.601894","theaterChainName":"Regal Cinemas","ticketType":"STANDARD"},{"id":"778","name":"Aloma Cinema Grill","address":"2155 Aloma Ave.","city":"Winter Park","state":"FL","zip":"32792","distance":"23.750545501708984","lon":"-81.323425","lat":"28.602215","theaterChainName":"Independent Chains","ticketType":"STANDARD"}]