[{"id":"3452","tribuneTheaterId":"6739","providerTheaterId":"","name":"Touchstar Cinemas Southchase 7","address":"12441 S. Orange Blossom Trail","city":"Orlando","state":"FL","zip":"32837","distance":1.2241649698077,"lon":"-81.402267","lat":"28.38373","theaterChainName":"Touchstar Cinemas","ticketType":"STANDARD"},{"id":"4162","tribuneTheaterId":"4635","providerTheaterId":"","name":"Regal Cinemas The Loop Stadium 16 & RPX","address":"3220 N. John Young Parkway","city":"Kissimmee","state":"FL","zip":"34741","distance":3.5589771635307,"lon":"-81.421719","lat":"28.3435","theaterChainName":"Regal Cinemas","ticketType":"STANDARD"},{"id":"4339","tribuneTheaterId":"9322","providerTheaterId":"","name":"Regal Pointe Orlando Stadium 20 & IMAX","address":"9101 International Dr","city":"Orlando","state":"FL","zip":"32819","distance":4.0700044623154,"lon":"-81.469556","lat":"28.432393","theaterChainName":"Regal Cinemas","ticketType":"STANDARD"},{"id":"2503","tribuneTheaterId":"8617","providerTheaterId":"2250","name":"AMC Loews Universal 20","address":"6000 Universal Blvd.","city":"Orlando","state":"FL","zip":"32819","distance":6.1581895917306,"lon":"-81.465077","lat":"28.473785","theaterChainName":"AMC Theatres","ticketType":"STANDARD"},{"id":"2898","tribuneTheaterId":"5220","providerTheaterId":"","name":"Cinemark Artegon Marketplace and XD","address":"5150 International Drive","city":"Orlando","state":"FL","zip":"32819","distance":5.4733266418899,"lon":"-81.446374","lat":"28.470055","theaterChainName":"Cinemark","ticketType":"STANDARD"},{"id":"133","tribuneTheaterId":"8107","providerTheaterId":"572","name":"AMC Disney Springs 24","address":"1500 Buena Vista Dr.","city":"Lake Buena Vista","state":"FL","zip":"32830","distance":6.4912618383717,"lon":"-81.520845","lat":"28.369931","theaterChainName":"AMC Theatres","ticketType":"STANDARD"},{"id":"5887","tribuneTheaterId":"11306","providerTheaterId":"","name":"Epic Theatres at Lee Vista","address":"5901 Hazeltine National Dr","city":"Orlando","state":"FL","zip":"32822","distance":8.3298006941085,"lon":"-81.306124","lat":"28.464702","theaterChainName":"Epic Theatres","ticketType":"STANDARD"},{"id":"4762","tribuneTheaterId":"9999","providerTheaterId":"","name":"Cobb Plaza Cinema Cafe","address":"155 South Orange Ave","city":"Orlando","state":"FL","zip":"32801","distance":10.360990708638,"lon":"-81.378631","lat":"28.540829","theaterChainName":"Cobb Theatres","ticketType":"STANDARD"},{"id":"338","tribuneTheaterId":"8912","providerTheaterId":"582","name":"AMC West Oaks 14","address":"9415 W. Colonial Drive","city":"Ocoee","state":"FL","zip":"34761","distance":12.505338618912,"lon":"-81.515636","lat":"28.554202","theaterChainName":"AMC Theatres","ticketType":"STANDARD"},{"id":"1052","tribuneTheaterId":"2677","providerTheaterId":"","name":"St. Cloud Twin","address":"1110 10th St.","city":"Saint Cloud","state":"FL","zip":"34769","distance":13.038619766414,"lon":"-81.281958","lat":"28.248986","theaterChainName":"Independent Chains","ticketType":"STANDARD"},{"id":"750","tribuneTheaterId":"7940","providerTheaterId":"","name":"Premiere Cinema at Fashion Square Mall","address":"3201 E. Colonial Drive","city":"Orlando","state":"FL","zip":"32803","distance":12.168676314832,"lon":"-81.340708","lat":"28.557424","theaterChainName":"Premiere Cinemas","ticketType":"STANDARD"},{"id":"845","tribuneTheaterId":"6121","providerTheaterId":"","name":"West Orange 5","address":"1575 Maguire Road","city":"Ocoee","state":"FL","zip":"34761","distance":13.043586874001,"lon":"-81.542499","lat":"28.54866","theaterChainName":"Independent Chains","ticketType":"STANDARD"},{"id":"761","tribuneTheaterId":"6315","providerTheaterId":"","name":"Enzian Theater","address":"1300 S. Orlando Ave.","city":"Maitland","state":"FL","zip":"32751","distance":15.648227421535,"lon":"-81.364383","lat":"28.616443","theaterChainName":"Independent Chains","ticketType":"STANDARD"},{"id":"2759","tribuneTheaterId":"8503","providerTheaterId":"","name":"Regal Winter Park Village Stadium 20","address":"510 N. Orlando Ave.","city":"Winter Park","state":"FL","zip":"32789","distance":14.698189949841,"lon":"-81.362075","lat":"28.601895","theaterChainName":"Regal Cinemas","ticketType":"STANDARD"},{"id":"778","tribuneTheaterId":"5167","providerTheaterId":"","name":"Aloma Cinema Grill","address":"2155 Aloma Ave.","city":"Winter Park","state":"FL","zip":"32792","distance":15.430014554765,"lon":"-81.323429","lat":"28.602215","theaterChainName":"Independent Chains","ticketType":"STANDARD"},{"id":"5703","tribuneTheaterId":"11140","providerTheaterId":"","name":"Cinepolis Polk County IMAX","address":"5500 Grandview Parkway","city":"Davenport","state":"FL","zip":"33837","distance":17.53396761659,"lon":"-81.641","lat":"28.2342","theaterChainName":"Cinepolis Luxury Cinemas","ticketType":"STANDARD"},{"id":"2960","tribuneTheaterId":"5622","providerTheaterId":"","name":"Regal Waterford Lakes Stadium 20 & IMAX","address":"541 N. Alafaya Trail","city":"Orlando","state":"FL","zip":"32828","distance":16.930211560879,"lon":"-81.2058","lat":"28.5539","theaterChainName":"Regal Cinemas","ticketType":"STANDARD"},{"id":"3637","tribuneTheaterId":"4251","providerTheaterId":"283","name":"AMC Altamonte Mall 18","address":"433 E. Altamonte Dr.","city":"Altamonte Springs","state":"FL","zip":"32701","distance":18.715707928335,"lon":"-81.3789","lat":"28.6636","theaterChainName":"AMC Theatres","ticketType":"STANDARD"},{"id":"3510","tribuneTheaterId":"1968","providerTheaterId":"","name":"Picture Show at Altamonte","address":"130 E. Altamonte Dr.","city":"Altamonte Springs","state":"FL","zip":"32701","distance":18.382224010011,"lon":"-81.386249","lat":"28.659492","theaterChainName":"Picture Show Entertainment","ticketType":"STANDARD"},{"id":"91","tribuneTheaterId":"9213","providerTheaterId":"","name":"United Artists Wekiva Riverwalk 8","address":"2141 N. Semoran Blvd.","city":"Apopka","state":"FL","zip":"32703","distance":19.572793145563,"lon":"-81.471503","lat":"28.674239","theaterChainName":"United Artists","ticketType":"STANDARD"},{"id":"4748","tribuneTheaterId":"9977","providerTheaterId":"","name":"Epic Theatres of Clermont","address":"2405 S. Hwy 27","city":"Clermont","state":"FL","zip":"34711","distance":21.457260427825,"lon":"-81.732183","lat":"28.53671","theaterChainName":"Epic Theatres","ticketType":"STANDARD"},{"id":"777","tribuneTheaterId":"8842","providerTheaterId":"","name":"Oviedo Marketplace Stadium 22","address":"1500 Oviedo Marketplace Blvd.","city":"Oviedo","state":"FL","zip":"32765","distance":21.615656374364,"lon":"-81.23497","lat":"28.663309","theaterChainName":"Regal Cinemas","ticketType":"STANDARD"}]