[{"id":"4107","name":"Carmike Avenue 16","address":"2241 Town Centre Ave.","city":"Melbourne","state":"FL","zip":"32940","distance":"19.490753173828125","lon":"-80.728203","lat":"28.242300","theaterChainName":"Carmike Cinemas","ticketType":"STANDARD"},{"id":"808","name":"Satellite Beach Cinemas","address":"1024 Highway A1A","city":"Satellite Beach","state":"FL","zip":"32937","distance":"15.236701011657715","lon":"-80.594070","lat":"28.184851","theaterChainName":"Independent Chains","ticketType":"STANDARD"},{"id":"615","name":"Premiere Theaters Oaks 10","address":"1800 W. Hibiscus Blvd.","city":"Melbourne","state":"FL","zip":"32901","distance":"8.07358169555664","lon":"-80.652229","lat":"28.086163","theaterChainName":"Independent Chains","ticketType":"STANDARD"},{"id":"5542","name":"West Melbourne 12","address":"4255 Norfolk Parkway","city":"West Melbourne","state":"FL","zip":"32904","distance":"5.085240364074707","lon":"-80.663162","lat":"28.041651","theaterChainName":"Carmike Cinemas","ticketType":"STANDARD"},{"id":"3535","name":"Cinema World 16","address":"4345 W. New Haven Ave.","city":"Melbourne","state":"FL","zip":"32904","distance":"8.038810729980469","lon":"-80.698303","lat":"28.076675","theaterChainName":"Cinemaworld","ticketType":"STANDARD"}]