[{"id":"5542","tribuneTheaterId":"10979","providerTheaterId":"","name":"West Melbourne 12","address":"4255 Norfolk Parkway","city":"West Melbourne","state":"FL","zip":"32904","distance":5.0848713753647,"lon":"-80.663159","lat":"28.04165","theaterChainName":"Carmike Cinemas","ticketType":"STANDARD"},{"id":"3535","tribuneTheaterId":"3233","providerTheaterId":"","name":"Cinema World 16","address":"4345 W. New Haven Ave.","city":"Melbourne","state":"FL","zip":"32904","distance":8.0382766875556,"lon":"-80.698301","lat":"28.076675","theaterChainName":"Cinemaworld","ticketType":"STANDARD"},{"id":"615","tribuneTheaterId":"7184","providerTheaterId":"","name":"Premiere Theaters Oaks 10","address":"1800 W. Hibiscus Blvd.","city":"Melbourne","state":"FL","zip":"32901","distance":8.073075843416,"lon":"-80.652231","lat":"28.086162","theaterChainName":"Independent Chains","ticketType":"STANDARD"},{"id":"808","tribuneTheaterId":"7167","providerTheaterId":"","name":"Satellite Beach Cinemas","address":"1024 Highway A1A","city":"Satellite Beach","state":"FL","zip":"32937","distance":15.235827418145,"lon":"-80.594068","lat":"28.184851","theaterChainName":"Independent Chains","ticketType":"STANDARD"},{"id":"4107","tribuneTheaterId":"2385","providerTheaterId":"","name":"Carmike Avenue 16","address":"2241 Town Centre Ave.","city":"Melbourne","state":"FL","zip":"32940","distance":19.489583789299,"lon":"-80.728203","lat":"28.2423","theaterChainName":"Carmike Cinemas","ticketType":"STANDARD"}]