[{"id":"5399","tribuneTheaterId":"10837","providerTheaterId":"","name":"Satellite Cinemas Titusville","address":"3550 S. Washington Ave.","city":"Titusville","state":"FL","zip":"32780","distance":10.451656182667,"lon":"-80.7993","lat":"28.5765","theaterChainName":"Independent Chains","ticketType":"STANDARD"},{"id":"224","tribuneTheaterId":"8980","providerTheaterId":"","name":"Cobb Merritt Square 16","address":"777 E. Merritt Island Causeway","city":"Merritt Island","state":"FL","zip":"32952","distance":9.9643113156444,"lon":"-80.6881","lat":"28.353787","theaterChainName":"Cobb Theatres","ticketType":"STANDARD"},{"id":"4107","tribuneTheaterId":"2385","providerTheaterId":"","name":"Carmike Avenue 16","address":"2241 Town Centre Ave.","city":"Melbourne","state":"FL","zip":"32940","distance":14.188596554701,"lon":"-80.728203","lat":"28.2423","theaterChainName":"Carmike Cinemas","ticketType":"STANDARD"},{"id":"808","tribuneTheaterId":"7167","providerTheaterId":"","name":"Satellite Beach Cinemas","address":"1024 Highway A1A","city":"Satellite Beach","state":"FL","zip":"32937","distance":22.029965240601,"lon":"-80.594068","lat":"28.184851","theaterChainName":"Independent Chains","ticketType":"STANDARD"},{"id":"2960","tribuneTheaterId":"5622","providerTheaterId":"","name":"Regal Waterford Lakes Stadium 20 & IMAX","address":"541 N. Alafaya Trail","city":"Orlando","state":"FL","zip":"32828","distance":24.491473456551,"lon":"-81.2058","lat":"28.5539","theaterChainName":"Regal Cinemas","ticketType":"STANDARD"}]