[{"id":"224","name":"Cobb Merritt Square 16","address":"777 E. Merritt Island Causeway","city":"Merritt Island","state":"FL","zip":"32952","distance":"13.228617668151855","lon":"-80.688103","lat":"28.353786","theaterChainName":"Cobb Theatres","ticketType":"STANDARD"},{"id":"4107","name":"Carmike Avenue 16","address":"2241 Town Centre Ave.","city":"Melbourne","state":"FL","zip":"32940","distance":"8.876625061035156","lon":"-80.728203","lat":"28.242300","theaterChainName":"Carmike Cinemas","ticketType":"STANDARD"},{"id":"808","name":"Satellite Beach Cinemas","address":"1024 Highway A1A","city":"Satellite Beach","state":"FL","zip":"32937","distance":"0.6761707067489624","lon":"-80.594070","lat":"28.184851","theaterChainName":"Independent Chains","ticketType":"STANDARD"},{"id":"615","name":"Premiere Theaters Oaks 10","address":"1800 W. Hibiscus Blvd.","city":"Melbourne","state":"FL","zip":"32901","distance":"7.045347213745117","lon":"-80.652229","lat":"28.086163","theaterChainName":"Independent Chains","ticketType":"STANDARD"},{"id":"5542","name":"West Melbourne 12","address":"4255 Norfolk Parkway","city":"West Melbourne","state":"FL","zip":"32904","distance":"10.132071495056152","lon":"-80.663162","lat":"28.041651","theaterChainName":"Carmike Cinemas","ticketType":"STANDARD"},{"id":"3535","name":"Cinema World 16","address":"4345 W. New Haven Ave.","city":"Melbourne","state":"FL","zip":"32904","distance":"9.135543823242188","lon":"-80.698303","lat":"28.076675","theaterChainName":"Cinemaworld","ticketType":"STANDARD"}]