[{"id":"5399","name":"Satellite Cinemas Titusville","address":"3550 S. Washington Ave.","city":"Titusville","state":"FL","zip":"32780","distance":"21.119707107543945","lon":"-80.799301","lat":"28.576500","theaterChainName":"Independent Chains","ticketType":"STANDARD"},{"id":"224","name":"Cobb Merritt Square 16","address":"777 E. Merritt Island Causeway","city":"Merritt Island","state":"FL","zip":"32952","distance":"5.318430423736572","lon":"-80.688103","lat":"28.353786","theaterChainName":"Cobb Theatres","ticketType":"STANDARD"},{"id":"4107","name":"Carmike Avenue 16","address":"2241 Town Centre Ave.","city":"Melbourne","state":"FL","zip":"32940","distance":"9.039267539978027","lon":"-80.728203","lat":"28.242300","theaterChainName":"Carmike Cinemas","ticketType":"STANDARD"},{"id":"808","name":"Satellite Beach Cinemas","address":"1024 Highway A1A","city":"Satellite Beach","state":"FL","zip":"32937","distance":"9.425076484680176","lon":"-80.594070","lat":"28.184851","theaterChainName":"Independent Chains","ticketType":"STANDARD"},{"id":"615","name":"Premiere Theaters Oaks 10","address":"1800 W. Hibiscus Blvd.","city":"Melbourne","state":"FL","zip":"32901","distance":"16.409645080566406","lon":"-80.652229","lat":"28.086163","theaterChainName":"Independent Chains","ticketType":"STANDARD"},{"id":"5542","name":"West Melbourne 12","address":"4255 Norfolk Parkway","city":"West Melbourne","state":"FL","zip":"32904","distance":"19.552963256835938","lon":"-80.663162","lat":"28.041651","theaterChainName":"Carmike Cinemas","ticketType":"STANDARD"},{"id":"3535","name":"Cinema World 16","address":"4345 W. New Haven Ave.","city":"Melbourne","state":"FL","zip":"32904","distance":"17.7065372467041","lon":"-80.698303","lat":"28.076675","theaterChainName":"Cinemaworld","ticketType":"STANDARD"}]