[{"id":"5542","tribuneTheaterId":"10979","providerTheaterId":"","name":"West Melbourne 12","address":"4255 Norfolk Parkway","city":"West Melbourne","state":"FL","zip":"32904","distance":11.748136825809,"lon":"-80.663159","lat":"28.04165","theaterChainName":"Carmike Cinemas","ticketType":"STANDARD"},{"id":"615","tribuneTheaterId":"7184","providerTheaterId":"","name":"Premiere Theaters Oaks 10","address":"1800 W. Hibiscus Blvd.","city":"Melbourne","state":"FL","zip":"32901","distance":13.648365089349,"lon":"-80.652231","lat":"28.086162","theaterChainName":"Independent Chains","ticketType":"STANDARD"},{"id":"3535","tribuneTheaterId":"3233","providerTheaterId":"","name":"Cinema World 16","address":"4345 W. New Haven Ave.","city":"Melbourne","state":"FL","zip":"32904","distance":14.970681608462,"lon":"-80.698301","lat":"28.076675","theaterChainName":"Cinemaworld","ticketType":"STANDARD"},{"id":"808","tribuneTheaterId":"7167","providerTheaterId":"","name":"Satellite Beach Cinemas","address":"1024 Highway A1A","city":"Satellite Beach","state":"FL","zip":"32937","distance":18.489255810041,"lon":"-80.594068","lat":"28.184851","theaterChainName":"Independent Chains","ticketType":"STANDARD"},{"id":"339","tribuneTheaterId":"9208","providerTheaterId":"586","name":"AMC Indian River 24","address":"6200 20th Street Room 600","city":"Vero Beach","state":"FL","zip":"32966","distance":19.840698858795,"lon":"-80.459565","lat":"27.643068","theaterChainName":"AMC Theatres","ticketType":"STANDARD"},{"id":"3539","tribuneTheaterId":"4586","providerTheaterId":"","name":"Majestic 11 by Cinemaworld","address":"940 14th Lane","city":"Vero Beach","state":"FL","zip":"32960","distance":21.909963434441,"lon":"-80.3925","lat":"27.629434","theaterChainName":"Cinemaworld","ticketType":"STANDARD"}]