[{"id":"808","name":"Satellite Beach Cinemas","address":"1024 Highway A1A","city":"Satellite Beach","state":"FL","zip":"32937","distance":"24.88597297668457","lon":"-80.594070","lat":"28.184851","theaterChainName":"Independent Chains","ticketType":"STANDARD"},{"id":"615","name":"Premiere Theaters Oaks 10","address":"1800 W. Hibiscus Blvd.","city":"Melbourne","state":"FL","zip":"32901","distance":"19.83307456970215","lon":"-80.652229","lat":"28.086163","theaterChainName":"Independent Chains","ticketType":"STANDARD"},{"id":"5542","name":"West Melbourne 12","address":"4255 Norfolk Parkway","city":"West Melbourne","state":"FL","zip":"32904","distance":"17.603649139404297","lon":"-80.663162","lat":"28.041651","theaterChainName":"Carmike Cinemas","ticketType":"STANDARD"},{"id":"3535","name":"Cinema World 16","address":"4345 W. New Haven Ave.","city":"Melbourne","state":"FL","zip":"32904","distance":"20.82420539855957","lon":"-80.698303","lat":"28.076675","theaterChainName":"Cinemaworld","ticketType":"STANDARD"},{"id":"339","name":"AMC Indian River 24","address":"6200 20th Street Room 600","city":"Vero Beach","state":"FL","zip":"32966","distance":"13.481107711791992","lon":"-80.459564","lat":"27.643068","theaterChainName":"AMC Theatres","ticketType":"STANDARD"},{"id":"3539","name":"Majestic 11 by Cinemaworld","address":"940 14th Lane","city":"Vero Beach","state":"FL","zip":"32960","distance":"15.53646469116211","lon":"-80.392502","lat":"27.629435","theaterChainName":"Cinemaworld","ticketType":"STANDARD"}]