[{"id":"339","tribuneTheaterId":"9208","providerTheaterId":"586","name":"AMC Indian River 24","address":"6200 20th Street Room 600","city":"Vero Beach","state":"FL","zip":"32966","distance":10.224040743903,"lon":"-80.459565","lat":"27.643068","theaterChainName":"AMC Theatres","ticketType":"STANDARD"},{"id":"3539","tribuneTheaterId":"4586","providerTheaterId":"","name":"Majestic 11 by Cinemaworld","address":"940 14th Lane","city":"Vero Beach","state":"FL","zip":"32960","distance":12.281697801948,"lon":"-80.3925","lat":"27.629434","theaterChainName":"Cinemaworld","ticketType":"STANDARD"},{"id":"5542","tribuneTheaterId":"10979","providerTheaterId":"","name":"West Melbourne 12","address":"4255 Norfolk Parkway","city":"West Melbourne","state":"FL","zip":"32904","distance":20.720048897391,"lon":"-80.663159","lat":"28.04165","theaterChainName":"Carmike Cinemas","ticketType":"STANDARD"},{"id":"3535","tribuneTheaterId":"3233","providerTheaterId":"","name":"Cinema World 16","address":"4345 W. New Haven Ave.","city":"Melbourne","state":"FL","zip":"32904","distance":23.921670397149,"lon":"-80.698301","lat":"28.076675","theaterChainName":"Cinemaworld","ticketType":"STANDARD"},{"id":"615","tribuneTheaterId":"7184","providerTheaterId":"","name":"Premiere Theaters Oaks 10","address":"1800 W. Hibiscus Blvd.","city":"Melbourne","state":"FL","zip":"32901","distance":23.044131186402,"lon":"-80.652231","lat":"28.086162","theaterChainName":"Independent Chains","ticketType":"STANDARD"}]