[{"id":"615","name":"Premiere Theaters Oaks 10","address":"1800 W. Hibiscus Blvd.","city":"Melbourne","state":"FL","zip":"32901","distance":"23.045507431030273","lon":"-80.652229","lat":"28.086163","theaterChainName":"Independent Chains","ticketType":"STANDARD"},{"id":"5542","name":"West Melbourne 12","address":"4255 Norfolk Parkway","city":"West Melbourne","state":"FL","zip":"32904","distance":"20.721439361572266","lon":"-80.663162","lat":"28.041651","theaterChainName":"Carmike Cinemas","ticketType":"STANDARD"},{"id":"3535","name":"Cinema World 16","address":"4345 W. New Haven Ave.","city":"Melbourne","state":"FL","zip":"32904","distance":"23.923206329345703","lon":"-80.698303","lat":"28.076675","theaterChainName":"Cinemaworld","ticketType":"STANDARD"},{"id":"339","name":"AMC Indian River 24","address":"6200 20th Street Room 600","city":"Vero Beach","state":"FL","zip":"32966","distance":"10.2246732711792","lon":"-80.459564","lat":"27.643068","theaterChainName":"AMC Theatres","ticketType":"STANDARD"},{"id":"3539","name":"Majestic 11 by Cinemaworld","address":"940 14th Lane","city":"Vero Beach","state":"FL","zip":"32960","distance":"12.282411575317383","lon":"-80.392502","lat":"27.629435","theaterChainName":"Cinemaworld","ticketType":"STANDARD"}]