[{"id":"5399","name":"Satellite Cinemas Titusville","address":"3550 S. Washington Ave.","city":"Titusville","state":"FL","zip":"32780","distance":"8.144734382629395","lon":"-80.799301","lat":"28.576500","theaterChainName":"Independent Chains","ticketType":"STANDARD"},{"id":"224","name":"Cobb Merritt Square 16","address":"777 E. Merritt Island Causeway","city":"Merritt Island","state":"FL","zip":"32952","distance":"12.84892749786377","lon":"-80.688103","lat":"28.353786","theaterChainName":"Cobb Theatres","ticketType":"STANDARD"},{"id":"4107","name":"Carmike Avenue 16","address":"2241 Town Centre Ave.","city":"Melbourne","state":"FL","zip":"32940","distance":"20.797609329223633","lon":"-80.728203","lat":"28.242300","theaterChainName":"Carmike Cinemas","ticketType":"STANDARD"},{"id":"808","name":"Satellite Beach Cinemas","address":"1024 Highway A1A","city":"Satellite Beach","state":"FL","zip":"32937","distance":"24.938915252685547","lon":"-80.594070","lat":"28.184851","theaterChainName":"Independent Chains","ticketType":"STANDARD"}]