[{"id":"5542","name":"West Melbourne 12","address":"4255 Norfolk Parkway","city":"West Melbourne","state":"FL","zip":"32904","distance":"23.6415958404541","lon":"-80.663162","lat":"28.041651","theaterChainName":"Carmike Cinemas","ticketType":"STANDARD"},{"id":"339","name":"AMC Indian River 24","address":"6200 20th Street Room 600","city":"Vero Beach","state":"FL","zip":"32966","distance":"8.28243637084961","lon":"-80.459564","lat":"27.643068","theaterChainName":"AMC Theatres","ticketType":"STANDARD"},{"id":"3539","name":"Majestic 11 by Cinemaworld","address":"940 14th Lane","city":"Vero Beach","state":"FL","zip":"32960","distance":"12.31645393371582","lon":"-80.392502","lat":"27.629435","theaterChainName":"Cinemaworld","ticketType":"STANDARD"},{"id":"3469","name":"Nova Cinemas at Sabal Palm","address":"2539 South Federal Hwy.","city":"Fort Pierce","state":"FL","zip":"34982","distance":"24.831684112548828","lon":"-80.327614","lat":"27.422674","theaterChainName":"Nova Cinemas","ticketType":"STANDARD"}]