[{"id":"2531","name":"Regal South Beach Stadium 18","address":"1100 Lincoln Rd.","city":"Miami Beach","state":"FL","zip":"33139","distance":"23.798620223999023","lon":"-80.140961","lat":"25.790115","theaterChainName":"Regal Cinemas","ticketType":"STANDARD"},{"id":"770","name":"Muvico Hialeah 14","address":"780 West 49th St.","city":"Hialeah","state":"FL","zip":"33012","distance":"23.938493728637695","lon":"-80.298386","lat":"25.866364","theaterChainName":"Carmike Cinemas","ticketType":"STANDARD"},{"id":"3660","name":"Miami Beach Cinematheque","address":"At Historic City Hall","city":"Miami Beach","state":"FL","zip":"33139","distance":"23.758705139160156","lon":"-80.132584","lat":"25.782553","theaterChainName":"Independent Chains","ticketType":"STANDARD"},{"id":"5385","name":"MDC Tower Theater","address":"1508 SW 8th St","city":"Miami","state":"FL","zip":"33135","distance":"19.46601676940918","lon":"-80.219673","lat":"25.765434","theaterChainName":"Independent Chains","ticketType":"STANDARD"},{"id":"910","name":"Le Jeune Cinema 6","address":"782 NW Le Jeune Rd.","city":"Miami","state":"FL","zip":"33126","distance":"18.958202362060547","lon":"-80.264496","lat":"25.779518","theaterChainName":"Independent Chains","ticketType":"STANDARD"},{"id":"4950","name":"Coral Gables Art Cinema","address":"260 Aragon Ave.","city":"Coral Gables","state":"FL","zip":"33134","distance":"17.28499412536621","lon":"-80.259895","lat":"25.750381","theaterChainName":"Independent Chains","ticketType":"STANDARD"},{"id":"2452","name":"Bill Cosford Cinema","address":"University of Miami - Memorial Bldg.","city":"Coral Gables","state":"FL","zip":"33146","distance":"15.082801818847656","lon":"-80.277290","lat":"25.722622","theaterChainName":"Independent Chains","ticketType":"STANDARD"},{"id":"3200","name":"Cobb Dolphin 19","address":"11471 NW 12th Street","city":"Miami","state":"FL","zip":"33172","distance":"17.611263275146484","lon":"-80.379768","lat":"25.784945","theaterChainName":"Cobb Theatres","ticketType":"STANDARD"},{"id":"2009","name":"AMC Sunset Place 24","address":"5701 Sunset Dr.","city":"South Miami","state":"FL","zip":"33143","distance":"13.750527381896973","lon":"-80.286354","lat":"25.705118","theaterChainName":"AMC Theatres","ticketType":"STANDARD"},{"id":"4837","name":"AMC Tamiami 18","address":"11865 SW 26 St.","city":"Miami","state":"FL","zip":"33175","distance":"14.98833179473877","lon":"-80.389297","lat":"25.747204","theaterChainName":"AMC Theatres","ticketType":"STANDARD"},{"id":"3940","name":"Regal Kendall Village Stadium 16","address":"8595 SW 124 Ave.","city":"Miami","state":"FL","zip":"33183","distance":"10.921601295471191","lon":"-80.393089","lat":"25.688356","theaterChainName":"Regal Cinemas","ticketType":"STANDARD"},{"id":"807","name":"Movies At The Falls","address":"9000 SW 136th St.","city":"Miami","state":"FL","zip":"33176","distance":"8.534988403320312","lon":"-80.338547","lat":"25.644100","theaterChainName":"United Artists","ticketType":"STANDARD"},{"id":"4301","name":"Regal Southland Mall Stadium 16","address":"US 1 at Caribbean Blvd","city":"Miami","state":"FL","zip":"33189","distance":"3.459580183029175","lon":"-80.368271","lat":"25.575645","theaterChainName":"Regal Cinemas","ticketType":"STANDARD"},{"id":"4191","name":"Flagship Cinema Homestead 14","address":"2250 N. E. 8th Street","city":"Homestead","state":"FL","zip":"33033","distance":"5.070756435394287","lon":"-80.445641","lat":"25.475309","theaterChainName":"Flagship Cinemas","ticketType":"STANDARD"}]