[{"id":"5585","name":"O Cinema Miami Beach","address":"500 71st St.","city":"Miami Beach","state":"FL","zip":"33141","distance":"21.994583129882812","lon":"-80.123596","lat":"25.856001","theaterChainName":"Independent Chains","ticketType":"STANDARD"},{"id":"5236","name":"O Cinema Miami Shores","address":"9806 N.E. Second Ave.","city":"Miami Shores","state":"FL","zip":"33138","distance":"20.172035217285156","lon":"-80.193649","lat":"25.865475","theaterChainName":"Independent Chains","ticketType":"STANDARD"},{"id":"3120","name":"Cobb Grand 18","address":"17355 NW 59th Ave.","city":"Hialeah","state":"FL","zip":"33015","distance":"22.656492233276367","lon":"-80.297218","lat":"25.931534","theaterChainName":"Cobb Theatres","ticketType":"STANDARD"},{"id":"612","name":"Cobb Miami Lakes 17","address":"6711 Main St.","city":"Miami Lakes","state":"FL","zip":"33014","distance":"21.307445526123047","lon":"-80.310402","lat":"25.913200","theaterChainName":"Cobb Theatres","ticketType":"STANDARD"},{"id":"2531","name":"Regal South Beach Stadium 18","address":"1100 Lincoln Rd.","city":"Miami Beach","state":"FL","zip":"33139","distance":"17.863779067993164","lon":"-80.140961","lat":"25.790115","theaterChainName":"Regal Cinemas","ticketType":"STANDARD"},{"id":"770","name":"Muvico Hialeah 14","address":"780 West 49th St.","city":"Hialeah","state":"FL","zip":"33012","distance":"18.18613624572754","lon":"-80.298386","lat":"25.866364","theaterChainName":"Carmike Cinemas","ticketType":"STANDARD"},{"id":"3660","name":"Miami Beach Cinematheque","address":"At Historic City Hall","city":"Miami Beach","state":"FL","zip":"33139","distance":"17.87415885925293","lon":"-80.132584","lat":"25.782553","theaterChainName":"Independent Chains","ticketType":"STANDARD"},{"id":"5385","name":"MDC Tower Theater","address":"1508 SW 8th St","city":"Miami","state":"FL","zip":"33135","distance":"13.403420448303223","lon":"-80.219673","lat":"25.765434","theaterChainName":"Independent Chains","ticketType":"STANDARD"},{"id":"910","name":"Le Jeune Cinema 6","address":"782 NW Le Jeune Rd.","city":"Miami","state":"FL","zip":"33126","distance":"12.925644874572754","lon":"-80.264496","lat":"25.779518","theaterChainName":"Independent Chains","ticketType":"STANDARD"},{"id":"4950","name":"Coral Gables Art Cinema","address":"260 Aragon Ave.","city":"Coral Gables","state":"FL","zip":"33134","distance":"11.215108871459961","lon":"-80.259895","lat":"25.750381","theaterChainName":"Independent Chains","ticketType":"STANDARD"},{"id":"2452","name":"Bill Cosford Cinema","address":"University of Miami - Memorial Bldg.","city":"Coral Gables","state":"FL","zip":"33146","distance":"9.014333724975586","lon":"-80.277290","lat":"25.722622","theaterChainName":"Independent Chains","ticketType":"STANDARD"},{"id":"3200","name":"Cobb Dolphin 19","address":"11471 NW 12th Street","city":"Miami","state":"FL","zip":"33172","distance":"12.565839767456055","lon":"-80.379768","lat":"25.784945","theaterChainName":"Cobb Theatres","ticketType":"STANDARD"},{"id":"2009","name":"AMC Sunset Place 24","address":"5701 Sunset Dr.","city":"South Miami","state":"FL","zip":"33143","distance":"7.680510997772217","lon":"-80.286354","lat":"25.705118","theaterChainName":"AMC Theatres","ticketType":"STANDARD"},{"id":"4837","name":"AMC Tamiami 18","address":"11865 SW 26 St.","city":"Miami","state":"FL","zip":"33175","distance":"10.16784381866455","lon":"-80.389297","lat":"25.747204","theaterChainName":"AMC Theatres","ticketType":"STANDARD"},{"id":"3940","name":"Regal Kendall Village Stadium 16","address":"8595 SW 124 Ave.","city":"Miami","state":"FL","zip":"33183","distance":"6.489865303039551","lon":"-80.393089","lat":"25.688356","theaterChainName":"Regal Cinemas","ticketType":"STANDARD"},{"id":"807","name":"Movies At The Falls","address":"9000 SW 136th St.","city":"Miami","state":"FL","zip":"33176","distance":"2.6309967041015625","lon":"-80.338547","lat":"25.644100","theaterChainName":"United Artists","ticketType":"STANDARD"},{"id":"4301","name":"Regal Southland Mall Stadium 16","address":"US 1 at Caribbean Blvd","city":"Miami","state":"FL","zip":"33189","distance":"2.648937940597534","lon":"-80.368271","lat":"25.575645","theaterChainName":"Regal Cinemas","ticketType":"STANDARD"},{"id":"4191","name":"Flagship Cinema Homestead 14","address":"2250 N. E. 8th Street","city":"Homestead","state":"FL","zip":"33033","distance":"11.093587875366211","lon":"-80.445641","lat":"25.475309","theaterChainName":"Flagship Cinemas","ticketType":"STANDARD"}]