[{"id":"1390","name":"AMC Aventura 24","address":"19501 Biscayne Blvd.","city":"Aventura","state":"FL","zip":"33180","distance":"7.283889293670654","lon":"-80.141670","lat":"25.955702","theaterChainName":"AMC Theatres","ticketType":"STANDARD"},{"id":"5428","name":"Cinema Paradiso - Hollywood","address":"2008 Hollywood Blvd","city":"Hollywood","state":"FL","zip":"33019","distance":"10.054621696472168","lon":"-80.147385","lat":"26.011145","theaterChainName":"Independent Chains","ticketType":"STANDARD"},{"id":"613","name":"Cineluxe 6","address":"850 Ives Dairy Rd.","city":"North Miami Beach","state":"FL","zip":"33179","distance":"5.879493713378906","lon":"-80.186096","lat":"25.961344","theaterChainName":"Independent Chains","ticketType":"STANDARD"},{"id":"609","name":"Regal Oakwood Stadium 18","address":"2800 Oakwood Blvd.","city":"Hollywood","state":"FL","zip":"33020","distance":"11.224495887756348","lon":"-80.162628","lat":"26.036613","theaterChainName":"Regal Cinemas","ticketType":"STANDARD"},{"id":"717","name":"Flipper's Hollywood Cinema 10","address":"7001 Taft St.","city":"Hollywood","state":"FL","zip":"33024","distance":"9.682561874389648","lon":"-80.228096","lat":"26.025724","theaterChainName":"Independent Chains","ticketType":"STANDARD"},{"id":"5585","name":"O Cinema Miami Beach","address":"500 71st St.","city":"Miami Beach","state":"FL","zip":"33141","distance":"6.876957893371582","lon":"-80.123596","lat":"25.856001","theaterChainName":"Independent Chains","ticketType":"STANDARD"},{"id":"5236","name":"O Cinema Miami Shores","address":"9806 N.E. Second Ave.","city":"Miami Shores","state":"FL","zip":"33138","distance":"2.611360788345337","lon":"-80.193649","lat":"25.865475","theaterChainName":"Independent Chains","ticketType":"STANDARD"},{"id":"3123","name":"Cinema Paradiso","address":"503 SE Sixth St.","city":"Fort Lauderdale","state":"FL","zip":"33301","distance":"16.824857711791992","lon":"-80.138252","lat":"26.114962","theaterChainName":"Independent Chains","ticketType":"STANDARD"},{"id":"896","name":"The Classic Gateway Theatre","address":"1820 E. Sunrise Blvd.","city":"Fort Lauderdale","state":"FL","zip":"33304","distance":"18.610830307006836","lon":"-80.121429","lat":"26.136923","theaterChainName":"Independent Chains","ticketType":"STANDARD"},{"id":"3120","name":"Cobb Grand 18","address":"17355 NW 59th Ave.","city":"Hialeah","state":"FL","zip":"33015","distance":"5.286293983459473","lon":"-80.297218","lat":"25.931534","theaterChainName":"Cobb Theatres","ticketType":"STANDARD"},{"id":"5424","name":"Broward Mall Stadium 12 and RPX","address":"8000 W. Broward Blvd.","city":"Plantation","state":"FL","zip":"33324","distance":"16.098873138427734","lon":"-80.254662","lat":"26.117460","theaterChainName":"Regal Cinemas","ticketType":"STANDARD"},{"id":"4839","name":"Ridge Cinema 8","address":"9200 W. State Road 84","city":"Davie","state":"FL","zip":"33324","distance":"15.29301643371582","lon":"-80.272476","lat":"26.103479","theaterChainName":"Paragon Theaters","ticketType":"STANDARD"},{"id":"612","name":"Cobb Miami Lakes 17","address":"6711 Main St.","city":"Miami Lakes","state":"FL","zip":"33014","distance":"5.395488739013672","lon":"-80.310402","lat":"25.913200","theaterChainName":"Cobb Theatres","ticketType":"STANDARD"},{"id":"2531","name":"Regal South Beach Stadium 18","address":"1100 Lincoln Rd.","city":"Miami Beach","state":"FL","zip":"33139","distance":"8.581661224365234","lon":"-80.140961","lat":"25.790115","theaterChainName":"Regal Cinemas","ticketType":"STANDARD"},{"id":"375","name":"AMC Coral Ridge 10","address":"3401 NE 26th Ave.","city":"Fort Lauderdale","state":"FL","zip":"33306","distance":"20.88970375061035","lon":"-80.115059","lat":"26.169991","theaterChainName":"AMC Theatres","ticketType":"STANDARD"},{"id":"770","name":"Muvico Hialeah 14","address":"780 West 49th St.","city":"Hialeah","state":"FL","zip":"33012","distance":"4.501805782318115","lon":"-80.298386","lat":"25.866364","theaterChainName":"Carmike Cinemas","ticketType":"STANDARD"},{"id":"3660","name":"Miami Beach Cinematheque","address":"At Historic City Hall","city":"Miami Beach","state":"FL","zip":"33139","distance":"9.316919326782227","lon":"-80.132584","lat":"25.782553","theaterChainName":"Independent Chains","ticketType":"STANDARD"},{"id":"2533","name":"Regal Westfork Stadium 13","address":"15977 W. Pines Blvd.","city":"Pembroke Pines","state":"FL","zip":"33027","distance":"11.88863468170166","lon":"-80.359543","lat":"26.011564","theaterChainName":"Regal Cinemas","ticketType":"STANDARD"},{"id":"2275","name":"Cinemark Paradise 24","address":"15601 Sheridan St.","city":"Davie","state":"FL","zip":"33331","distance":"12.83267593383789","lon":"-80.356033","lat":"26.032185","theaterChainName":"Cinemark","ticketType":"STANDARD"},{"id":"608","name":"Regal Cypress Creek Stadium 16","address":"6415 N. Andrews Ave.","city":"Fort Lauderdale","state":"FL","zip":"33334","distance":"22.771780014038086","lon":"-80.148193","lat":"26.207022","theaterChainName":"Regal Cinemas","ticketType":"STANDARD"},{"id":"5385","name":"MDC Tower Theater","address":"1508 SW 8th St","city":"Miami","state":"FL","zip":"33135","distance":"8.324228286743164","lon":"-80.219673","lat":"25.765434","theaterChainName":"Independent Chains","ticketType":"STANDARD"},{"id":"5568","name":"AMC Sunrise 8","address":"4321 NW 88th Ave.","city":"Sunrise","state":"FL","zip":"33351","distance":"20.28400993347168","lon":"-80.267799","lat":"26.177099","theaterChainName":"AMC Theatres","ticketType":"STANDARD"},{"id":"910","name":"Le Jeune Cinema 6","address":"782 NW Le Jeune Rd.","city":"Miami","state":"FL","zip":"33126","distance":"7.651541709899902","lon":"-80.264496","lat":"25.779518","theaterChainName":"Independent Chains","ticketType":"STANDARD"},{"id":"909","name":"Frank Theatres Sunrise Eleven","address":"4321 Pine Island Rd.","city":"Sunrise","state":"FL","zip":"33351","distance":"20.331438064575195","lon":"-80.269142","lat":"26.177645","theaterChainName":"Frank Theatres","ticketType":"STANDARD"},{"id":"614","name":"Regal Sawgrass Stadium 23 & IMAX","address":"2600 NW 136th Ave.","city":"Sunrise","state":"FL","zip":"33323","distance":"19.46413803100586","lon":"-80.321945","lat":"26.154678","theaterChainName":"Regal Cinemas","ticketType":"STANDARD"},{"id":"3530","name":"Weston 8 Cinemas","address":"1338 SW 160th Ave.","city":"Sunrise","state":"FL","zip":"33326","distance":"17.13454246520996","lon":"-80.361435","lat":"26.103235","theaterChainName":"Independent Chains","ticketType":"STANDARD"},{"id":"5623","name":"AMC Weston 8","address":"1338 S.W. 160th Ave.","city":"Sunrise","state":"FL","zip":"33326","distance":"17.21511459350586","lon":"-80.361389","lat":"26.104586","theaterChainName":"AMC Theatres","ticketType":"STANDARD"},{"id":"4950","name":"Coral Gables Art Cinema","address":"260 Aragon Ave.","city":"Coral Gables","state":"FL","zip":"33134","distance":"9.536267280578613","lon":"-80.259895","lat":"25.750381","theaterChainName":"Independent Chains","ticketType":"STANDARD"},{"id":"912","name":"The Last Picture Show at Tamarac 5","address":"10036 W. McNab Rd.","city":"Tamarac","state":"FL","zip":"33321","distance":"22.45734405517578","lon":"-80.286079","lat":"26.206566","theaterChainName":"Independent Chains","ticketType":"STANDARD"},{"id":"751","name":"Coral Square 8","address":"770 Riverside Dr.","city":"Coral Springs","state":"FL","zip":"33071","distance":"24.678333282470703","lon":"-80.244598","lat":"26.242483","theaterChainName":"Frank Theatres","ticketType":"STANDARD"},{"id":"2452","name":"Bill Cosford Cinema","address":"University of Miami - Memorial Bldg.","city":"Coral Gables","state":"FL","zip":"33146","distance":"11.65188217163086","lon":"-80.277290","lat":"25.722622","theaterChainName":"Independent Chains","ticketType":"STANDARD"},{"id":"3200","name":"Cobb Dolphin 19","address":"11471 NW 12th Street","city":"Miami","state":"FL","zip":"33172","distance":"11.6642427444458","lon":"-80.379768","lat":"25.784945","theaterChainName":"Cobb Theatres","ticketType":"STANDARD"},{"id":"2009","name":"AMC Sunset Place 24","address":"5701 Sunset Dr.","city":"South Miami","state":"FL","zip":"33143","distance":"12.967755317687988","lon":"-80.286354","lat":"25.705118","theaterChainName":"AMC Theatres","ticketType":"STANDARD"},{"id":"4837","name":"AMC Tamiami 18","address":"11865 SW 26 St.","city":"Miami","state":"FL","zip":"33175","distance":"13.80618953704834","lon":"-80.389297","lat":"25.747204","theaterChainName":"AMC Theatres","ticketType":"STANDARD"},{"id":"3940","name":"Regal Kendall Village Stadium 16","address":"8595 SW 124 Ave.","city":"Miami","state":"FL","zip":"33183","distance":"17.021108627319336","lon":"-80.393089","lat":"25.688356","theaterChainName":"Regal Cinemas","ticketType":"STANDARD"},{"id":"807","name":"Movies At The Falls","address":"9000 SW 136th St.","city":"Miami","state":"FL","zip":"33176","distance":"18.020944595336914","lon":"-80.338547","lat":"25.644100","theaterChainName":"United Artists","ticketType":"STANDARD"},{"id":"4301","name":"Regal Southland Mall Stadium 16","address":"US 1 at Caribbean Blvd","city":"Miami","state":"FL","zip":"33189","distance":"23.100317001342773","lon":"-80.368271","lat":"25.575645","theaterChainName":"Regal Cinemas","ticketType":"STANDARD"}]