[{"id":"1390","name":"AMC Aventura 24","address":"19501 Biscayne Blvd.","city":"Aventura","state":"FL","zip":"33180","distance":"16.475278854370117","lon":"-80.141670","lat":"25.955702","theaterChainName":"AMC Theatres","ticketType":"STANDARD"},{"id":"5428","name":"Cinema Paradiso - Hollywood","address":"2008 Hollywood Blvd","city":"Hollywood","state":"FL","zip":"33019","distance":"18.753887176513672","lon":"-80.147385","lat":"26.011145","theaterChainName":"Independent Chains","ticketType":"STANDARD"},{"id":"613","name":"Cineluxe 6","address":"850 Ives Dairy Rd.","city":"North Miami Beach","state":"FL","zip":"33179","distance":"14.61581802368164","lon":"-80.186096","lat":"25.961344","theaterChainName":"Independent Chains","ticketType":"STANDARD"},{"id":"609","name":"Regal Oakwood Stadium 18","address":"2800 Oakwood Blvd.","city":"Hollywood","state":"FL","zip":"33020","distance":"19.471933364868164","lon":"-80.162628","lat":"26.036613","theaterChainName":"Regal Cinemas","ticketType":"STANDARD"},{"id":"717","name":"Flipper's Hollywood Cinema 10","address":"7001 Taft St.","city":"Hollywood","state":"FL","zip":"33024","distance":"16.610898971557617","lon":"-80.228096","lat":"26.025724","theaterChainName":"Independent Chains","ticketType":"STANDARD"},{"id":"5585","name":"O Cinema Miami Beach","address":"500 71st St.","city":"Miami Beach","state":"FL","zip":"33141","distance":"14.673368453979492","lon":"-80.123596","lat":"25.856001","theaterChainName":"Independent Chains","ticketType":"STANDARD"},{"id":"5236","name":"O Cinema Miami Shores","address":"9806 N.E. Second Ave.","city":"Miami Shores","state":"FL","zip":"33138","distance":"10.637581825256348","lon":"-80.193649","lat":"25.865475","theaterChainName":"Independent Chains","ticketType":"STANDARD"},{"id":"3123","name":"Cinema Paradiso","address":"503 SE Sixth St.","city":"Fort Lauderdale","state":"FL","zip":"33301","distance":"24.76506233215332","lon":"-80.138252","lat":"26.114962","theaterChainName":"Independent Chains","ticketType":"STANDARD"},{"id":"3120","name":"Cobb Grand 18","address":"17355 NW 59th Ave.","city":"Hialeah","state":"FL","zip":"33015","distance":"8.871418952941895","lon":"-80.297218","lat":"25.931534","theaterChainName":"Cobb Theatres","ticketType":"STANDARD"},{"id":"5424","name":"Broward Mall Stadium 12 and RPX","address":"8000 W. Broward Blvd.","city":"Plantation","state":"FL","zip":"33324","distance":"21.866769790649414","lon":"-80.254662","lat":"26.117460","theaterChainName":"Regal Cinemas","ticketType":"STANDARD"},{"id":"4839","name":"Ridge Cinema 8","address":"9200 W. State Road 84","city":"Davie","state":"FL","zip":"33324","distance":"20.64061737060547","lon":"-80.272476","lat":"26.103479","theaterChainName":"Paragon Theaters","ticketType":"STANDARD"},{"id":"612","name":"Cobb Miami Lakes 17","address":"6711 Main St.","city":"Miami Lakes","state":"FL","zip":"33014","distance":"7.385319232940674","lon":"-80.310402","lat":"25.913200","theaterChainName":"Cobb Theatres","ticketType":"STANDARD"},{"id":"2531","name":"Regal South Beach Stadium 18","address":"1100 Lincoln Rd.","city":"Miami Beach","state":"FL","zip":"33139","distance":"13.41147232055664","lon":"-80.140961","lat":"25.790115","theaterChainName":"Regal Cinemas","ticketType":"STANDARD"},{"id":"770","name":"Muvico Hialeah 14","address":"780 West 49th St.","city":"Hialeah","state":"FL","zip":"33012","distance":"5.039031028747559","lon":"-80.298386","lat":"25.866364","theaterChainName":"Carmike Cinemas","ticketType":"STANDARD"},{"id":"3660","name":"Miami Beach Cinematheque","address":"At Historic City Hall","city":"Miami Beach","state":"FL","zip":"33139","distance":"14.000983238220215","lon":"-80.132584","lat":"25.782553","theaterChainName":"Independent Chains","ticketType":"STANDARD"},{"id":"2533","name":"Regal Westfork Stadium 13","address":"15977 W. Pines Blvd.","city":"Pembroke Pines","state":"FL","zip":"33027","distance":"13.647339820861816","lon":"-80.359543","lat":"26.011564","theaterChainName":"Regal Cinemas","ticketType":"STANDARD"},{"id":"2275","name":"Cinemark Paradise 24","address":"15601 Sheridan St.","city":"Davie","state":"FL","zip":"33331","distance":"15.069266319274902","lon":"-80.356033","lat":"26.032185","theaterChainName":"Cinemark","ticketType":"STANDARD"},{"id":"5385","name":"MDC Tower Theater","address":"1508 SW 8th St","city":"Miami","state":"FL","zip":"33135","distance":"9.060107231140137","lon":"-80.219673","lat":"25.765434","theaterChainName":"Independent Chains","ticketType":"STANDARD"},{"id":"910","name":"Le Jeune Cinema 6","address":"782 NW Le Jeune Rd.","city":"Miami","state":"FL","zip":"33126","distance":"6.110556125640869","lon":"-80.264496","lat":"25.779518","theaterChainName":"Independent Chains","ticketType":"STANDARD"},{"id":"614","name":"Regal Sawgrass Stadium 23 & IMAX","address":"2600 NW 136th Ave.","city":"Sunrise","state":"FL","zip":"33323","distance":"23.62195587158203","lon":"-80.321945","lat":"26.154678","theaterChainName":"Regal Cinemas","ticketType":"STANDARD"},{"id":"3530","name":"Weston 8 Cinemas","address":"1338 SW 160th Ave.","city":"Sunrise","state":"FL","zip":"33326","distance":"19.98265838623047","lon":"-80.361435","lat":"26.103235","theaterChainName":"Independent Chains","ticketType":"STANDARD"},{"id":"5623","name":"AMC Weston 8","address":"1338 S.W. 160th Ave.","city":"Sunrise","state":"FL","zip":"33326","distance":"20.075891494750977","lon":"-80.361389","lat":"26.104586","theaterChainName":"AMC Theatres","ticketType":"STANDARD"},{"id":"4950","name":"Coral Gables Art Cinema","address":"260 Aragon Ave.","city":"Coral Gables","state":"FL","zip":"33134","distance":"7.37044620513916","lon":"-80.259895","lat":"25.750381","theaterChainName":"Independent Chains","ticketType":"STANDARD"},{"id":"2452","name":"Bill Cosford Cinema","address":"University of Miami - Memorial Bldg.","city":"Coral Gables","state":"FL","zip":"33146","distance":"7.954555511474609","lon":"-80.277290","lat":"25.722622","theaterChainName":"Independent Chains","ticketType":"STANDARD"},{"id":"3200","name":"Cobb Dolphin 19","address":"11471 NW 12th Street","city":"Miami","state":"FL","zip":"33172","distance":"2.54020619392395","lon":"-80.379768","lat":"25.784945","theaterChainName":"Cobb Theatres","ticketType":"STANDARD"},{"id":"2009","name":"AMC Sunset Place 24","address":"5701 Sunset Dr.","city":"South Miami","state":"FL","zip":"33143","distance":"8.65454387664795","lon":"-80.286354","lat":"25.705118","theaterChainName":"AMC Theatres","ticketType":"STANDARD"},{"id":"4837","name":"AMC Tamiami 18","address":"11865 SW 26 St.","city":"Miami","state":"FL","zip":"33175","distance":"5.093902587890625","lon":"-80.389297","lat":"25.747204","theaterChainName":"AMC Theatres","ticketType":"STANDARD"},{"id":"3940","name":"Regal Kendall Village Stadium 16","address":"8595 SW 124 Ave.","city":"Miami","state":"FL","zip":"33183","distance":"9.007862091064453","lon":"-80.393089","lat":"25.688356","theaterChainName":"Regal Cinemas","ticketType":"STANDARD"},{"id":"807","name":"Movies At The Falls","address":"9000 SW 136th St.","city":"Miami","state":"FL","zip":"33176","distance":"11.790599822998047","lon":"-80.338547","lat":"25.644100","theaterChainName":"United Artists","ticketType":"STANDARD"},{"id":"4301","name":"Regal Southland Mall Stadium 16","address":"US 1 at Caribbean Blvd","city":"Miami","state":"FL","zip":"33189","distance":"16.497682571411133","lon":"-80.368271","lat":"25.575645","theaterChainName":"Regal Cinemas","ticketType":"STANDARD"},{"id":"4191","name":"Flagship Cinema Homestead 14","address":"2250 N. E. 8th Street","city":"Homestead","state":"FL","zip":"33033","distance":"24.082401275634766","lon":"-80.445641","lat":"25.475309","theaterChainName":"Flagship Cinemas","ticketType":"STANDARD"}]