[{"id":"1390","name":"AMC Aventura 24","address":"19501 Biscayne Blvd.","city":"Aventura","state":"FL","zip":"33180","distance":"12.941763877868652","lon":"-80.141670","lat":"25.955702","theaterChainName":"AMC Theatres","ticketType":"STANDARD"},{"id":"5428","name":"Cinema Paradiso - Hollywood","address":"2008 Hollywood Blvd","city":"Hollywood","state":"FL","zip":"33019","distance":"16.645286560058594","lon":"-80.147385","lat":"26.011145","theaterChainName":"Independent Chains","ticketType":"STANDARD"},{"id":"613","name":"Cineluxe 6","address":"850 Ives Dairy Rd.","city":"North Miami Beach","state":"FL","zip":"33179","distance":"13.02115535736084","lon":"-80.186096","lat":"25.961344","theaterChainName":"Independent Chains","ticketType":"STANDARD"},{"id":"609","name":"Regal Oakwood Stadium 18","address":"2800 Oakwood Blvd.","city":"Hollywood","state":"FL","zip":"33020","distance":"18.284828186035156","lon":"-80.162628","lat":"26.036613","theaterChainName":"Regal Cinemas","ticketType":"STANDARD"},{"id":"717","name":"Flipper's Hollywood Cinema 10","address":"7001 Taft St.","city":"Hollywood","state":"FL","zip":"33024","distance":"17.65538215637207","lon":"-80.228096","lat":"26.025724","theaterChainName":"Independent Chains","ticketType":"STANDARD"},{"id":"5585","name":"O Cinema Miami Beach","address":"500 71st St.","city":"Miami Beach","state":"FL","zip":"33141","distance":"6.965915203094482","lon":"-80.123596","lat":"25.856001","theaterChainName":"Independent Chains","ticketType":"STANDARD"},{"id":"5236","name":"O Cinema Miami Shores","address":"9806 N.E. Second Ave.","city":"Miami Shores","state":"FL","zip":"33138","distance":"6.4100847244262695","lon":"-80.193649","lat":"25.865475","theaterChainName":"Independent Chains","ticketType":"STANDARD"},{"id":"3123","name":"Cinema Paradiso","address":"503 SE Sixth St.","city":"Fort Lauderdale","state":"FL","zip":"33301","distance":"23.828914642333984","lon":"-80.138252","lat":"26.114962","theaterChainName":"Independent Chains","ticketType":"STANDARD"},{"id":"3120","name":"Cobb Grand 18","address":"17355 NW 59th Ave.","city":"Hialeah","state":"FL","zip":"33015","distance":"12.927650451660156","lon":"-80.297218","lat":"25.931534","theaterChainName":"Cobb Theatres","ticketType":"STANDARD"},{"id":"5424","name":"Broward Mall Stadium 12 and RPX","address":"8000 W. Broward Blvd.","city":"Plantation","state":"FL","zip":"33324","distance":"24.176668167114258","lon":"-80.254662","lat":"26.117460","theaterChainName":"Regal Cinemas","ticketType":"STANDARD"},{"id":"4839","name":"Ridge Cinema 8","address":"9200 W. State Road 84","city":"Davie","state":"FL","zip":"33324","distance":"23.451663970947266","lon":"-80.272476","lat":"26.103479","theaterChainName":"Paragon Theaters","ticketType":"STANDARD"},{"id":"612","name":"Cobb Miami Lakes 17","address":"6711 Main St.","city":"Miami Lakes","state":"FL","zip":"33014","distance":"12.364311218261719","lon":"-80.310402","lat":"25.913200","theaterChainName":"Cobb Theatres","ticketType":"STANDARD"},{"id":"2531","name":"Regal South Beach Stadium 18","address":"1100 Lincoln Rd.","city":"Miami Beach","state":"FL","zip":"33139","distance":"3.1015193462371826","lon":"-80.140961","lat":"25.790115","theaterChainName":"Regal Cinemas","ticketType":"STANDARD"},{"id":"770","name":"Muvico Hialeah 14","address":"780 West 49th St.","city":"Hialeah","state":"FL","zip":"33012","distance":"9.471510887145996","lon":"-80.298386","lat":"25.866364","theaterChainName":"Carmike Cinemas","ticketType":"STANDARD"},{"id":"3660","name":"Miami Beach Cinematheque","address":"At Historic City Hall","city":"Miami Beach","state":"FL","zip":"33139","distance":"3.450728416442871","lon":"-80.132584","lat":"25.782553","theaterChainName":"Independent Chains","ticketType":"STANDARD"},{"id":"2533","name":"Regal Westfork Stadium 13","address":"15977 W. Pines Blvd.","city":"Pembroke Pines","state":"FL","zip":"33027","distance":"19.672283172607422","lon":"-80.359543","lat":"26.011564","theaterChainName":"Regal Cinemas","ticketType":"STANDARD"},{"id":"2275","name":"Cinemark Paradise 24","address":"15601 Sheridan St.","city":"Davie","state":"FL","zip":"33331","distance":"20.769474029541016","lon":"-80.356033","lat":"26.032185","theaterChainName":"Cinemark","ticketType":"STANDARD"},{"id":"5385","name":"MDC Tower Theater","address":"1508 SW 8th St","city":"Miami","state":"FL","zip":"33135","distance":"2.097752332687378","lon":"-80.219673","lat":"25.765434","theaterChainName":"Independent Chains","ticketType":"STANDARD"},{"id":"910","name":"Le Jeune Cinema 6","address":"782 NW Le Jeune Rd.","city":"Miami","state":"FL","zip":"33126","distance":"4.843830108642578","lon":"-80.264496","lat":"25.779518","theaterChainName":"Independent Chains","ticketType":"STANDARD"},{"id":"4950","name":"Coral Gables Art Cinema","address":"260 Aragon Ave.","city":"Coral Gables","state":"FL","zip":"33134","distance":"4.795910835266113","lon":"-80.259895","lat":"25.750381","theaterChainName":"Independent Chains","ticketType":"STANDARD"},{"id":"2452","name":"Bill Cosford Cinema","address":"University of Miami - Memorial Bldg.","city":"Coral Gables","state":"FL","zip":"33146","distance":"6.606779098510742","lon":"-80.277290","lat":"25.722622","theaterChainName":"Independent Chains","ticketType":"STANDARD"},{"id":"3200","name":"Cobb Dolphin 19","address":"11471 NW 12th Street","city":"Miami","state":"FL","zip":"33172","distance":"12.023283004760742","lon":"-80.379768","lat":"25.784945","theaterChainName":"Cobb Theatres","ticketType":"STANDARD"},{"id":"2009","name":"AMC Sunset Place 24","address":"5701 Sunset Dr.","city":"South Miami","state":"FL","zip":"33143","distance":"7.757564544677734","lon":"-80.286354","lat":"25.705118","theaterChainName":"AMC Theatres","ticketType":"STANDARD"},{"id":"4837","name":"AMC Tamiami 18","address":"11865 SW 26 St.","city":"Miami","state":"FL","zip":"33175","distance":"12.71394157409668","lon":"-80.389297","lat":"25.747204","theaterChainName":"AMC Theatres","ticketType":"STANDARD"},{"id":"3940","name":"Regal Kendall Village Stadium 16","address":"8595 SW 124 Ave.","city":"Miami","state":"FL","zip":"33183","distance":"14.095962524414062","lon":"-80.393089","lat":"25.688356","theaterChainName":"Regal Cinemas","ticketType":"STANDARD"},{"id":"807","name":"Movies At The Falls","address":"9000 SW 136th St.","city":"Miami","state":"FL","zip":"33176","distance":"12.970269203186035","lon":"-80.338547","lat":"25.644100","theaterChainName":"United Artists","ticketType":"STANDARD"},{"id":"4301","name":"Regal Southland Mall Stadium 16","address":"US 1 at Caribbean Blvd","city":"Miami","state":"FL","zip":"33189","distance":"17.69780158996582","lon":"-80.368271","lat":"25.575645","theaterChainName":"Regal Cinemas","ticketType":"STANDARD"}]