[{"id":"911","name":"Movies of Delray","address":"7421 W. Atlantic Ave.","city":"Delray Beach","state":"FL","zip":"33446","distance":"21.036298751831055","lon":"-80.162704","lat":"26.455635","theaterChainName":"Independent Chains","ticketType":"STANDARD"},{"id":"5305","name":"Frank Theatres CineBowl & Grille & IMAX","address":"14775 Lyons Road","city":"Delray Beach","state":"FL","zip":"33446","distance":"21.674983978271484","lon":"-80.189903","lat":"26.453600","theaterChainName":"Frank Theatres","ticketType":"STANDARD"},{"id":"2651","name":"Boynton Cinema","address":"9764 S. Military Trl.","city":"Boynton Beach","state":"FL","zip":"33436","distance":"15.392645835876465","lon":"-80.122704","lat":"26.531000","theaterChainName":"Independent Chains","ticketType":"STANDARD"},{"id":"4347","name":"Cinemark Boynton Beach and XD","address":"1151 N. Congress Ave.","city":"Boynton Beach","state":"FL","zip":"33426","distance":"14.739263534545898","lon":"-80.094086","lat":"26.536764","theaterChainName":"Cinemark","ticketType":"STANDARD"},{"id":"936","name":"Movies of Lake Worth","address":"7380 Lake Worth Rd.","city":"Lake Worth","state":"FL","zip":"33467","distance":"10.78161334991455","lon":"-80.163254","lat":"26.615891","theaterChainName":"Independent Chains","ticketType":"STANDARD"},{"id":"3441","name":"Phoenix Theatres Lake Worth 8","address":"5881 Lake Worth Rd.","city":"Greenacres","state":"FL","zip":"33463","distance":"9.759981155395508","lon":"-80.135887","lat":"26.619802","theaterChainName":"Phoenix Theatres","ticketType":"STANDARD"},{"id":"4273","name":"Lake Worth Playhouse Stonzek Theatre","address":"713 Lake Avenue","city":"Lake Worth","state":"FL","zip":"33460","distance":"9.272201538085938","lon":"-80.055939","lat":"26.615829","theaterChainName":"Independent Chains","ticketType":"STANDARD"},{"id":"6040","name":"Paragon Wellington","address":"10300 W Forest Hill Blvd","city":"Wellington","state":"FL","zip":"33414","distance":"10.8137788772583","lon":"-80.209000","lat":"26.651108","theaterChainName":"Paragon Theaters","ticketType":"STANDARD"},{"id":"3118","name":"Muvico Parisian 20","address":"545 Hibiscus St.","city":"West Palm Beach","state":"FL","zip":"33401","distance":"2.9364731311798096","lon":"-80.056221","lat":"26.709269","theaterChainName":"Carmike Cinemas","ticketType":"STANDARD"},{"id":"4751","name":"Mos' Art Theatre","address":"700 Park Avenue","city":"Lake Park","state":"FL","zip":"33403","distance":"3.4142165184020996","lon":"-80.066925","lat":"26.798361","theaterChainName":"Independent Chains","ticketType":"STANDARD"},{"id":"823","name":"Regal Royal Palm Stadium 18 & RPX","address":"1003 N. State Rd. 7","city":"Royal Palm Beach","state":"FL","zip":"33411","distance":"8.780241966247559","lon":"-80.204231","lat":"26.701204","theaterChainName":"Regal Cinemas","ticketType":"STANDARD"},{"id":"4125","name":"Cobb Downtown 16","address":"11701 Lake Victoria Gardens Ave.","city":"Palm Beach Gardens","state":"FL","zip":"33410","distance":"7.093072891235352","lon":"-80.094902","lat":"26.849888","theaterChainName":"Cobb Theatres","ticketType":"STANDARD"},{"id":"3125","name":"Movies At Wellington","address":"13881 Wellington Trace","city":"Wellington","state":"FL","zip":"33414","distance":"13.382521629333496","lon":"-80.267143","lat":"26.663895","theaterChainName":"Independent Chains","ticketType":"STANDARD"}]