[{"id":"4125","tribuneTheaterId":"2386","providerTheaterId":"","name":"Cobb Downtown 16","address":"11701 Lake Victoria Gardens Ave.","city":"Palm Beach Gardens","state":"FL","zip":"33410","distance":9.2393574389212,"lon":"-80.094903","lat":"26.849888","theaterChainName":"Cobb Theatres","ticketType":"STANDARD"},{"id":"4751","tribuneTheaterId":"9982","providerTheaterId":"","name":"Mos' Art Theatre","address":"700 Park Avenue","city":"Lake Park","state":"FL","zip":"33403","distance":13.012732609097,"lon":"-80.066928","lat":"26.798361","theaterChainName":"Independent Chains","ticketType":"STANDARD"},{"id":"627","tribuneTheaterId":"6530","providerTheaterId":"","name":"Regency 8 Cinema","address":"2448 SE Federal Highway","city":"Stuart","state":"FL","zip":"34994","distance":15.363208870448,"lon":"-80.235096","lat":"27.174504","theaterChainName":"Independent Chains","ticketType":"STANDARD"},{"id":"3118","tribuneTheaterId":"6820","providerTheaterId":"","name":"Muvico Parisian 20","address":"545 Hibiscus St.","city":"West Palm Beach","state":"FL","zip":"33401","distance":19.187271252924,"lon":"-80.05622","lat":"26.709269","theaterChainName":"Carmike Cinemas","ticketType":"STANDARD"},{"id":"3134","tribuneTheaterId":"5619","providerTheaterId":"","name":"Regal Treasure Coast Mall Stadium 16","address":"3290 NW Federal Highway","city":"Jensen Beach","state":"FL","zip":"34957","distance":20.54920646784,"lon":"-80.275469","lat":"27.240458","theaterChainName":"Regal Cinemas","ticketType":"STANDARD"},{"id":"823","tribuneTheaterId":"7562","providerTheaterId":"","name":"Regal Royal Palm Stadium 18 & RPX","address":"1003 N. State Rd. 7","city":"Royal Palm Beach","state":"FL","zip":"33411","distance":20.360475574786,"lon":"-80.204229","lat":"26.701205","theaterChainName":"Regal Cinemas","ticketType":"STANDARD"},{"id":"3125","tribuneTheaterId":"5856","providerTheaterId":"","name":"Movies At Wellington","address":"13881 Wellington Trace","city":"Wellington","state":"FL","zip":"33414","distance":24.139371774952,"lon":"-80.267143","lat":"26.663894","theaterChainName":"Independent Chains","ticketType":"STANDARD"},{"id":"6040","tribuneTheaterId":"11444","providerTheaterId":"","name":"Paragon Wellington","address":"10300 W Forest Hill Blvd","city":"Wellington","state":"FL","zip":"33414","distance":23.768842195614,"lon":"-80.209","lat":"26.651108","theaterChainName":"Paragon Theaters","ticketType":"STANDARD"}]