[{"id":"3441","tribuneTheaterId":"4900","providerTheaterId":"","name":"Phoenix Theatres Lake Worth 8","address":"5881 Lake Worth Rd.","city":"Greenacres","state":"FL","zip":"33463","distance":0.62126595405341,"lon":"-80.135887","lat":"26.619802","theaterChainName":"Phoenix Theatres","ticketType":"STANDARD"},{"id":"936","tribuneTheaterId":"5952","providerTheaterId":"","name":"Movies of Lake Worth","address":"7380 Lake Worth Rd.","city":"Lake Worth","state":"FL","zip":"33467","distance":2.0784286288261,"lon":"-80.163252","lat":"26.61589","theaterChainName":"Independent Chains","ticketType":"STANDARD"},{"id":"4273","tribuneTheaterId":"1080","providerTheaterId":"","name":"Lake Worth Playhouse Stonzek Theatre","address":"713 Lake Avenue","city":"Lake Worth","state":"FL","zip":"33460","distance":4.8132108226663,"lon":"-80.055935","lat":"26.615829","theaterChainName":"Independent Chains","ticketType":"STANDARD"},{"id":"6040","tribuneTheaterId":"11444","providerTheaterId":"","name":"Paragon Wellington","address":"10300 W Forest Hill Blvd","city":"Wellington","state":"FL","zip":"33414","distance":4.9745654665446,"lon":"-80.209","lat":"26.651108","theaterChainName":"Paragon Theaters","ticketType":"STANDARD"},{"id":"823","tribuneTheaterId":"7562","providerTheaterId":"","name":"Regal Royal Palm Stadium 18 & RPX","address":"1003 N. State Rd. 7","city":"Royal Palm Beach","state":"FL","zip":"33411","distance":6.7033171208329,"lon":"-80.204229","lat":"26.701205","theaterChainName":"Regal Cinemas","ticketType":"STANDARD"},{"id":"3118","tribuneTheaterId":"6820","providerTheaterId":"","name":"Muvico Parisian 20","address":"545 Hibiscus St.","city":"West Palm Beach","state":"FL","zip":"33401","distance":7.3169252247678,"lon":"-80.05622","lat":"26.709269","theaterChainName":"Carmike Cinemas","ticketType":"STANDARD"},{"id":"2651","tribuneTheaterId":"3095","providerTheaterId":"","name":"Boynton Cinema","address":"9764 S. Military Trl.","city":"Boynton Beach","state":"FL","zip":"33436","distance":6.7505304764858,"lon":"-80.122704","lat":"26.531","theaterChainName":"Independent Chains","ticketType":"STANDARD"},{"id":"4347","tribuneTheaterId":"9350","providerTheaterId":"","name":"Cinemark Boynton Beach and XD","address":"1151 N. Congress Ave.","city":"Boynton Beach","state":"FL","zip":"33426","distance":6.7573442924109,"lon":"-80.094087","lat":"26.536765","theaterChainName":"Cinemark","ticketType":"STANDARD"},{"id":"3125","tribuneTheaterId":"5856","providerTheaterId":"","name":"Movies At Wellington","address":"13881 Wellington Trace","city":"Wellington","state":"FL","zip":"33414","distance":8.6650494168349,"lon":"-80.267143","lat":"26.663894","theaterChainName":"Independent Chains","ticketType":"STANDARD"},{"id":"4751","tribuneTheaterId":"9982","providerTheaterId":"","name":"Mos' Art Theatre","address":"700 Park Avenue","city":"Lake Park","state":"FL","zip":"33403","distance":12.429507252939,"lon":"-80.066928","lat":"26.798361","theaterChainName":"Independent Chains","ticketType":"STANDARD"},{"id":"911","tribuneTheaterId":"5951","providerTheaterId":"","name":"Movies of Delray","address":"7421 W. Atlantic Ave.","city":"Delray Beach","state":"FL","zip":"33446","distance":12.074248316531,"lon":"-80.162705","lat":"26.455635","theaterChainName":"Independent Chains","ticketType":"STANDARD"},{"id":"5305","tribuneTheaterId":"10738","providerTheaterId":"","name":"Frank Theatres CineBowl & Grille & IMAX","address":"14775 Lyons Road","city":"Delray Beach","state":"FL","zip":"33446","distance":12.579502281326,"lon":"-80.1899","lat":"26.4536","theaterChainName":"Frank Theatres","ticketType":"STANDARD"},{"id":"4125","tribuneTheaterId":"2386","providerTheaterId":"","name":"Cobb Downtown 16","address":"11701 Lake Victoria Gardens Ave.","city":"Palm Beach Gardens","state":"FL","zip":"33410","distance":15.485939322167,"lon":"-80.094903","lat":"26.849888","theaterChainName":"Cobb Theatres","ticketType":"STANDARD"},{"id":"3035","tribuneTheaterId":"8528","providerTheaterId":"","name":"Cinemark Palace 20","address":"3200 Airport Rd.","city":"Boca Raton","state":"FL","zip":"33431","distance":17.342071199566,"lon":"-80.1133","lat":"26.3779","theaterChainName":"Cinemark","ticketType":"STANDARD"},{"id":"619","tribuneTheaterId":"7733","providerTheaterId":"","name":"Regal Shadowood 16","address":"9889 W. Glades Rd.","city":"Boca Raton","state":"FL","zip":"33434","distance":18.367085056637,"lon":"-80.201354","lat":"26.369689","theaterChainName":"Regal Cinemas","ticketType":"STANDARD"},{"id":"4975","tribuneTheaterId":"10335","providerTheaterId":"","name":"Living Room Theaters FAU","address":"777 Glades Road","city":"Boca Raton","state":"FL","zip":"33431","distance":18.310644249102,"lon":"-80.101","lat":"26.3648","theaterChainName":"Independent Chains","ticketType":"STANDARD"},{"id":"908","tribuneTheaterId":"9060","providerTheaterId":"","name":"Cin\u00e9polis Deerfield 8","address":"3984 W. Hillsboro Blvd.","city":"Deerfield Beach","state":"FL","zip":"33442","distance":21.645382217446,"lon":"-80.159088","lat":"26.315921","theaterChainName":"Cinepolis Luxury Cinemas","ticketType":"STANDARD"},{"id":"880","tribuneTheaterId":"7889","providerTheaterId":"","name":"Regal Magnolia Stadium 16","address":"9645 Westview Dr.","city":"Coral Springs","state":"FL","zip":"33076","distance":23.854282727266,"lon":"-80.253467","lat":"26.300446","theaterChainName":"Regal Cinemas","ticketType":"STANDARD"}]