[{"id":"3134","name":"Regal Treasure Coast Mall Stadium 16","address":"3290 NW Federal Highway","city":"Jensen Beach","state":"FL","zip":"34957","distance":"20.550281524658203","lon":"-80.275467","lat":"27.240458","theaterChainName":"Regal Cinemas","ticketType":"STANDARD"},{"id":"627","name":"Regency 8 Cinema","address":"2448 SE Federal Highway","city":"Stuart","state":"FL","zip":"34994","distance":"15.36413288116455","lon":"-80.235100","lat":"27.174503","theaterChainName":"Independent Chains","ticketType":"STANDARD"},{"id":"6040","name":"Paragon Wellington","address":"10300 W Forest Hill Blvd","city":"Wellington","state":"FL","zip":"33414","distance":"23.770355224609375","lon":"-80.209000","lat":"26.651108","theaterChainName":"Paragon Theaters","ticketType":"STANDARD"},{"id":"3118","name":"Muvico Parisian 20","address":"545 Hibiscus St.","city":"West Palm Beach","state":"FL","zip":"33401","distance":"19.18855857849121","lon":"-80.056221","lat":"26.709269","theaterChainName":"Carmike Cinemas","ticketType":"STANDARD"},{"id":"4751","name":"Mos' Art Theatre","address":"700 Park Avenue","city":"Lake Park","state":"FL","zip":"33403","distance":"13.013667106628418","lon":"-80.066925","lat":"26.798361","theaterChainName":"Independent Chains","ticketType":"STANDARD"},{"id":"823","name":"Regal Royal Palm Stadium 18 & RPX","address":"1003 N. State Rd. 7","city":"Royal Palm Beach","state":"FL","zip":"33411","distance":"20.361852645874023","lon":"-80.204231","lat":"26.701204","theaterChainName":"Regal Cinemas","ticketType":"STANDARD"},{"id":"4125","name":"Cobb Downtown 16","address":"11701 Lake Victoria Gardens Ave.","city":"Palm Beach Gardens","state":"FL","zip":"33410","distance":"9.240015983581543","lon":"-80.094902","lat":"26.849888","theaterChainName":"Cobb Theatres","ticketType":"STANDARD"},{"id":"3125","name":"Movies At Wellington","address":"13881 Wellington Trace","city":"Wellington","state":"FL","zip":"33414","distance":"24.140846252441406","lon":"-80.267143","lat":"26.663895","theaterChainName":"Independent Chains","ticketType":"STANDARD"}]