[{"id":"627","name":"Regency 8 Cinema","address":"2448 SE Federal Highway","city":"Stuart","state":"FL","zip":"34994","distance":"19.994842529296875","lon":"-80.235100","lat":"27.174503","theaterChainName":"Independent Chains","ticketType":"STANDARD"},{"id":"936","name":"Movies of Lake Worth","address":"7380 Lake Worth Rd.","city":"Lake Worth","state":"FL","zip":"33467","distance":"21.790315628051758","lon":"-80.163254","lat":"26.615891","theaterChainName":"Independent Chains","ticketType":"STANDARD"},{"id":"3441","name":"Phoenix Theatres Lake Worth 8","address":"5881 Lake Worth Rd.","city":"Greenacres","state":"FL","zip":"33463","distance":"21.174285888671875","lon":"-80.135887","lat":"26.619802","theaterChainName":"Phoenix Theatres","ticketType":"STANDARD"},{"id":"4273","name":"Lake Worth Playhouse Stonzek Theatre","address":"713 Lake Avenue","city":"Lake Worth","state":"FL","zip":"33460","distance":"21.17479705810547","lon":"-80.055939","lat":"26.615829","theaterChainName":"Independent Chains","ticketType":"STANDARD"},{"id":"6040","name":"Paragon Wellington","address":"10300 W Forest Hill Blvd","city":"Wellington","state":"FL","zip":"33414","distance":"20.393064498901367","lon":"-80.209000","lat":"26.651108","theaterChainName":"Paragon Theaters","ticketType":"STANDARD"},{"id":"3118","name":"Muvico Parisian 20","address":"545 Hibiscus St.","city":"West Palm Beach","state":"FL","zip":"33401","distance":"14.734308242797852","lon":"-80.056221","lat":"26.709269","theaterChainName":"Carmike Cinemas","ticketType":"STANDARD"},{"id":"4751","name":"Mos' Art Theatre","address":"700 Park Avenue","city":"Lake Park","state":"FL","zip":"33403","distance":"8.54502010345459","lon":"-80.066925","lat":"26.798361","theaterChainName":"Independent Chains","ticketType":"STANDARD"},{"id":"823","name":"Regal Royal Palm Stadium 18 & RPX","address":"1003 N. State Rd. 7","city":"Royal Palm Beach","state":"FL","zip":"33411","distance":"17.137283325195312","lon":"-80.204231","lat":"26.701204","theaterChainName":"Regal Cinemas","ticketType":"STANDARD"},{"id":"4125","name":"Cobb Downtown 16","address":"11701 Lake Victoria Gardens Ave.","city":"Palm Beach Gardens","state":"FL","zip":"33410","distance":"5.083142280578613","lon":"-80.094902","lat":"26.849888","theaterChainName":"Cobb Theatres","ticketType":"STANDARD"},{"id":"3125","name":"Movies At Wellington","address":"13881 Wellington Trace","city":"Wellington","state":"FL","zip":"33414","distance":"21.327600479125977","lon":"-80.267143","lat":"26.663895","theaterChainName":"Independent Chains","ticketType":"STANDARD"}]