[{"id":"3035","tribuneTheaterId":"8528","providerTheaterId":"","name":"Cinemark Palace 20","address":"3200 Airport Rd.","city":"Boca Raton","state":"FL","zip":"33431","distance":6.2963988326849,"lon":"-80.1133","lat":"26.3779","theaterChainName":"Cinemark","ticketType":"STANDARD"},{"id":"911","tribuneTheaterId":"5951","providerTheaterId":"","name":"Movies of Delray","address":"7421 W. Atlantic Ave.","city":"Delray Beach","state":"FL","zip":"33446","distance":5.5759305616518,"lon":"-80.162705","lat":"26.455635","theaterChainName":"Independent Chains","ticketType":"STANDARD"},{"id":"2651","tribuneTheaterId":"3095","providerTheaterId":"","name":"Boynton Cinema","address":"9764 S. Military Trl.","city":"Boynton Beach","state":"FL","zip":"33436","distance":5.7080298589468,"lon":"-80.122704","lat":"26.531","theaterChainName":"Independent Chains","ticketType":"STANDARD"},{"id":"4347","tribuneTheaterId":"9350","providerTheaterId":"","name":"Cinemark Boynton Beach and XD","address":"1151 N. Congress Ave.","city":"Boynton Beach","state":"FL","zip":"33426","distance":5.3643045033749,"lon":"-80.094087","lat":"26.536765","theaterChainName":"Cinemark","ticketType":"STANDARD"},{"id":"5305","tribuneTheaterId":"10738","providerTheaterId":"","name":"Frank Theatres CineBowl & Grille & IMAX","address":"14775 Lyons Road","city":"Delray Beach","state":"FL","zip":"33446","distance":7.2639674139681,"lon":"-80.1899","lat":"26.4536","theaterChainName":"Frank Theatres","ticketType":"STANDARD"},{"id":"4975","tribuneTheaterId":"10335","providerTheaterId":"","name":"Living Room Theaters FAU","address":"777 Glades Road","city":"Boca Raton","state":"FL","zip":"33431","distance":6.9054478794119,"lon":"-80.101","lat":"26.3648","theaterChainName":"Independent Chains","ticketType":"STANDARD"},{"id":"4273","tribuneTheaterId":"1080","providerTheaterId":"","name":"Lake Worth Playhouse Stonzek Theatre","address":"713 Lake Avenue","city":"Lake Worth","state":"FL","zip":"33460","distance":10.7139380908,"lon":"-80.055935","lat":"26.615829","theaterChainName":"Independent Chains","ticketType":"STANDARD"},{"id":"619","tribuneTheaterId":"7733","providerTheaterId":"","name":"Regal Shadowood 16","address":"9889 W. Glades Rd.","city":"Boca Raton","state":"FL","zip":"33434","distance":10.174461604152,"lon":"-80.201354","lat":"26.369689","theaterChainName":"Regal Cinemas","ticketType":"STANDARD"},{"id":"936","tribuneTheaterId":"5952","providerTheaterId":"","name":"Movies of Lake Worth","address":"7380 Lake Worth Rd.","city":"Lake Worth","state":"FL","zip":"33467","distance":12.043762616166,"lon":"-80.163252","lat":"26.61589","theaterChainName":"Independent Chains","ticketType":"STANDARD"},{"id":"3441","tribuneTheaterId":"4900","providerTheaterId":"","name":"Phoenix Theatres Lake Worth 8","address":"5881 Lake Worth Rd.","city":"Greenacres","state":"FL","zip":"33463","distance":11.611961714781,"lon":"-80.135887","lat":"26.619802","theaterChainName":"Phoenix Theatres","ticketType":"STANDARD"},{"id":"908","tribuneTheaterId":"9060","providerTheaterId":"","name":"Cin\u00e9polis Deerfield 8","address":"3984 W. Hillsboro Blvd.","city":"Deerfield Beach","state":"FL","zip":"33442","distance":11.388459563072,"lon":"-80.159088","lat":"26.315921","theaterChainName":"Cinepolis Luxury Cinemas","ticketType":"STANDARD"},{"id":"1434","tribuneTheaterId":"5849","providerTheaterId":"","name":"Muvico Pompano 18","address":"2315 N. Federal Hwy.","city":"Pompano Beach","state":"FL","zip":"33062","distance":14.004627818522,"lon":"-80.101066","lat":"26.260397","theaterChainName":"Carmike Cinemas","ticketType":"STANDARD"},{"id":"880","tribuneTheaterId":"7889","providerTheaterId":"","name":"Regal Magnolia Stadium 16","address":"9645 Westview Dr.","city":"Coral Springs","state":"FL","zip":"33076","distance":15.776060240583,"lon":"-80.253467","lat":"26.300446","theaterChainName":"Regal Cinemas","ticketType":"STANDARD"},{"id":"6040","tribuneTheaterId":"11444","providerTheaterId":"","name":"Paragon Wellington","address":"10300 W Forest Hill Blvd","city":"Wellington","state":"FL","zip":"33414","distance":15.57188706426,"lon":"-80.209","lat":"26.651108","theaterChainName":"Paragon Theaters","ticketType":"STANDARD"},{"id":"3118","tribuneTheaterId":"6820","providerTheaterId":"","name":"Muvico Parisian 20","address":"545 Hibiscus St.","city":"West Palm Beach","state":"FL","zip":"33401","distance":17.149803410371,"lon":"-80.05622","lat":"26.709269","theaterChainName":"Carmike Cinemas","ticketType":"STANDARD"},{"id":"823","tribuneTheaterId":"7562","providerTheaterId":"","name":"Regal Royal Palm Stadium 18 & RPX","address":"1003 N. State Rd. 7","city":"Royal Palm Beach","state":"FL","zip":"33411","distance":18.44589116127,"lon":"-80.204229","lat":"26.701205","theaterChainName":"Regal Cinemas","ticketType":"STANDARD"},{"id":"3125","tribuneTheaterId":"5856","providerTheaterId":"","name":"Movies At Wellington","address":"13881 Wellington Trace","city":"Wellington","state":"FL","zip":"33414","distance":18.433786713936,"lon":"-80.267143","lat":"26.663894","theaterChainName":"Independent Chains","ticketType":"STANDARD"},{"id":"608","tribuneTheaterId":"8408","providerTheaterId":"","name":"Regal Cypress Creek Stadium 16","address":"6415 N. Andrews Ave.","city":"Fort Lauderdale","state":"FL","zip":"33334","distance":18.191983170626,"lon":"-80.14819","lat":"26.207021","theaterChainName":"Regal Cinemas","ticketType":"STANDARD"},{"id":"751","tribuneTheaterId":"6061","providerTheaterId":"","name":"Coral Square 8","address":"770 Riverside Dr.","city":"Coral Springs","state":"FL","zip":"33071","distance":18.496796625007,"lon":"-80.244597","lat":"26.242483","theaterChainName":"Frank Theatres","ticketType":"STANDARD"},{"id":"375","tribuneTheaterId":"5290","providerTheaterId":"270","name":"AMC Coral Ridge 10","address":"3401 NE 26th Ave.","city":"Fort Lauderdale","state":"FL","zip":"33306","distance":20.310727865985,"lon":"-80.11506","lat":"26.16999","theaterChainName":"AMC Theatres","ticketType":"STANDARD"},{"id":"912","tribuneTheaterId":"2928","providerTheaterId":"","name":"The Last Picture Show at Tamarac 5","address":"10036 W. McNab Rd.","city":"Tamarac","state":"FL","zip":"33321","distance":22.015593111081,"lon":"-80.28608","lat":"26.206565","theaterChainName":"Independent Chains","ticketType":"STANDARD"},{"id":"4751","tribuneTheaterId":"9982","providerTheaterId":"","name":"Mos' Art Theatre","address":"700 Park Avenue","city":"Lake Park","state":"FL","zip":"33403","distance":23.27766456868,"lon":"-80.066928","lat":"26.798361","theaterChainName":"Independent Chains","ticketType":"STANDARD"},{"id":"5568","tribuneTheaterId":"11015","providerTheaterId":"583","name":"AMC Sunrise 8","address":"4321 NW 88th Ave.","city":"Sunrise","state":"FL","zip":"33351","distance":23.064468451232,"lon":"-80.2678","lat":"26.1771","theaterChainName":"AMC Theatres","ticketType":"STANDARD"},{"id":"909","tribuneTheaterId":"9161","providerTheaterId":"","name":"Frank Theatres Sunrise Eleven","address":"4321 Pine Island Rd.","city":"Sunrise","state":"FL","zip":"33351","distance":23.076027107899,"lon":"-80.269139","lat":"26.177644","theaterChainName":"Frank Theatres","ticketType":"STANDARD"},{"id":"896","tribuneTheaterId":"5873","providerTheaterId":"","name":"The Classic Gateway Theatre","address":"1820 E. Sunrise Blvd.","city":"Fort Lauderdale","state":"FL","zip":"33304","distance":22.627464286325,"lon":"-80.121427","lat":"26.136923","theaterChainName":"Independent Chains","ticketType":"STANDARD"},{"id":"3123","tribuneTheaterId":"4053","providerTheaterId":"","name":"Cinema Paradiso","address":"503 SE Sixth St.","city":"Fort Lauderdale","state":"FL","zip":"33301","distance":24.28430815868,"lon":"-80.13825","lat":"26.114962","theaterChainName":"Independent Chains","ticketType":"STANDARD"}]