[{"id":"4537","tribuneTheaterId":"9669","providerTheaterId":"","name":"Plant City Premiere Cinema 8","address":"220 W. Alexander St.","city":"Plant City","state":"FL","zip":"33566","distance":1.6994357951458,"lon":"-82.12312","lat":"27.99032","theaterChainName":"Independent Chains","ticketType":"STANDARD"},{"id":"4126","tribuneTheaterId":"2409","providerTheaterId":"","name":"Cobb Lakeside Village 18 & Imax","address":"1650 Town Center Drive","city":"Lakeland","state":"FL","zip":"33803","distance":9.3416192488557,"lon":"-81.981445","lat":"28.000261","theaterChainName":"Cobb Theatres","ticketType":"STANDARD"},{"id":"5435","tribuneTheaterId":"10875","providerTheaterId":"","name":"Cinemark Lakeland Square Mall","address":"3800 US Highway 98 N.","city":"Lakeland","state":"FL","zip":"33809","distance":10.850684929421,"lon":"-81.978","lat":"28.088715","theaterChainName":"Cinemark","ticketType":"STANDARD"},{"id":"1271","tribuneTheaterId":"5722","providerTheaterId":"","name":"Carmike Palm Cinema 3","address":"4226 Old Highway 37","city":"Lakeland","state":"FL","zip":"33813","distance":10.72199535596,"lon":"-81.960415","lat":"27.988141","theaterChainName":"Carmike Cinemas","ticketType":"STANDARD"},{"id":"373","tribuneTheaterId":"5296","providerTheaterId":"282","name":"AMC Regency - 20","address":"2496 Brandon Blvd","city":"Brandon","state":"FL","zip":"33511","distance":12.585287968817,"lon":"-82.324446","lat":"27.943276","theaterChainName":"AMC Theatres","ticketType":"STANDARD"},{"id":"6043","tribuneTheaterId":"11447","providerTheaterId":"","name":"Xscape Riverview 14","address":"6135 Valleydale Dr.","city":"Riverview","state":"FL","zip":"33578","distance":15.270707187779,"lon":"-82.344471","lat":"27.893624","theaterChainName":"Independent Chains","ticketType":"STANDARD"},{"id":"1276","tribuneTheaterId":"3144","providerTheaterId":"","name":"Zephyrhills Cinema 10","address":"6848 Gall Blvd","city":"Zephyrhills","state":"FL","zip":"33542","distance":17.213259882376,"lon":"-82.186843","lat":"28.257717","theaterChainName":"Independent Chains","ticketType":"STANDARD"},{"id":"2824","tribuneTheaterId":"5850","providerTheaterId":"","name":"Muvico Starlight 20","address":"18002 Highwood Preserve Pkwy","city":"Tampa","state":"FL","zip":"33647","distance":16.544256140789,"lon":"-82.37036","lat":"28.130489","theaterChainName":"Carmike Cinemas","ticketType":"STANDARD"},{"id":"5972","tribuneTheaterId":"11408","providerTheaterId":"","name":"Riverview 14 GDX","address":"10550 East Bay Road","city":"Gibsonton","state":"FL","zip":"33534","distance":17.350799405735,"lon":"-82.348618","lat":"27.84846","theaterChainName":"Goodrich Theatres","ticketType":"SELECT_SEATING"},{"id":"5564","tribuneTheaterId":"11011","providerTheaterId":"","name":"Studio Movie Grill Tampa","address":"12332 University Mall Court","city":"Tampa","state":"FL","zip":"33612","distance":18.638986358311,"lon":"-82.43531","lat":"28.057667","theaterChainName":"Studio Movie Grill","ticketType":"SELECT_SEATING"},{"id":"3090","tribuneTheaterId":"7161","providerTheaterId":"","name":"Muvico Centro Ybor 20","address":"1600 East 8th Ave","city":"Tampa","state":"FL","zip":"33605","distance":19.037850589648,"lon":"-82.4403","lat":"27.9609","theaterChainName":"Carmike Cinemas","ticketType":"STANDARD"},{"id":"4548","tribuneTheaterId":"9682","providerTheaterId":"","name":"Cobb Grove 16","address":"6333 Wesley Grove Blvd","city":"Wesley Chapel","state":"FL","zip":"33544","distance":20.89328115514,"lon":"-82.347465","lat":"28.249581","theaterChainName":"Cobb Theatres","ticketType":"STANDARD"},{"id":"870","tribuneTheaterId":"6025","providerTheaterId":"","name":"Tampa Theatre","address":"711 N. Franklin St.","city":"Tampa","state":"FL","zip":"33602","distance":20.302376898435,"lon":"-82.4589","lat":"27.950001","theaterChainName":"Independent Chains","ticketType":"STANDARD"},{"id":"5351","tribuneTheaterId":"10788","providerTheaterId":"","name":"Villagio Cinemas","address":"11778 N. Dale Mabry Highway","city":"Tampa","state":"FL","zip":"33618","distance":22.763023645124,"lon":"-82.504","lat":"28.0557","theaterChainName":"Independent Chains","ticketType":"STANDARD"},{"id":"606","tribuneTheaterId":"3135","providerTheaterId":"","name":"Cobb Grand 10","address":"920 Springlake Square NW","city":"Winter Haven","state":"FL","zip":"33881","distance":24.32781889092,"lon":"-81.736543","lat":"28.043783","theaterChainName":"Cobb Theatres","ticketType":"STANDARD"},{"id":"3099","tribuneTheaterId":"5294","providerTheaterId":"701","name":"AMC West Shore Plaza 14","address":"210 Westshore Plaza","city":"Tampa","state":"FL","zip":"33609","distance":24.397771363816,"lon":"-82.526663","lat":"27.946806","theaterChainName":"AMC Theatres","ticketType":"STANDARD"},{"id":"2563","tribuneTheaterId":"9045","providerTheaterId":"273","name":"AMC Veterans 24","address":"9302 Anderson Rd.","city":"Tampa","state":"FL","zip":"33634","distance":24.973704617379,"lon":"-82.542729","lat":"28.032961","theaterChainName":"AMC Theatres","ticketType":"STANDARD"}]