[{"id":"5564","name":"Studio Movie Grill Tampa","address":"12332 University Mall Court","city":"Tampa","state":"FL","zip":"33612","distance":"21.285186767578125","lon":"-82.435310","lat":"28.057667","theaterChainName":"Studio Movie Grill","ticketType":"SELECT_SEATING"},{"id":"2824","name":"Muvico Starlight 20","address":"18002 Highwood Preserve Pkwy","city":"Tampa","state":"FL","zip":"33647","distance":"15.127049446105957","lon":"-82.370361","lat":"28.130489","theaterChainName":"Carmike Cinemas","ticketType":"STANDARD"},{"id":"5351","name":"Villagio Cinemas","address":"11778 N. Dale Mabry Highway","city":"Tampa","state":"FL","zip":"33618","distance":"23.468488693237305","lon":"-82.503998","lat":"28.055700","theaterChainName":"Independent Chains","ticketType":"STANDARD"},{"id":"4548","name":"Cobb Grove 16","address":"6333 Wesley Grove Blvd","city":"Wesley Chapel","state":"FL","zip":"33544","distance":"7.040762901306152","lon":"-82.347466","lat":"28.249580","theaterChainName":"Cobb Theatres","ticketType":"STANDARD"},{"id":"1276","name":"Zephyrhills Cinema 10","address":"6848 Gall Blvd","city":"Zephyrhills","state":"FL","zip":"33542","distance":"8.253049850463867","lon":"-82.186844","lat":"28.257717","theaterChainName":"Independent Chains","ticketType":"STANDARD"},{"id":"2972","name":"Beacon Stadium Cinemas - Brooksville","address":"12961 Cortez Blvd.","city":"Brooksville","state":"FL","zip":"34613","distance":"19.35199737548828","lon":"-82.513885","lat":"28.534718","theaterChainName":"Georgia Theatre Company","ticketType":"STANDARD"},{"id":"597","name":"Spring Hill 8 Cinemas","address":"2955 Commercial Way","city":"Spring Hill","state":"FL","zip":"34606","distance":"22.198530197143555","lon":"-82.617630","lat":"28.475832","theaterChainName":"Sapphire Motion Pictures Inc.","ticketType":"STANDARD"}]