[{"id":"3164","tribuneTheaterId":"7890","providerTheaterId":"","name":"Regal Cinemas Park Place Stadium 16 & RPX","address":"7200 US Highway 19 North","city":"Pinellas Park","state":"FL","zip":"33781","distance":3.9007626407349,"lon":"-82.686303","lat":"27.836516","theaterChainName":"Regal Cinemas","ticketType":"STANDARD"},{"id":"3100","tribuneTheaterId":"5851","providerTheaterId":"","name":"Muvico Baywalk 20","address":"151 2nd Ave North St.","city":"Saint Petersburg","state":"FL","zip":"33701","distance":2.9999025830419,"lon":"-82.634784","lat":"27.77422","theaterChainName":"Carmike Cinemas","ticketType":"STANDARD"},{"id":"5889","tribuneTheaterId":"11308","providerTheaterId":"","name":"Cobb Tyrone Luxury 10","address":"2998 Tyrone Blvd N.","city":"Saint Petersburg","state":"FL","zip":"33710","distance":6.8535923255987,"lon":"-82.7363","lat":"27.797259","theaterChainName":"Cobb Theatres","ticketType":"STANDARD"},{"id":"595","tribuneTheaterId":"8725","providerTheaterId":"","name":"Regal Largo Mall 8","address":"10500 Ulmerton Rd East #500","city":"Largo","state":"FL","zip":"33771","distance":10.881106884876,"lon":"-82.783625","lat":"27.891012","theaterChainName":"Regal Cinemas","ticketType":"STANDARD"},{"id":"3099","tribuneTheaterId":"5294","providerTheaterId":"701","name":"AMC West Shore Plaza 14","address":"210 Westshore Plaza","city":"Tampa","state":"FL","zip":"33609","distance":10.841612695193,"lon":"-82.526663","lat":"27.946806","theaterChainName":"AMC Theatres","ticketType":"STANDARD"},{"id":"4627","tribuneTheaterId":"9809","providerTheaterId":"","name":"Touchstar Cinemas - Seminole 8","address":"7990 Liberty Lane","city":"Seminole","state":"FL","zip":"33772","distance":10.280756693325,"lon":"-82.791746","lat":"27.844561","theaterChainName":"Touchstar Cinemas","ticketType":"STANDARD"},{"id":"869","tribuneTheaterId":"6834","providerTheaterId":"","name":"Clearwater Cinema Cafe","address":"24095 U.S. Highway 19 North","city":"Clearwater","state":"FL","zip":"33763","distance":13.536334517227,"lon":"-82.727925","lat":"27.991162","theaterChainName":"Independent Chains","ticketType":"STANDARD"},{"id":"870","tribuneTheaterId":"6025","providerTheaterId":"","name":"Tampa Theatre","address":"711 N. Franklin St.","city":"Tampa","state":"FL","zip":"33602","distance":13.750960563634,"lon":"-82.4589","lat":"27.950001","theaterChainName":"Independent Chains","ticketType":"STANDARD"},{"id":"5098","tribuneTheaterId":"10494","providerTheaterId":"","name":"Cobb Countryside 12 Cinemas","address":"27001 US Highway 19 N.","city":"Clearwater","state":"FL","zip":"33761","distance":15.412313491246,"lon":"-82.737503","lat":"28.0173","theaterChainName":"Cobb Theatres","ticketType":"STANDARD"},{"id":"2563","tribuneTheaterId":"9045","providerTheaterId":"273","name":"AMC Veterans 24","address":"9302 Anderson Rd.","city":"Tampa","state":"FL","zip":"33634","distance":15.771529916105,"lon":"-82.542729","lat":"28.032961","theaterChainName":"AMC Theatres","ticketType":"STANDARD"},{"id":"3090","tribuneTheaterId":"7161","providerTheaterId":"","name":"Muvico Centro Ybor 20","address":"1600 East 8th Ave","city":"Tampa","state":"FL","zip":"33605","distance":15.100116945033,"lon":"-82.4403","lat":"27.9609","theaterChainName":"Carmike Cinemas","ticketType":"STANDARD"},{"id":"5543","tribuneTheaterId":"10981","providerTheaterId":"","name":"Capitol Theater","address":"405 Cleveland Street","city":"Clearwater","state":"FL","zip":"33755","distance":14.802091671971,"lon":"-82.801","lat":"27.9656","theaterChainName":"Independent Chains","ticketType":"STANDARD"},{"id":"2970","tribuneTheaterId":"9166","providerTheaterId":"700","name":"AMC Woodlands Square 20","address":"3128 Tampa Road","city":"Oldsmar","state":"FL","zip":"34677","distance":16.858286898239,"lon":"-82.7004","lat":"28.052071","theaterChainName":"AMC Theatres","ticketType":"STANDARD"},{"id":"6043","tribuneTheaterId":"11447","providerTheaterId":"","name":"Xscape Riverview 14","address":"6135 Valleydale Dr.","city":"Riverview","state":"FL","zip":"33578","distance":18.017690263227,"lon":"-82.344471","lat":"27.893624","theaterChainName":"Independent Chains","ticketType":"STANDARD"},{"id":"5351","tribuneTheaterId":"10788","providerTheaterId":"","name":"Villagio Cinemas","address":"11778 N. Dale Mabry Highway","city":"Tampa","state":"FL","zip":"33618","distance":18.106027842972,"lon":"-82.504","lat":"28.0557","theaterChainName":"Independent Chains","ticketType":"STANDARD"},{"id":"5972","tribuneTheaterId":"11408","providerTheaterId":"","name":"Riverview 14 GDX","address":"10550 East Bay Road","city":"Gibsonton","state":"FL","zip":"33534","distance":17.111158008511,"lon":"-82.348618","lat":"27.84846","theaterChainName":"Goodrich Theatres","ticketType":"SELECT_SEATING"},{"id":"2283","tribuneTheaterId":"8795","providerTheaterId":"","name":"Regal Citrus Park Stadium 20","address":"7611 Ehrlich Rd","city":"Tampa","state":"FL","zip":"33625","distance":17.720725154431,"lon":"-82.575603","lat":"28.069519","theaterChainName":"Regal Cinemas","ticketType":"STANDARD"},{"id":"593","tribuneTheaterId":"8586","providerTheaterId":"","name":"Regal Citrus Cinemas 6","address":"2635 East Gulf To Lake Hwy","city":"Inverness","state":"FL","zip":"34453","distance":17.733086899095,"lon":"-82.575758","lat":"28.069725","theaterChainName":"Regal Cinemas","ticketType":"STANDARD"},{"id":"5564","tribuneTheaterId":"11011","providerTheaterId":"","name":"Studio Movie Grill Tampa","address":"12332 University Mall Court","city":"Tampa","state":"FL","zip":"33612","distance":20.311653622787,"lon":"-82.43531","lat":"28.057667","theaterChainName":"Studio Movie Grill","ticketType":"SELECT_SEATING"},{"id":"373","tribuneTheaterId":"5296","providerTheaterId":"282","name":"AMC Regency - 20","address":"2496 Brandon Blvd","city":"Brandon","state":"FL","zip":"33511","distance":20.401147783108,"lon":"-82.324446","lat":"27.943276","theaterChainName":"AMC Theatres","ticketType":"STANDARD"},{"id":"769","tribuneTheaterId":"6571","providerTheaterId":"","name":"Muvico Palm Harbor 10","address":"37912 US Highway 19N","city":"Palm Harbor","state":"FL","zip":"34684","distance":21.84852232173,"lon":"-82.741067","lat":"28.116561","theaterChainName":"Carmike Cinemas","ticketType":"STANDARD"},{"id":"592","tribuneTheaterId":"7886","providerTheaterId":"","name":"Regal Oakmont 8","address":"4801 Cortez Rd W","city":"Bradenton","state":"FL","zip":"34210","distance":24.600379273109,"lon":"-82.609801","lat":"27.461258","theaterChainName":"Regal Cinemas","ticketType":"STANDARD"},{"id":"591","tribuneTheaterId":"5854","providerTheaterId":"","name":"Dollar Movies at Desoto Square","address":"303 US 301 Blvd. Suite 911","city":"Bradenton","state":"FL","zip":"34205","distance":24.223237341592,"lon":"-82.56753","lat":"27.470313","theaterChainName":"Independent Chains","ticketType":"STANDARD"}]