[{"id":"870","name":"Tampa Theatre","address":"711 N. Franklin St.","city":"Tampa","state":"FL","zip":"33602","distance":"24.740068435668945","lon":"-82.458900","lat":"27.950001","theaterChainName":"Independent Chains","ticketType":"STANDARD"},{"id":"3099","name":"AMC West Shore Plaza 14","address":"210 Westshore Plaza","city":"Tampa","state":"FL","zip":"33609","distance":"22.196250915527344","lon":"-82.526665","lat":"27.946806","theaterChainName":"AMC Theatres","ticketType":"STANDARD"},{"id":"3100","name":"Muvico Baywalk 20","address":"151 2nd Ave North St.","city":"Saint Petersburg","state":"FL","zip":"33701","distance":"8.579790115356445","lon":"-82.634781","lat":"27.774220","theaterChainName":"Carmike Cinemas","ticketType":"STANDARD"},{"id":"3164","name":"Regal Cinemas Park Place Stadium 16 & RPX","address":"7200 US Highway 19 North","city":"Pinellas Park","state":"FL","zip":"33781","distance":"11.577568054199219","lon":"-82.686302","lat":"27.836515","theaterChainName":"Regal Cinemas","ticketType":"STANDARD"},{"id":"869","name":"Clearwater Cinema Cafe","address":"24095 U.S. Highway 19 North","city":"Clearwater","state":"FL","zip":"33763","distance":"22.178577423095703","lon":"-82.727928","lat":"27.991161","theaterChainName":"Independent Chains","ticketType":"STANDARD"},{"id":"5098","name":"Cobb Countryside 12 Cinemas","address":"27001 US Highway 19 N.","city":"Clearwater","state":"FL","zip":"33761","distance":"24.014039993286133","lon":"-82.737503","lat":"28.017300","theaterChainName":"Cobb Theatres","ticketType":"STANDARD"},{"id":"5889","name":"Cobb Tyrone Luxury 10","address":"2998 Tyrone Blvd N.","city":"Saint Petersburg","state":"FL","zip":"33710","distance":"8.884916305541992","lon":"-82.736298","lat":"27.797258","theaterChainName":"Cobb Theatres","ticketType":"STANDARD"},{"id":"595","name":"Regal Largo Mall 8","address":"10500 Ulmerton Rd East #500","city":"Largo","state":"FL","zip":"33771","distance":"15.855219841003418","lon":"-82.783623","lat":"27.891012","theaterChainName":"Regal Cinemas","ticketType":"STANDARD"},{"id":"4627","name":"Touchstar Cinemas - Seminole 8","address":"7990 Liberty Lane","city":"Seminole","state":"FL","zip":"33772","distance":"12.980436325073242","lon":"-82.791748","lat":"27.844561","theaterChainName":"Touchstar Cinemas","ticketType":"STANDARD"},{"id":"5543","name":"Capitol Theater","address":"405 Cleveland Street","city":"Clearwater","state":"FL","zip":"33755","distance":"21.10521125793457","lon":"-82.801003","lat":"27.965599","theaterChainName":"Independent Chains","ticketType":"STANDARD"},{"id":"3061","name":"Carmike Royal Palm 20","address":"5215 26th St East","city":"Bradenton","state":"FL","zip":"34203","distance":"18.828397750854492","lon":"-82.532433","lat":"27.449282","theaterChainName":"Carmike Cinemas","ticketType":"STANDARD"},{"id":"591","name":"Dollar Movies at Desoto Square","address":"303 US 301 Blvd. Suite 911","city":"Bradenton","state":"FL","zip":"34205","distance":"16.417490005493164","lon":"-82.567528","lat":"27.470312","theaterChainName":"Independent Chains","ticketType":"STANDARD"},{"id":"592","name":"Regal Oakmont 8","address":"4801 Cortez Rd W","city":"Bradenton","state":"FL","zip":"34210","distance":"15.752668380737305","lon":"-82.609802","lat":"27.461258","theaterChainName":"Regal Cinemas","ticketType":"STANDARD"},{"id":"3230","name":"Parkway 8","address":"6300 North Lockwood Ridge","city":"Sarasota","state":"FL","zip":"34243","distance":"23.3533992767334","lon":"-82.504715","lat":"27.386822","theaterChainName":"Independent Chains","ticketType":"STANDARD"}]