[{"id":"3090","name":"Muvico Centro Ybor 20","address":"1600 East 8th Ave","city":"Tampa","state":"FL","zip":"33605","distance":"22.74281883239746","lon":"-82.440300","lat":"27.960899","theaterChainName":"Carmike Cinemas","ticketType":"STANDARD"},{"id":"870","name":"Tampa Theatre","address":"711 N. Franklin St.","city":"Tampa","state":"FL","zip":"33602","distance":"21.46879768371582","lon":"-82.458900","lat":"27.950001","theaterChainName":"Independent Chains","ticketType":"STANDARD"},{"id":"3099","name":"AMC West Shore Plaza 14","address":"210 Westshore Plaza","city":"Tampa","state":"FL","zip":"33609","distance":"17.391773223876953","lon":"-82.526665","lat":"27.946806","theaterChainName":"AMC Theatres","ticketType":"STANDARD"},{"id":"5351","name":"Villagio Cinemas","address":"11778 N. Dale Mabry Highway","city":"Tampa","state":"FL","zip":"33618","distance":"21.739212036132812","lon":"-82.503998","lat":"28.055700","theaterChainName":"Independent Chains","ticketType":"STANDARD"},{"id":"2563","name":"AMC Veterans 24","address":"9302 Anderson Rd.","city":"Tampa","state":"FL","zip":"33634","distance":"18.90236473083496","lon":"-82.542732","lat":"28.032961","theaterChainName":"AMC Theatres","ticketType":"STANDARD"},{"id":"2283","name":"Regal Citrus Park Stadium 20","address":"7611 Ehrlich Rd","city":"Tampa","state":"FL","zip":"33625","distance":"18.86883544921875","lon":"-82.575600","lat":"28.069519","theaterChainName":"Regal Cinemas","ticketType":"STANDARD"},{"id":"593","name":"Regal Citrus Cinemas 6","address":"2635 East Gulf To Lake Hwy","city":"Inverness","state":"FL","zip":"34453","distance":"18.87133026123047","lon":"-82.575760","lat":"28.069725","theaterChainName":"Regal Cinemas","ticketType":"STANDARD"},{"id":"3100","name":"Muvico Baywalk 20","address":"151 2nd Ave North St.","city":"Saint Petersburg","state":"FL","zip":"33701","distance":"12.750438690185547","lon":"-82.634781","lat":"27.774220","theaterChainName":"Carmike Cinemas","ticketType":"STANDARD"},{"id":"3164","name":"Regal Cinemas Park Place Stadium 16 & RPX","address":"7200 US Highway 19 North","city":"Pinellas Park","state":"FL","zip":"33781","distance":"7.819875717163086","lon":"-82.686302","lat":"27.836515","theaterChainName":"Regal Cinemas","ticketType":"STANDARD"},{"id":"2970","name":"AMC Woodlands Square 20","address":"3128 Tampa Road","city":"Oldsmar","state":"FL","zip":"34677","distance":"13.179097175598145","lon":"-82.700401","lat":"28.052071","theaterChainName":"AMC Theatres","ticketType":"STANDARD"},{"id":"869","name":"Clearwater Cinema Cafe","address":"24095 U.S. Highway 19 North","city":"Clearwater","state":"FL","zip":"33763","distance":"8.691877365112305","lon":"-82.727928","lat":"27.991161","theaterChainName":"Independent Chains","ticketType":"STANDARD"},{"id":"5098","name":"Cobb Countryside 12 Cinemas","address":"27001 US Highway 19 N.","city":"Clearwater","state":"FL","zip":"33761","distance":"10.028645515441895","lon":"-82.737503","lat":"28.017300","theaterChainName":"Cobb Theatres","ticketType":"STANDARD"},{"id":"5889","name":"Cobb Tyrone Luxury 10","address":"2998 Tyrone Blvd N.","city":"Saint Petersburg","state":"FL","zip":"33710","distance":"7.230820655822754","lon":"-82.736298","lat":"27.797258","theaterChainName":"Cobb Theatres","ticketType":"STANDARD"},{"id":"769","name":"Muvico Palm Harbor 10","address":"37912 US Highway 19N","city":"Palm Harbor","state":"FL","zip":"34684","distance":"16.50069236755371","lon":"-82.741066","lat":"28.116562","theaterChainName":"Carmike Cinemas","ticketType":"STANDARD"},{"id":"595","name":"Regal Largo Mall 8","address":"10500 Ulmerton Rd East #500","city":"Largo","state":"FL","zip":"33771","distance":"1.2504297494888306","lon":"-82.783623","lat":"27.891012","theaterChainName":"Regal Cinemas","ticketType":"STANDARD"},{"id":"4627","name":"Touchstar Cinemas - Seminole 8","address":"7990 Liberty Lane","city":"Seminole","state":"FL","zip":"33772","distance":"2.803217887878418","lon":"-82.791748","lat":"27.844561","theaterChainName":"Touchstar Cinemas","ticketType":"STANDARD"},{"id":"5543","name":"Capitol Theater","address":"405 Cleveland Street","city":"Clearwater","state":"FL","zip":"33755","distance":"5.638983249664307","lon":"-82.801003","lat":"27.965599","theaterChainName":"Independent Chains","ticketType":"STANDARD"}]