[{"id":"5703","name":"Cinepolis Polk County IMAX","address":"5500 Grandview Parkway","city":"Davenport","state":"FL","zip":"33837","distance":"22.666229248046875","lon":"-81.640999","lat":"28.234200","theaterChainName":"Cinepolis Luxury Cinemas","ticketType":"STANDARD"},{"id":"373","name":"AMC Regency - 20","address":"2496 Brandon Blvd","city":"Brandon","state":"FL","zip":"33511","distance":"24.401817321777344","lon":"-82.324448","lat":"27.943275","theaterChainName":"AMC Theatres","ticketType":"STANDARD"},{"id":"4537","name":"Plant City Premiere Cinema 8","address":"220 W. Alexander St.","city":"Plant City","state":"FL","zip":"33566","distance":"11.695155143737793","lon":"-82.123123","lat":"27.990320","theaterChainName":"Independent Chains","ticketType":"STANDARD"},{"id":"4126","name":"Cobb Lakeside Village 18 & Imax","address":"1650 Town Center Drive","city":"Lakeland","state":"FL","zip":"33803","distance":"3.6709277629852295","lon":"-81.981445","lat":"28.000261","theaterChainName":"Cobb Theatres","ticketType":"STANDARD"},{"id":"1271","name":"Carmike Palm Cinema 3","address":"4226 Old Highway 37","city":"Lakeland","state":"FL","zip":"33813","distance":"3.686723470687866","lon":"-81.960419","lat":"27.988140","theaterChainName":"Carmike Cinemas","ticketType":"STANDARD"},{"id":"1276","name":"Zephyrhills Cinema 10","address":"6848 Gall Blvd","city":"Zephyrhills","state":"FL","zip":"33542","distance":"21.399127960205078","lon":"-82.186844","lat":"28.257717","theaterChainName":"Independent Chains","ticketType":"STANDARD"},{"id":"5435","name":"Cinemark Lakeland Square Mall","address":"3800 US Highway 98 N.","city":"Lakeland","state":"FL","zip":"33809","distance":"4.2222466468811035","lon":"-81.977997","lat":"28.088715","theaterChainName":"Cinemark","ticketType":"STANDARD"},{"id":"606","name":"Cobb Grand 10","address":"920 Springlake Square NW","city":"Winter Haven","state":"FL","zip":"33881","distance":"12.365707397460938","lon":"-81.736542","lat":"28.043783","theaterChainName":"Cobb Theatres","ticketType":"STANDARD"},{"id":"594","name":"Regal Eagle Ridge Mall 12","address":"955 Eagle Ridge Dr","city":"Lake Wales","state":"FL","zip":"33853","distance":"20.663976669311523","lon":"-81.614105","lat":"27.954227","theaterChainName":"Regal Cinemas","ticketType":"STANDARD"}]