[{"id":"4748","name":"Epic Theatres of Clermont","address":"2405 S. Hwy 27","city":"Clermont","state":"FL","zip":"34711","distance":"24.705514907836914","lon":"-81.732185","lat":"28.536711","theaterChainName":"Epic Theatres","ticketType":"STANDARD"},{"id":"845","name":"West Orange 5","address":"1575 Maguire Road","city":"Ocoee","state":"FL","zip":"34761","distance":"24.669811248779297","lon":"-81.542496","lat":"28.548660","theaterChainName":"Independent Chains","ticketType":"STANDARD"},{"id":"2898","name":"Cinemark Artegon Marketplace and XD","address":"5150 International Drive","city":"Orlando","state":"FL","zip":"32819","distance":"21.314788818359375","lon":"-81.446373","lat":"28.470055","theaterChainName":"Cinemark","ticketType":"STANDARD"},{"id":"2503","name":"AMC Loews Universal 20","address":"6000 Universal Blvd.","city":"Orlando","state":"FL","zip":"32819","distance":"21.049362182617188","lon":"-81.465080","lat":"28.473785","theaterChainName":"AMC Theatres","ticketType":"STANDARD"},{"id":"4339","name":"Regal Pointe Orlando Stadium 20 & IMAX","address":"9101 International Dr","city":"Orlando","state":"FL","zip":"32819","distance":"18.35611343383789","lon":"-81.469559","lat":"28.432392","theaterChainName":"Regal Cinemas","ticketType":"STANDARD"},{"id":"3452","name":"Touchstar Cinemas Southchase 7","address":"12441 S. Orange Blossom Trail","city":"Orlando","state":"FL","zip":"32837","distance":"18.00751495361328","lon":"-81.402267","lat":"28.383730","theaterChainName":"Touchstar Cinemas","ticketType":"STANDARD"},{"id":"4162","name":"Regal Cinemas The Loop Stadium 16 & RPX","address":"3220 N. John Young Parkway","city":"Kissimmee","state":"FL","zip":"34741","distance":"15.22580337524414","lon":"-81.421722","lat":"28.343500","theaterChainName":"Regal Cinemas","ticketType":"STANDARD"},{"id":"133","name":"AMC Disney Springs 24","address":"1500 Buena Vista Dr.","city":"Lake Buena Vista","state":"FL","zip":"32830","distance":"13.114879608154297","lon":"-81.520844","lat":"28.369930","theaterChainName":"AMC Theatres","ticketType":"STANDARD"},{"id":"1052","name":"St. Cloud Twin","address":"1110 10th St.","city":"Saint Cloud","state":"FL","zip":"34769","distance":"20.175537109375","lon":"-81.281960","lat":"28.248985","theaterChainName":"Independent Chains","ticketType":"STANDARD"},{"id":"5703","name":"Cinepolis Polk County IMAX","address":"5500 Grandview Parkway","city":"Davenport","state":"FL","zip":"33837","distance":"3.304323196411133","lon":"-81.640999","lat":"28.234200","theaterChainName":"Cinepolis Luxury Cinemas","ticketType":"STANDARD"},{"id":"5435","name":"Cinemark Lakeland Square Mall","address":"3800 US Highway 98 N.","city":"Lakeland","state":"FL","zip":"33809","distance":"23.743125915527344","lon":"-81.977997","lat":"28.088715","theaterChainName":"Cinemark","ticketType":"STANDARD"},{"id":"606","name":"Cobb Grand 10","address":"920 Springlake Square NW","city":"Winter Haven","state":"FL","zip":"33881","distance":"13.134637832641602","lon":"-81.736542","lat":"28.043783","theaterChainName":"Cobb Theatres","ticketType":"STANDARD"},{"id":"594","name":"Regal Eagle Ridge Mall 12","address":"955 Eagle Ridge Dr","city":"Lake Wales","state":"FL","zip":"33853","distance":"16.730937957763672","lon":"-81.614105","lat":"27.954227","theaterChainName":"Regal Cinemas","ticketType":"STANDARD"}]