[{"id":"594","tribuneTheaterId":"8407","providerTheaterId":"","name":"Regal Eagle Ridge Mall 12","address":"955 Eagle Ridge Dr","city":"Lake Wales","state":"FL","zip":"33853","distance":17.657059355426,"lon":"-81.614106","lat":"27.954228","theaterChainName":"Regal Cinemas","ticketType":"STANDARD"},{"id":"4126","tribuneTheaterId":"2409","providerTheaterId":"","name":"Cobb Lakeside Village 18 & Imax","address":"1650 Town Center Drive","city":"Lakeland","state":"FL","zip":"33803","distance":21.34476451666,"lon":"-81.981445","lat":"28.000261","theaterChainName":"Cobb Theatres","ticketType":"STANDARD"},{"id":"606","tribuneTheaterId":"3135","providerTheaterId":"","name":"Cobb Grand 10","address":"920 Springlake Square NW","city":"Winter Haven","state":"FL","zip":"33881","distance":20.736287230734,"lon":"-81.736543","lat":"28.043783","theaterChainName":"Cobb Theatres","ticketType":"STANDARD"},{"id":"1271","tribuneTheaterId":"5722","providerTheaterId":"","name":"Carmike Palm Cinema 3","address":"4226 Old Highway 37","city":"Lakeland","state":"FL","zip":"33813","distance":19.933403845719,"lon":"-81.960415","lat":"27.988141","theaterChainName":"Carmike Cinemas","ticketType":"STANDARD"},{"id":"4609","tribuneTheaterId":"9781","providerTheaterId":"","name":"B&B Sebring Fairmount Square Cinema 6","address":"3750 US Highway 27 North","city":"Sebring","state":"FL","zip":"33870","distance":23.70773544061,"lon":"-81.4953","lat":"27.516001","theaterChainName":"B&B Theatres","ticketType":"STANDARD"}]