[{"id":"4126","tribuneTheaterId":"2409","providerTheaterId":"","name":"Cobb Lakeside Village 18 & Imax","address":"1650 Town Center Drive","city":"Lakeland","state":"FL","zip":"33803","distance":6.8986347390794,"lon":"-81.981445","lat":"28.000261","theaterChainName":"Cobb Theatres","ticketType":"STANDARD"},{"id":"1271","tribuneTheaterId":"5722","providerTheaterId":"","name":"Carmike Palm Cinema 3","address":"4226 Old Highway 37","city":"Lakeland","state":"FL","zip":"33813","distance":6.4584881880681,"lon":"-81.960415","lat":"27.988141","theaterChainName":"Carmike Cinemas","ticketType":"STANDARD"},{"id":"4537","tribuneTheaterId":"9669","providerTheaterId":"","name":"Plant City Premiere Cinema 8","address":"220 W. Alexander St.","city":"Plant City","state":"FL","zip":"33566","distance":9.6095036348748,"lon":"-82.12312","lat":"27.99032","theaterChainName":"Independent Chains","ticketType":"STANDARD"},{"id":"5435","tribuneTheaterId":"10875","providerTheaterId":"","name":"Cinemark Lakeland Square Mall","address":"3800 US Highway 98 N.","city":"Lakeland","state":"FL","zip":"33809","distance":12.980176826914,"lon":"-81.978","lat":"28.088715","theaterChainName":"Cinemark","ticketType":"STANDARD"},{"id":"606","tribuneTheaterId":"3135","providerTheaterId":"","name":"Cobb Grand 10","address":"920 Springlake Square NW","city":"Winter Haven","state":"FL","zip":"33881","distance":18.90421917781,"lon":"-81.736543","lat":"28.043783","theaterChainName":"Cobb Theatres","ticketType":"STANDARD"},{"id":"373","tribuneTheaterId":"5296","providerTheaterId":"282","name":"AMC Regency - 20","address":"2496 Brandon Blvd","city":"Brandon","state":"FL","zip":"33511","distance":19.920884694127,"lon":"-82.324446","lat":"27.943276","theaterChainName":"AMC Theatres","ticketType":"STANDARD"},{"id":"6043","tribuneTheaterId":"11447","providerTheaterId":"","name":"Xscape Riverview 14","address":"6135 Valleydale Dr.","city":"Riverview","state":"FL","zip":"33578","distance":20.951004465985,"lon":"-82.344471","lat":"27.893624","theaterChainName":"Independent Chains","ticketType":"STANDARD"},{"id":"5972","tribuneTheaterId":"11408","providerTheaterId":"","name":"Riverview 14 GDX","address":"10550 East Bay Road","city":"Gibsonton","state":"FL","zip":"33534","distance":21.52097749012,"lon":"-82.348618","lat":"27.84846","theaterChainName":"Goodrich Theatres","ticketType":"SELECT_SEATING"},{"id":"594","tribuneTheaterId":"8407","providerTheaterId":"","name":"Regal Eagle Ridge Mall 12","address":"955 Eagle Ridge Dr","city":"Lake Wales","state":"FL","zip":"33853","distance":23.922737977433,"lon":"-81.614106","lat":"27.954228","theaterChainName":"Regal Cinemas","ticketType":"STANDARD"}]