[{"id":"4171","tribuneTheaterId":"5620","providerTheaterId":"","name":"Gulf Coast Stadium 16 & IMAX","address":"10028 Gulf Center Drive","city":"Fort Myers","state":"FL","zip":"33913","distance":5.8825740747083,"lon":"-81.791214","lat":"26.484052","theaterChainName":"Regal Cinemas","ticketType":"STANDARD"},{"id":"671","tribuneTheaterId":"6808","providerTheaterId":"","name":"Regal Belltower 20","address":"13499 Belltower Drive","city":"Fort Myers","state":"FL","zip":"33907","distance":10.1653420487,"lon":"-81.868224","lat":"26.549473","theaterChainName":"Regal Cinemas","ticketType":"STANDARD"},{"id":"4745","tribuneTheaterId":"9969","providerTheaterId":"","name":"Regal Coconut Point Stadium 16","address":"8021 Cinema Way","city":"Estero","state":"FL","zip":"33928","distance":10.282410542709,"lon":"-81.806484","lat":"26.403907","theaterChainName":"Regal Cinemas","ticketType":"STANDARD"},{"id":"4943","tribuneTheaterId":"10296","providerTheaterId":"","name":"Prado Stadium 12","address":"25251 Chamber of Commerce Dr.","city":"Bonita Springs","state":"FL","zip":"34135","distance":12.114089571423,"lon":"-81.805519","lat":"26.371537","theaterChainName":"Independent Chains","ticketType":"STANDARD"},{"id":"3597","tribuneTheaterId":"1748","providerTheaterId":"","name":"Ft. Myers Beach Theater","address":"6425 Estero Blvd.","city":"Fort Myers Beach","state":"FL","zip":"33931","distance":14.0403992904,"lon":"-81.903586","lat":"26.421956","theaterChainName":"Independent Chains","ticketType":"STANDARD"},{"id":"629","tribuneTheaterId":"6669","providerTheaterId":"","name":"Marquee Coralwood 10 Cinemas","address":"2301 Del Prado Blvd","city":"Cape Coral","state":"FL","zip":"33990","distance":15.536379846537,"lon":"-81.937709","lat":"26.611105","theaterChainName":"Marquee Cinemas","ticketType":"STANDARD"},{"id":"233","tribuneTheaterId":"8363","providerTheaterId":"272","name":"AMC Merchants Crossing 16","address":"15201 N Cleveland Ave","city":"North Fort Myers","state":"FL","zip":"33903","distance":16.590929675692,"lon":"-81.903784","lat":"26.685723","theaterChainName":"AMC Theatres","ticketType":"STANDARD"},{"id":"630","tribuneTheaterId":"8047","providerTheaterId":"","name":"Regal Hollywood Stadium 20-Naples","address":"6006 Hollywood Drive","city":"Naples","state":"FL","zip":"34109","distance":21.481268862795,"lon":"-81.771841","lat":"26.217459","theaterChainName":"Regal Cinemas","ticketType":"STANDARD"},{"id":"2436","tribuneTheaterId":"2734","providerTheaterId":"","name":"Island Cinema","address":"535 Tarpon Bay Road","city":"Sanibel","state":"FL","zip":"33957","distance":23.862765511465,"lon":"-82.07948","lat":"26.43436","theaterChainName":"Independent Chains","ticketType":"STANDARD"}]