[{"id":"233","name":"AMC Merchants Crossing 16","address":"15201 N Cleveland Ave","city":"North Fort Myers","state":"FL","zip":"33903","distance":"5.076713562011719","lon":"-81.903786","lat":"26.685722","theaterChainName":"AMC Theatres","ticketType":"STANDARD"},{"id":"671","name":"Regal Belltower 20","address":"13499 Belltower Drive","city":"Fort Myers","state":"FL","zip":"33907","distance":"12.958194732666016","lon":"-81.868225","lat":"26.549473","theaterChainName":"Regal Cinemas","ticketType":"STANDARD"},{"id":"629","name":"Marquee Coralwood 10 Cinemas","address":"2301 Del Prado Blvd","city":"Cape Coral","state":"FL","zip":"33990","distance":"10.390104293823242","lon":"-81.937706","lat":"26.611105","theaterChainName":"Marquee Cinemas","ticketType":"STANDARD"},{"id":"4171","name":"Gulf Coast Stadium 16 & IMAX","address":"10028 Gulf Center Drive","city":"Fort Myers","state":"FL","zip":"33913","distance":"17.685726165771484","lon":"-81.791214","lat":"26.484053","theaterChainName":"Regal Cinemas","ticketType":"STANDARD"},{"id":"3597","name":"Ft. Myers Beach Theater","address":"6425 Estero Blvd.","city":"Fort Myers Beach","state":"FL","zip":"33931","distance":"21.994760513305664","lon":"-81.903587","lat":"26.421955","theaterChainName":"Independent Chains","ticketType":"STANDARD"},{"id":"4745","name":"Regal Coconut Point Stadium 16","address":"8021 Cinema Way","city":"Estero","state":"FL","zip":"33928","distance":"23.039941787719727","lon":"-81.806480","lat":"26.403908","theaterChainName":"Regal Cinemas","ticketType":"STANDARD"}]