[{"id":"2862","tribuneTheaterId":"5618","providerTheaterId":"","name":"Regal Town Center Stadium 16-Port Charlotte","address":"1441 Tamiami Trail Unit 701","city":"Port Charlotte","state":"FL","zip":"33948","distance":18.861070995814,"lon":"-82.148333","lat":"27.008274","theaterChainName":"Regal Cinemas","ticketType":"STANDARD"},{"id":"233","tribuneTheaterId":"8363","providerTheaterId":"272","name":"AMC Merchants Crossing 16","address":"15201 N Cleveland Ave","city":"North Fort Myers","state":"FL","zip":"33903","distance":22.557982967859,"lon":"-81.903784","lat":"26.685723","theaterChainName":"AMC Theatres","ticketType":"STANDARD"},{"id":"629","tribuneTheaterId":"6669","providerTheaterId":"","name":"Marquee Coralwood 10 Cinemas","address":"2301 Del Prado Blvd","city":"Cape Coral","state":"FL","zip":"33990","distance":22.287831671398,"lon":"-81.937709","lat":"26.611105","theaterChainName":"Marquee Cinemas","ticketType":"STANDARD"},{"id":"4178","tribuneTheaterId":"2324","providerTheaterId":"","name":"Frank Theatre Galleria 12","address":"2111 Tamiami Trail","city":"Venice","state":"FL","zip":"34293","distance":22.839550873006,"lon":"-82.411313","lat":"27.056704","theaterChainName":"Frank Theatres","ticketType":"STANDARD"},{"id":"2436","tribuneTheaterId":"2734","providerTheaterId":"","name":"Island Cinema","address":"535 Tarpon Bay Road","city":"Sanibel","state":"FL","zip":"33957","distance":24.802919227626,"lon":"-82.07948","lat":"26.43436","theaterChainName":"Independent Chains","ticketType":"STANDARD"}]