[{"id":"233","name":"AMC Merchants Crossing 16","address":"15201 N Cleveland Ave","city":"North Fort Myers","state":"FL","zip":"33903","distance":"18.3396053314209","lon":"-81.903786","lat":"26.685722","theaterChainName":"AMC Theatres","ticketType":"STANDARD"},{"id":"629","name":"Marquee Coralwood 10 Cinemas","address":"2301 Del Prado Blvd","city":"Cape Coral","state":"FL","zip":"33990","distance":"22.18746566772461","lon":"-81.937706","lat":"26.611105","theaterChainName":"Marquee Cinemas","ticketType":"STANDARD"},{"id":"2862","name":"Regal Town Center Stadium 16-Port Charlotte","address":"1441 Tamiami Trail Unit 701","city":"Port Charlotte","state":"FL","zip":"33948","distance":"8.699834823608398","lon":"-82.148331","lat":"27.008274","theaterChainName":"Regal Cinemas","ticketType":"STANDARD"},{"id":"4178","name":"Frank Theatre Galleria 12","address":"2111 Tamiami Trail","city":"Venice","state":"FL","zip":"34293","distance":"24.1212158203125","lon":"-82.411316","lat":"27.056704","theaterChainName":"Frank Theatres","ticketType":"STANDARD"}]