[{"id":"233","name":"AMC Merchants Crossing 16","address":"15201 N Cleveland Ave","city":"North Fort Myers","state":"FL","zip":"33903","distance":"7.524404048919678","lon":"-81.903786","lat":"26.685722","theaterChainName":"AMC Theatres","ticketType":"STANDARD"},{"id":"671","name":"Regal Belltower 20","address":"13499 Belltower Drive","city":"Fort Myers","state":"FL","zip":"33907","distance":"13.18654727935791","lon":"-81.868225","lat":"26.549473","theaterChainName":"Regal Cinemas","ticketType":"STANDARD"},{"id":"629","name":"Marquee Coralwood 10 Cinemas","address":"2301 Del Prado Blvd","city":"Cape Coral","state":"FL","zip":"33990","distance":"7.147171974182129","lon":"-81.937706","lat":"26.611105","theaterChainName":"Marquee Cinemas","ticketType":"STANDARD"},{"id":"4171","name":"Gulf Coast Stadium 16 & IMAX","address":"10028 Gulf Center Drive","city":"Fort Myers","state":"FL","zip":"33913","distance":"19.751523971557617","lon":"-81.791214","lat":"26.484053","theaterChainName":"Regal Cinemas","ticketType":"STANDARD"},{"id":"3597","name":"Ft. Myers Beach Theater","address":"6425 Estero Blvd.","city":"Fort Myers Beach","state":"FL","zip":"33931","distance":"19.265727996826172","lon":"-81.903587","lat":"26.421955","theaterChainName":"Independent Chains","ticketType":"STANDARD"},{"id":"4745","name":"Regal Coconut Point Stadium 16","address":"8021 Cinema Way","city":"Estero","state":"FL","zip":"33928","distance":"23.310762405395508","lon":"-81.806480","lat":"26.403908","theaterChainName":"Regal Cinemas","ticketType":"STANDARD"},{"id":"2436","name":"Island Cinema","address":"535 Tarpon Bay Road","city":"Sanibel","state":"FL","zip":"33957","distance":"17.204265594482422","lon":"-82.079483","lat":"26.434361","theaterChainName":"Independent Chains","ticketType":"STANDARD"},{"id":"2862","name":"Regal Town Center Stadium 16-Port Charlotte","address":"1441 Tamiami Trail Unit 701","city":"Port Charlotte","state":"FL","zip":"33948","distance":"24.00737762451172","lon":"-82.148331","lat":"27.008274","theaterChainName":"Regal Cinemas","ticketType":"STANDARD"}]