[{"id":"4171","name":"Gulf Coast Stadium 16 & IMAX","address":"10028 Gulf Center Drive","city":"Fort Myers","state":"FL","zip":"33913","distance":"20.128507614135742","lon":"-81.791214","lat":"26.484053","theaterChainName":"Regal Cinemas","ticketType":"STANDARD"},{"id":"3597","name":"Ft. Myers Beach Theater","address":"6425 Estero Blvd.","city":"Fort Myers Beach","state":"FL","zip":"33931","distance":"17.992101669311523","lon":"-81.903587","lat":"26.421955","theaterChainName":"Independent Chains","ticketType":"STANDARD"},{"id":"4745","name":"Regal Coconut Point Stadium 16","address":"8021 Cinema Way","city":"Estero","state":"FL","zip":"33928","distance":"14.758904457092285","lon":"-81.806480","lat":"26.403908","theaterChainName":"Regal Cinemas","ticketType":"STANDARD"},{"id":"4943","name":"Prado Stadium 12","address":"25251 Chamber of Commerce Dr.","city":"Bonita Springs","state":"FL","zip":"34135","distance":"12.552701950073242","lon":"-81.805519","lat":"26.371536","theaterChainName":"Independent Chains","ticketType":"STANDARD"},{"id":"630","name":"Regal Hollywood Stadium 20-Naples","address":"6006 Hollywood Drive","city":"Naples","state":"FL","zip":"34109","distance":"1.7127149105072021","lon":"-81.771843","lat":"26.217459","theaterChainName":"Regal Cinemas","ticketType":"STANDARD"},{"id":"3156","name":"B&B Naples Towne Centre 6","address":"3855 East Tamiami Trail","city":"Naples","state":"FL","zip":"34112","distance":"5.214236259460449","lon":"-81.758102","lat":"26.118500","theaterChainName":"B&B Theatres","ticketType":"STANDARD"},{"id":"1467","name":"Marco Movies 4","address":"599 S. COLLIER BLVD.","city":"Marco Island","state":"FL","zip":"34145","distance":"18.94054412841797","lon":"-81.725632","lat":"25.921818","theaterChainName":"Independent Chains","ticketType":"STANDARD"}]