[{"id":"3597","name":"Ft. Myers Beach Theater","address":"6425 Estero Blvd.","city":"Fort Myers Beach","state":"FL","zip":"33931","distance":"23.401763916015625","lon":"-81.903587","lat":"26.421955","theaterChainName":"Independent Chains","ticketType":"STANDARD"},{"id":"4745","name":"Regal Coconut Point Stadium 16","address":"8021 Cinema Way","city":"Estero","state":"FL","zip":"33928","distance":"20.204172134399414","lon":"-81.806480","lat":"26.403908","theaterChainName":"Regal Cinemas","ticketType":"STANDARD"},{"id":"4943","name":"Prado Stadium 12","address":"25251 Chamber of Commerce Dr.","city":"Bonita Springs","state":"FL","zip":"34135","distance":"18.01240348815918","lon":"-81.805519","lat":"26.371536","theaterChainName":"Independent Chains","ticketType":"STANDARD"},{"id":"630","name":"Regal Hollywood Stadium 20-Naples","address":"6006 Hollywood Drive","city":"Naples","state":"FL","zip":"34109","distance":"7.194666385650635","lon":"-81.771843","lat":"26.217459","theaterChainName":"Regal Cinemas","ticketType":"STANDARD"},{"id":"3156","name":"B&B Naples Towne Centre 6","address":"3855 East Tamiami Trail","city":"Naples","state":"FL","zip":"34112","distance":"1.365132451057434","lon":"-81.758102","lat":"26.118500","theaterChainName":"B&B Theatres","ticketType":"STANDARD"},{"id":"1467","name":"Marco Movies 4","address":"599 S. COLLIER BLVD.","city":"Marco Island","state":"FL","zip":"34145","distance":"13.59893798828125","lon":"-81.725632","lat":"25.921818","theaterChainName":"Independent Chains","ticketType":"STANDARD"}]