[{"id":"233","name":"AMC Merchants Crossing 16","address":"15201 N Cleveland Ave","city":"North Fort Myers","state":"FL","zip":"33903","distance":"23.784704208374023","lon":"-81.903786","lat":"26.685722","theaterChainName":"AMC Theatres","ticketType":"STANDARD"},{"id":"671","name":"Regal Belltower 20","address":"13499 Belltower Drive","city":"Fort Myers","state":"FL","zip":"33907","distance":"14.54019832611084","lon":"-81.868225","lat":"26.549473","theaterChainName":"Regal Cinemas","ticketType":"STANDARD"},{"id":"629","name":"Marquee Coralwood 10 Cinemas","address":"2301 Del Prado Blvd","city":"Cape Coral","state":"FL","zip":"33990","distance":"20.520099639892578","lon":"-81.937706","lat":"26.611105","theaterChainName":"Marquee Cinemas","ticketType":"STANDARD"},{"id":"4171","name":"Gulf Coast Stadium 16 & IMAX","address":"10028 Gulf Center Drive","city":"Fort Myers","state":"FL","zip":"33913","distance":"8.210481643676758","lon":"-81.791214","lat":"26.484053","theaterChainName":"Regal Cinemas","ticketType":"STANDARD"},{"id":"3597","name":"Ft. Myers Beach Theater","address":"6425 Estero Blvd.","city":"Fort Myers Beach","state":"FL","zip":"33931","distance":"10.979817390441895","lon":"-81.903587","lat":"26.421955","theaterChainName":"Independent Chains","ticketType":"STANDARD"},{"id":"4745","name":"Regal Coconut Point Stadium 16","address":"8021 Cinema Way","city":"Estero","state":"FL","zip":"33928","distance":"4.888097763061523","lon":"-81.806480","lat":"26.403908","theaterChainName":"Regal Cinemas","ticketType":"STANDARD"},{"id":"4943","name":"Prado Stadium 12","address":"25251 Chamber of Commerce Dr.","city":"Bonita Springs","state":"FL","zip":"34135","distance":"4.481171607971191","lon":"-81.805519","lat":"26.371536","theaterChainName":"Independent Chains","ticketType":"STANDARD"},{"id":"2436","name":"Island Cinema","address":"535 Tarpon Bay Road","city":"Sanibel","state":"FL","zip":"33957","distance":"21.781003952026367","lon":"-82.079483","lat":"26.434361","theaterChainName":"Independent Chains","ticketType":"STANDARD"},{"id":"630","name":"Regal Hollywood Stadium 20-Naples","address":"6006 Hollywood Drive","city":"Naples","state":"FL","zip":"34109","distance":"11.2849760055542","lon":"-81.771843","lat":"26.217459","theaterChainName":"Regal Cinemas","ticketType":"STANDARD"},{"id":"3156","name":"B&B Naples Towne Centre 6","address":"3855 East Tamiami Trail","city":"Naples","state":"FL","zip":"34112","distance":"17.934118270874023","lon":"-81.758102","lat":"26.118500","theaterChainName":"B&B Theatres","ticketType":"STANDARD"}]