[{"id":"3100","name":"Muvico Baywalk 20","address":"151 2nd Ave North St.","city":"Saint Petersburg","state":"FL","zip":"33701","distance":"19.37504768371582","lon":"-82.634781","lat":"27.774220","theaterChainName":"Carmike Cinemas","ticketType":"STANDARD"},{"id":"3164","name":"Regal Cinemas Park Place Stadium 16 & RPX","address":"7200 US Highway 19 North","city":"Pinellas Park","state":"FL","zip":"33781","distance":"24.305932998657227","lon":"-82.686302","lat":"27.836515","theaterChainName":"Regal Cinemas","ticketType":"STANDARD"},{"id":"5889","name":"Cobb Tyrone Luxury 10","address":"2998 Tyrone Blvd N.","city":"Saint Petersburg","state":"FL","zip":"33710","distance":"22.86322021484375","lon":"-82.736298","lat":"27.797258","theaterChainName":"Cobb Theatres","ticketType":"STANDARD"},{"id":"3061","name":"Carmike Royal Palm 20","address":"5215 26th St East","city":"Bradenton","state":"FL","zip":"34203","distance":"4.301166534423828","lon":"-82.532433","lat":"27.449282","theaterChainName":"Carmike Cinemas","ticketType":"STANDARD"},{"id":"591","name":"Dollar Movies at Desoto Square","address":"303 US 301 Blvd. Suite 911","city":"Bradenton","state":"FL","zip":"34205","distance":"2.024973154067993","lon":"-82.567528","lat":"27.470312","theaterChainName":"Independent Chains","ticketType":"STANDARD"},{"id":"4287","name":"Lakewood Ranch Cinemas","address":"10715 Rodeo Drive","city":"Bradenton","state":"FL","zip":"34202","distance":"11.1842679977417","lon":"-82.434517","lat":"27.395452","theaterChainName":"Independent Chains","ticketType":"STANDARD"},{"id":"592","name":"Regal Oakmont 8","address":"4801 Cortez Rd W","city":"Bradenton","state":"FL","zip":"34210","distance":"3.371828079223633","lon":"-82.609802","lat":"27.461258","theaterChainName":"Regal Cinemas","ticketType":"STANDARD"},{"id":"3230","name":"Parkway 8","address":"6300 North Lockwood Ridge","city":"Sarasota","state":"FL","zip":"34243","distance":"8.856870651245117","lon":"-82.504715","lat":"27.386822","theaterChainName":"Independent Chains","ticketType":"STANDARD"},{"id":"678","name":"Regal Hollywood Stadium 20-Sarasota","address":"1993 Main Street","city":"Sarasota","state":"FL","zip":"34236","distance":"11.519315719604492","lon":"-82.531601","lat":"27.336658","theaterChainName":"Regal Cinemas","ticketType":"STANDARD"},{"id":"1270","name":"Burns Court Cinema","address":"506 Burns Lane","city":"Sarasota","state":"FL","zip":"34236","distance":"11.715958595275879","lon":"-82.539909","lat":"27.332195","theaterChainName":"Independent Chains","ticketType":"STANDARD"},{"id":"4278","name":"AMC Sarasota 12","address":"8201 S. Tamiami Trail","city":"Sarasota","state":"FL","zip":"34238","distance":"19.02671241760254","lon":"-82.492363","lat":"27.233450","theaterChainName":"AMC Theatres","ticketType":"STANDARD"}]