[{"id":"6043","name":"Xscape Riverview 14","address":"6135 Valleydale Dr.","city":"Riverview","state":"FL","zip":"33578","distance":"23.45876121520996","lon":"-82.344475","lat":"27.893623","theaterChainName":"Independent Chains","ticketType":"STANDARD"},{"id":"5972","name":"Riverview 14 GDX","address":"10550 East Bay Road","city":"Gibsonton","state":"FL","zip":"33534","distance":"20.33306121826172","lon":"-82.348618","lat":"27.848459","theaterChainName":"Goodrich Theatres","ticketType":"SELECT_SEATING"},{"id":"3100","name":"Muvico Baywalk 20","address":"151 2nd Ave North St.","city":"Saint Petersburg","state":"FL","zip":"33701","distance":"20.937891006469727","lon":"-82.634781","lat":"27.774220","theaterChainName":"Carmike Cinemas","ticketType":"STANDARD"},{"id":"3061","name":"Carmike Royal Palm 20","address":"5215 26th St East","city":"Bradenton","state":"FL","zip":"34203","distance":"11.203557014465332","lon":"-82.532433","lat":"27.449282","theaterChainName":"Carmike Cinemas","ticketType":"STANDARD"},{"id":"591","name":"Dollar Movies at Desoto Square","address":"303 US 301 Blvd. Suite 911","city":"Bradenton","state":"FL","zip":"34205","distance":"12.105162620544434","lon":"-82.567528","lat":"27.470312","theaterChainName":"Independent Chains","ticketType":"STANDARD"},{"id":"4287","name":"Lakewood Ranch Cinemas","address":"10715 Rodeo Drive","city":"Bradenton","state":"FL","zip":"34202","distance":"11.422982215881348","lon":"-82.434517","lat":"27.395452","theaterChainName":"Independent Chains","ticketType":"STANDARD"},{"id":"592","name":"Regal Oakmont 8","address":"4801 Cortez Rd W","city":"Bradenton","state":"FL","zip":"34210","distance":"14.684279441833496","lon":"-82.609802","lat":"27.461258","theaterChainName":"Regal Cinemas","ticketType":"STANDARD"},{"id":"3230","name":"Parkway 8","address":"6300 North Lockwood Ridge","city":"Sarasota","state":"FL","zip":"34243","distance":"13.528250694274902","lon":"-82.504715","lat":"27.386822","theaterChainName":"Independent Chains","ticketType":"STANDARD"},{"id":"678","name":"Regal Hollywood Stadium 20-Sarasota","address":"1993 Main Street","city":"Sarasota","state":"FL","zip":"34236","distance":"17.35967445373535","lon":"-82.531601","lat":"27.336658","theaterChainName":"Regal Cinemas","ticketType":"STANDARD"},{"id":"1270","name":"Burns Court Cinema","address":"506 Burns Lane","city":"Sarasota","state":"FL","zip":"34236","distance":"17.877012252807617","lon":"-82.539909","lat":"27.332195","theaterChainName":"Independent Chains","ticketType":"STANDARD"},{"id":"4278","name":"AMC Sarasota 12","address":"8201 S. Tamiami Trail","city":"Sarasota","state":"FL","zip":"34238","distance":"23.138202667236328","lon":"-82.492363","lat":"27.233450","theaterChainName":"AMC Theatres","ticketType":"STANDARD"}]