[{"id":"4287","tribuneTheaterId":"2021","providerTheaterId":"","name":"Lakewood Ranch Cinemas","address":"10715 Rodeo Drive","city":"Bradenton","state":"FL","zip":"34202","distance":11.422404775793,"lon":"-82.434518","lat":"27.395452","theaterChainName":"Independent Chains","ticketType":"STANDARD"},{"id":"3061","tribuneTheaterId":"5729","providerTheaterId":"","name":"Carmike Royal Palm 20","address":"5215 26th St East","city":"Bradenton","state":"FL","zip":"34203","distance":11.202925838176,"lon":"-82.53243","lat":"27.449282","theaterChainName":"Carmike Cinemas","ticketType":"STANDARD"},{"id":"591","tribuneTheaterId":"5854","providerTheaterId":"","name":"Dollar Movies at Desoto Square","address":"303 US 301 Blvd. Suite 911","city":"Bradenton","state":"FL","zip":"34205","distance":12.104716756399,"lon":"-82.56753","lat":"27.470313","theaterChainName":"Independent Chains","ticketType":"STANDARD"},{"id":"3230","tribuneTheaterId":"7314","providerTheaterId":"","name":"Parkway 8","address":"6300 North Lockwood Ridge","city":"Sarasota","state":"FL","zip":"34243","distance":13.527451614049,"lon":"-82.504712","lat":"27.386822","theaterChainName":"Independent Chains","ticketType":"STANDARD"},{"id":"592","tribuneTheaterId":"7886","providerTheaterId":"","name":"Regal Oakmont 8","address":"4801 Cortez Rd W","city":"Bradenton","state":"FL","zip":"34210","distance":14.68351897266,"lon":"-82.609801","lat":"27.461258","theaterChainName":"Regal Cinemas","ticketType":"STANDARD"},{"id":"1270","tribuneTheaterId":"2817","providerTheaterId":"","name":"Burns Court Cinema","address":"506 Burns Lane","city":"Sarasota","state":"FL","zip":"34236","distance":17.876085258499,"lon":"-82.539912","lat":"27.332196","theaterChainName":"Independent Chains","ticketType":"STANDARD"},{"id":"678","tribuneTheaterId":"7414","providerTheaterId":"","name":"Regal Hollywood Stadium 20-Sarasota","address":"1993 Main Street","city":"Sarasota","state":"FL","zip":"34236","distance":17.358681794889,"lon":"-82.531598","lat":"27.336658","theaterChainName":"Regal Cinemas","ticketType":"STANDARD"},{"id":"5972","tribuneTheaterId":"11408","providerTheaterId":"","name":"Riverview 14 GDX","address":"10550 East Bay Road","city":"Gibsonton","state":"FL","zip":"33534","distance":20.331781361054,"lon":"-82.348618","lat":"27.84846","theaterChainName":"Goodrich Theatres","ticketType":"SELECT_SEATING"},{"id":"3100","tribuneTheaterId":"5851","providerTheaterId":"","name":"Muvico Baywalk 20","address":"151 2nd Ave North St.","city":"Saint Petersburg","state":"FL","zip":"33701","distance":20.936883442529,"lon":"-82.634784","lat":"27.77422","theaterChainName":"Carmike Cinemas","ticketType":"STANDARD"},{"id":"4278","tribuneTheaterId":"4250","providerTheaterId":"293","name":"AMC Sarasota 12","address":"8201 S. Tamiami Trail","city":"Sarasota","state":"FL","zip":"34238","distance":23.13685840067,"lon":"-82.492363","lat":"27.23345","theaterChainName":"AMC Theatres","ticketType":"STANDARD"},{"id":"6043","tribuneTheaterId":"11447","providerTheaterId":"","name":"Xscape Riverview 14","address":"6135 Valleydale Dr.","city":"Riverview","state":"FL","zip":"33578","distance":23.457316322933,"lon":"-82.344471","lat":"27.893624","theaterChainName":"Independent Chains","ticketType":"STANDARD"}]