[{"id":"3100","name":"Muvico Baywalk 20","address":"151 2nd Ave North St.","city":"Saint Petersburg","state":"FL","zip":"33701","distance":"21.132179260253906","lon":"-82.634781","lat":"27.774220","theaterChainName":"Carmike Cinemas","ticketType":"STANDARD"},{"id":"5889","name":"Cobb Tyrone Luxury 10","address":"2998 Tyrone Blvd N.","city":"Saint Petersburg","state":"FL","zip":"33710","distance":"22.76422119140625","lon":"-82.736298","lat":"27.797258","theaterChainName":"Cobb Theatres","ticketType":"STANDARD"},{"id":"3061","name":"Carmike Royal Palm 20","address":"5215 26th St East","city":"Bradenton","state":"FL","zip":"34203","distance":"9.313638687133789","lon":"-82.532433","lat":"27.449282","theaterChainName":"Carmike Cinemas","ticketType":"STANDARD"},{"id":"591","name":"Dollar Movies at Desoto Square","address":"303 US 301 Blvd. Suite 911","city":"Bradenton","state":"FL","zip":"34205","distance":"7.036421775817871","lon":"-82.567528","lat":"27.470312","theaterChainName":"Independent Chains","ticketType":"STANDARD"},{"id":"4287","name":"Lakewood Ranch Cinemas","address":"10715 Rodeo Drive","city":"Bradenton","state":"FL","zip":"34202","distance":"16.074066162109375","lon":"-82.434517","lat":"27.395452","theaterChainName":"Independent Chains","ticketType":"STANDARD"},{"id":"592","name":"Regal Oakmont 8","address":"4801 Cortez Rd W","city":"Bradenton","state":"FL","zip":"34210","distance":"4.498410224914551","lon":"-82.609802","lat":"27.461258","theaterChainName":"Regal Cinemas","ticketType":"STANDARD"},{"id":"3230","name":"Parkway 8","address":"6300 North Lockwood Ridge","city":"Sarasota","state":"FL","zip":"34243","distance":"12.356714248657227","lon":"-82.504715","lat":"27.386822","theaterChainName":"Independent Chains","ticketType":"STANDARD"},{"id":"678","name":"Regal Hollywood Stadium 20-Sarasota","address":"1993 Main Street","city":"Sarasota","state":"FL","zip":"34236","distance":"13.115232467651367","lon":"-82.531601","lat":"27.336658","theaterChainName":"Regal Cinemas","ticketType":"STANDARD"},{"id":"1270","name":"Burns Court Cinema","address":"506 Burns Lane","city":"Sarasota","state":"FL","zip":"34236","distance":"12.987784385681152","lon":"-82.539909","lat":"27.332195","theaterChainName":"Independent Chains","ticketType":"STANDARD"},{"id":"4278","name":"AMC Sarasota 12","address":"8201 S. Tamiami Trail","city":"Sarasota","state":"FL","zip":"34238","distance":"20.14901351928711","lon":"-82.492363","lat":"27.233450","theaterChainName":"AMC Theatres","ticketType":"STANDARD"}]