[{"id":"3061","name":"Carmike Royal Palm 20","address":"5215 26th St East","city":"Bradenton","state":"FL","zip":"34203","distance":"2.910703182220459","lon":"-82.532433","lat":"27.449282","theaterChainName":"Carmike Cinemas","ticketType":"STANDARD"},{"id":"591","name":"Dollar Movies at Desoto Square","address":"303 US 301 Blvd. Suite 911","city":"Bradenton","state":"FL","zip":"34205","distance":"4.922445297241211","lon":"-82.567528","lat":"27.470312","theaterChainName":"Independent Chains","ticketType":"STANDARD"},{"id":"4287","name":"Lakewood Ranch Cinemas","address":"10715 Rodeo Drive","city":"Bradenton","state":"FL","zip":"34202","distance":"5.931407928466797","lon":"-82.434517","lat":"27.395452","theaterChainName":"Independent Chains","ticketType":"STANDARD"},{"id":"592","name":"Regal Oakmont 8","address":"4801 Cortez Rd W","city":"Bradenton","state":"FL","zip":"34210","distance":"6.142169952392578","lon":"-82.609802","lat":"27.461258","theaterChainName":"Regal Cinemas","ticketType":"STANDARD"},{"id":"3230","name":"Parkway 8","address":"6300 North Lockwood Ridge","city":"Sarasota","state":"FL","zip":"34243","distance":"2.1084487438201904","lon":"-82.504715","lat":"27.386822","theaterChainName":"Independent Chains","ticketType":"STANDARD"},{"id":"678","name":"Regal Hollywood Stadium 20-Sarasota","address":"1993 Main Street","city":"Sarasota","state":"FL","zip":"34236","distance":"4.87489652633667","lon":"-82.531601","lat":"27.336658","theaterChainName":"Regal Cinemas","ticketType":"STANDARD"},{"id":"1270","name":"Burns Court Cinema","address":"506 Burns Lane","city":"Sarasota","state":"FL","zip":"34236","distance":"5.216096878051758","lon":"-82.539909","lat":"27.332195","theaterChainName":"Independent Chains","ticketType":"STANDARD"},{"id":"4278","name":"AMC Sarasota 12","address":"8201 S. Tamiami Trail","city":"Sarasota","state":"FL","zip":"34238","distance":"12.229464530944824","lon":"-82.492363","lat":"27.233450","theaterChainName":"AMC Theatres","ticketType":"STANDARD"}]