[{"id":"4278","tribuneTheaterId":"4250","providerTheaterId":"293","name":"AMC Sarasota 12","address":"8201 S. Tamiami Trail","city":"Sarasota","state":"FL","zip":"34238","distance":6.4132448679821,"lon":"-82.492363","lat":"27.23345","theaterChainName":"AMC Theatres","ticketType":"STANDARD"},{"id":"4178","tribuneTheaterId":"2324","providerTheaterId":"","name":"Frank Theatre Galleria 12","address":"2111 Tamiami Trail","city":"Venice","state":"FL","zip":"34293","distance":6.8616245527889,"lon":"-82.411313","lat":"27.056704","theaterChainName":"Frank Theatres","ticketType":"STANDARD"},{"id":"1270","tribuneTheaterId":"2817","providerTheaterId":"","name":"Burns Court Cinema","address":"506 Burns Lane","city":"Sarasota","state":"FL","zip":"34236","distance":13.803692637208,"lon":"-82.539912","lat":"27.332196","theaterChainName":"Independent Chains","ticketType":"STANDARD"},{"id":"678","tribuneTheaterId":"7414","providerTheaterId":"","name":"Regal Hollywood Stadium 20-Sarasota","address":"1993 Main Street","city":"Sarasota","state":"FL","zip":"34236","distance":13.934937597585,"lon":"-82.531598","lat":"27.336658","theaterChainName":"Regal Cinemas","ticketType":"STANDARD"},{"id":"3230","tribuneTheaterId":"7314","providerTheaterId":"","name":"Parkway 8","address":"6300 North Lockwood Ridge","city":"Sarasota","state":"FL","zip":"34243","distance":16.95817222134,"lon":"-82.504712","lat":"27.386822","theaterChainName":"Independent Chains","ticketType":"STANDARD"},{"id":"4287","tribuneTheaterId":"2021","providerTheaterId":"","name":"Lakewood Ranch Cinemas","address":"10715 Rodeo Drive","city":"Bradenton","state":"FL","zip":"34202","distance":17.47095134197,"lon":"-82.434518","lat":"27.395452","theaterChainName":"Independent Chains","ticketType":"STANDARD"},{"id":"3061","tribuneTheaterId":"5729","providerTheaterId":"","name":"Carmike Royal Palm 20","address":"5215 26th St East","city":"Bradenton","state":"FL","zip":"34203","distance":21.501352804563,"lon":"-82.53243","lat":"27.449282","theaterChainName":"Carmike Cinemas","ticketType":"STANDARD"},{"id":"2862","tribuneTheaterId":"5618","providerTheaterId":"","name":"Regal Town Center Stadium 16-Port Charlotte","address":"1441 Tamiami Trail Unit 701","city":"Port Charlotte","state":"FL","zip":"33948","distance":21.59346742415,"lon":"-82.148333","lat":"27.008274","theaterChainName":"Regal Cinemas","ticketType":"STANDARD"},{"id":"592","tribuneTheaterId":"7886","providerTheaterId":"","name":"Regal Oakmont 8","address":"4801 Cortez Rd W","city":"Bradenton","state":"FL","zip":"34210","distance":23.666141908992,"lon":"-82.609801","lat":"27.461258","theaterChainName":"Regal Cinemas","ticketType":"STANDARD"},{"id":"591","tribuneTheaterId":"5854","providerTheaterId":"","name":"Dollar Movies at Desoto Square","address":"303 US 301 Blvd. Suite 911","city":"Bradenton","state":"FL","zip":"34205","distance":23.416537784211,"lon":"-82.56753","lat":"27.470313","theaterChainName":"Independent Chains","ticketType":"STANDARD"}]