[{"id":"3061","name":"Carmike Royal Palm 20","address":"5215 26th St East","city":"Bradenton","state":"FL","zip":"34203","distance":"21.894695281982422","lon":"-82.532433","lat":"27.449282","theaterChainName":"Carmike Cinemas","ticketType":"STANDARD"},{"id":"591","name":"Dollar Movies at Desoto Square","address":"303 US 301 Blvd. Suite 911","city":"Bradenton","state":"FL","zip":"34205","distance":"23.98167610168457","lon":"-82.567528","lat":"27.470312","theaterChainName":"Independent Chains","ticketType":"STANDARD"},{"id":"4287","name":"Lakewood Ranch Cinemas","address":"10715 Rodeo Drive","city":"Bradenton","state":"FL","zip":"34202","distance":"17.176443099975586","lon":"-82.434517","lat":"27.395452","theaterChainName":"Independent Chains","ticketType":"STANDARD"},{"id":"592","name":"Regal Oakmont 8","address":"4801 Cortez Rd W","city":"Bradenton","state":"FL","zip":"34210","distance":"24.486160278320312","lon":"-82.609802","lat":"27.461258","theaterChainName":"Regal Cinemas","ticketType":"STANDARD"},{"id":"3230","name":"Parkway 8","address":"6300 North Lockwood Ridge","city":"Sarasota","state":"FL","zip":"34243","distance":"17.27064323425293","lon":"-82.504715","lat":"27.386822","theaterChainName":"Independent Chains","ticketType":"STANDARD"},{"id":"678","name":"Regal Hollywood Stadium 20-Sarasota","address":"1993 Main Street","city":"Sarasota","state":"FL","zip":"34236","distance":"14.636519432067871","lon":"-82.531601","lat":"27.336658","theaterChainName":"Regal Cinemas","ticketType":"STANDARD"},{"id":"1270","name":"Burns Court Cinema","address":"506 Burns Lane","city":"Sarasota","state":"FL","zip":"34236","distance":"14.599870681762695","lon":"-82.539909","lat":"27.332195","theaterChainName":"Independent Chains","ticketType":"STANDARD"},{"id":"4278","name":"AMC Sarasota 12","address":"8201 S. Tamiami Trail","city":"Sarasota","state":"FL","zip":"34238","distance":"7.250637054443359","lon":"-82.492363","lat":"27.233450","theaterChainName":"AMC Theatres","ticketType":"STANDARD"},{"id":"2862","name":"Regal Town Center Stadium 16-Port Charlotte","address":"1441 Tamiami Trail Unit 701","city":"Port Charlotte","state":"FL","zip":"33948","distance":"19.561933517456055","lon":"-82.148331","lat":"27.008274","theaterChainName":"Regal Cinemas","ticketType":"STANDARD"},{"id":"4178","name":"Frank Theatre Galleria 12","address":"2111 Tamiami Trail","city":"Venice","state":"FL","zip":"34293","distance":"6.2999186515808105","lon":"-82.411316","lat":"27.056704","theaterChainName":"Frank Theatres","ticketType":"STANDARD"}]