[{"id":"4287","name":"Lakewood Ranch Cinemas","address":"10715 Rodeo Drive","city":"Bradenton","state":"FL","zip":"34202","distance":"24.6715145111084","lon":"-82.434517","lat":"27.395452","theaterChainName":"Independent Chains","ticketType":"STANDARD"},{"id":"4278","name":"AMC Sarasota 12","address":"8201 S. Tamiami Trail","city":"Sarasota","state":"FL","zip":"34238","distance":"19.69211196899414","lon":"-82.492363","lat":"27.233450","theaterChainName":"AMC Theatres","ticketType":"STANDARD"},{"id":"2862","name":"Regal Town Center Stadium 16-Port Charlotte","address":"1441 Tamiami Trail Unit 701","city":"Port Charlotte","state":"FL","zip":"33948","distance":"7.353884696960449","lon":"-82.148331","lat":"27.008274","theaterChainName":"Regal Cinemas","ticketType":"STANDARD"},{"id":"4178","name":"Frank Theatre Galleria 12","address":"2111 Tamiami Trail","city":"Venice","state":"FL","zip":"34293","distance":"12.766741752624512","lon":"-82.411316","lat":"27.056704","theaterChainName":"Frank Theatres","ticketType":"STANDARD"}]