[{"id":"721","tribuneTheaterId":"8190","providerTheaterId":"","name":"Regal Crystal River Mall 9","address":"1801 NW US Highway 19","city":"Crystal River","state":"FL","zip":"34428","distance":17.298778481656,"lon":"-82.603229","lat":"28.910664","theaterChainName":"Regal Cinemas","ticketType":"STANDARD"},{"id":"5232","tribuneTheaterId":"10656","providerTheaterId":"","name":"Barnstorm Theater","address":"2720 Brownwood Blvd.","city":"The Villages","state":"FL","zip":"32163","distance":21.658233306535,"lon":"-81.9729","lat":"28.8498","theaterChainName":"Independent Chains","ticketType":"STANDARD"},{"id":"3882","tribuneTheaterId":"7629","providerTheaterId":"","name":"Old Mill Playhouse","address":"1000 Old Mill Run","city":"The Villages","state":"FL","zip":"32162","distance":22.058657382516,"lon":"-81.975131","lat":"28.907471","theaterChainName":"Independent Chains","ticketType":"STANDARD"},{"id":"2972","tribuneTheaterId":"5949","providerTheaterId":"","name":"Beacon Stadium Cinemas - Brooksville","address":"12961 Cortez Blvd.","city":"Brooksville","state":"FL","zip":"34613","distance":23.58909008252,"lon":"-82.513885","lat":"28.534718","theaterChainName":"Georgia Theatre Company","ticketType":"STANDARD"},{"id":"632","tribuneTheaterId":"7888","providerTheaterId":"","name":"Regal Hollywood Stadium 16-Ocala","address":"2801 SW 27th Avenue","city":"Ocala","state":"FL","zip":"34474","distance":24.619714920621,"lon":"-82.167091","lat":"29.162245","theaterChainName":"Regal Cinemas","ticketType":"STANDARD"},{"id":"1054","tribuneTheaterId":"3076","providerTheaterId":"","name":"Rialto Villages Town Square","address":"1105 Alonzo Ave","city":"The Villages","state":"FL","zip":"32159","distance":24.044189817517,"lon":"-81.951364","lat":"28.940506","theaterChainName":"Independent Chains","ticketType":"STANDARD"}]