[{"id":"3405","tribuneTheaterId":"1959","providerTheaterId":"","name":"Ocala Centre 6","address":"2021 E. Silver Springs Blvd.","city":"Ocala","state":"FL","zip":"34470","distance":1.6829413400482,"lon":"-82.111988","lat":"29.187387","theaterChainName":"Independent Chains","ticketType":"STANDARD"},{"id":"5262","tribuneTheaterId":"10693","providerTheaterId":"","name":"Marion Theater - Ocala","address":"50 S. Magnolia Ave.","city":"Ocala","state":"FL","zip":"34471","distance":3.1159150461387,"lon":"-82.1369","lat":"29.186","theaterChainName":"Independent Chains","ticketType":"STANDARD"},{"id":"632","tribuneTheaterId":"7888","providerTheaterId":"","name":"Regal Hollywood Stadium 16-Ocala","address":"2801 SW 27th Avenue","city":"Ocala","state":"FL","zip":"34474","distance":5.433641119194,"lon":"-82.167091","lat":"29.162245","theaterChainName":"Regal Cinemas","ticketType":"STANDARD"},{"id":"1054","tribuneTheaterId":"3076","providerTheaterId":"","name":"Rialto Villages Town Square","address":"1105 Alonzo Ave","city":"The Villages","state":"FL","zip":"32159","distance":19.652701792516,"lon":"-81.951364","lat":"28.940506","theaterChainName":"Independent Chains","ticketType":"STANDARD"},{"id":"3882","tribuneTheaterId":"7629","providerTheaterId":"","name":"Old Mill Playhouse","address":"1000 Old Mill Run","city":"The Villages","state":"FL","zip":"32162","distance":21.246914741003,"lon":"-81.975131","lat":"28.907471","theaterChainName":"Independent Chains","ticketType":"STANDARD"}]