[{"id":"265","name":"AMC Lake Square 12","address":"10401-015 US Hwy 441 South","city":"Leesburg","state":"FL","zip":"34788","distance":"24.752649307250977","lon":"-81.784676","lat":"28.825378","theaterChainName":"AMC Theatres","ticketType":"STANDARD"},{"id":"3405","name":"Ocala Centre 6","address":"2021 E. Silver Springs Blvd.","city":"Ocala","state":"FL","zip":"34470","distance":"7.571320056915283","lon":"-82.111984","lat":"29.187387","theaterChainName":"Independent Chains","ticketType":"STANDARD"},{"id":"5262","name":"Marion Theater - Ocala","address":"50 S. Magnolia Ave.","city":"Ocala","state":"FL","zip":"34471","distance":"8.805340766906738","lon":"-82.136902","lat":"29.186001","theaterChainName":"Independent Chains","ticketType":"STANDARD"},{"id":"632","name":"Regal Hollywood Stadium 16-Ocala","address":"2801 SW 27th Avenue","city":"Ocala","state":"FL","zip":"34474","distance":"9.8998384475708","lon":"-82.167091","lat":"29.162245","theaterChainName":"Regal Cinemas","ticketType":"STANDARD"},{"id":"1054","name":"Rialto Villages Town Square","address":"1105 Alonzo Ave","city":"The Villages","state":"FL","zip":"32159","distance":"13.228710174560547","lon":"-81.951363","lat":"28.940506","theaterChainName":"Independent Chains","ticketType":"STANDARD"},{"id":"3882","name":"Old Mill Playhouse","address":"1000 Old Mill Run","city":"The Villages","state":"FL","zip":"32162","distance":"15.186705589294434","lon":"-81.975128","lat":"28.907471","theaterChainName":"Independent Chains","ticketType":"STANDARD"},{"id":"5232","name":"Barnstorm Theater","address":"2720 Brownwood Blvd.","city":"The Villages","state":"FL","zip":"32163","distance":"19.15822410583496","lon":"-81.972900","lat":"28.849800","theaterChainName":"Independent Chains","ticketType":"STANDARD"}]