[{"id":"2972","tribuneTheaterId":"5949","providerTheaterId":"","name":"Beacon Stadium Cinemas - Brooksville","address":"12961 Cortez Blvd.","city":"Brooksville","state":"FL","zip":"34613","distance":13.361429649193,"lon":"-82.513885","lat":"28.534718","theaterChainName":"Georgia Theatre Company","ticketType":"STANDARD"},{"id":"1276","tribuneTheaterId":"3144","providerTheaterId":"","name":"Zephyrhills Cinema 10","address":"6848 Gall Blvd","city":"Zephyrhills","state":"FL","zip":"33542","distance":18.599581434424,"lon":"-82.186843","lat":"28.257717","theaterChainName":"Independent Chains","ticketType":"STANDARD"},{"id":"4548","tribuneTheaterId":"9682","providerTheaterId":"","name":"Cobb Grove 16","address":"6333 Wesley Grove Blvd","city":"Wesley Chapel","state":"FL","zip":"33544","distance":18.218659802891,"lon":"-82.347465","lat":"28.249581","theaterChainName":"Cobb Theatres","ticketType":"STANDARD"},{"id":"597","tribuneTheaterId":"6272","providerTheaterId":"","name":"Spring Hill 8 Cinemas","address":"2955 Commercial Way","city":"Spring Hill","state":"FL","zip":"34606","distance":19.685371407153,"lon":"-82.61763","lat":"28.475832","theaterChainName":"Sapphire Motion Pictures Inc.","ticketType":"STANDARD"}]