[{"id":"4548","name":"Cobb Grove 16","address":"6333 Wesley Grove Blvd","city":"Wesley Chapel","state":"FL","zip":"33544","distance":"18.64954948425293","lon":"-82.347466","lat":"28.249580","theaterChainName":"Cobb Theatres","ticketType":"STANDARD"},{"id":"1276","name":"Zephyrhills Cinema 10","address":"6848 Gall Blvd","city":"Zephyrhills","state":"FL","zip":"33542","distance":"24.831825256347656","lon":"-82.186844","lat":"28.257717","theaterChainName":"Independent Chains","ticketType":"STANDARD"},{"id":"2972","name":"Beacon Stadium Cinemas - Brooksville","address":"12961 Cortez Blvd.","city":"Brooksville","state":"FL","zip":"34613","distance":"3.8372788429260254","lon":"-82.513885","lat":"28.534718","theaterChainName":"Georgia Theatre Company","ticketType":"STANDARD"},{"id":"597","name":"Spring Hill 8 Cinemas","address":"2955 Commercial Way","city":"Spring Hill","state":"FL","zip":"34606","distance":"6.644907474517822","lon":"-82.617630","lat":"28.475832","theaterChainName":"Sapphire Motion Pictures Inc.","ticketType":"STANDARD"},{"id":"596","name":"Regal Hollywood 18-Port Richey","address":"6701 Cinema Dr","city":"Port Richey","state":"FL","zip":"34668","distance":"16.78251838684082","lon":"-82.703499","lat":"28.307631","theaterChainName":"Regal Cinemas","ticketType":"STANDARD"},{"id":"4826","name":"Cinema 6 - Port Richey","address":"9510 US HWY 19","city":"Port Richey","state":"FL","zip":"34668","distance":"17.587421417236328","lon":"-82.707291","lat":"28.294634","theaterChainName":"Independent Chains","ticketType":"STANDARD"}]