[{"id":"2972","tribuneTheaterId":"5949","providerTheaterId":"","name":"Beacon Stadium Cinemas - Brooksville","address":"12961 Cortez Blvd.","city":"Brooksville","state":"FL","zip":"34613","distance":0.93624110288836,"lon":"-82.513885","lat":"28.534718","theaterChainName":"Georgia Theatre Company","ticketType":"STANDARD"},{"id":"597","tribuneTheaterId":"6272","providerTheaterId":"","name":"Spring Hill 8 Cinemas","address":"2955 Commercial Way","city":"Spring Hill","state":"FL","zip":"34606","distance":7.6232488695543,"lon":"-82.61763","lat":"28.475832","theaterChainName":"Sapphire Motion Pictures Inc.","ticketType":"STANDARD"},{"id":"4826","tribuneTheaterId":"10100","providerTheaterId":"","name":"Cinema 6 - Port Richey","address":"9510 US HWY 19","city":"Port Richey","state":"FL","zip":"34668","distance":20.755915144509,"lon":"-82.707288","lat":"28.294634","theaterChainName":"Independent Chains","ticketType":"STANDARD"},{"id":"596","tribuneTheaterId":"7138","providerTheaterId":"","name":"Regal Hollywood 18-Port Richey","address":"6701 Cinema Dr","city":"Port Richey","state":"FL","zip":"34668","distance":19.879095037147,"lon":"-82.703497","lat":"28.307631","theaterChainName":"Regal Cinemas","ticketType":"STANDARD"},{"id":"4548","tribuneTheaterId":"9682","providerTheaterId":"","name":"Cobb Grove 16","address":"6333 Wesley Grove Blvd","city":"Wesley Chapel","state":"FL","zip":"33544","distance":23.082089043506,"lon":"-82.347465","lat":"28.249581","theaterChainName":"Cobb Theatres","ticketType":"STANDARD"}]