[{"id":"373","name":"AMC Regency - 20","address":"2496 Brandon Blvd","city":"Brandon","state":"FL","zip":"33511","distance":"23.103334426879883","lon":"-82.324448","lat":"27.943275","theaterChainName":"AMC Theatres","ticketType":"STANDARD"},{"id":"6043","name":"Xscape Riverview 14","address":"6135 Valleydale Dr.","city":"Riverview","state":"FL","zip":"33578","distance":"23.285202026367188","lon":"-82.344475","lat":"27.893623","theaterChainName":"Independent Chains","ticketType":"STANDARD"},{"id":"5972","name":"Riverview 14 GDX","address":"10550 East Bay Road","city":"Gibsonton","state":"FL","zip":"33534","distance":"24.64534568786621","lon":"-82.348618","lat":"27.848459","theaterChainName":"Goodrich Theatres","ticketType":"SELECT_SEATING"},{"id":"3090","name":"Muvico Centro Ybor 20","address":"1600 East 8th Ave","city":"Tampa","state":"FL","zip":"33605","distance":"16.033496856689453","lon":"-82.440300","lat":"27.960899","theaterChainName":"Carmike Cinemas","ticketType":"STANDARD"},{"id":"870","name":"Tampa Theatre","address":"711 N. Franklin St.","city":"Tampa","state":"FL","zip":"33602","distance":"15.295434951782227","lon":"-82.458900","lat":"27.950001","theaterChainName":"Independent Chains","ticketType":"STANDARD"},{"id":"5564","name":"Studio Movie Grill Tampa","address":"12332 University Mall Court","city":"Tampa","state":"FL","zip":"33612","distance":"15.235214233398438","lon":"-82.435310","lat":"28.057667","theaterChainName":"Studio Movie Grill","ticketType":"SELECT_SEATING"},{"id":"2824","name":"Muvico Starlight 20","address":"18002 Highwood Preserve Pkwy","city":"Tampa","state":"FL","zip":"33647","distance":"20.037311553955078","lon":"-82.370361","lat":"28.130489","theaterChainName":"Carmike Cinemas","ticketType":"STANDARD"},{"id":"3099","name":"AMC West Shore Plaza 14","address":"210 Westshore Plaza","city":"Tampa","state":"FL","zip":"33609","distance":"11.834792137145996","lon":"-82.526665","lat":"27.946806","theaterChainName":"AMC Theatres","ticketType":"STANDARD"},{"id":"5351","name":"Villagio Cinemas","address":"11778 N. Dale Mabry Highway","city":"Tampa","state":"FL","zip":"33618","distance":"11.045757293701172","lon":"-82.503998","lat":"28.055700","theaterChainName":"Independent Chains","ticketType":"STANDARD"},{"id":"2563","name":"AMC Veterans 24","address":"9302 Anderson Rd.","city":"Tampa","state":"FL","zip":"33634","distance":"8.710977554321289","lon":"-82.542732","lat":"28.032961","theaterChainName":"AMC Theatres","ticketType":"STANDARD"},{"id":"2283","name":"Regal Citrus Park Stadium 20","address":"7611 Ehrlich Rd","city":"Tampa","state":"FL","zip":"33625","distance":"6.854090213775635","lon":"-82.575600","lat":"28.069519","theaterChainName":"Regal Cinemas","ticketType":"STANDARD"},{"id":"593","name":"Regal Citrus Cinemas 6","address":"2635 East Gulf To Lake Hwy","city":"Inverness","state":"FL","zip":"34453","distance":"6.847987174987793","lon":"-82.575760","lat":"28.069725","theaterChainName":"Regal Cinemas","ticketType":"STANDARD"},{"id":"4548","name":"Cobb Grove 16","address":"6333 Wesley Grove Blvd","city":"Wesley Chapel","state":"FL","zip":"33544","distance":"24.905302047729492","lon":"-82.347466","lat":"28.249580","theaterChainName":"Cobb Theatres","ticketType":"STANDARD"},{"id":"3100","name":"Muvico Baywalk 20","address":"151 2nd Ave North St.","city":"Saint Petersburg","state":"FL","zip":"33701","distance":"19.026071548461914","lon":"-82.634781","lat":"27.774220","theaterChainName":"Carmike Cinemas","ticketType":"STANDARD"},{"id":"3164","name":"Regal Cinemas Park Place Stadium 16 & RPX","address":"7200 US Highway 19 North","city":"Pinellas Park","state":"FL","zip":"33781","distance":"14.475135803222656","lon":"-82.686302","lat":"27.836515","theaterChainName":"Regal Cinemas","ticketType":"STANDARD"},{"id":"2970","name":"AMC Woodlands Square 20","address":"3128 Tampa Road","city":"Oldsmar","state":"FL","zip":"34677","distance":"1.0398194789886475","lon":"-82.700401","lat":"28.052071","theaterChainName":"AMC Theatres","ticketType":"STANDARD"},{"id":"869","name":"Clearwater Cinema Cafe","address":"24095 U.S. Highway 19 North","city":"Clearwater","state":"FL","zip":"33763","distance":"4.6129350662231445","lon":"-82.727928","lat":"27.991161","theaterChainName":"Independent Chains","ticketType":"STANDARD"},{"id":"5098","name":"Cobb Countryside 12 Cinemas","address":"27001 US Highway 19 N.","city":"Clearwater","state":"FL","zip":"33761","distance":"3.7769858837127686","lon":"-82.737503","lat":"28.017300","theaterChainName":"Cobb Theatres","ticketType":"STANDARD"},{"id":"5889","name":"Cobb Tyrone Luxury 10","address":"2998 Tyrone Blvd N.","city":"Saint Petersburg","state":"FL","zip":"33710","distance":"17.47263526916504","lon":"-82.736298","lat":"27.797258","theaterChainName":"Cobb Theatres","ticketType":"STANDARD"},{"id":"769","name":"Muvico Palm Harbor 10","address":"37912 US Highway 19N","city":"Palm Harbor","state":"FL","zip":"34684","distance":"5.961437225341797","lon":"-82.741066","lat":"28.116562","theaterChainName":"Carmike Cinemas","ticketType":"STANDARD"},{"id":"595","name":"Regal Largo Mall 8","address":"10500 Ulmerton Rd East #500","city":"Largo","state":"FL","zip":"33771","distance":"12.290657043457031","lon":"-82.783623","lat":"27.891012","theaterChainName":"Regal Cinemas","ticketType":"STANDARD"},{"id":"4627","name":"Touchstar Cinemas - Seminole 8","address":"7990 Liberty Lane","city":"Seminole","state":"FL","zip":"33772","distance":"15.373822212219238","lon":"-82.791748","lat":"27.844561","theaterChainName":"Touchstar Cinemas","ticketType":"STANDARD"},{"id":"5543","name":"Capitol Theater","address":"405 Cleveland Street","city":"Clearwater","state":"FL","zip":"33755","distance":"9.006612777709961","lon":"-82.801003","lat":"27.965599","theaterChainName":"Independent Chains","ticketType":"STANDARD"},{"id":"596","name":"Regal Hollywood 18-Port Richey","address":"6701 Cinema Dr","city":"Port Richey","state":"FL","zip":"34668","distance":"18.113914489746094","lon":"-82.703499","lat":"28.307631","theaterChainName":"Regal Cinemas","ticketType":"STANDARD"},{"id":"4826","name":"Cinema 6 - Port Richey","address":"9510 US HWY 19","city":"Port Richey","state":"FL","zip":"34668","distance":"17.23457145690918","lon":"-82.707291","lat":"28.294634","theaterChainName":"Independent Chains","ticketType":"STANDARD"}]