[{"id":"3090","name":"Muvico Centro Ybor 20","address":"1600 East 8th Ave","city":"Tampa","state":"FL","zip":"33605","distance":"20.729623794555664","lon":"-82.440300","lat":"27.960899","theaterChainName":"Carmike Cinemas","ticketType":"STANDARD"},{"id":"870","name":"Tampa Theatre","address":"711 N. Franklin St.","city":"Tampa","state":"FL","zip":"33602","distance":"19.96284294128418","lon":"-82.458900","lat":"27.950001","theaterChainName":"Independent Chains","ticketType":"STANDARD"},{"id":"5564","name":"Studio Movie Grill Tampa","address":"12332 University Mall Court","city":"Tampa","state":"FL","zip":"33612","distance":"19.715070724487305","lon":"-82.435310","lat":"28.057667","theaterChainName":"Studio Movie Grill","ticketType":"SELECT_SEATING"},{"id":"2824","name":"Muvico Starlight 20","address":"18002 Highwood Preserve Pkwy","city":"Tampa","state":"FL","zip":"33647","distance":"24.07188606262207","lon":"-82.370361","lat":"28.130489","theaterChainName":"Carmike Cinemas","ticketType":"STANDARD"},{"id":"3099","name":"AMC West Shore Plaza 14","address":"210 Westshore Plaza","city":"Tampa","state":"FL","zip":"33609","distance":"16.373506546020508","lon":"-82.526665","lat":"27.946806","theaterChainName":"AMC Theatres","ticketType":"STANDARD"},{"id":"5351","name":"Villagio Cinemas","address":"11778 N. Dale Mabry Highway","city":"Tampa","state":"FL","zip":"33618","distance":"15.535168647766113","lon":"-82.503998","lat":"28.055700","theaterChainName":"Independent Chains","ticketType":"STANDARD"},{"id":"2563","name":"AMC Veterans 24","address":"9302 Anderson Rd.","city":"Tampa","state":"FL","zip":"33634","distance":"13.356728553771973","lon":"-82.542732","lat":"28.032961","theaterChainName":"AMC Theatres","ticketType":"STANDARD"},{"id":"2283","name":"Regal Citrus Park Stadium 20","address":"7611 Ehrlich Rd","city":"Tampa","state":"FL","zip":"33625","distance":"11.153935432434082","lon":"-82.575600","lat":"28.069519","theaterChainName":"Regal Cinemas","ticketType":"STANDARD"},{"id":"593","name":"Regal Citrus Cinemas 6","address":"2635 East Gulf To Lake Hwy","city":"Inverness","state":"FL","zip":"34453","distance":"11.144460678100586","lon":"-82.575760","lat":"28.069725","theaterChainName":"Regal Cinemas","ticketType":"STANDARD"},{"id":"3100","name":"Muvico Baywalk 20","address":"151 2nd Ave North St.","city":"Saint Petersburg","state":"FL","zip":"33701","distance":"21.542829513549805","lon":"-82.634781","lat":"27.774220","theaterChainName":"Carmike Cinemas","ticketType":"STANDARD"},{"id":"3164","name":"Regal Cinemas Park Place Stadium 16 & RPX","address":"7200 US Highway 19 North","city":"Pinellas Park","state":"FL","zip":"33781","distance":"16.471094131469727","lon":"-82.686302","lat":"27.836515","theaterChainName":"Regal Cinemas","ticketType":"STANDARD"},{"id":"2970","name":"AMC Woodlands Square 20","address":"3128 Tampa Road","city":"Oldsmar","state":"FL","zip":"34677","distance":"3.674649715423584","lon":"-82.700401","lat":"28.052071","theaterChainName":"AMC Theatres","ticketType":"STANDARD"},{"id":"869","name":"Clearwater Cinema Cafe","address":"24095 U.S. Highway 19 North","city":"Clearwater","state":"FL","zip":"33763","distance":"5.5100932121276855","lon":"-82.727928","lat":"27.991161","theaterChainName":"Independent Chains","ticketType":"STANDARD"},{"id":"5098","name":"Cobb Countryside 12 Cinemas","address":"27001 US Highway 19 N.","city":"Clearwater","state":"FL","zip":"33761","distance":"3.613398551940918","lon":"-82.737503","lat":"28.017300","theaterChainName":"Cobb Theatres","ticketType":"STANDARD"},{"id":"5889","name":"Cobb Tyrone Luxury 10","address":"2998 Tyrone Blvd N.","city":"Saint Petersburg","state":"FL","zip":"33710","distance":"18.63259506225586","lon":"-82.736298","lat":"27.797258","theaterChainName":"Cobb Theatres","ticketType":"STANDARD"},{"id":"769","name":"Muvico Palm Harbor 10","address":"37912 US Highway 19N","city":"Palm Harbor","state":"FL","zip":"34684","distance":"3.6385130882263184","lon":"-82.741066","lat":"28.116562","theaterChainName":"Carmike Cinemas","ticketType":"STANDARD"},{"id":"595","name":"Regal Largo Mall 8","address":"10500 Ulmerton Rd East #500","city":"Largo","state":"FL","zip":"33771","distance":"12.201766967773438","lon":"-82.783623","lat":"27.891012","theaterChainName":"Regal Cinemas","ticketType":"STANDARD"},{"id":"4627","name":"Touchstar Cinemas - Seminole 8","address":"7990 Liberty Lane","city":"Seminole","state":"FL","zip":"33772","distance":"15.448630332946777","lon":"-82.791748","lat":"27.844561","theaterChainName":"Touchstar Cinemas","ticketType":"STANDARD"},{"id":"5543","name":"Capitol Theater","address":"405 Cleveland Street","city":"Clearwater","state":"FL","zip":"33755","distance":"7.419083595275879","lon":"-82.801003","lat":"27.965599","theaterChainName":"Independent Chains","ticketType":"STANDARD"},{"id":"596","name":"Regal Hollywood 18-Port Richey","address":"6701 Cinema Dr","city":"Port Richey","state":"FL","zip":"34668","distance":"17.015226364135742","lon":"-82.703499","lat":"28.307631","theaterChainName":"Regal Cinemas","ticketType":"STANDARD"},{"id":"4826","name":"Cinema 6 - Port Richey","address":"9510 US HWY 19","city":"Port Richey","state":"FL","zip":"34668","distance":"16.089412689208984","lon":"-82.707291","lat":"28.294634","theaterChainName":"Independent Chains","ticketType":"STANDARD"}]