[{"id":"219","name":"United Artists Seminole Towne Center 10","address":"430 Towne Center Circle","city":"Sanford","state":"FL","zip":"32771","distance":"23.70842933654785","lon":"-81.341919","lat":"28.799095","theaterChainName":"United Artists","ticketType":"STANDARD"},{"id":"3665","name":"AmStar 12 Lake Mary","address":"950 Colonial Grand Lane","city":"Lake Mary","state":"FL","zip":"32746","distance":"22.711156845092773","lon":"-81.356186","lat":"28.789871","theaterChainName":"Southern Theatres","ticketType":"STANDARD"},{"id":"265","name":"AMC Lake Square 12","address":"10401-015 US Hwy 441 South","city":"Leesburg","state":"FL","zip":"34788","distance":"8.97070598602295","lon":"-81.784676","lat":"28.825378","theaterChainName":"AMC Theatres","ticketType":"STANDARD"},{"id":"1054","name":"Rialto Villages Town Square","address":"1105 Alonzo Ave","city":"The Villages","state":"FL","zip":"32159","distance":"21.29196548461914","lon":"-81.951363","lat":"28.940506","theaterChainName":"Independent Chains","ticketType":"STANDARD"},{"id":"3882","name":"Old Mill Playhouse","address":"1000 Old Mill Run","city":"The Villages","state":"FL","zip":"32162","distance":"20.688138961791992","lon":"-81.975128","lat":"28.907471","theaterChainName":"Independent Chains","ticketType":"STANDARD"},{"id":"5232","name":"Barnstorm Theater","address":"2720 Brownwood Blvd.","city":"The Villages","state":"FL","zip":"32163","distance":"18.178142547607422","lon":"-81.972900","lat":"28.849800","theaterChainName":"Independent Chains","ticketType":"STANDARD"},{"id":"4748","name":"Epic Theatres of Clermont","address":"2405 S. Hwy 27","city":"Clermont","state":"FL","zip":"34711","distance":"11.915783882141113","lon":"-81.732185","lat":"28.536711","theaterChainName":"Epic Theatres","ticketType":"STANDARD"},{"id":"91","name":"United Artists Wekiva Riverwalk 8","address":"2141 N. Semoran Blvd.","city":"Apopka","state":"FL","zip":"32703","distance":"15.220287322998047","lon":"-81.471504","lat":"28.674238","theaterChainName":"United Artists","ticketType":"STANDARD"},{"id":"845","name":"West Orange 5","address":"1575 Maguire Road","city":"Ocoee","state":"FL","zip":"34761","distance":"15.416955947875977","lon":"-81.542496","lat":"28.548660","theaterChainName":"Independent Chains","ticketType":"STANDARD"},{"id":"3510","name":"Picture Show at Altamonte","address":"130 E. Altamonte Dr.","city":"Altamonte Springs","state":"FL","zip":"32701","distance":"20.486299514770508","lon":"-81.386246","lat":"28.659492","theaterChainName":"Picture Show Entertainment","ticketType":"STANDARD"},{"id":"3637","name":"AMC Altamonte Mall 18","address":"433 E. Altamonte Dr.","city":"Altamonte Springs","state":"FL","zip":"32701","distance":"20.88085174560547","lon":"-81.378899","lat":"28.663601","theaterChainName":"AMC Theatres","ticketType":"STANDARD"},{"id":"761","name":"Enzian Theater","address":"1300 S. Orlando Ave.","city":"Maitland","state":"FL","zip":"32751","distance":"22.45670509338379","lon":"-81.364380","lat":"28.616444","theaterChainName":"Independent Chains","ticketType":"STANDARD"},{"id":"2759","name":"Regal Winter Park Village Stadium 20","address":"510 N. Orlando Ave.","city":"Winter Park","state":"FL","zip":"32789","distance":"22.896408081054688","lon":"-81.362076","lat":"28.601894","theaterChainName":"Regal Cinemas","ticketType":"STANDARD"},{"id":"4762","name":"Cobb Plaza Cinema Cafe","address":"155 South Orange Ave","city":"Orlando","state":"FL","zip":"32801","distance":"23.70932960510254","lon":"-81.378632","lat":"28.540829","theaterChainName":"Cobb Theatres","ticketType":"STANDARD"},{"id":"338","name":"AMC West Oaks 14","address":"9415 W. Colonial Drive","city":"Ocoee","state":"FL","zip":"34761","distance":"16.33961296081543","lon":"-81.515633","lat":"28.554201","theaterChainName":"AMC Theatres","ticketType":"STANDARD"},{"id":"2898","name":"Cinemark Artegon Marketplace and XD","address":"5150 International Drive","city":"Orlando","state":"FL","zip":"32819","distance":"23.382556915283203","lon":"-81.446373","lat":"28.470055","theaterChainName":"Cinemark","ticketType":"STANDARD"},{"id":"2503","name":"AMC Loews Universal 20","address":"6000 Universal Blvd.","city":"Orlando","state":"FL","zip":"32819","distance":"22.404640197753906","lon":"-81.465080","lat":"28.473785","theaterChainName":"AMC Theatres","ticketType":"STANDARD"},{"id":"4339","name":"Regal Pointe Orlando Stadium 20 & IMAX","address":"9101 International Dr","city":"Orlando","state":"FL","zip":"32819","distance":"24.38886070251465","lon":"-81.469559","lat":"28.432392","theaterChainName":"Regal Cinemas","ticketType":"STANDARD"}]