[{"id":"265","tribuneTheaterId":"8985","providerTheaterId":"296","name":"AMC Lake Square 12","address":"10401-015 US Hwy 441 South","city":"Leesburg","state":"FL","zip":"34788","distance":8.97001596001,"lon":"-81.784673","lat":"28.825379","theaterChainName":"AMC Theatres","ticketType":"STANDARD"},{"id":"4748","tribuneTheaterId":"9977","providerTheaterId":"","name":"Epic Theatres of Clermont","address":"2405 S. Hwy 27","city":"Clermont","state":"FL","zip":"34711","distance":11.915122059486,"lon":"-81.732183","lat":"28.53671","theaterChainName":"Epic Theatres","ticketType":"STANDARD"},{"id":"91","tribuneTheaterId":"9213","providerTheaterId":"","name":"United Artists Wekiva Riverwalk 8","address":"2141 N. Semoran Blvd.","city":"Apopka","state":"FL","zip":"32703","distance":15.21955391673,"lon":"-81.471503","lat":"28.674239","theaterChainName":"United Artists","ticketType":"STANDARD"},{"id":"845","tribuneTheaterId":"6121","providerTheaterId":"","name":"West Orange 5","address":"1575 Maguire Road","city":"Ocoee","state":"FL","zip":"34761","distance":15.416005271373,"lon":"-81.542499","lat":"28.54866","theaterChainName":"Independent Chains","ticketType":"STANDARD"},{"id":"338","tribuneTheaterId":"8912","providerTheaterId":"582","name":"AMC West Oaks 14","address":"9415 W. Colonial Drive","city":"Ocoee","state":"FL","zip":"34761","distance":16.338541237847,"lon":"-81.515636","lat":"28.554202","theaterChainName":"AMC Theatres","ticketType":"STANDARD"},{"id":"5232","tribuneTheaterId":"10656","providerTheaterId":"","name":"Barnstorm Theater","address":"2720 Brownwood Blvd.","city":"The Villages","state":"FL","zip":"32163","distance":18.176849080516,"lon":"-81.9729","lat":"28.8498","theaterChainName":"Independent Chains","ticketType":"STANDARD"},{"id":"3510","tribuneTheaterId":"1968","providerTheaterId":"","name":"Picture Show at Altamonte","address":"130 E. Altamonte Dr.","city":"Altamonte Springs","state":"FL","zip":"32701","distance":20.484985974174,"lon":"-81.386249","lat":"28.659492","theaterChainName":"Picture Show Entertainment","ticketType":"STANDARD"},{"id":"3637","tribuneTheaterId":"4251","providerTheaterId":"283","name":"AMC Altamonte Mall 18","address":"433 E. Altamonte Dr.","city":"Altamonte Springs","state":"FL","zip":"32701","distance":20.879630707714,"lon":"-81.3789","lat":"28.6636","theaterChainName":"AMC Theatres","ticketType":"STANDARD"},{"id":"1054","tribuneTheaterId":"3076","providerTheaterId":"","name":"Rialto Villages Town Square","address":"1105 Alonzo Ave","city":"The Villages","state":"FL","zip":"32159","distance":21.290576304551,"lon":"-81.951364","lat":"28.940506","theaterChainName":"Independent Chains","ticketType":"STANDARD"},{"id":"3882","tribuneTheaterId":"7629","providerTheaterId":"","name":"Old Mill Playhouse","address":"1000 Old Mill Run","city":"The Villages","state":"FL","zip":"32162","distance":20.686864003926,"lon":"-81.975131","lat":"28.907471","theaterChainName":"Independent Chains","ticketType":"STANDARD"},{"id":"761","tribuneTheaterId":"6315","providerTheaterId":"","name":"Enzian Theater","address":"1300 S. Orlando Ave.","city":"Maitland","state":"FL","zip":"32751","distance":22.455291643521,"lon":"-81.364383","lat":"28.616443","theaterChainName":"Independent Chains","ticketType":"STANDARD"},{"id":"2503","tribuneTheaterId":"8617","providerTheaterId":"2250","name":"AMC Loews Universal 20","address":"6000 Universal Blvd.","city":"Orlando","state":"FL","zip":"32819","distance":22.40353649745,"lon":"-81.465077","lat":"28.473785","theaterChainName":"AMC Theatres","ticketType":"STANDARD"},{"id":"2898","tribuneTheaterId":"5220","providerTheaterId":"","name":"Cinemark Artegon Marketplace and XD","address":"5150 International Drive","city":"Orlando","state":"FL","zip":"32819","distance":23.381176859776,"lon":"-81.446374","lat":"28.470055","theaterChainName":"Cinemark","ticketType":"STANDARD"},{"id":"4339","tribuneTheaterId":"9322","providerTheaterId":"","name":"Regal Pointe Orlando Stadium 20 & IMAX","address":"9101 International Dr","city":"Orlando","state":"FL","zip":"32819","distance":24.387525829996,"lon":"-81.469556","lat":"28.432393","theaterChainName":"Regal Cinemas","ticketType":"STANDARD"},{"id":"4762","tribuneTheaterId":"9999","providerTheaterId":"","name":"Cobb Plaza Cinema Cafe","address":"155 South Orange Ave","city":"Orlando","state":"FL","zip":"32801","distance":23.70802493841,"lon":"-81.378631","lat":"28.540829","theaterChainName":"Cobb Theatres","ticketType":"STANDARD"},{"id":"219","tribuneTheaterId":"7905","providerTheaterId":"","name":"United Artists Seminole Towne Center 10","address":"430 Towne Center Circle","city":"Sanford","state":"FL","zip":"32771","distance":23.707018745911,"lon":"-81.34192","lat":"28.799095","theaterChainName":"United Artists","ticketType":"STANDARD"},{"id":"2759","tribuneTheaterId":"8503","providerTheaterId":"","name":"Regal Winter Park Village Stadium 20","address":"510 N. Orlando Ave.","city":"Winter Park","state":"FL","zip":"32789","distance":22.89516800072,"lon":"-81.362075","lat":"28.601895","theaterChainName":"Regal Cinemas","ticketType":"STANDARD"},{"id":"3665","tribuneTheaterId":"7035","providerTheaterId":"","name":"AmStar 12 Lake Mary","address":"950 Colonial Grand Lane","city":"Lake Mary","state":"FL","zip":"32746","distance":22.710000811958,"lon":"-81.356184","lat":"28.789872","theaterChainName":"Southern Theatres","ticketType":"STANDARD"}]