[{"id":"265","name":"AMC Lake Square 12","address":"10401-015 US Hwy 441 South","city":"Leesburg","state":"FL","zip":"34788","distance":"14.167594909667969","lon":"-81.784676","lat":"28.825378","theaterChainName":"AMC Theatres","ticketType":"STANDARD"},{"id":"3882","name":"Old Mill Playhouse","address":"1000 Old Mill Run","city":"The Villages","state":"FL","zip":"32162","distance":"24.451982498168945","lon":"-81.975128","lat":"28.907471","theaterChainName":"Independent Chains","ticketType":"STANDARD"},{"id":"5232","name":"Barnstorm Theater","address":"2720 Brownwood Blvd.","city":"The Villages","state":"FL","zip":"32163","distance":"21.327449798583984","lon":"-81.972900","lat":"28.849800","theaterChainName":"Independent Chains","ticketType":"STANDARD"},{"id":"4748","name":"Epic Theatres of Clermont","address":"2405 S. Hwy 27","city":"Clermont","state":"FL","zip":"34711","distance":"6.1635332107543945","lon":"-81.732185","lat":"28.536711","theaterChainName":"Epic Theatres","ticketType":"STANDARD"},{"id":"91","name":"United Artists Wekiva Riverwalk 8","address":"2141 N. Semoran Blvd.","city":"Apopka","state":"FL","zip":"32703","distance":"16.061954498291016","lon":"-81.471504","lat":"28.674238","theaterChainName":"United Artists","ticketType":"STANDARD"},{"id":"845","name":"West Orange 5","address":"1575 Maguire Road","city":"Ocoee","state":"FL","zip":"34761","distance":"12.599173545837402","lon":"-81.542496","lat":"28.548660","theaterChainName":"Independent Chains","ticketType":"STANDARD"},{"id":"3510","name":"Picture Show at Altamonte","address":"130 E. Altamonte Dr.","city":"Altamonte Springs","state":"FL","zip":"32701","distance":"21.010780334472656","lon":"-81.386246","lat":"28.659492","theaterChainName":"Picture Show Entertainment","ticketType":"STANDARD"},{"id":"3637","name":"AMC Altamonte Mall 18","address":"433 E. Altamonte Dr.","city":"Altamonte Springs","state":"FL","zip":"32701","distance":"21.485803604125977","lon":"-81.378899","lat":"28.663601","theaterChainName":"AMC Theatres","ticketType":"STANDARD"},{"id":"761","name":"Enzian Theater","address":"1300 S. Orlando Ave.","city":"Maitland","state":"FL","zip":"32751","distance":"22.222322463989258","lon":"-81.364380","lat":"28.616444","theaterChainName":"Independent Chains","ticketType":"STANDARD"},{"id":"2759","name":"Regal Winter Park Village Stadium 20","address":"510 N. Orlando Ave.","city":"Winter Park","state":"FL","zip":"32789","distance":"22.41547203063965","lon":"-81.362076","lat":"28.601894","theaterChainName":"Regal Cinemas","ticketType":"STANDARD"},{"id":"778","name":"Aloma Cinema Grill","address":"2155 Aloma Ave.","city":"Winter Park","state":"FL","zip":"32792","distance":"24.75261878967285","lon":"-81.323425","lat":"28.602215","theaterChainName":"Independent Chains","ticketType":"STANDARD"},{"id":"750","name":"Premiere Cinema at Fashion Square Mall","address":"3201 E. Colonial Drive","city":"Orlando","state":"FL","zip":"32803","distance":"24.123838424682617","lon":"-81.340706","lat":"28.557425","theaterChainName":"Premiere Cinemas","ticketType":"STANDARD"},{"id":"4762","name":"Cobb Plaza Cinema Cafe","address":"155 South Orange Ave","city":"Orlando","state":"FL","zip":"32801","distance":"22.150192260742188","lon":"-81.378632","lat":"28.540829","theaterChainName":"Cobb Theatres","ticketType":"STANDARD"},{"id":"338","name":"AMC West Oaks 14","address":"9415 W. Colonial Drive","city":"Ocoee","state":"FL","zip":"34761","distance":"13.951706886291504","lon":"-81.515633","lat":"28.554201","theaterChainName":"AMC Theatres","ticketType":"STANDARD"},{"id":"2898","name":"Cinemark Artegon Marketplace and XD","address":"5150 International Drive","city":"Orlando","state":"FL","zip":"32819","distance":"20.3365535736084","lon":"-81.446373","lat":"28.470055","theaterChainName":"Cinemark","ticketType":"STANDARD"},{"id":"2503","name":"AMC Loews Universal 20","address":"6000 Universal Blvd.","city":"Orlando","state":"FL","zip":"32819","distance":"19.240400314331055","lon":"-81.465080","lat":"28.473785","theaterChainName":"AMC Theatres","ticketType":"STANDARD"},{"id":"4339","name":"Regal Pointe Orlando Stadium 20 & IMAX","address":"9101 International Dr","city":"Orlando","state":"FL","zip":"32819","distance":"20.73427391052246","lon":"-81.469559","lat":"28.432392","theaterChainName":"Regal Cinemas","ticketType":"STANDARD"},{"id":"133","name":"AMC Disney Springs 24","address":"1500 Buena Vista Dr.","city":"Lake Buena Vista","state":"FL","zip":"32830","distance":"21.79606819152832","lon":"-81.520844","lat":"28.369930","theaterChainName":"AMC Theatres","ticketType":"STANDARD"}]