[{"id":"4748","tribuneTheaterId":"9977","providerTheaterId":"","name":"Epic Theatres of Clermont","address":"2405 S. Hwy 27","city":"Clermont","state":"FL","zip":"34711","distance":8.8467480790585,"lon":"-81.732183","lat":"28.53671","theaterChainName":"Epic Theatres","ticketType":"STANDARD"},{"id":"265","tribuneTheaterId":"8985","providerTheaterId":"296","name":"AMC Lake Square 12","address":"10401-015 US Hwy 441 South","city":"Leesburg","state":"FL","zip":"34788","distance":18.835841823298,"lon":"-81.784673","lat":"28.825379","theaterChainName":"AMC Theatres","ticketType":"STANDARD"},{"id":"845","tribuneTheaterId":"6121","providerTheaterId":"","name":"West Orange 5","address":"1575 Maguire Road","city":"Ocoee","state":"FL","zip":"34761","distance":20.177739006324,"lon":"-81.542499","lat":"28.54866","theaterChainName":"Independent Chains","ticketType":"STANDARD"},{"id":"5232","tribuneTheaterId":"10656","providerTheaterId":"","name":"Barnstorm Theater","address":"2720 Brownwood Blvd.","city":"The Villages","state":"FL","zip":"32163","distance":20.601131905144,"lon":"-81.9729","lat":"28.8498","theaterChainName":"Independent Chains","ticketType":"STANDARD"},{"id":"338","tribuneTheaterId":"8912","providerTheaterId":"582","name":"AMC West Oaks 14","address":"9415 W. Colonial Drive","city":"Ocoee","state":"FL","zip":"34761","distance":21.789487825314,"lon":"-81.515636","lat":"28.554202","theaterChainName":"AMC Theatres","ticketType":"STANDARD"},{"id":"3882","tribuneTheaterId":"7629","providerTheaterId":"","name":"Old Mill Playhouse","address":"1000 Old Mill Run","city":"The Villages","state":"FL","zip":"32162","distance":24.475376792377,"lon":"-81.975131","lat":"28.907471","theaterChainName":"Independent Chains","ticketType":"STANDARD"}]