[{"id":"2960","name":"Regal Waterford Lakes Stadium 20 & IMAX","address":"541 N. Alafaya Trail","city":"Orlando","state":"FL","zip":"32828","distance":"21.464519500732422","lon":"-81.205803","lat":"28.553900","theaterChainName":"Regal Cinemas","ticketType":"STANDARD"},{"id":"4748","name":"Epic Theatres of Clermont","address":"2405 S. Hwy 27","city":"Clermont","state":"FL","zip":"34711","distance":"24.991212844848633","lon":"-81.732185","lat":"28.536711","theaterChainName":"Epic Theatres","ticketType":"STANDARD"},{"id":"845","name":"West Orange 5","address":"1575 Maguire Road","city":"Ocoee","state":"FL","zip":"34761","distance":"18.509166717529297","lon":"-81.542496","lat":"28.548660","theaterChainName":"Independent Chains","ticketType":"STANDARD"},{"id":"3510","name":"Picture Show at Altamonte","address":"130 E. Altamonte Dr.","city":"Altamonte Springs","state":"FL","zip":"32701","distance":"24.584932327270508","lon":"-81.386246","lat":"28.659492","theaterChainName":"Picture Show Entertainment","ticketType":"STANDARD"},{"id":"3637","name":"AMC Altamonte Mall 18","address":"433 E. Altamonte Dr.","city":"Altamonte Springs","state":"FL","zip":"32701","distance":"24.905181884765625","lon":"-81.378899","lat":"28.663601","theaterChainName":"AMC Theatres","ticketType":"STANDARD"},{"id":"761","name":"Enzian Theater","address":"1300 S. Orlando Ave.","city":"Maitland","state":"FL","zip":"32751","distance":"21.77390480041504","lon":"-81.364380","lat":"28.616444","theaterChainName":"Independent Chains","ticketType":"STANDARD"},{"id":"2759","name":"Regal Winter Park Village Stadium 20","address":"510 N. Orlando Ave.","city":"Winter Park","state":"FL","zip":"32789","distance":"20.801776885986328","lon":"-81.362076","lat":"28.601894","theaterChainName":"Regal Cinemas","ticketType":"STANDARD"},{"id":"778","name":"Aloma Cinema Grill","address":"2155 Aloma Ave.","city":"Winter Park","state":"FL","zip":"32792","distance":"21.324201583862305","lon":"-81.323425","lat":"28.602215","theaterChainName":"Independent Chains","ticketType":"STANDARD"},{"id":"750","name":"Premiere Cinema at Fashion Square Mall","address":"3201 E. Colonial Drive","city":"Orlando","state":"FL","zip":"32803","distance":"18.062850952148438","lon":"-81.340706","lat":"28.557425","theaterChainName":"Premiere Cinemas","ticketType":"STANDARD"},{"id":"4762","name":"Cobb Plaza Cinema Cafe","address":"155 South Orange Ave","city":"Orlando","state":"FL","zip":"32801","distance":"16.479068756103516","lon":"-81.378632","lat":"28.540829","theaterChainName":"Cobb Theatres","ticketType":"STANDARD"},{"id":"338","name":"AMC West Oaks 14","address":"9415 W. Colonial Drive","city":"Ocoee","state":"FL","zip":"34761","distance":"18.25789451599121","lon":"-81.515633","lat":"28.554201","theaterChainName":"AMC Theatres","ticketType":"STANDARD"},{"id":"2898","name":"Cinemark Artegon Marketplace and XD","address":"5150 International Drive","city":"Orlando","state":"FL","zip":"32819","distance":"11.567032814025879","lon":"-81.446373","lat":"28.470055","theaterChainName":"Cinemark","ticketType":"STANDARD"},{"id":"2503","name":"AMC Loews Universal 20","address":"6000 Universal Blvd.","city":"Orlando","state":"FL","zip":"32819","distance":"12.047760009765625","lon":"-81.465080","lat":"28.473785","theaterChainName":"AMC Theatres","ticketType":"STANDARD"},{"id":"5887","name":"Epic Theatres at Lee Vista","address":"5901 Hazeltine National Dr","city":"Orlando","state":"FL","zip":"32822","distance":"12.938992500305176","lon":"-81.306122","lat":"28.464703","theaterChainName":"Epic Theatres","ticketType":"STANDARD"},{"id":"4339","name":"Regal Pointe Orlando Stadium 20 & IMAX","address":"9101 International Dr","city":"Orlando","state":"FL","zip":"32819","distance":"9.390190124511719","lon":"-81.469559","lat":"28.432392","theaterChainName":"Regal Cinemas","ticketType":"STANDARD"},{"id":"3452","name":"Touchstar Cinemas Southchase 7","address":"12441 S. Orange Blossom Trail","city":"Orlando","state":"FL","zip":"32837","distance":"5.530826091766357","lon":"-81.402267","lat":"28.383730","theaterChainName":"Touchstar Cinemas","ticketType":"STANDARD"},{"id":"4162","name":"Regal Cinemas The Loop Stadium 16 & RPX","address":"3220 N. John Young Parkway","city":"Kissimmee","state":"FL","zip":"34741","distance":"2.698270082473755","lon":"-81.421722","lat":"28.343500","theaterChainName":"Regal Cinemas","ticketType":"STANDARD"},{"id":"133","name":"AMC Disney Springs 24","address":"1500 Buena Vista Dr.","city":"Lake Buena Vista","state":"FL","zip":"32830","distance":"7.773636341094971","lon":"-81.520844","lat":"28.369930","theaterChainName":"AMC Theatres","ticketType":"STANDARD"},{"id":"1052","name":"St. Cloud Twin","address":"1110 10th St.","city":"Saint Cloud","state":"FL","zip":"34769","distance":"9.05819034576416","lon":"-81.281960","lat":"28.248985","theaterChainName":"Independent Chains","ticketType":"STANDARD"},{"id":"5703","name":"Cinepolis Polk County IMAX","address":"5500 Grandview Parkway","city":"Davenport","state":"FL","zip":"33837","distance":"14.493098258972168","lon":"-81.640999","lat":"28.234200","theaterChainName":"Cinepolis Luxury Cinemas","ticketType":"STANDARD"}]