[{"id":"5703","tribuneTheaterId":"11140","providerTheaterId":"","name":"Cinepolis Polk County IMAX","address":"5500 Grandview Parkway","city":"Davenport","state":"FL","zip":"33837","distance":9.6967552410911,"lon":"-81.641","lat":"28.2342","theaterChainName":"Cinepolis Luxury Cinemas","ticketType":"STANDARD"},{"id":"4162","tribuneTheaterId":"4635","providerTheaterId":"","name":"Regal Cinemas The Loop Stadium 16 & RPX","address":"3220 N. John Young Parkway","city":"Kissimmee","state":"FL","zip":"34741","distance":10.78377608985,"lon":"-81.421719","lat":"28.3435","theaterChainName":"Regal Cinemas","ticketType":"STANDARD"},{"id":"133","tribuneTheaterId":"8107","providerTheaterId":"572","name":"AMC Disney Springs 24","address":"1500 Buena Vista Dr.","city":"Lake Buena Vista","state":"FL","zip":"32830","distance":12.02921592501,"lon":"-81.520845","lat":"28.369931","theaterChainName":"AMC Theatres","ticketType":"STANDARD"},{"id":"1052","tribuneTheaterId":"2677","providerTheaterId":"","name":"St. Cloud Twin","address":"1110 10th St.","city":"Saint Cloud","state":"FL","zip":"34769","distance":12.962769640989,"lon":"-81.281958","lat":"28.248986","theaterChainName":"Independent Chains","ticketType":"STANDARD"},{"id":"3452","tribuneTheaterId":"6739","providerTheaterId":"","name":"Touchstar Cinemas Southchase 7","address":"12441 S. Orange Blossom Trail","city":"Orlando","state":"FL","zip":"32837","distance":13.803817040976,"lon":"-81.402267","lat":"28.38373","theaterChainName":"Touchstar Cinemas","ticketType":"STANDARD"},{"id":"4339","tribuneTheaterId":"9322","providerTheaterId":"","name":"Regal Pointe Orlando Stadium 20 & IMAX","address":"9101 International Dr","city":"Orlando","state":"FL","zip":"32819","distance":16.202129858976,"lon":"-81.469556","lat":"28.432393","theaterChainName":"Regal Cinemas","ticketType":"STANDARD"},{"id":"594","tribuneTheaterId":"8407","providerTheaterId":"","name":"Regal Eagle Ridge Mall 12","address":"955 Eagle Ridge Dr","city":"Lake Wales","state":"FL","zip":"33853","distance":18.565048154449,"lon":"-81.614106","lat":"27.954228","theaterChainName":"Regal Cinemas","ticketType":"STANDARD"},{"id":"606","tribuneTheaterId":"3135","providerTheaterId":"","name":"Cobb Grand 10","address":"920 Springlake Square NW","city":"Winter Haven","state":"FL","zip":"33881","distance":18.583900336328,"lon":"-81.736543","lat":"28.043783","theaterChainName":"Cobb Theatres","ticketType":"STANDARD"},{"id":"2898","tribuneTheaterId":"5220","providerTheaterId":"","name":"Cinemark Artegon Marketplace and XD","address":"5150 International Drive","city":"Orlando","state":"FL","zip":"32819","distance":18.931454445923,"lon":"-81.446374","lat":"28.470055","theaterChainName":"Cinemark","ticketType":"STANDARD"},{"id":"2503","tribuneTheaterId":"8617","providerTheaterId":"2250","name":"AMC Loews Universal 20","address":"6000 Universal Blvd.","city":"Orlando","state":"FL","zip":"32819","distance":19.073911532572,"lon":"-81.465077","lat":"28.473785","theaterChainName":"AMC Theatres","ticketType":"STANDARD"},{"id":"5887","tribuneTheaterId":"11306","providerTheaterId":"","name":"Epic Theatres at Lee Vista","address":"5901 Hazeltine National Dr","city":"Orlando","state":"FL","zip":"32822","distance":21.437246012315,"lon":"-81.306124","lat":"28.464702","theaterChainName":"Epic Theatres","ticketType":"STANDARD"},{"id":"4762","tribuneTheaterId":"9999","providerTheaterId":"","name":"Cobb Plaza Cinema Cafe","address":"155 South Orange Ave","city":"Orlando","state":"FL","zip":"32801","distance":24.559724072985,"lon":"-81.378631","lat":"28.540829","theaterChainName":"Cobb Theatres","ticketType":"STANDARD"},{"id":"338","tribuneTheaterId":"8912","providerTheaterId":"582","name":"AMC West Oaks 14","address":"9415 W. Colonial Drive","city":"Ocoee","state":"FL","zip":"34761","distance":24.645093921791,"lon":"-81.515636","lat":"28.554202","theaterChainName":"AMC Theatres","ticketType":"STANDARD"},{"id":"845","tribuneTheaterId":"6121","providerTheaterId":"","name":"West Orange 5","address":"1575 Maguire Road","city":"Ocoee","state":"FL","zip":"34761","distance":24.434678150361,"lon":"-81.542499","lat":"28.54866","theaterChainName":"Independent Chains","ticketType":"STANDARD"}]