[{"id":"1052","tribuneTheaterId":"2677","providerTheaterId":"","name":"St. Cloud Twin","address":"1110 10th St.","city":"Saint Cloud","state":"FL","zip":"34769","distance":18.098648930809,"lon":"-81.281958","lat":"28.248986","theaterChainName":"Independent Chains","ticketType":"STANDARD"},{"id":"4107","tribuneTheaterId":"2385","providerTheaterId":"","name":"Carmike Avenue 16","address":"2241 Town Centre Ave.","city":"Melbourne","state":"FL","zip":"32940","distance":19.276284930343,"lon":"-80.728203","lat":"28.2423","theaterChainName":"Carmike Cinemas","ticketType":"STANDARD"},{"id":"3535","tribuneTheaterId":"3233","providerTheaterId":"","name":"Cinema World 16","address":"4345 W. New Haven Ave.","city":"Melbourne","state":"FL","zip":"32904","distance":19.79719382405,"lon":"-80.698301","lat":"28.076675","theaterChainName":"Cinemaworld","ticketType":"STANDARD"},{"id":"615","tribuneTheaterId":"7184","providerTheaterId":"","name":"Premiere Theaters Oaks 10","address":"1800 W. Hibiscus Blvd.","city":"Melbourne","state":"FL","zip":"32901","distance":22.465874930502,"lon":"-80.652231","lat":"28.086162","theaterChainName":"Independent Chains","ticketType":"STANDARD"},{"id":"5542","tribuneTheaterId":"10979","providerTheaterId":"","name":"West Melbourne 12","address":"4255 Norfolk Parkway","city":"West Melbourne","state":"FL","zip":"32904","distance":22.438454067803,"lon":"-80.663159","lat":"28.04165","theaterChainName":"Carmike Cinemas","ticketType":"STANDARD"}]