[{"id":"265","name":"AMC Lake Square 12","address":"10401-015 US Hwy 441 South","city":"Leesburg","state":"FL","zip":"34788","distance":"6.13704252243042","lon":"-81.784676","lat":"28.825378","theaterChainName":"AMC Theatres","ticketType":"STANDARD"},{"id":"1054","name":"Rialto Villages Town Square","address":"1105 Alonzo Ave","city":"The Villages","state":"FL","zip":"32159","distance":"15.521307945251465","lon":"-81.951363","lat":"28.940506","theaterChainName":"Independent Chains","ticketType":"STANDARD"},{"id":"3882","name":"Old Mill Playhouse","address":"1000 Old Mill Run","city":"The Villages","state":"FL","zip":"32162","distance":"14.426732063293457","lon":"-81.975128","lat":"28.907471","theaterChainName":"Independent Chains","ticketType":"STANDARD"},{"id":"5232","name":"Barnstorm Theater","address":"2720 Brownwood Blvd.","city":"The Villages","state":"FL","zip":"32163","distance":"11.482154846191406","lon":"-81.972900","lat":"28.849800","theaterChainName":"Independent Chains","ticketType":"STANDARD"},{"id":"4748","name":"Epic Theatres of Clermont","address":"2405 S. Hwy 27","city":"Clermont","state":"FL","zip":"34711","distance":"15.444148063659668","lon":"-81.732185","lat":"28.536711","theaterChainName":"Epic Theatres","ticketType":"STANDARD"},{"id":"91","name":"United Artists Wekiva Riverwalk 8","address":"2141 N. Semoran Blvd.","city":"Apopka","state":"FL","zip":"32703","distance":"22.04163932800293","lon":"-81.471504","lat":"28.674238","theaterChainName":"United Artists","ticketType":"STANDARD"},{"id":"845","name":"West Orange 5","address":"1575 Maguire Road","city":"Ocoee","state":"FL","zip":"34761","distance":"21.888553619384766","lon":"-81.542496","lat":"28.548660","theaterChainName":"Independent Chains","ticketType":"STANDARD"},{"id":"338","name":"AMC West Oaks 14","address":"9415 W. Colonial Drive","city":"Ocoee","state":"FL","zip":"34761","distance":"22.969593048095703","lon":"-81.515633","lat":"28.554201","theaterChainName":"AMC Theatres","ticketType":"STANDARD"}]