[{"id":"339","name":"AMC Indian River 24","address":"6200 20th Street Room 600","city":"Vero Beach","state":"FL","zip":"32966","distance":"7.917929649353027","lon":"-80.459564","lat":"27.643068","theaterChainName":"AMC Theatres","ticketType":"STANDARD"},{"id":"3539","name":"Majestic 11 by Cinemaworld","address":"940 14th Lane","city":"Vero Beach","state":"FL","zip":"32960","distance":"6.290094375610352","lon":"-80.392502","lat":"27.629435","theaterChainName":"Cinemaworld","ticketType":"STANDARD"},{"id":"3469","name":"Nova Cinemas at Sabal Palm","address":"2539 South Federal Hwy.","city":"Fort Pierce","state":"FL","zip":"34982","distance":"9.345452308654785","lon":"-80.327614","lat":"27.422674","theaterChainName":"Nova Cinemas","ticketType":"STANDARD"},{"id":"3221","name":"Carmike St. Lucie West 14","address":"1900 N.W. Courtyard","city":"Port Saint Lucie","state":"FL","zip":"34986","distance":"15.61152458190918","lon":"-80.409599","lat":"27.313200","theaterChainName":"Carmike Cinemas","ticketType":"STANDARD"},{"id":"3134","name":"Regal Treasure Coast Mall Stadium 16","address":"3290 NW Federal Highway","city":"Jensen Beach","state":"FL","zip":"34957","distance":"22.11724281311035","lon":"-80.275467","lat":"27.240458","theaterChainName":"Regal Cinemas","ticketType":"STANDARD"}]