[{"id":"339","name":"AMC Indian River 24","address":"6200 20th Street Room 600","city":"Vero Beach","state":"FL","zip":"32966","distance":"19.293720245361328","lon":"-80.459564","lat":"27.643068","theaterChainName":"AMC Theatres","ticketType":"STANDARD"},{"id":"3539","name":"Majestic 11 by Cinemaworld","address":"940 14th Lane","city":"Vero Beach","state":"FL","zip":"32960","distance":"17.006031036376953","lon":"-80.392502","lat":"27.629435","theaterChainName":"Cinemaworld","ticketType":"STANDARD"},{"id":"3469","name":"Nova Cinemas at Sabal Palm","address":"2539 South Federal Hwy.","city":"Fort Pierce","state":"FL","zip":"34982","distance":"2.2101407051086426","lon":"-80.327614","lat":"27.422674","theaterChainName":"Nova Cinemas","ticketType":"STANDARD"},{"id":"3221","name":"Carmike St. Lucie West 14","address":"1900 N.W. Courtyard","city":"Port Saint Lucie","state":"FL","zip":"34986","distance":"7.480915069580078","lon":"-80.409599","lat":"27.313200","theaterChainName":"Carmike Cinemas","ticketType":"STANDARD"},{"id":"3134","name":"Regal Treasure Coast Mall Stadium 16","address":"3290 NW Federal Highway","city":"Jensen Beach","state":"FL","zip":"34957","distance":"10.81740665435791","lon":"-80.275467","lat":"27.240458","theaterChainName":"Regal Cinemas","ticketType":"STANDARD"},{"id":"627","name":"Regency 8 Cinema","address":"2448 SE Federal Highway","city":"Stuart","state":"FL","zip":"34994","distance":"15.924212455749512","lon":"-80.235100","lat":"27.174503","theaterChainName":"Independent Chains","ticketType":"STANDARD"}]