[{"id":"3469","name":"Nova Cinemas at Sabal Palm","address":"2539 South Federal Hwy.","city":"Fort Pierce","state":"FL","zip":"34982","distance":"14.477492332458496","lon":"-80.327614","lat":"27.422674","theaterChainName":"Nova Cinemas","ticketType":"STANDARD"},{"id":"3221","name":"Carmike St. Lucie West 14","address":"1900 N.W. Courtyard","city":"Port Saint Lucie","state":"FL","zip":"34986","distance":"5.512760162353516","lon":"-80.409599","lat":"27.313200","theaterChainName":"Carmike Cinemas","ticketType":"STANDARD"},{"id":"3134","name":"Regal Treasure Coast Mall Stadium 16","address":"3290 NW Federal Highway","city":"Jensen Beach","state":"FL","zip":"34957","distance":"12.463780403137207","lon":"-80.275467","lat":"27.240458","theaterChainName":"Regal Cinemas","ticketType":"STANDARD"},{"id":"627","name":"Regency 8 Cinema","address":"2448 SE Federal Highway","city":"Stuart","state":"FL","zip":"34994","distance":"16.01579475402832","lon":"-80.235100","lat":"27.174503","theaterChainName":"Independent Chains","ticketType":"STANDARD"},{"id":"3479","name":"Brahman Theaters 3","address":"1610 S. Parrott Ave.","city":"Okeechobee","state":"FL","zip":"34974","distance":"21.821611404418945","lon":"-80.830421","lat":"27.228060","theaterChainName":"Independent Chains","ticketType":"STANDARD"}]