[{"id":"627","tribuneTheaterId":"6530","providerTheaterId":"","name":"Regency 8 Cinema","address":"2448 SE Federal Highway","city":"Stuart","state":"FL","zip":"34994","distance":1.9221447319369,"lon":"-80.235096","lat":"27.174504","theaterChainName":"Independent Chains","ticketType":"STANDARD"},{"id":"3134","tribuneTheaterId":"5619","providerTheaterId":"","name":"Regal Treasure Coast Mall Stadium 16","address":"3290 NW Federal Highway","city":"Jensen Beach","state":"FL","zip":"34957","distance":3.297232149536,"lon":"-80.275469","lat":"27.240458","theaterChainName":"Regal Cinemas","ticketType":"STANDARD"},{"id":"3221","tribuneTheaterId":"4157","providerTheaterId":"","name":"Carmike St. Lucie West 14","address":"1900 N.W. Courtyard","city":"Port Saint Lucie","state":"FL","zip":"34986","distance":12.500290761314,"lon":"-80.409599","lat":"27.3132","theaterChainName":"Carmike Cinemas","ticketType":"STANDARD"},{"id":"3469","tribuneTheaterId":"3024","providerTheaterId":"","name":"Nova Cinemas at Sabal Palm","address":"2539 South Federal Hwy.","city":"Fort Pierce","state":"FL","zip":"34982","distance":16.250997868301,"lon":"-80.327611","lat":"27.422675","theaterChainName":"Nova Cinemas","ticketType":"STANDARD"}]