[{"id":"3469","name":"Nova Cinemas at Sabal Palm","address":"2539 South Federal Hwy.","city":"Fort Pierce","state":"FL","zip":"34982","distance":"18.01038360595703","lon":"-80.327614","lat":"27.422674","theaterChainName":"Nova Cinemas","ticketType":"STANDARD"},{"id":"3221","name":"Carmike St. Lucie West 14","address":"1900 N.W. Courtyard","city":"Port Saint Lucie","state":"FL","zip":"34986","distance":"13.362224578857422","lon":"-80.409599","lat":"27.313200","theaterChainName":"Carmike Cinemas","ticketType":"STANDARD"},{"id":"3134","name":"Regal Treasure Coast Mall Stadium 16","address":"3290 NW Federal Highway","city":"Jensen Beach","state":"FL","zip":"34957","distance":"5.052614212036133","lon":"-80.275467","lat":"27.240458","theaterChainName":"Regal Cinemas","ticketType":"STANDARD"},{"id":"627","name":"Regency 8 Cinema","address":"2448 SE Federal Highway","city":"Stuart","state":"FL","zip":"34994","distance":"1.9669322967529297","lon":"-80.235100","lat":"27.174503","theaterChainName":"Independent Chains","ticketType":"STANDARD"},{"id":"4125","name":"Cobb Downtown 16","address":"11701 Lake Victoria Gardens Ave.","city":"Palm Beach Gardens","state":"FL","zip":"33410","distance":"24.367002487182617","lon":"-80.094902","lat":"26.849888","theaterChainName":"Cobb Theatres","ticketType":"STANDARD"}]