[{"id":"2961","name":"Regal Trussville Stadium 16","address":"5895 Trussville Crossings Parkway","city":"Birmingham","state":"AL","zip":"35235","distance":"4.51878023147583","lon":"-86.628647","lat":"33.641800","theaterChainName":"Regal Cinemas","ticketType":"STANDARD"},{"id":"4957","name":"The Edge 12","address":"7001 Crestwood Blvd.","city":"Birmingham","state":"AL","zip":"35210","distance":"14.314155578613281","lon":"-86.734222","lat":"33.528343","theaterChainName":"Phoenix Theatres","ticketType":"STANDARD"},{"id":"1141","name":"Carmike Summit 16","address":"321 Summit Blvd.","city":"Birmingham","state":"AL","zip":"35243","distance":"18.881065368652344","lon":"-86.727928","lat":"33.451096","theaterChainName":"Carmike Cinemas","ticketType":"STANDARD"},{"id":"3867","name":"Carmike Lee Branch 15","address":"801 Doug Baker Blvd.","city":"Birmingham","state":"AL","zip":"35242","distance":"20.594205856323242","lon":"-86.670197","lat":"33.410400","theaterChainName":"Carmike Cinemas","ticketType":"STANDARD"},{"id":"3653","name":"Carmike Vestavia Hills 10","address":"1911 Kentucky Avenue","city":"Vestavia Hills","state":"AL","zip":"35216","distance":"20.915735244750977","lon":"-86.794899","lat":"33.447300","theaterChainName":"Carmike Cinemas","ticketType":"STANDARD"},{"id":"1138","name":"Carmike 10 Birmingham","address":"3443 Lorna Rd","city":"Birmingham","state":"AL","zip":"35216","distance":"24.22374153137207","lon":"-86.793823","lat":"33.391590","theaterChainName":"Carmike Cinemas","ticketType":"STANDARD"}]