[{"id":"2961","tribuneTheaterId":"8658","providerTheaterId":"","name":"Regal Trussville Stadium 16","address":"5895 Trussville Crossings Parkway","city":"Birmingham","state":"AL","zip":"35235","distance":14.070874477436,"lon":"-86.628644","lat":"33.6418","theaterChainName":"Regal Cinemas","ticketType":"STANDARD"},{"id":"2154","tribuneTheaterId":"6812","providerTheaterId":"","name":"Carmike Martin 3","address":"Northgate Shopping Center, Route 1","city":"Talladega","state":"AL","zip":"35160","distance":19.645466371649,"lon":"-86.108704","lat":"33.431599","theaterChainName":"Carmike Cinemas","ticketType":"STANDARD"},{"id":"3867","tribuneTheaterId":"2367","providerTheaterId":"","name":"Carmike Lee Branch 15","address":"801 Doug Baker Blvd.","city":"Birmingham","state":"AL","zip":"35242","distance":20.235912258998,"lon":"-86.670197","lat":"33.4104","theaterChainName":"Carmike Cinemas","ticketType":"STANDARD"},{"id":"4957","tribuneTheaterId":"10317","providerTheaterId":"","name":"The Edge 12","address":"7001 Crestwood Blvd.","city":"Birmingham","state":"AL","zip":"35210","distance":20.134985992607,"lon":"-86.73422","lat":"33.528343","theaterChainName":"Phoenix Theatres","ticketType":"STANDARD"},{"id":"1141","tribuneTheaterId":"7279","providerTheaterId":"","name":"Carmike Summit 16","address":"321 Summit Blvd.","city":"Birmingham","state":"AL","zip":"35243","distance":21.568870648566,"lon":"-86.72793","lat":"33.451095","theaterChainName":"Carmike Cinemas","ticketType":"STANDARD"}]