[{"id":"2961","name":"Regal Trussville Stadium 16","address":"5895 Trussville Crossings Parkway","city":"Birmingham","state":"AL","zip":"35235","distance":"12.846935272216797","lon":"-86.628647","lat":"33.641800","theaterChainName":"Regal Cinemas","ticketType":"STANDARD"},{"id":"4957","name":"The Edge 12","address":"7001 Crestwood Blvd.","city":"Birmingham","state":"AL","zip":"35210","distance":"21.304092407226562","lon":"-86.734222","lat":"33.528343","theaterChainName":"Phoenix Theatres","ticketType":"STANDARD"},{"id":"1141","name":"Carmike Summit 16","address":"321 Summit Blvd.","city":"Birmingham","state":"AL","zip":"35243","distance":"24.03844451904297","lon":"-86.727928","lat":"33.451096","theaterChainName":"Carmike Cinemas","ticketType":"STANDARD"},{"id":"3867","name":"Carmike Lee Branch 15","address":"801 Doug Baker Blvd.","city":"Birmingham","state":"AL","zip":"35242","distance":"23.708032608032227","lon":"-86.670197","lat":"33.410400","theaterChainName":"Carmike Cinemas","ticketType":"STANDARD"},{"id":"2154","name":"Carmike Martin 3","address":"Northgate Shopping Center, Route 1","city":"Talladega","state":"AL","zip":"35160","distance":"24.15086555480957","lon":"-86.108704","lat":"33.431599","theaterChainName":"Carmike Cinemas","ticketType":"STANDARD"}]