[{"id":"4957","tribuneTheaterId":"10317","providerTheaterId":"","name":"The Edge 12","address":"7001 Crestwood Blvd.","city":"Birmingham","state":"AL","zip":"35210","distance":18.783130885484,"lon":"-86.73422","lat":"33.528343","theaterChainName":"Phoenix Theatres","ticketType":"STANDARD"},{"id":"2961","tribuneTheaterId":"8658","providerTheaterId":"","name":"Regal Trussville Stadium 16","address":"5895 Trussville Crossings Parkway","city":"Birmingham","state":"AL","zip":"35235","distance":20.532683694347,"lon":"-86.628644","lat":"33.6418","theaterChainName":"Regal Cinemas","ticketType":"STANDARD"},{"id":"3653","tribuneTheaterId":"2242","providerTheaterId":"","name":"Carmike Vestavia Hills 10","address":"1911 Kentucky Avenue","city":"Vestavia Hills","state":"AL","zip":"35216","distance":20.994560670363,"lon":"-86.794899","lat":"33.4473","theaterChainName":"Carmike Cinemas","ticketType":"STANDARD"},{"id":"1141","tribuneTheaterId":"7279","providerTheaterId":"","name":"Carmike Summit 16","address":"321 Summit Blvd.","city":"Birmingham","state":"AL","zip":"35243","distance":22.944768036089,"lon":"-86.72793","lat":"33.451095","theaterChainName":"Carmike Cinemas","ticketType":"STANDARD"},{"id":"1138","tribuneTheaterId":"4687","providerTheaterId":"","name":"Carmike 10 Birmingham","address":"3443 Lorna Rd","city":"Birmingham","state":"AL","zip":"35216","distance":24.439006310283,"lon":"-86.793827","lat":"33.39159","theaterChainName":"Carmike Cinemas","ticketType":"STANDARD"}]