[{"id":"2961","name":"Regal Trussville Stadium 16","address":"5895 Trussville Crossings Parkway","city":"Birmingham","state":"AL","zip":"35235","distance":"20.53375244140625","lon":"-86.628647","lat":"33.641800","theaterChainName":"Regal Cinemas","ticketType":"STANDARD"},{"id":"4957","name":"The Edge 12","address":"7001 Crestwood Blvd.","city":"Birmingham","state":"AL","zip":"35210","distance":"18.78420066833496","lon":"-86.734222","lat":"33.528343","theaterChainName":"Phoenix Theatres","ticketType":"STANDARD"},{"id":"1141","name":"Carmike Summit 16","address":"321 Summit Blvd.","city":"Birmingham","state":"AL","zip":"35243","distance":"22.94626235961914","lon":"-86.727928","lat":"33.451096","theaterChainName":"Carmike Cinemas","ticketType":"STANDARD"},{"id":"3653","name":"Carmike Vestavia Hills 10","address":"1911 Kentucky Avenue","city":"Vestavia Hills","state":"AL","zip":"35216","distance":"20.995920181274414","lon":"-86.794899","lat":"33.447300","theaterChainName":"Carmike Cinemas","ticketType":"STANDARD"},{"id":"1138","name":"Carmike 10 Birmingham","address":"3443 Lorna Rd","city":"Birmingham","state":"AL","zip":"35216","distance":"24.440671920776367","lon":"-86.793823","lat":"33.391590","theaterChainName":"Carmike Cinemas","ticketType":"STANDARD"}]