[{"id":"2961","name":"Regal Trussville Stadium 16","address":"5895 Trussville Crossings Parkway","city":"Birmingham","state":"AL","zip":"35235","distance":"21.242380142211914","lon":"-86.628647","lat":"33.641800","theaterChainName":"Regal Cinemas","ticketType":"STANDARD"},{"id":"4957","name":"The Edge 12","address":"7001 Crestwood Blvd.","city":"Birmingham","state":"AL","zip":"35210","distance":"21.211355209350586","lon":"-86.734222","lat":"33.528343","theaterChainName":"Phoenix Theatres","ticketType":"STANDARD"},{"id":"1141","name":"Carmike Summit 16","address":"321 Summit Blvd.","city":"Birmingham","state":"AL","zip":"35243","distance":"19.259449005126953","lon":"-86.727928","lat":"33.451096","theaterChainName":"Carmike Cinemas","ticketType":"STANDARD"},{"id":"3867","name":"Carmike Lee Branch 15","address":"801 Doug Baker Blvd.","city":"Birmingham","state":"AL","zip":"35242","distance":"15.633697509765625","lon":"-86.670197","lat":"33.410400","theaterChainName":"Carmike Cinemas","ticketType":"STANDARD"},{"id":"3653","name":"Carmike Vestavia Hills 10","address":"1911 Kentucky Avenue","city":"Vestavia Hills","state":"AL","zip":"35216","distance":"23.031719207763672","lon":"-86.794899","lat":"33.447300","theaterChainName":"Carmike Cinemas","ticketType":"STANDARD"},{"id":"1138","name":"Carmike 10 Birmingham","address":"3443 Lorna Rd","city":"Birmingham","state":"AL","zip":"35216","distance":"22.763002395629883","lon":"-86.793823","lat":"33.391590","theaterChainName":"Carmike Cinemas","ticketType":"STANDARD"},{"id":"3868","name":"Carmike Patton Creek 15 + Imax","address":"4450 Creekside Avenue","city":"Hoover","state":"AL","zip":"35244","distance":"24.09308433532715","lon":"-86.815598","lat":"33.372501","theaterChainName":"Carmike Cinemas","ticketType":"STANDARD"},{"id":"2154","name":"Carmike Martin 3","address":"Northgate Shopping Center, Route 1","city":"Talladega","state":"AL","zip":"35160","distance":"16.89866065979004","lon":"-86.108704","lat":"33.431599","theaterChainName":"Carmike Cinemas","ticketType":"STANDARD"}]