[{"id":"4571","tribuneTheaterId":"9715","providerTheaterId":"","name":"Tannehill Premiere Cinema 14","address":"4801 Promenade Pkwy","city":"Bessemer","state":"AL","zip":"35022","distance":15.924852805518,"lon":"-86.984875","lat":"33.334636","theaterChainName":"Premiere Cinemas","ticketType":"STANDARD"},{"id":"4195","tribuneTheaterId":"3218","providerTheaterId":"","name":"AmStar Stadium 14 Alabaster","address":"820 Colonial Promenade Parkway","city":"Alabaster","state":"AL","zip":"35007","distance":20.559547714701,"lon":"-86.800168","lat":"33.237971","theaterChainName":"Southern Theatres","ticketType":"STANDARD"},{"id":"3917","tribuneTheaterId":"6753","providerTheaterId":"","name":"Cobb Hollywood 16","address":"4250 Old Greensboro Road","city":"Tuscaloosa","state":"AL","zip":"35405","distance":23.829283118827,"lon":"-87.547711","lat":"33.168091","theaterChainName":"Cobb Theatres","ticketType":"STANDARD"},{"id":"3868","tribuneTheaterId":"2368","providerTheaterId":"","name":"Carmike Patton Creek 15 + Imax","address":"4450 Creekside Avenue","city":"Hoover","state":"AL","zip":"35244","distance":24.441241167528,"lon":"-86.815598","lat":"33.372501","theaterChainName":"Carmike Cinemas","ticketType":"STANDARD"}]