[{"id":"2961","name":"Regal Trussville Stadium 16","address":"5895 Trussville Crossings Parkway","city":"Birmingham","state":"AL","zip":"35235","distance":"17.275644302368164","lon":"-86.628647","lat":"33.641800","theaterChainName":"Regal Cinemas","ticketType":"STANDARD"},{"id":"4957","name":"The Edge 12","address":"7001 Crestwood Blvd.","city":"Birmingham","state":"AL","zip":"35210","distance":"7.881420135498047","lon":"-86.734222","lat":"33.528343","theaterChainName":"Phoenix Theatres","ticketType":"STANDARD"},{"id":"1141","name":"Carmike Summit 16","address":"321 Summit Blvd.","city":"Birmingham","state":"AL","zip":"35243","distance":"7.843832492828369","lon":"-86.727928","lat":"33.451096","theaterChainName":"Carmike Cinemas","ticketType":"STANDARD"},{"id":"3867","name":"Carmike Lee Branch 15","address":"801 Doug Baker Blvd.","city":"Birmingham","state":"AL","zip":"35242","distance":"11.945762634277344","lon":"-86.670197","lat":"33.410400","theaterChainName":"Carmike Cinemas","ticketType":"STANDARD"},{"id":"3653","name":"Carmike Vestavia Hills 10","address":"1911 Kentucky Avenue","city":"Vestavia Hills","state":"AL","zip":"35216","distance":"4.389885902404785","lon":"-86.794899","lat":"33.447300","theaterChainName":"Carmike Cinemas","ticketType":"STANDARD"},{"id":"1138","name":"Carmike 10 Birmingham","address":"3443 Lorna Rd","city":"Birmingham","state":"AL","zip":"35216","distance":"7.266896724700928","lon":"-86.793823","lat":"33.391590","theaterChainName":"Carmike Cinemas","ticketType":"STANDARD"},{"id":"3868","name":"Carmike Patton Creek 15 + Imax","address":"4450 Creekside Avenue","city":"Hoover","state":"AL","zip":"35244","distance":"7.943239212036133","lon":"-86.815598","lat":"33.372501","theaterChainName":"Carmike Cinemas","ticketType":"STANDARD"},{"id":"4195","name":"AmStar Stadium 14 Alabaster","address":"820 Colonial Promenade Parkway","city":"Alabaster","state":"AL","zip":"35007","distance":"17.17318344116211","lon":"-86.800171","lat":"33.237972","theaterChainName":"Southern Theatres","ticketType":"STANDARD"},{"id":"4571","name":"Tannehill Premiere Cinema 14","address":"4801 Promenade Pkwy","city":"Bessemer","state":"AL","zip":"35022","distance":"12.483588218688965","lon":"-86.984879","lat":"33.334637","theaterChainName":"Premiere Cinemas","ticketType":"STANDARD"}]