[{"id":"4957","tribuneTheaterId":"10317","providerTheaterId":"","name":"The Edge 12","address":"7001 Crestwood Blvd.","city":"Birmingham","state":"AL","zip":"35210","distance":1.2357877303371,"lon":"-86.73422","lat":"33.528343","theaterChainName":"Phoenix Theatres","ticketType":"STANDARD"},{"id":"1141","tribuneTheaterId":"7279","providerTheaterId":"","name":"Carmike Summit 16","address":"321 Summit Blvd.","city":"Birmingham","state":"AL","zip":"35243","distance":6.3281684229422,"lon":"-86.72793","lat":"33.451095","theaterChainName":"Carmike Cinemas","ticketType":"STANDARD"},{"id":"3653","tribuneTheaterId":"2242","providerTheaterId":"","name":"Carmike Vestavia Hills 10","address":"1911 Kentucky Avenue","city":"Vestavia Hills","state":"AL","zip":"35216","distance":6.9761489937046,"lon":"-86.794899","lat":"33.4473","theaterChainName":"Carmike Cinemas","ticketType":"STANDARD"},{"id":"3867","tribuneTheaterId":"2367","providerTheaterId":"","name":"Carmike Lee Branch 15","address":"801 Doug Baker Blvd.","city":"Birmingham","state":"AL","zip":"35242","distance":10.108856808959,"lon":"-86.670197","lat":"33.4104","theaterChainName":"Carmike Cinemas","ticketType":"STANDARD"},{"id":"1138","tribuneTheaterId":"4687","providerTheaterId":"","name":"Carmike 10 Birmingham","address":"3443 Lorna Rd","city":"Birmingham","state":"AL","zip":"35216","distance":10.627990025278,"lon":"-86.793827","lat":"33.39159","theaterChainName":"Carmike Cinemas","ticketType":"STANDARD"},{"id":"2961","tribuneTheaterId":"8658","providerTheaterId":"","name":"Regal Trussville Stadium 16","address":"5895 Trussville Crossings Parkway","city":"Birmingham","state":"AL","zip":"35235","distance":9.8481546206526,"lon":"-86.628644","lat":"33.6418","theaterChainName":"Regal Cinemas","ticketType":"STANDARD"},{"id":"3868","tribuneTheaterId":"2368","providerTheaterId":"","name":"Carmike Patton Creek 15 + Imax","address":"4450 Creekside Avenue","city":"Hoover","state":"AL","zip":"35244","distance":12.243222243101,"lon":"-86.815598","lat":"33.372501","theaterChainName":"Carmike Cinemas","ticketType":"STANDARD"},{"id":"4571","tribuneTheaterId":"9715","providerTheaterId":"","name":"Tannehill Premiere Cinema 14","address":"4801 Promenade Pkwy","city":"Bessemer","state":"AL","zip":"35022","distance":19.679382177542,"lon":"-86.984875","lat":"33.334636","theaterChainName":"Premiere Cinemas","ticketType":"STANDARD"},{"id":"4195","tribuneTheaterId":"3218","providerTheaterId":"","name":"AmStar Stadium 14 Alabaster","address":"820 Colonial Promenade Parkway","city":"Alabaster","state":"AL","zip":"35007","distance":21.133483084798,"lon":"-86.800168","lat":"33.237971","theaterChainName":"Southern Theatres","ticketType":"STANDARD"}]