[{"id":"3653","name":"Carmike Vestavia Hills 10","address":"1911 Kentucky Avenue","city":"Vestavia Hills","state":"AL","zip":"35216","distance":"24.65513801574707","lon":"-86.794899","lat":"33.447300","theaterChainName":"Carmike Cinemas","ticketType":"STANDARD"},{"id":"1138","name":"Carmike 10 Birmingham","address":"3443 Lorna Rd","city":"Birmingham","state":"AL","zip":"35216","distance":"23.523473739624023","lon":"-86.793823","lat":"33.391590","theaterChainName":"Carmike Cinemas","ticketType":"STANDARD"},{"id":"3868","name":"Carmike Patton Creek 15 + Imax","address":"4450 Creekside Avenue","city":"Hoover","state":"AL","zip":"35244","distance":"22.01451873779297","lon":"-86.815598","lat":"33.372501","theaterChainName":"Carmike Cinemas","ticketType":"STANDARD"},{"id":"4195","name":"AmStar Stadium 14 Alabaster","address":"820 Colonial Promenade Parkway","city":"Alabaster","state":"AL","zip":"35007","distance":"23.067026138305664","lon":"-86.800171","lat":"33.237972","theaterChainName":"Southern Theatres","ticketType":"STANDARD"},{"id":"4571","name":"Tannehill Premiere Cinema 14","address":"4801 Promenade Pkwy","city":"Bessemer","state":"AL","zip":"35022","distance":"11.943564414978027","lon":"-86.984879","lat":"33.334637","theaterChainName":"Premiere Cinemas","ticketType":"STANDARD"},{"id":"3917","name":"Cobb Hollywood 16","address":"4250 Old Greensboro Road","city":"Tuscaloosa","state":"AL","zip":"35405","distance":"22.921031951904297","lon":"-87.547714","lat":"33.168091","theaterChainName":"Cobb Theatres","ticketType":"STANDARD"}]