[{"id":"4571","tribuneTheaterId":"9715","providerTheaterId":"","name":"Tannehill Premiere Cinema 14","address":"4801 Promenade Pkwy","city":"Bessemer","state":"AL","zip":"35022","distance":11.943230888386,"lon":"-86.984875","lat":"33.334636","theaterChainName":"Premiere Cinemas","ticketType":"STANDARD"},{"id":"3917","tribuneTheaterId":"6753","providerTheaterId":"","name":"Cobb Hollywood 16","address":"4250 Old Greensboro Road","city":"Tuscaloosa","state":"AL","zip":"35405","distance":22.919228392153,"lon":"-87.547711","lat":"33.168091","theaterChainName":"Cobb Theatres","ticketType":"STANDARD"},{"id":"3868","tribuneTheaterId":"2368","providerTheaterId":"","name":"Carmike Patton Creek 15 + Imax","address":"4450 Creekside Avenue","city":"Hoover","state":"AL","zip":"35244","distance":22.013334760873,"lon":"-86.815598","lat":"33.372501","theaterChainName":"Carmike Cinemas","ticketType":"STANDARD"},{"id":"4195","tribuneTheaterId":"3218","providerTheaterId":"","name":"AmStar Stadium 14 Alabaster","address":"820 Colonial Promenade Parkway","city":"Alabaster","state":"AL","zip":"35007","distance":23.065967285993,"lon":"-86.800168","lat":"33.237971","theaterChainName":"Southern Theatres","ticketType":"STANDARD"},{"id":"1138","tribuneTheaterId":"4687","providerTheaterId":"","name":"Carmike 10 Birmingham","address":"3443 Lorna Rd","city":"Birmingham","state":"AL","zip":"35216","distance":23.522016186212,"lon":"-86.793827","lat":"33.39159","theaterChainName":"Carmike Cinemas","ticketType":"STANDARD"},{"id":"3653","tribuneTheaterId":"2242","providerTheaterId":"","name":"Carmike Vestavia Hills 10","address":"1911 Kentucky Avenue","city":"Vestavia Hills","state":"AL","zip":"35216","distance":24.65382110052,"lon":"-86.794899","lat":"33.4473","theaterChainName":"Carmike Cinemas","ticketType":"STANDARD"}]