[{"id":"5312","tribuneTheaterId":"10749","providerTheaterId":"","name":"Carmike 12 Decatur","address":"1801 Beltline Road S.W.","city":"Decatur","state":"AL","zip":"35601","distance":1.9108877034591,"lon":"-87.017","lat":"34.5747","theaterChainName":"Carmike Cinemas","ticketType":"STANDARD"},{"id":"3514","tribuneTheaterId":"2778","providerTheaterId":"","name":"Cinemagic Theatre - Athens","address":"1702 S. Jefferson St.","city":"Athens","state":"AL","zip":"35611","distance":14.249548079491,"lon":"-86.97177","lat":"34.795366","theaterChainName":"Independent Chains","ticketType":"STANDARD"},{"id":"6139","tribuneTheaterId":"11557","providerTheaterId":"","name":"Cineplanet 15","address":"2100 Hughes Road","city":"Madison","state":"AL","zip":"35758","distance":18.207465035283,"lon":"-86.74181","lat":"34.7575763","theaterChainName":"Independent Chains","ticketType":"STANDARD"},{"id":"2147","tribuneTheaterId":"4689","providerTheaterId":"","name":"Carmike 10 Huntsville","address":"1359 Old Monrovia Road","city":"Huntsville","state":"AL","zip":"35806","distance":20.854537019753,"lon":"-86.676668","lat":"34.74848","theaterChainName":"Carmike Cinemas","ticketType":"STANDARD"},{"id":"4441","tribuneTheaterId":"9518","providerTheaterId":"","name":"Monaco Pictures","address":"370 The Bridge Street, NW","city":"Huntsville","state":"AL","zip":"35806","distance":20.019181155802,"lon":"-86.67353","lat":"34.718965","theaterChainName":"Cinemark","ticketType":"STANDARD"},{"id":"4522","tribuneTheaterId":"9632","providerTheaterId":"","name":"Madison Square 8 Cinemas","address":"5905 University Drive","city":"Huntsville","state":"AL","zip":"35806","distance":20.818044798402,"lon":"-86.668653","lat":"34.736185","theaterChainName":"Sapphire Motion Pictures Inc.","ticketType":"STANDARD"},{"id":"586","tribuneTheaterId":"8414","providerTheaterId":"","name":"Regal Hollywood Stadium 18-Huntsville","address":"3312 South Memorial Pkwy","city":"Huntsville","state":"AL","zip":"35801","distance":24.088882665133,"lon":"-86.58613","lat":"34.698515","theaterChainName":"Regal Cinemas","ticketType":"STANDARD"}]