[{"id":"4761","name":"Hollywood 10 Cinema","address":"3519 S. Broad St.","city":"Scottsboro","state":"AL","zip":"35769","distance":"14.827115058898926","lon":"-86.051231","lat":"34.625393","theaterChainName":"Independent Chains","ticketType":"STANDARD"},{"id":"3241","name":"Boaz 9 Cinema","address":"215 South McClesky Street","city":"Boaz","state":"AL","zip":"35957","distance":"21.472883224487305","lon":"-86.156921","lat":"34.196785","theaterChainName":"Independent Chains","ticketType":"STANDARD"},{"id":"4212","name":"Carmike Valley Bend 18","address":"1485 Four Mile Road South East","city":"Huntsville","state":"AL","zip":"35802","distance":"20.28542709350586","lon":"-86.544403","lat":"34.671902","theaterChainName":"Carmike Cinemas","ticketType":"STANDARD"},{"id":"586","name":"Regal Hollywood Stadium 18-Huntsville","address":"3312 South Memorial Pkwy","city":"Huntsville","state":"AL","zip":"35801","distance":"23.285404205322266","lon":"-86.586128","lat":"34.698517","theaterChainName":"Regal Cinemas","ticketType":"STANDARD"}]