[{"id":"4212","tribuneTheaterId":"2413","providerTheaterId":"","name":"Carmike Valley Bend 18","address":"1485 Four Mile Road South East","city":"Huntsville","state":"AL","zip":"35802","distance":12.526300578777,"lon":"-86.544403","lat":"34.671902","theaterChainName":"Carmike Cinemas","ticketType":"STANDARD"},{"id":"586","tribuneTheaterId":"8414","providerTheaterId":"","name":"Regal Hollywood Stadium 18-Huntsville","address":"3312 South Memorial Pkwy","city":"Huntsville","state":"AL","zip":"35801","distance":13.82776822447,"lon":"-86.58613","lat":"34.698515","theaterChainName":"Regal Cinemas","ticketType":"STANDARD"},{"id":"4441","tribuneTheaterId":"9518","providerTheaterId":"","name":"Monaco Pictures","address":"370 The Bridge Street, NW","city":"Huntsville","state":"AL","zip":"35806","distance":15.543862367249,"lon":"-86.67353","lat":"34.718965","theaterChainName":"Cinemark","ticketType":"STANDARD"},{"id":"2147","tribuneTheaterId":"4689","providerTheaterId":"","name":"Carmike 10 Huntsville","address":"1359 Old Monrovia Road","city":"Huntsville","state":"AL","zip":"35806","distance":17.574003931391,"lon":"-86.676668","lat":"34.74848","theaterChainName":"Carmike Cinemas","ticketType":"STANDARD"},{"id":"4522","tribuneTheaterId":"9632","providerTheaterId":"","name":"Madison Square 8 Cinemas","address":"5905 University Drive","city":"Huntsville","state":"AL","zip":"35806","distance":16.651006115682,"lon":"-86.668653","lat":"34.736185","theaterChainName":"Sapphire Motion Pictures Inc.","ticketType":"STANDARD"},{"id":"6139","tribuneTheaterId":"11557","providerTheaterId":"","name":"Cineplanet 15","address":"2100 Hughes Road","city":"Madison","state":"AL","zip":"35758","distance":19.272376541941,"lon":"-86.74181","lat":"34.7575763","theaterChainName":"Independent Chains","ticketType":"STANDARD"},{"id":"5312","tribuneTheaterId":"10749","providerTheaterId":"","name":"Carmike 12 Decatur","address":"1801 Beltline Road S.W.","city":"Decatur","state":"AL","zip":"35601","distance":23.577883641427,"lon":"-87.017","lat":"34.5747","theaterChainName":"Carmike Cinemas","ticketType":"STANDARD"}]