[{"id":"4212","name":"Carmike Valley Bend 18","address":"1485 Four Mile Road South East","city":"Huntsville","state":"AL","zip":"35802","distance":"8.225074768066406","lon":"-86.544403","lat":"34.671902","theaterChainName":"Carmike Cinemas","ticketType":"STANDARD"},{"id":"586","name":"Regal Hollywood Stadium 18-Huntsville","address":"3312 South Memorial Pkwy","city":"Huntsville","state":"AL","zip":"35801","distance":"5.671792030334473","lon":"-86.586128","lat":"34.698517","theaterChainName":"Regal Cinemas","ticketType":"STANDARD"},{"id":"4441","name":"Monaco Pictures","address":"370 The Bridge Street, NW","city":"Huntsville","state":"AL","zip":"35806","distance":"5.499815940856934","lon":"-86.673531","lat":"34.718964","theaterChainName":"Cinemark","ticketType":"STANDARD"},{"id":"4522","name":"Madison Square 8 Cinemas","address":"5905 University Drive","city":"Huntsville","state":"AL","zip":"35806","distance":"4.4654011726379395","lon":"-86.668655","lat":"34.736183","theaterChainName":"Sapphire Motion Pictures Inc.","ticketType":"STANDARD"},{"id":"2147","name":"Carmike 10 Huntsville","address":"1359 Old Monrovia Road","city":"Huntsville","state":"AL","zip":"35806","distance":"4.357026100158691","lon":"-86.676666","lat":"34.748482","theaterChainName":"Carmike Cinemas","ticketType":"STANDARD"},{"id":"6139","name":"Cineplanet 15","address":"2100 Hughes Road","city":"Madison","state":"AL","zip":"35758","distance":"7.669196128845215","lon":"-86.741814","lat":"34.757576","theaterChainName":"Independent Chains","ticketType":"STANDARD"},{"id":"3514","name":"Cinemagic Theatre - Athens","address":"1702 S. Jefferson St.","city":"Athens","state":"AL","zip":"35611","distance":"20.614355087280273","lon":"-86.971771","lat":"34.795364","theaterChainName":"Independent Chains","ticketType":"STANDARD"}]