[{"id":"2920","tribuneTheaterId":"2299","providerTheaterId":"","name":"Carmike Promenade Cinema 12","address":"2399 Cobbs Ford Road","city":"Prattville","state":"AL","zip":"36066","distance":4.9722904677668,"lon":"-86.398102","lat":"32.4599","theaterChainName":"Carmike Cinemas","ticketType":"STANDARD"},{"id":"2314","tribuneTheaterId":"2530","providerTheaterId":"","name":"Capri Theatre","address":"1045 E. Fairview Ave.","city":"Montgomery","state":"AL","zip":"36106","distance":10.889680652999,"lon":"-86.2914","lat":"32.3518","theaterChainName":"Independent Chains","ticketType":"STANDARD"},{"id":"5496","tribuneTheaterId":"10965","providerTheaterId":"","name":"Carmike Chantilly","address":"10477 Chantilly Parkway","city":"Montgomery","state":"AL","zip":"36117","distance":15.307714162406,"lon":"-86.134918","lat":"32.359452","theaterChainName":"Carmike Cinemas","ticketType":"STANDARD"},{"id":"5278","tribuneTheaterId":"10712","providerTheaterId":"461","name":"AMC Festival Plaza 16","address":"7925 Vaughn Rd.","city":"Montgomery","state":"AL","zip":"36116","distance":14.549540322959,"lon":"-86.177198","lat":"32.340602","theaterChainName":"AMC Theatres","ticketType":"STANDARD"}]