[{"id":"1979","name":"Playhouse Cinemas","address":"1236 Cherokee Rd.","city":"Alexander City","state":"AL","zip":"35010","distance":"23.722816467285156","lon":"-85.947472","lat":"32.930229","theaterChainName":"Independent Chains","ticketType":"STANDARD"},{"id":"2920","name":"Carmike Promenade Cinema 12","address":"2399 Cobbs Ford Road","city":"Prattville","state":"AL","zip":"36066","distance":"18.392478942871094","lon":"-86.398102","lat":"32.459900","theaterChainName":"Carmike Cinemas","ticketType":"STANDARD"},{"id":"2314","name":"Capri Theatre","address":"1045 E. Fairview Ave.","city":"Montgomery","state":"AL","zip":"36106","distance":"23.56505012512207","lon":"-86.291397","lat":"32.351799","theaterChainName":"Independent Chains","ticketType":"STANDARD"},{"id":"5278","name":"AMC Festival Plaza 16","address":"7925 Vaughn Rd.","city":"Montgomery","state":"AL","zip":"36116","distance":"24.412073135375977","lon":"-86.177200","lat":"32.340603","theaterChainName":"AMC Theatres","ticketType":"STANDARD"},{"id":"5496","name":"Carmike Chantilly","address":"10477 Chantilly Parkway","city":"Montgomery","state":"AL","zip":"36117","distance":"23.635805130004883","lon":"-86.134918","lat":"32.359451","theaterChainName":"Carmike Cinemas","ticketType":"STANDARD"}]