[{"id":"5071","tribuneTheaterId":"10456","providerTheaterId":"4110","name":"AMC Dothan 6","address":"3489 Ross Clark Circle","city":"Dothan","state":"AL","zip":"36303","distance":14.056199302126,"lon":"-85.42958","lat":"31.251022","theaterChainName":"AMC Theatres","ticketType":"STANDARD"},{"id":"4599","tribuneTheaterId":"9768","providerTheaterId":"4109","name":"AMC Dothan Pavilion 12","address":"4883 Montgomery Highway","city":"Dothan","state":"AL","zip":"36303","distance":14.311983284324,"lon":"-85.45004","lat":"31.268712","theaterChainName":"AMC Theatres","ticketType":"STANDARD"},{"id":"6124","tribuneTheaterId":"11540","providerTheaterId":"","name":"Clark Cinemas 10","address":"5200 Boll Weevil Circle","city":"Enterprise","state":"AL","zip":"36330","distance":21.167902647413,"lon":"-85.858346","lat":"31.291516","theaterChainName":"Independent Chains","ticketType":"STANDARD"},{"id":"1762","tribuneTheaterId":"1476","providerTheaterId":"","name":"College Cinema","address":"College Plaza Shopping Center","city":"Enterprise","state":"AL","zip":"36330","distance":21.105546540156,"lon":"-85.828629","lat":"31.317347","theaterChainName":"Independent Chains","ticketType":"STANDARD"}]