[{"id":"4213","name":"Carmike Wharf 15","address":"23101 Canal Road","city":"Orange Beach","state":"AL","zip":"36561","distance":"20.933834075927734","lon":"-87.628952","lat":"30.292442","theaterChainName":"Carmike Cinemas","ticketType":"STANDARD"},{"id":"4086","name":"Cobb Pinnacle 14","address":"3780 Gulfshores Pkwy.","city":"Gulf Shores","state":"AL","zip":"36542","distance":"18.37955093383789","lon":"-87.681190","lat":"30.300438","theaterChainName":"Cobb Theatres","ticketType":"STANDARD"},{"id":"4643","name":"Eastern Shore Premiere Cinema 14","address":"30500 State Hwy 181","city":"Spanish Fort","state":"AL","zip":"36527","distance":"11.695119857788086","lon":"-87.851578","lat":"30.668209","theaterChainName":"Premiere Cinemas","ticketType":"STANDARD"},{"id":"3548","name":"Carmike Jubilee Square 12","address":"6898 Highway 90","city":"Daphne","state":"AL","zip":"36526","distance":"10.682307243347168","lon":"-87.901703","lat":"30.655001","theaterChainName":"Carmike Cinemas","ticketType":"STANDARD"},{"id":"2148","name":"Carmike Wynnsong 16 - Mobile","address":"785 Schillinger Road South","city":"Mobile","state":"AL","zip":"36695","distance":"23.55894660949707","lon":"-88.225403","lat":"30.673300","theaterChainName":"Carmike Cinemas","ticketType":"STANDARD"},{"id":"2313","name":"Regal Stadium\/Mobile 18","address":"1250 Satchel Paige Dr","city":"Mobile","state":"AL","zip":"36606","distance":"17.48019027709961","lon":"-88.119270","lat":"30.652178","theaterChainName":"Regal Cinemas","ticketType":"STANDARD"},{"id":"5579","name":"Crescent Theater","address":"208 Dauphin St.","city":"Mobile","state":"AL","zip":"36602","distance":"16.23435401916504","lon":"-88.043388","lat":"30.691618","theaterChainName":"Independent Chains","ticketType":"STANDARD"}]