[{"id":"4213","tribuneTheaterId":"2370","providerTheaterId":"","name":"Carmike Wharf 15","address":"23101 Canal Road","city":"Orange Beach","state":"AL","zip":"36561","distance":11.713370753358,"lon":"-87.628949","lat":"30.292442","theaterChainName":"Carmike Cinemas","ticketType":"STANDARD"},{"id":"4086","tribuneTheaterId":"2350","providerTheaterId":"","name":"Cobb Pinnacle 14","address":"3780 Gulfshores Pkwy.","city":"Gulf Shores","state":"AL","zip":"36542","distance":14.020437607104,"lon":"-87.681187","lat":"30.300437","theaterChainName":"Cobb Theatres","ticketType":"STANDARD"},{"id":"3220","tribuneTheaterId":"2401","providerTheaterId":"","name":"Carmike Pensacola W. Street 18","address":"6595 North W Street","city":"Pensacola","state":"FL","zip":"32534","distance":14.214149489436,"lon":"-87.259201","lat":"30.485901","theaterChainName":"Cinemark","ticketType":"STANDARD"},{"id":"4392","tribuneTheaterId":"9441","providerTheaterId":"","name":"Carmike Bayou 15","address":"5149 Bayou Boulevard","city":"Pensacola","state":"FL","zip":"32503","distance":16.217414456147,"lon":"-87.216811","lat":"30.472885","theaterChainName":"Carmike Cinemas","ticketType":"STANDARD"},{"id":"1637","tribuneTheaterId":"5727","providerTheaterId":"","name":"Carmike 10 Pensacola","address":"161 E 9 Mile Road","city":"Pensacola","state":"FL","zip":"32534","distance":15.455551827648,"lon":"-87.266169","lat":"30.530587","theaterChainName":"Carmike Cinemas","ticketType":"STANDARD"},{"id":"2666","tribuneTheaterId":"3096","providerTheaterId":"","name":"The Breeze Cinema 8","address":"1233 Crane Cove","city":"Gulf Breeze","state":"FL","zip":"32563","distance":22.090976782292,"lon":"-87.104257","lat":"30.382169","theaterChainName":"Independent Chains","ticketType":"STANDARD"}]