[{"id":"3220","name":"Carmike Pensacola W. Street 18","address":"6595 North W Street","city":"Pensacola","state":"FL","zip":"32534","distance":"23.10494041442871","lon":"-87.259201","lat":"30.485901","theaterChainName":"Cinemark","ticketType":"STANDARD"},{"id":"1637","name":"Carmike 10 Pensacola","address":"161 E 9 Mile Road","city":"Pensacola","state":"FL","zip":"32534","distance":"22.18912696838379","lon":"-87.266167","lat":"30.530586","theaterChainName":"Carmike Cinemas","ticketType":"STANDARD"},{"id":"4213","name":"Carmike Wharf 15","address":"23101 Canal Road","city":"Orange Beach","state":"AL","zip":"36561","distance":"18.604774475097656","lon":"-87.628952","lat":"30.292442","theaterChainName":"Carmike Cinemas","ticketType":"STANDARD"},{"id":"4086","name":"Cobb Pinnacle 14","address":"3780 Gulfshores Pkwy.","city":"Gulf Shores","state":"AL","zip":"36542","distance":"18.23413848876953","lon":"-87.681190","lat":"30.300438","theaterChainName":"Cobb Theatres","ticketType":"STANDARD"},{"id":"4643","name":"Eastern Shore Premiere Cinema 14","address":"30500 State Hwy 181","city":"Spanish Fort","state":"AL","zip":"36527","distance":"14.71840763092041","lon":"-87.851578","lat":"30.668209","theaterChainName":"Premiere Cinemas","ticketType":"STANDARD"},{"id":"3548","name":"Carmike Jubilee Square 12","address":"6898 Highway 90","city":"Daphne","state":"AL","zip":"36526","distance":"16.99705696105957","lon":"-87.901703","lat":"30.655001","theaterChainName":"Carmike Cinemas","ticketType":"STANDARD"}]