[{"id":"4643","tribuneTheaterId":"9842","providerTheaterId":"","name":"Eastern Shore Premiere Cinema 14","address":"30500 State Hwy 181","city":"Spanish Fort","state":"AL","zip":"36527","distance":14.717354182979,"lon":"-87.851576","lat":"30.66821","theaterChainName":"Premiere Cinemas","ticketType":"STANDARD"},{"id":"3548","tribuneTheaterId":"3201","providerTheaterId":"","name":"Carmike Jubilee Square 12","address":"6898 Highway 90","city":"Daphne","state":"AL","zip":"36526","distance":16.995933297108,"lon":"-87.901703","lat":"30.655001","theaterChainName":"Carmike Cinemas","ticketType":"STANDARD"},{"id":"4086","tribuneTheaterId":"2350","providerTheaterId":"","name":"Cobb Pinnacle 14","address":"3780 Gulfshores Pkwy.","city":"Gulf Shores","state":"AL","zip":"36542","distance":18.233048020458,"lon":"-87.681187","lat":"30.300437","theaterChainName":"Cobb Theatres","ticketType":"STANDARD"},{"id":"4213","tribuneTheaterId":"2370","providerTheaterId":"","name":"Carmike Wharf 15","address":"23101 Canal Road","city":"Orange Beach","state":"AL","zip":"36561","distance":18.603669262514,"lon":"-87.628949","lat":"30.292442","theaterChainName":"Carmike Cinemas","ticketType":"STANDARD"},{"id":"1637","tribuneTheaterId":"5727","providerTheaterId":"","name":"Carmike 10 Pensacola","address":"161 E 9 Mile Road","city":"Pensacola","state":"FL","zip":"32534","distance":22.187694590892,"lon":"-87.266169","lat":"30.530587","theaterChainName":"Carmike Cinemas","ticketType":"STANDARD"},{"id":"3220","tribuneTheaterId":"2401","providerTheaterId":"","name":"Carmike Pensacola W. Street 18","address":"6595 North W Street","city":"Pensacola","state":"FL","zip":"32534","distance":23.103596514961,"lon":"-87.259201","lat":"30.485901","theaterChainName":"Cinemark","ticketType":"STANDARD"}]