[{"id":"4643","name":"Eastern Shore Premiere Cinema 14","address":"30500 State Hwy 181","city":"Spanish Fort","state":"AL","zip":"36527","distance":"15.071017265319824","lon":"-87.851578","lat":"30.668209","theaterChainName":"Premiere Cinemas","ticketType":"STANDARD"},{"id":"3548","name":"Carmike Jubilee Square 12","address":"6898 Highway 90","city":"Daphne","state":"AL","zip":"36526","distance":"12.312010765075684","lon":"-87.901703","lat":"30.655001","theaterChainName":"Carmike Cinemas","ticketType":"STANDARD"},{"id":"2148","name":"Carmike Wynnsong 16 - Mobile","address":"785 Schillinger Road South","city":"Mobile","state":"AL","zip":"36695","distance":"7.469179153442383","lon":"-88.225403","lat":"30.673300","theaterChainName":"Carmike Cinemas","ticketType":"STANDARD"},{"id":"2313","name":"Regal Stadium\/Mobile 18","address":"1250 Satchel Paige Dr","city":"Mobile","state":"AL","zip":"36606","distance":"3.279346466064453","lon":"-88.119270","lat":"30.652178","theaterChainName":"Regal Cinemas","ticketType":"STANDARD"},{"id":"5579","name":"Crescent Theater","address":"208 Dauphin St.","city":"Mobile","state":"AL","zip":"36602","distance":"3.5591506958007812","lon":"-88.043388","lat":"30.691618","theaterChainName":"Independent Chains","ticketType":"STANDARD"}]