[{"id":"4338","name":"Carmike LaGrange 10","address":"201 Main Street","city":"Lagrange","state":"GA","zip":"30240","distance":"17.663063049316406","lon":"-85.030678","lat":"33.036442","theaterChainName":"Carmike Cinemas","ticketType":"STANDARD"},{"id":"3661","name":"Carmike 15 Columbus","address":"5555 Whittelesey Blvd.","city":"Columbus","state":"GA","zip":"31904","distance":"22.647905349731445","lon":"-84.941856","lat":"32.548702","theaterChainName":"Carmike Cinemas","ticketType":"STANDARD"},{"id":"2186","name":"Carmike Ritz 13","address":"1683 Whittlesey Road","city":"Columbus","state":"GA","zip":"31904","distance":"22.40920639038086","lon":"-84.964699","lat":"32.539501","theaterChainName":"Carmike Cinemas","ticketType":"STANDARD"},{"id":"1127","name":"Carmike Peachtree 8","address":"3131 Manchester Expy.","city":"Columbus","state":"GA","zip":"31909","distance":"24.867483139038086","lon":"-84.943626","lat":"32.508625","theaterChainName":"Carmike Cinemas","ticketType":"STANDARD"},{"id":"5516","name":"Carmike Tiger 13","address":"1900 Capps Landing","city":"Opelika","state":"AL","zip":"36804","distance":"18.641056060791016","lon":"-85.391159","lat":"32.612125","theaterChainName":"Carmike Cinemas","ticketType":"STANDARD"},{"id":"2530","name":"Carmike Wynnsong 16 Auburn","address":"2111 E University Ave","city":"Auburn","state":"AL","zip":"36830","distance":"20.793336868286133","lon":"-85.459297","lat":"32.628799","theaterChainName":"Carmike Cinemas","ticketType":"STANDARD"}]