[{"id":"2186","tribuneTheaterId":"4803","providerTheaterId":"","name":"Carmike Ritz 13","address":"1683 Whittlesey Road","city":"Columbus","state":"GA","zip":"31904","distance":6.1148993060268,"lon":"-84.9647","lat":"32.5395","theaterChainName":"Carmike Cinemas","ticketType":"STANDARD"},{"id":"1127","tribuneTheaterId":"4801","providerTheaterId":"","name":"Carmike Peachtree 8","address":"3131 Manchester Expy.","city":"Columbus","state":"GA","zip":"31909","distance":5.4200389700462,"lon":"-84.943628","lat":"32.508624","theaterChainName":"Carmike Cinemas","ticketType":"STANDARD"},{"id":"3661","tribuneTheaterId":"4804","providerTheaterId":"","name":"Carmike 15 Columbus","address":"5555 Whittelesey Blvd.","city":"Columbus","state":"GA","zip":"31904","distance":7.4040043595082,"lon":"-84.941858","lat":"32.548704","theaterChainName":"Carmike Cinemas","ticketType":"STANDARD"},{"id":"2196","tribuneTheaterId":"7026","providerTheaterId":"","name":"Carmike Wynnsong 10 - Fort Benning","address":"72904 Ingersol St.","city":"Fort Benning","state":"GA","zip":"31905","distance":8.0551890800279,"lon":"-84.962946","lat":"32.358662","theaterChainName":"Carmike Cinemas","ticketType":"STANDARD"},{"id":"5516","tribuneTheaterId":"10940","providerTheaterId":"","name":"Carmike Tiger 13","address":"1900 Capps Landing","city":"Opelika","state":"AL","zip":"36804","distance":23.870119846929,"lon":"-85.391161","lat":"32.612126","theaterChainName":"Carmike Cinemas","ticketType":"STANDARD"}]