[{"id":"4356","tribuneTheaterId":"9380","providerTheaterId":"","name":"NCG Gallatin Cinemas, Inc.","address":"1035 Greensboro Drive","city":"Gallatin","state":"TN","zip":"37066","distance":14.916820539305,"lon":"-86.494444","lat":"36.35836","theaterChainName":"NCG Cinemas","ticketType":"STANDARD"},{"id":"2094","tribuneTheaterId":"333","providerTheaterId":"","name":"Lafayette Cinema","address":"204 College Street","city":"Lafayette","state":"TN","zip":"37083","distance":15.960373512095,"lon":"-86.027177","lat":"36.520652","theaterChainName":"Independent Chains","ticketType":"STANDARD"},{"id":"4452","tribuneTheaterId":"9537","providerTheaterId":"","name":"Streets of Indian Lake Stadium 16 & IMAX","address":"300 Indian Lake Blvd.","city":"Hendersonville","state":"TN","zip":"37075","distance":20.085328035779,"lon":"-86.589438","lat":"36.32992","theaterChainName":"Regal Cinemas","ticketType":"STANDARD"},{"id":"4041","tribuneTheaterId":"2270","providerTheaterId":"","name":"Roxy 10 Theater","address":"200 Legends Dr.","city":"Lebanon","state":"TN","zip":"37087","distance":22.90851974668,"lon":"-86.292753","lat":"36.187508","theaterChainName":"UEC Theatres","ticketType":"STANDARD"}]