[{"id":"5731","tribuneTheaterId":"11174","providerTheaterId":"","name":"Carmike 12 Spring Hill","address":"20658 Crossing Circle","city":"Spring Hill","state":"TN","zip":"37174","distance":13.384213582633,"lon":"-86.872","lat":"35.7542","theaterChainName":"Carmike Cinemas","ticketType":"STANDARD"},{"id":"3315","tribuneTheaterId":"1278","providerTheaterId":"","name":"Capri Twin Theatre","address":"102 E. Depot St.","city":"Shelbyville","state":"TN","zip":"37160","distance":16.463811983276,"lon":"-86.458969","lat":"35.482479","theaterChainName":"Independent Chains","ticketType":"STANDARD"},{"id":"2760","tribuneTheaterId":"9105","providerTheaterId":"","name":"Carmike Wynnsong 16 - Murfreesboro","address":"2626 Cason Square Blvd.","city":"Murfreesboro","state":"TN","zip":"37128","distance":19.898993014049,"lon":"-86.438177","lat":"35.843396","theaterChainName":"Carmike Cinemas","ticketType":"STANDARD"},{"id":"1873","tribuneTheaterId":"2294","providerTheaterId":"","name":"Shadybrook 12 Cinemas","address":"1907 Shadybrook Street","city":"Columbia","state":"TN","zip":"38401","distance":21.141437616677,"lon":"-87.0574","lat":"35.5995","theaterChainName":"Independent Chains","ticketType":"STANDARD"},{"id":"2852","tribuneTheaterId":"7908","providerTheaterId":"","name":"Carmike Thoroughbred 20","address":"633 Frazier Drive","city":"Franklin","state":"TN","zip":"37064","distance":22.663208379948,"lon":"-86.823921","lat":"35.943026","theaterChainName":"Carmike Cinemas","ticketType":"STANDARD"},{"id":"985","tribuneTheaterId":"5391","providerTheaterId":"","name":"Franklin Theatre","address":"419 Main St.","city":"Franklin","state":"TN","zip":"37064","distance":22.530136960923,"lon":"-86.870495","lat":"35.924088","theaterChainName":"Independent Chains","ticketType":"STANDARD"},{"id":"4623","tribuneTheaterId":"9800","providerTheaterId":"","name":"Malco Smyrna Cinema","address":"100 Movie Row","city":"Smyrna","state":"TN","zip":"37167","distance":24.747108247593,"lon":"-86.565721","lat":"35.980576","theaterChainName":"Malco Theatre","ticketType":"STANDARD"}]