[{"id":"1452","name":"Carmike Wynnsong 10 Madison","address":"721 Myatt Drive","city":"Madison","state":"TN","zip":"37115","distance":"24.469219207763672","lon":"-86.695274","lat":"36.295277","theaterChainName":"Carmike Cinemas","ticketType":"STANDARD"},{"id":"3816","name":"Great Escape Clarksville Stadium 16","address":"1810 Tiny Town Road","city":"Clarksville","state":"TN","zip":"37042","distance":"18.529430389404297","lon":"-87.320885","lat":"36.623470","theaterChainName":"Regal Cinemas","ticketType":"STANDARD"},{"id":"2253","name":"Carmike Governors Square 10","address":"2801 Wilma Rudolph Blvd","city":"Clarksville","state":"TN","zip":"37040","distance":"16.133949279785156","lon":"-87.286057","lat":"36.589397","theaterChainName":"Carmike Cinemas","ticketType":"STANDARD"},{"id":"983","name":"Carmike Springfield Cinema","address":"718 S. Main St","city":"Springfield","state":"TN","zip":"37172","distance":"7.021679878234863","lon":"-86.885147","lat":"36.507496","theaterChainName":"Carmike Cinemas","ticketType":"STANDARD"}]