[{"id":"1050","name":"Belcourt Theatre","address":"2102 Belcourt Ave","city":"Nashville","state":"TN","zip":"37212","distance":"24.002771377563477","lon":"-86.801323","lat":"36.136749","theaterChainName":"Independent Chains","ticketType":"STANDARD"},{"id":"1451","name":"Regal Green Hills Stadium 16","address":"3815 Green Hills Village Drive","city":"Nashville","state":"TN","zip":"37215","distance":"24.797529220581055","lon":"-86.816864","lat":"36.108727","theaterChainName":"Regal Cinemas","ticketType":"STANDARD"},{"id":"1452","name":"Carmike Wynnsong 10 Madison","address":"721 Myatt Drive","city":"Madison","state":"TN","zip":"37115","distance":"23.907886505126953","lon":"-86.695274","lat":"36.295277","theaterChainName":"Carmike Cinemas","ticketType":"STANDARD"},{"id":"964","name":"Carmike Bellevue 8","address":"120 Belle Forest Circle","city":"Nashville","state":"TN","zip":"37221","distance":"23.360017776489258","lon":"-86.923424","lat":"36.075172","theaterChainName":"Carmike Cinemas","ticketType":"STANDARD"},{"id":"3816","name":"Great Escape Clarksville Stadium 16","address":"1810 Tiny Town Road","city":"Clarksville","state":"TN","zip":"37042","distance":"20.596601486206055","lon":"-87.320885","lat":"36.623470","theaterChainName":"Regal Cinemas","ticketType":"STANDARD"},{"id":"2253","name":"Carmike Governors Square 10","address":"2801 Wilma Rudolph Blvd","city":"Clarksville","state":"TN","zip":"37040","distance":"17.565608978271484","lon":"-87.286057","lat":"36.589397","theaterChainName":"Carmike Cinemas","ticketType":"STANDARD"},{"id":"983","name":"Carmike Springfield Cinema","address":"718 S. Main St","city":"Springfield","state":"TN","zip":"37172","distance":"15.541786193847656","lon":"-86.885147","lat":"36.507496","theaterChainName":"Carmike Cinemas","ticketType":"STANDARD"}]