[{"id":"983","tribuneTheaterId":"4784","providerTheaterId":"","name":"Carmike Springfield Cinema","address":"718 S. Main St","city":"Springfield","state":"TN","zip":"37172","distance":12.026310262269,"lon":"-86.885147","lat":"36.507494","theaterChainName":"Carmike Cinemas","ticketType":"STANDARD"},{"id":"4356","tribuneTheaterId":"9380","providerTheaterId":"","name":"NCG Gallatin Cinemas, Inc.","address":"1035 Greensboro Drive","city":"Gallatin","state":"TN","zip":"37066","distance":16.821261982621,"lon":"-86.494444","lat":"36.35836","theaterChainName":"NCG Cinemas","ticketType":"STANDARD"},{"id":"4452","tribuneTheaterId":"9537","providerTheaterId":"","name":"Streets of Indian Lake Stadium 16 & IMAX","address":"300 Indian Lake Blvd.","city":"Hendersonville","state":"TN","zip":"37075","distance":16.155083423669,"lon":"-86.589438","lat":"36.32992","theaterChainName":"Regal Cinemas","ticketType":"STANDARD"},{"id":"1452","tribuneTheaterId":"5760","providerTheaterId":"","name":"Carmike Wynnsong 10 Madison","address":"721 Myatt Drive","city":"Madison","state":"TN","zip":"37115","distance":17.845839801765,"lon":"-86.695272","lat":"36.295275","theaterChainName":"Carmike Cinemas","ticketType":"STANDARD"},{"id":"2962","tribuneTheaterId":"8051","providerTheaterId":"","name":"Opry Mills Stadium 20 and IMAX","address":"570 Opry MIlls Drive","city":"Nashville","state":"TN","zip":"37214","distance":23.997558837241,"lon":"-86.695325","lat":"36.206124","theaterChainName":"Regal Cinemas","ticketType":"STANDARD"}]