[{"id":"982","name":"Carmike Hickory 8","address":"901 Bell Road","city":"Antioch","state":"TN","zip":"37013","distance":"20.855300903320312","lon":"-86.651733","lat":"36.050629","theaterChainName":"Carmike Cinemas","ticketType":"STANDARD"},{"id":"4623","name":"Malco Smyrna Cinema","address":"100 Movie Row","city":"Smyrna","state":"TN","zip":"37167","distance":"16.42160415649414","lon":"-86.565720","lat":"35.980576","theaterChainName":"Malco Theatre","ticketType":"STANDARD"},{"id":"2852","name":"Carmike Thoroughbred 20","address":"633 Frazier Drive","city":"Franklin","state":"TN","zip":"37064","distance":"17.14897346496582","lon":"-86.823921","lat":"35.943027","theaterChainName":"Carmike Cinemas","ticketType":"STANDARD"},{"id":"985","name":"Franklin Theatre","address":"419 Main St.","city":"Franklin","state":"TN","zip":"37064","distance":"17.985427856445312","lon":"-86.870499","lat":"35.924088","theaterChainName":"Independent Chains","ticketType":"STANDARD"},{"id":"2760","name":"Carmike Wynnsong 16 - Murfreesboro","address":"2626 Cason Square Blvd.","city":"Murfreesboro","state":"TN","zip":"37128","distance":"12.697005271911621","lon":"-86.438179","lat":"35.843395","theaterChainName":"Carmike Cinemas","ticketType":"STANDARD"},{"id":"5731","name":"Carmike 12 Spring Hill","address":"20658 Crossing Circle","city":"Spring Hill","state":"TN","zip":"37174","distance":"13.42377758026123","lon":"-86.872002","lat":"35.754200","theaterChainName":"Carmike Cinemas","ticketType":"STANDARD"},{"id":"3315","name":"Capri Twin Theatre","address":"102 E. Depot St.","city":"Shelbyville","state":"TN","zip":"37160","distance":"20.85392189025879","lon":"-86.458969","lat":"35.482479","theaterChainName":"Independent Chains","ticketType":"STANDARD"}]