[{"id":"964","tribuneTheaterId":"5755","providerTheaterId":"","name":"Carmike Bellevue 8","address":"120 Belle Forest Circle","city":"Nashville","state":"TN","zip":"37221","distance":13.542686932462,"lon":"-86.92342","lat":"36.075172","theaterChainName":"Carmike Cinemas","ticketType":"STANDARD"},{"id":"3621","tribuneTheaterId":"2131","providerTheaterId":"","name":"Roxy 8 Theater","address":"Hwy 46 South","city":"Dickson","state":"TN","zip":"37055","distance":14.27996398,"lon":"-87.369231","lat":"36.052471","theaterChainName":"Independent Chains","ticketType":"STANDARD"},{"id":"985","tribuneTheaterId":"5391","providerTheaterId":"","name":"Franklin Theatre","address":"419 Main St.","city":"Franklin","state":"TN","zip":"37064","distance":15.057409131109,"lon":"-86.870495","lat":"35.924088","theaterChainName":"Independent Chains","ticketType":"STANDARD"},{"id":"2852","tribuneTheaterId":"7908","providerTheaterId":"","name":"Carmike Thoroughbred 20","address":"633 Frazier Drive","city":"Franklin","state":"TN","zip":"37064","distance":17.380803790508,"lon":"-86.823921","lat":"35.943026","theaterChainName":"Carmike Cinemas","ticketType":"STANDARD"},{"id":"1451","tribuneTheaterId":"5631","providerTheaterId":"","name":"Regal Green Hills Stadium 16","address":"3815 Green Hills Village Drive","city":"Nashville","state":"TN","zip":"37215","distance":19.872160887875,"lon":"-86.816861","lat":"36.108725","theaterChainName":"Regal Cinemas","ticketType":"STANDARD"},{"id":"1050","tribuneTheaterId":"5867","providerTheaterId":"","name":"Belcourt Theatre","address":"2102 Belcourt Ave","city":"Nashville","state":"TN","zip":"37212","distance":21.575497102731,"lon":"-86.801326","lat":"36.13675","theaterChainName":"Independent Chains","ticketType":"STANDARD"},{"id":"5731","tribuneTheaterId":"11174","providerTheaterId":"","name":"Carmike 12 Spring Hill","address":"20658 Crossing Circle","city":"Spring Hill","state":"TN","zip":"37174","distance":21.11634087675,"lon":"-86.872","lat":"35.7542","theaterChainName":"Carmike Cinemas","ticketType":"STANDARD"},{"id":"718","tribuneTheaterId":"8193","providerTheaterId":"","name":"Regal Hollywood Stadium 27-Nashville","address":"719 Thompson Ln","city":"Nashville","state":"TN","zip":"37204","distance":22.554464052446,"lon":"-86.762059","lat":"36.106001","theaterChainName":"Regal Cinemas","ticketType":"STANDARD"}]