[{"id":"2760","tribuneTheaterId":"9105","providerTheaterId":"","name":"Carmike Wynnsong 16 - Murfreesboro","address":"2626 Cason Square Blvd.","city":"Murfreesboro","state":"TN","zip":"37128","distance":12.696396940414,"lon":"-86.438177","lat":"35.843396","theaterChainName":"Carmike Cinemas","ticketType":"STANDARD"},{"id":"5731","tribuneTheaterId":"11174","providerTheaterId":"","name":"Carmike 12 Spring Hill","address":"20658 Crossing Circle","city":"Spring Hill","state":"TN","zip":"37174","distance":13.422742892955,"lon":"-86.872","lat":"35.7542","theaterChainName":"Carmike Cinemas","ticketType":"STANDARD"},{"id":"4623","tribuneTheaterId":"9800","providerTheaterId":"","name":"Malco Smyrna Cinema","address":"100 Movie Row","city":"Smyrna","state":"TN","zip":"37167","distance":16.420549798859,"lon":"-86.565721","lat":"35.980576","theaterChainName":"Malco Theatre","ticketType":"STANDARD"},{"id":"985","tribuneTheaterId":"5391","providerTheaterId":"","name":"Franklin Theatre","address":"419 Main St.","city":"Franklin","state":"TN","zip":"37064","distance":17.984051846837,"lon":"-86.870495","lat":"35.924088","theaterChainName":"Independent Chains","ticketType":"STANDARD"},{"id":"2852","tribuneTheaterId":"7908","providerTheaterId":"","name":"Carmike Thoroughbred 20","address":"633 Frazier Drive","city":"Franklin","state":"TN","zip":"37064","distance":17.147697120317,"lon":"-86.823921","lat":"35.943026","theaterChainName":"Carmike Cinemas","ticketType":"STANDARD"},{"id":"3315","tribuneTheaterId":"1278","providerTheaterId":"","name":"Capri Twin Theatre","address":"102 E. Depot St.","city":"Shelbyville","state":"TN","zip":"37160","distance":20.852756157671,"lon":"-86.458969","lat":"35.482479","theaterChainName":"Independent Chains","ticketType":"STANDARD"},{"id":"982","tribuneTheaterId":"5756","providerTheaterId":"","name":"Carmike Hickory 8","address":"901 Bell Road","city":"Antioch","state":"TN","zip":"37013","distance":20.853814812895,"lon":"-86.651734","lat":"36.050627","theaterChainName":"Carmike Cinemas","ticketType":"STANDARD"}]