[{"id":"982","name":"Carmike Hickory 8","address":"901 Bell Road","city":"Antioch","state":"TN","zip":"37013","distance":"20.691373825073242","lon":"-86.651733","lat":"36.050629","theaterChainName":"Carmike Cinemas","ticketType":"STANDARD"},{"id":"4623","name":"Malco Smyrna Cinema","address":"100 Movie Row","city":"Smyrna","state":"TN","zip":"37167","distance":"18.95976448059082","lon":"-86.565720","lat":"35.980576","theaterChainName":"Malco Theatre","ticketType":"STANDARD"},{"id":"2962","name":"Opry Mills Stadium 20 and IMAX","address":"570 Opry MIlls Drive","city":"Nashville","state":"TN","zip":"37214","distance":"22.046566009521484","lon":"-86.695328","lat":"36.206123","theaterChainName":"Regal Cinemas","ticketType":"STANDARD"},{"id":"4362","name":"Regal Providence Stadium 14","address":"401 South Mt. Juliet Rd.","city":"Mount Juliet","state":"TN","zip":"37122","distance":"11.700175285339355","lon":"-86.514198","lat":"36.167099","theaterChainName":"Regal Cinemas","ticketType":"STANDARD"},{"id":"1452","name":"Carmike Wynnsong 10 Madison","address":"721 Myatt Drive","city":"Madison","state":"TN","zip":"37115","distance":"23.787195205688477","lon":"-86.695274","lat":"36.295277","theaterChainName":"Carmike Cinemas","ticketType":"STANDARD"},{"id":"2760","name":"Carmike Wynnsong 16 - Murfreesboro","address":"2626 Cason Square Blvd.","city":"Murfreesboro","state":"TN","zip":"37128","distance":"22.862123489379883","lon":"-86.438179","lat":"35.843395","theaterChainName":"Carmike Cinemas","ticketType":"STANDARD"},{"id":"4452","name":"Streets of Indian Lake Stadium 16 & IMAX","address":"300 Indian Lake Blvd.","city":"Hendersonville","state":"TN","zip":"37075","distance":"19.887887954711914","lon":"-86.589439","lat":"36.329922","theaterChainName":"Regal Cinemas","ticketType":"STANDARD"},{"id":"4356","name":"NCG Gallatin Cinemas, Inc.","address":"1035 Greensboro Drive","city":"Gallatin","state":"TN","zip":"37066","distance":"17.51177978515625","lon":"-86.494446","lat":"36.358360","theaterChainName":"NCG Cinemas","ticketType":"STANDARD"},{"id":"4041","name":"Roxy 10 Theater","address":"200 Legends Dr.","city":"Lebanon","state":"TN","zip":"37087","distance":"2.2668614387512207","lon":"-86.292755","lat":"36.187508","theaterChainName":"UEC Theatres","ticketType":"STANDARD"}]