[{"id":"982","name":"Carmike Hickory 8","address":"901 Bell Road","city":"Antioch","state":"TN","zip":"37013","distance":"22.87960433959961","lon":"-86.651733","lat":"36.050629","theaterChainName":"Carmike Cinemas","ticketType":"STANDARD"},{"id":"4623","name":"Malco Smyrna Cinema","address":"100 Movie Row","city":"Smyrna","state":"TN","zip":"37167","distance":"21.960561752319336","lon":"-86.565720","lat":"35.980576","theaterChainName":"Malco Theatre","ticketType":"STANDARD"},{"id":"2962","name":"Opry Mills Stadium 20 and IMAX","address":"570 Opry MIlls Drive","city":"Nashville","state":"TN","zip":"37214","distance":"22.5377140045166","lon":"-86.695328","lat":"36.206123","theaterChainName":"Regal Cinemas","ticketType":"STANDARD"},{"id":"4362","name":"Regal Providence Stadium 14","address":"401 South Mt. Juliet Rd.","city":"Mount Juliet","state":"TN","zip":"37122","distance":"12.760201454162598","lon":"-86.514198","lat":"36.167099","theaterChainName":"Regal Cinemas","ticketType":"STANDARD"},{"id":"1452","name":"Carmike Wynnsong 10 Madison","address":"721 Myatt Drive","city":"Madison","state":"TN","zip":"37115","distance":"23.313135147094727","lon":"-86.695274","lat":"36.295277","theaterChainName":"Carmike Cinemas","ticketType":"STANDARD"},{"id":"4452","name":"Streets of Indian Lake Stadium 16 & IMAX","address":"300 Indian Lake Blvd.","city":"Hendersonville","state":"TN","zip":"37075","distance":"18.630502700805664","lon":"-86.589439","lat":"36.329922","theaterChainName":"Regal Cinemas","ticketType":"STANDARD"},{"id":"4356","name":"NCG Gallatin Cinemas, Inc.","address":"1035 Greensboro Drive","city":"Gallatin","state":"TN","zip":"37066","distance":"15.365058898925781","lon":"-86.494446","lat":"36.358360","theaterChainName":"NCG Cinemas","ticketType":"STANDARD"},{"id":"4041","name":"Roxy 10 Theater","address":"200 Legends Dr.","city":"Lebanon","state":"TN","zip":"37087","distance":"1.4258308410644531","lon":"-86.292755","lat":"36.187508","theaterChainName":"UEC Theatres","ticketType":"STANDARD"}]