[{"id":"1452","name":"Carmike Wynnsong 10 Madison","address":"721 Myatt Drive","city":"Madison","state":"TN","zip":"37115","distance":"24.834592819213867","lon":"-86.695274","lat":"36.295277","theaterChainName":"Carmike Cinemas","ticketType":"STANDARD"},{"id":"4452","name":"Streets of Indian Lake Stadium 16 & IMAX","address":"300 Indian Lake Blvd.","city":"Hendersonville","state":"TN","zip":"37075","distance":"21.06014060974121","lon":"-86.589439","lat":"36.329922","theaterChainName":"Regal Cinemas","ticketType":"STANDARD"},{"id":"4356","name":"NCG Gallatin Cinemas, Inc.","address":"1035 Greensboro Drive","city":"Gallatin","state":"TN","zip":"37066","distance":"19.069135665893555","lon":"-86.494446","lat":"36.358360","theaterChainName":"NCG Cinemas","ticketType":"STANDARD"},{"id":"983","name":"Carmike Springfield Cinema","address":"718 S. Main St","city":"Springfield","state":"TN","zip":"37172","distance":"21.04761505126953","lon":"-86.885147","lat":"36.507496","theaterChainName":"Carmike Cinemas","ticketType":"STANDARD"},{"id":"3196","name":"Regal Bowling Green 12","address":"323 Great Escape Ave.","city":"Bowling Green","state":"KY","zip":"42101","distance":"23.491519927978516","lon":"-86.475998","lat":"36.968212","theaterChainName":"Regal Cinemas","ticketType":"STANDARD"},{"id":"4010","name":"Great Escape Greenwood Mall 10","address":"2625 Scottsville Road","city":"Bowling Green","state":"KY","zip":"42103","distance":"22.865707397460938","lon":"-86.425102","lat":"36.950100","theaterChainName":"Regal Cinemas","ticketType":"STANDARD"}]