[{"id":"982","name":"Carmike Hickory 8","address":"901 Bell Road","city":"Antioch","state":"TN","zip":"37013","distance":"20.360986709594727","lon":"-86.651733","lat":"36.050629","theaterChainName":"Carmike Cinemas","ticketType":"STANDARD"},{"id":"4623","name":"Malco Smyrna Cinema","address":"100 Movie Row","city":"Smyrna","state":"TN","zip":"37167","distance":"13.541007041931152","lon":"-86.565720","lat":"35.980576","theaterChainName":"Malco Theatre","ticketType":"STANDARD"},{"id":"4362","name":"Regal Providence Stadium 14","address":"401 South Mt. Juliet Rd.","city":"Mount Juliet","state":"TN","zip":"37122","distance":"23.269329071044922","lon":"-86.514198","lat":"36.167099","theaterChainName":"Regal Cinemas","ticketType":"STANDARD"},{"id":"2760","name":"Carmike Wynnsong 16 - Murfreesboro","address":"2626 Cason Square Blvd.","city":"Murfreesboro","state":"TN","zip":"37128","distance":"2.6862540245056152","lon":"-86.438179","lat":"35.843395","theaterChainName":"Carmike Cinemas","ticketType":"STANDARD"},{"id":"4041","name":"Roxy 10 Theater","address":"200 Legends Dr.","city":"Lebanon","state":"TN","zip":"37087","distance":"24.245803833007812","lon":"-86.292755","lat":"36.187508","theaterChainName":"UEC Theatres","ticketType":"STANDARD"}]