[{"id":"2852","tribuneTheaterId":"7908","providerTheaterId":"","name":"Carmike Thoroughbred 20","address":"633 Frazier Drive","city":"Franklin","state":"TN","zip":"37064","distance":7.9348843567172,"lon":"-86.823921","lat":"35.943026","theaterChainName":"Carmike Cinemas","ticketType":"STANDARD"},{"id":"4623","tribuneTheaterId":"9800","providerTheaterId":"","name":"Malco Smyrna Cinema","address":"100 Movie Row","city":"Smyrna","state":"TN","zip":"37167","distance":7.4045084160301,"lon":"-86.565721","lat":"35.980576","theaterChainName":"Malco Theatre","ticketType":"STANDARD"},{"id":"982","tribuneTheaterId":"5756","providerTheaterId":"","name":"Carmike Hickory 8","address":"901 Bell Road","city":"Antioch","state":"TN","zip":"37013","distance":8.4673475085693,"lon":"-86.651734","lat":"36.050627","theaterChainName":"Carmike Cinemas","ticketType":"STANDARD"},{"id":"985","tribuneTheaterId":"5391","providerTheaterId":"","name":"Franklin Theatre","address":"419 Main St.","city":"Franklin","state":"TN","zip":"37064","distance":10.505702909241,"lon":"-86.870495","lat":"35.924088","theaterChainName":"Independent Chains","ticketType":"STANDARD"},{"id":"718","tribuneTheaterId":"8193","providerTheaterId":"","name":"Regal Hollywood Stadium 27-Nashville","address":"719 Thompson Ln","city":"Nashville","state":"TN","zip":"37204","distance":12.894700387149,"lon":"-86.762059","lat":"36.106001","theaterChainName":"Regal Cinemas","ticketType":"STANDARD"},{"id":"1451","tribuneTheaterId":"5631","providerTheaterId":"","name":"Regal Green Hills Stadium 16","address":"3815 Green Hills Village Drive","city":"Nashville","state":"TN","zip":"37215","distance":14.399368606083,"lon":"-86.816861","lat":"36.108725","theaterChainName":"Regal Cinemas","ticketType":"STANDARD"},{"id":"2760","tribuneTheaterId":"9105","providerTheaterId":"","name":"Carmike Wynnsong 16 - Murfreesboro","address":"2626 Cason Square Blvd.","city":"Murfreesboro","state":"TN","zip":"37128","distance":14.968270932655,"lon":"-86.438177","lat":"35.843396","theaterChainName":"Carmike Cinemas","ticketType":"STANDARD"},{"id":"5731","tribuneTheaterId":"11174","providerTheaterId":"","name":"Carmike 12 Spring Hill","address":"20658 Crossing Circle","city":"Spring Hill","state":"TN","zip":"37174","distance":16.152186541867,"lon":"-86.872","lat":"35.7542","theaterChainName":"Carmike Cinemas","ticketType":"STANDARD"},{"id":"1050","tribuneTheaterId":"5867","providerTheaterId":"","name":"Belcourt Theatre","address":"2102 Belcourt Ave","city":"Nashville","state":"TN","zip":"37212","distance":15.699242134636,"lon":"-86.801326","lat":"36.13675","theaterChainName":"Independent Chains","ticketType":"STANDARD"},{"id":"964","tribuneTheaterId":"5755","providerTheaterId":"","name":"Carmike Bellevue 8","address":"120 Belle Forest Circle","city":"Nashville","state":"TN","zip":"37221","distance":16.744616186111,"lon":"-86.92342","lat":"36.075172","theaterChainName":"Carmike Cinemas","ticketType":"STANDARD"},{"id":"2962","tribuneTheaterId":"8051","providerTheaterId":"","name":"Opry Mills Stadium 20 and IMAX","address":"570 Opry MIlls Drive","city":"Nashville","state":"TN","zip":"37214","distance":19.042601514385,"lon":"-86.695325","lat":"36.206124","theaterChainName":"Regal Cinemas","ticketType":"STANDARD"},{"id":"4362","tribuneTheaterId":"9391","providerTheaterId":"","name":"Regal Providence Stadium 14","address":"401 South Mt. Juliet Rd.","city":"Mount Juliet","state":"TN","zip":"37122","distance":18.857395141447,"lon":"-86.5142","lat":"36.1671","theaterChainName":"Regal Cinemas","ticketType":"STANDARD"}]