[{"id":"982","name":"Carmike Hickory 8","address":"901 Bell Road","city":"Antioch","state":"TN","zip":"37013","distance":"8.468093872070312","lon":"-86.651733","lat":"36.050629","theaterChainName":"Carmike Cinemas","ticketType":"STANDARD"},{"id":"4623","name":"Malco Smyrna Cinema","address":"100 Movie Row","city":"Smyrna","state":"TN","zip":"37167","distance":"7.40504789352417","lon":"-86.565720","lat":"35.980576","theaterChainName":"Malco Theatre","ticketType":"STANDARD"},{"id":"718","name":"Regal Hollywood Stadium 27-Nashville","address":"719 Thompson Ln","city":"Nashville","state":"TN","zip":"37204","distance":"12.895790100097656","lon":"-86.762062","lat":"36.106003","theaterChainName":"Regal Cinemas","ticketType":"STANDARD"},{"id":"2962","name":"Opry Mills Stadium 20 and IMAX","address":"570 Opry MIlls Drive","city":"Nashville","state":"TN","zip":"37214","distance":"19.043853759765625","lon":"-86.695328","lat":"36.206123","theaterChainName":"Regal Cinemas","ticketType":"STANDARD"},{"id":"4362","name":"Regal Providence Stadium 14","address":"401 South Mt. Juliet Rd.","city":"Mount Juliet","state":"TN","zip":"37122","distance":"18.858633041381836","lon":"-86.514198","lat":"36.167099","theaterChainName":"Regal Cinemas","ticketType":"STANDARD"},{"id":"1050","name":"Belcourt Theatre","address":"2102 Belcourt Ave","city":"Nashville","state":"TN","zip":"37212","distance":"15.700210571289062","lon":"-86.801323","lat":"36.136749","theaterChainName":"Independent Chains","ticketType":"STANDARD"},{"id":"1451","name":"Regal Green Hills Stadium 16","address":"3815 Green Hills Village Drive","city":"Nashville","state":"TN","zip":"37215","distance":"14.40054702758789","lon":"-86.816864","lat":"36.108727","theaterChainName":"Regal Cinemas","ticketType":"STANDARD"},{"id":"2852","name":"Carmike Thoroughbred 20","address":"633 Frazier Drive","city":"Franklin","state":"TN","zip":"37064","distance":"7.935439586639404","lon":"-86.823921","lat":"35.943027","theaterChainName":"Carmike Cinemas","ticketType":"STANDARD"},{"id":"985","name":"Franklin Theatre","address":"419 Main St.","city":"Franklin","state":"TN","zip":"37064","distance":"10.506584167480469","lon":"-86.870499","lat":"35.924088","theaterChainName":"Independent Chains","ticketType":"STANDARD"},{"id":"2760","name":"Carmike Wynnsong 16 - Murfreesboro","address":"2626 Cason Square Blvd.","city":"Murfreesboro","state":"TN","zip":"37128","distance":"14.969045639038086","lon":"-86.438179","lat":"35.843395","theaterChainName":"Carmike Cinemas","ticketType":"STANDARD"},{"id":"964","name":"Carmike Bellevue 8","address":"120 Belle Forest Circle","city":"Nashville","state":"TN","zip":"37221","distance":"16.745929718017578","lon":"-86.923424","lat":"36.075172","theaterChainName":"Carmike Cinemas","ticketType":"STANDARD"},{"id":"5731","name":"Carmike 12 Spring Hill","address":"20658 Crossing Circle","city":"Spring Hill","state":"TN","zip":"37174","distance":"16.15318489074707","lon":"-86.872002","lat":"35.754200","theaterChainName":"Carmike Cinemas","ticketType":"STANDARD"}]