[{"id":"982","name":"Carmike Hickory 8","address":"901 Bell Road","city":"Antioch","state":"TN","zip":"37013","distance":"21.64495086669922","lon":"-86.651733","lat":"36.050629","theaterChainName":"Carmike Cinemas","ticketType":"STANDARD"},{"id":"718","name":"Regal Hollywood Stadium 27-Nashville","address":"719 Thompson Ln","city":"Nashville","state":"TN","zip":"37204","distance":"15.054125785827637","lon":"-86.762062","lat":"36.106003","theaterChainName":"Regal Cinemas","ticketType":"STANDARD"},{"id":"2962","name":"Opry Mills Stadium 20 and IMAX","address":"570 Opry MIlls Drive","city":"Nashville","state":"TN","zip":"37214","distance":"19.835031509399414","lon":"-86.695328","lat":"36.206123","theaterChainName":"Regal Cinemas","ticketType":"STANDARD"},{"id":"1050","name":"Belcourt Theatre","address":"2102 Belcourt Ave","city":"Nashville","state":"TN","zip":"37212","distance":"12.957609176635742","lon":"-86.801323","lat":"36.136749","theaterChainName":"Independent Chains","ticketType":"STANDARD"},{"id":"1451","name":"Regal Green Hills Stadium 16","address":"3815 Green Hills Village Drive","city":"Nashville","state":"TN","zip":"37215","distance":"11.99061107635498","lon":"-86.816864","lat":"36.108727","theaterChainName":"Regal Cinemas","ticketType":"STANDARD"},{"id":"2852","name":"Carmike Thoroughbred 20","address":"633 Frazier Drive","city":"Franklin","state":"TN","zip":"37064","distance":"16.50637435913086","lon":"-86.823921","lat":"35.943027","theaterChainName":"Carmike Cinemas","ticketType":"STANDARD"},{"id":"985","name":"Franklin Theatre","address":"419 Main St.","city":"Franklin","state":"TN","zip":"37064","distance":"15.851705551147461","lon":"-86.870499","lat":"35.924088","theaterChainName":"Independent Chains","ticketType":"STANDARD"},{"id":"1452","name":"Carmike Wynnsong 10 Madison","address":"721 Myatt Drive","city":"Madison","state":"TN","zip":"37115","distance":"22.593172073364258","lon":"-86.695274","lat":"36.295277","theaterChainName":"Carmike Cinemas","ticketType":"STANDARD"},{"id":"964","name":"Carmike Bellevue 8","address":"120 Belle Forest Circle","city":"Nashville","state":"TN","zip":"37221","distance":"6.578559398651123","lon":"-86.923424","lat":"36.075172","theaterChainName":"Carmike Cinemas","ticketType":"STANDARD"},{"id":"3621","name":"Roxy 8 Theater","address":"Hwy 46 South","city":"Dickson","state":"TN","zip":"37055","distance":"19.310962677001953","lon":"-87.369232","lat":"36.052471","theaterChainName":"Independent Chains","ticketType":"STANDARD"}]