[{"id":"3516","name":"The Lincoln Theatre","address":"120 E. College St.","city":"Fayetteville","state":"TN","zip":"37334","distance":"23.696683883666992","lon":"-86.569786","lat":"35.152294","theaterChainName":"Independent Chains","ticketType":"STANDARD"},{"id":"2760","name":"Carmike Wynnsong 16 - Murfreesboro","address":"2626 Cason Square Blvd.","city":"Murfreesboro","state":"TN","zip":"37128","distance":"24.9058780670166","lon":"-86.438179","lat":"35.843395","theaterChainName":"Carmike Cinemas","ticketType":"STANDARD"},{"id":"684","name":"Regal Tullahoma Cinema 8","address":"2211 N. Jackson St.","city":"Tullahoma","state":"TN","zip":"37388","distance":"13.681126594543457","lon":"-86.244171","lat":"35.392864","theaterChainName":"Regal Cinemas","ticketType":"STANDARD"},{"id":"3315","name":"Capri Twin Theatre","address":"102 E. Depot St.","city":"Shelbyville","state":"TN","zip":"37160","distance":"0.09805302321910858","lon":"-86.458969","lat":"35.482479","theaterChainName":"Independent Chains","ticketType":"STANDARD"}]