[{"id":"5731","tribuneTheaterId":"11174","providerTheaterId":"","name":"Carmike 12 Spring Hill","address":"20658 Crossing Circle","city":"Spring Hill","state":"TN","zip":"37174","distance":3.1439109244241,"lon":"-86.872","lat":"35.7542","theaterChainName":"Carmike Cinemas","ticketType":"STANDARD"},{"id":"1873","tribuneTheaterId":"2294","providerTheaterId":"","name":"Shadybrook 12 Cinemas","address":"1907 Shadybrook Street","city":"Columbia","state":"TN","zip":"38401","distance":11.816770466359,"lon":"-87.0574","lat":"35.5995","theaterChainName":"Independent Chains","ticketType":"STANDARD"},{"id":"985","tribuneTheaterId":"5391","providerTheaterId":"","name":"Franklin Theatre","address":"419 Main St.","city":"Franklin","state":"TN","zip":"37064","distance":14.416350493819,"lon":"-86.870495","lat":"35.924088","theaterChainName":"Independent Chains","ticketType":"STANDARD"},{"id":"2852","tribuneTheaterId":"7908","providerTheaterId":"","name":"Carmike Thoroughbred 20","address":"633 Frazier Drive","city":"Franklin","state":"TN","zip":"37064","distance":16.240901613575,"lon":"-86.823921","lat":"35.943026","theaterChainName":"Carmike Cinemas","ticketType":"STANDARD"},{"id":"964","tribuneTheaterId":"5755","providerTheaterId":"","name":"Carmike Bellevue 8","address":"120 Belle Forest Circle","city":"Nashville","state":"TN","zip":"37221","distance":24.748511614783,"lon":"-86.92342","lat":"36.075172","theaterChainName":"Carmike Cinemas","ticketType":"STANDARD"}]