[{"id":"4623","name":"Malco Smyrna Cinema","address":"100 Movie Row","city":"Smyrna","state":"TN","zip":"37167","distance":"24.749387741088867","lon":"-86.565720","lat":"35.980576","theaterChainName":"Malco Theatre","ticketType":"STANDARD"},{"id":"2760","name":"Carmike Wynnsong 16 - Murfreesboro","address":"2626 Cason Square Blvd.","city":"Murfreesboro","state":"TN","zip":"37128","distance":"16.82000160217285","lon":"-86.438179","lat":"35.843395","theaterChainName":"Carmike Cinemas","ticketType":"STANDARD"},{"id":"5731","name":"Carmike 12 Spring Hill","address":"20658 Crossing Circle","city":"Spring Hill","state":"TN","zip":"37174","distance":"19.542593002319336","lon":"-86.872002","lat":"35.754200","theaterChainName":"Carmike Cinemas","ticketType":"STANDARD"},{"id":"684","name":"Regal Tullahoma Cinema 8","address":"2211 N. Jackson St.","city":"Tullahoma","state":"TN","zip":"37388","distance":"23.978803634643555","lon":"-86.244171","lat":"35.392864","theaterChainName":"Regal Cinemas","ticketType":"STANDARD"},{"id":"3315","name":"Capri Twin Theatre","address":"102 E. Depot St.","city":"Shelbyville","state":"TN","zip":"37160","distance":"11.325675964355469","lon":"-86.458969","lat":"35.482479","theaterChainName":"Independent Chains","ticketType":"STANDARD"}]