[{"id":"1050","name":"Belcourt Theatre","address":"2102 Belcourt Ave","city":"Nashville","state":"TN","zip":"37212","distance":"23.323261260986328","lon":"-86.801323","lat":"36.136749","theaterChainName":"Independent Chains","ticketType":"STANDARD"},{"id":"1451","name":"Regal Green Hills Stadium 16","address":"3815 Green Hills Village Drive","city":"Nashville","state":"TN","zip":"37215","distance":"22.475730895996094","lon":"-86.816864","lat":"36.108727","theaterChainName":"Regal Cinemas","ticketType":"STANDARD"},{"id":"985","name":"Franklin Theatre","address":"419 Main St.","city":"Franklin","state":"TN","zip":"37064","distance":"23.929109573364258","lon":"-86.870499","lat":"35.924088","theaterChainName":"Independent Chains","ticketType":"STANDARD"},{"id":"964","name":"Carmike Bellevue 8","address":"120 Belle Forest Circle","city":"Nashville","state":"TN","zip":"37221","distance":"16.861713409423828","lon":"-86.923424","lat":"36.075172","theaterChainName":"Carmike Cinemas","ticketType":"STANDARD"},{"id":"3621","name":"Roxy 8 Theater","address":"Hwy 46 South","city":"Dickson","state":"TN","zip":"37055","distance":"9.782282829284668","lon":"-87.369232","lat":"36.052471","theaterChainName":"Independent Chains","ticketType":"STANDARD"}]