[{"id":"982","name":"Carmike Hickory 8","address":"901 Bell Road","city":"Antioch","state":"TN","zip":"37013","distance":"12.287694931030273","lon":"-86.651733","lat":"36.050629","theaterChainName":"Carmike Cinemas","ticketType":"STANDARD"},{"id":"4623","name":"Malco Smyrna Cinema","address":"100 Movie Row","city":"Smyrna","state":"TN","zip":"37167","distance":"19.109743118286133","lon":"-86.565720","lat":"35.980576","theaterChainName":"Malco Theatre","ticketType":"STANDARD"},{"id":"718","name":"Regal Hollywood Stadium 27-Nashville","address":"719 Thompson Ln","city":"Nashville","state":"TN","zip":"37204","distance":"5.47585916519165","lon":"-86.762062","lat":"36.106003","theaterChainName":"Regal Cinemas","ticketType":"STANDARD"},{"id":"2962","name":"Opry Mills Stadium 20 and IMAX","address":"570 Opry MIlls Drive","city":"Nashville","state":"TN","zip":"37214","distance":"6.593557834625244","lon":"-86.695328","lat":"36.206123","theaterChainName":"Regal Cinemas","ticketType":"STANDARD"},{"id":"4362","name":"Regal Providence Stadium 14","address":"401 South Mt. Juliet Rd.","city":"Mount Juliet","state":"TN","zip":"37122","distance":"16.377891540527344","lon":"-86.514198","lat":"36.167099","theaterChainName":"Regal Cinemas","ticketType":"STANDARD"},{"id":"1050","name":"Belcourt Theatre","address":"2102 Belcourt Ave","city":"Nashville","state":"TN","zip":"37212","distance":"2.7484259605407715","lon":"-86.801323","lat":"36.136749","theaterChainName":"Independent Chains","ticketType":"STANDARD"},{"id":"1451","name":"Regal Green Hills Stadium 16","address":"3815 Green Hills Village Drive","city":"Nashville","state":"TN","zip":"37215","distance":"4.690873622894287","lon":"-86.816864","lat":"36.108727","theaterChainName":"Regal Cinemas","ticketType":"STANDARD"},{"id":"2852","name":"Carmike Thoroughbred 20","address":"633 Frazier Drive","city":"Franklin","state":"TN","zip":"37064","distance":"16.137483596801758","lon":"-86.823921","lat":"35.943027","theaterChainName":"Carmike Cinemas","ticketType":"STANDARD"},{"id":"985","name":"Franklin Theatre","address":"419 Main St.","city":"Franklin","state":"TN","zip":"37064","distance":"17.771257400512695","lon":"-86.870499","lat":"35.924088","theaterChainName":"Independent Chains","ticketType":"STANDARD"},{"id":"1452","name":"Carmike Wynnsong 10 Madison","address":"721 Myatt Drive","city":"Madison","state":"TN","zip":"37115","distance":"10.338772773742676","lon":"-86.695274","lat":"36.295277","theaterChainName":"Carmike Cinemas","ticketType":"STANDARD"},{"id":"964","name":"Carmike Bellevue 8","address":"120 Belle Forest Circle","city":"Nashville","state":"TN","zip":"37221","distance":"9.514103889465332","lon":"-86.923424","lat":"36.075172","theaterChainName":"Carmike Cinemas","ticketType":"STANDARD"},{"id":"4452","name":"Streets of Indian Lake Stadium 16 & IMAX","address":"300 Indian Lake Blvd.","city":"Hendersonville","state":"TN","zip":"37075","distance":"16.142990112304688","lon":"-86.589439","lat":"36.329922","theaterChainName":"Regal Cinemas","ticketType":"STANDARD"},{"id":"4356","name":"NCG Gallatin Cinemas, Inc.","address":"1035 Greensboro Drive","city":"Gallatin","state":"TN","zip":"37066","distance":"21.512737274169922","lon":"-86.494446","lat":"36.358360","theaterChainName":"NCG Cinemas","ticketType":"STANDARD"},{"id":"983","name":"Carmike Springfield Cinema","address":"718 S. Main St","city":"Springfield","state":"TN","zip":"37172","distance":"23.294998168945312","lon":"-86.885147","lat":"36.507496","theaterChainName":"Carmike Cinemas","ticketType":"STANDARD"}]