[{"id":"1050","tribuneTheaterId":"5867","providerTheaterId":"","name":"Belcourt Theatre","address":"2102 Belcourt Ave","city":"Nashville","state":"TN","zip":"37212","distance":0.21459329552497,"lon":"-86.801326","lat":"36.13675","theaterChainName":"Independent Chains","ticketType":"STANDARD"},{"id":"718","tribuneTheaterId":"8193","providerTheaterId":"","name":"Regal Hollywood Stadium 27-Nashville","address":"719 Thompson Ln","city":"Nashville","state":"TN","zip":"37204","distance":2.8792017929696,"lon":"-86.762059","lat":"36.106001","theaterChainName":"Regal Cinemas","ticketType":"STANDARD"},{"id":"1451","tribuneTheaterId":"5631","providerTheaterId":"","name":"Regal Green Hills Stadium 16","address":"3815 Green Hills Village Drive","city":"Nashville","state":"TN","zip":"37215","distance":1.9497090090709,"lon":"-86.816861","lat":"36.108725","theaterChainName":"Regal Cinemas","ticketType":"STANDARD"},{"id":"964","tribuneTheaterId":"5755","providerTheaterId":"","name":"Carmike Bellevue 8","address":"120 Belle Forest Circle","city":"Nashville","state":"TN","zip":"37221","distance":7.9599732294067,"lon":"-86.92342","lat":"36.075172","theaterChainName":"Carmike Cinemas","ticketType":"STANDARD"},{"id":"2962","tribuneTheaterId":"8051","providerTheaterId":"","name":"Opry Mills Stadium 20 and IMAX","address":"570 Opry MIlls Drive","city":"Nashville","state":"TN","zip":"37214","distance":7.7148940759373,"lon":"-86.695325","lat":"36.206124","theaterChainName":"Regal Cinemas","ticketType":"STANDARD"},{"id":"982","tribuneTheaterId":"5756","providerTheaterId":"","name":"Carmike Hickory 8","address":"901 Bell Road","city":"Antioch","state":"TN","zip":"37013","distance":10.100820016224,"lon":"-86.651734","lat":"36.050627","theaterChainName":"Carmike Cinemas","ticketType":"STANDARD"},{"id":"2852","tribuneTheaterId":"7908","providerTheaterId":"","name":"Carmike Thoroughbred 20","address":"633 Frazier Drive","city":"Franklin","state":"TN","zip":"37064","distance":13.238571413514,"lon":"-86.823921","lat":"35.943026","theaterChainName":"Carmike Cinemas","ticketType":"STANDARD"},{"id":"1452","tribuneTheaterId":"5760","providerTheaterId":"","name":"Carmike Wynnsong 10 Madison","address":"721 Myatt Drive","city":"Madison","state":"TN","zip":"37115","distance":12.613650163297,"lon":"-86.695272","lat":"36.295275","theaterChainName":"Carmike Cinemas","ticketType":"STANDARD"},{"id":"985","tribuneTheaterId":"5391","providerTheaterId":"","name":"Franklin Theatre","address":"419 Main St.","city":"Franklin","state":"TN","zip":"37064","distance":15.000140963963,"lon":"-86.870495","lat":"35.924088","theaterChainName":"Independent Chains","ticketType":"STANDARD"},{"id":"4623","tribuneTheaterId":"9800","providerTheaterId":"","name":"Malco Smyrna Cinema","address":"100 Movie Row","city":"Smyrna","state":"TN","zip":"37167","distance":16.854031366863,"lon":"-86.565721","lat":"35.980576","theaterChainName":"Malco Theatre","ticketType":"STANDARD"},{"id":"4362","tribuneTheaterId":"9391","providerTheaterId":"","name":"Regal Providence Stadium 14","address":"401 South Mt. Juliet Rd.","city":"Mount Juliet","state":"TN","zip":"37122","distance":16.144282871446,"lon":"-86.5142","lat":"36.1671","theaterChainName":"Regal Cinemas","ticketType":"STANDARD"},{"id":"4452","tribuneTheaterId":"9537","providerTheaterId":"","name":"Streets of Indian Lake Stadium 16 & IMAX","address":"300 Indian Lake Blvd.","city":"Hendersonville","state":"TN","zip":"37075","distance":17.952900126911,"lon":"-86.589438","lat":"36.32992","theaterChainName":"Regal Cinemas","ticketType":"STANDARD"},{"id":"4356","tribuneTheaterId":"9380","providerTheaterId":"","name":"NCG Gallatin Cinemas, Inc.","address":"1035 Greensboro Drive","city":"Gallatin","state":"TN","zip":"37066","distance":23.064810440771,"lon":"-86.494444","lat":"36.35836","theaterChainName":"NCG Cinemas","ticketType":"STANDARD"}]