[{"id":"5268","name":"Carmike Bradley Square 12","address":"200 Paul Huff Pkwy Ste. 72","city":"Cleveland","state":"TN","zip":"37312","distance":"18.895099639892578","lon":"-84.850197","lat":"35.205299","theaterChainName":"Carmike Cinemas","ticketType":"STANDARD"},{"id":"4077","name":"Cleveland UEC Theatres 14","address":"137 Pleasant Grove Rd. SW","city":"Cleveland","state":"TN","zip":"37311","distance":"16.9666690826416","lon":"-84.952171","lat":"35.152164","theaterChainName":"UEC Theatres","ticketType":"STANDARD"},{"id":"1386","name":"Carmike Wynnsong 10 Chattanooga","address":"2210 Gunbarrel Rd.","city":"Chattanooga","state":"TN","zip":"37421","distance":"21.584003448486328","lon":"-85.148666","lat":"35.032951","theaterChainName":"Carmike Cinemas","ticketType":"STANDARD"},{"id":"653","name":"Regal Hamilton Place 10-17","address":"2000 Hamilton Place Blvd","city":"Chattanooga","state":"TN","zip":"37421","distance":"21.699735641479492","lon":"-85.166199","lat":"35.032001","theaterChainName":"Regal Cinemas","ticketType":"STANDARD"},{"id":"4198","name":"Carmike East Ridge 18","address":"5080 South Terrance","city":"East Ridge","state":"TN","zip":"37412","distance":"24.041217803955078","lon":"-85.220703","lat":"35.003899","theaterChainName":"Carmike Cinemas","ticketType":"STANDARD"},{"id":"4112","name":"Carmike Northgate 14","address":"310 Ring Rd","city":"Hixson","state":"TN","zip":"37343","distance":"15.920534133911133","lon":"-85.236938","lat":"35.129429","theaterChainName":"Carmike Cinemas","ticketType":"STANDARD"},{"id":"4828","name":"Carmike Majestic 12","address":"311 Broad St.","city":"Chattanooga","state":"TN","zip":"37402","distance":"22.4514217376709","lon":"-85.311150","lat":"35.052700","theaterChainName":"Carmike Cinemas","ticketType":"STANDARD"}]