[{"id":"4687","name":"Carmike 12 Dalton","address":"875 Walnut Square Blvd.","city":"Dalton","state":"GA","zip":"30721","distance":"20.15790367126465","lon":"-84.933533","lat":"34.756351","theaterChainName":"Carmike Cinemas","ticketType":"STANDARD"},{"id":"5268","name":"Carmike Bradley Square 12","address":"200 Paul Huff Pkwy Ste. 72","city":"Cleveland","state":"TN","zip":"37312","distance":"15.845487594604492","lon":"-84.850197","lat":"35.205299","theaterChainName":"Carmike Cinemas","ticketType":"STANDARD"},{"id":"4077","name":"Cleveland UEC Theatres 14","address":"137 Pleasant Grove Rd. SW","city":"Cleveland","state":"TN","zip":"37311","distance":"16.396331787109375","lon":"-84.952171","lat":"35.152164","theaterChainName":"UEC Theatres","ticketType":"STANDARD"},{"id":"1386","name":"Carmike Wynnsong 10 Chattanooga","address":"2210 Gunbarrel Rd.","city":"Chattanooga","state":"TN","zip":"37421","distance":"23.67012596130371","lon":"-85.148666","lat":"35.032951","theaterChainName":"Carmike Cinemas","ticketType":"STANDARD"},{"id":"653","name":"Regal Hamilton Place 10-17","address":"2000 Hamilton Place Blvd","city":"Chattanooga","state":"TN","zip":"37421","distance":"24.65070152282715","lon":"-85.166199","lat":"35.032001","theaterChainName":"Regal Cinemas","ticketType":"STANDARD"}]