[{"id":"1580","name":"Cinemark Tinseltown USA 14 Bristol","address":"3004 Linden Drive","city":"Bristol","state":"VA","zip":"24202","distance":"11.9618501663208","lon":"-82.130798","lat":"36.628399","theaterChainName":"Cinemark","ticketType":"STANDARD"},{"id":"5855","name":"Marquee Pinnacle 12","address":"680 Pinnacle Parkway","city":"Bristol","state":"TN","zip":"37620","distance":"8.00286865234375","lon":"-82.264297","lat":"36.591000","theaterChainName":"Marquee Cinemas","ticketType":"STANDARD"},{"id":"2880","name":"Abingdon Cinemall","address":"721 East Main Street","city":"Abingdon","state":"VA","zip":"24210","distance":"22.869096755981445","lon":"-81.953812","lat":"36.718529","theaterChainName":"Independent Chains","ticketType":"STANDARD"},{"id":"4825","name":"Tri-Cities 7 Cinemas","address":"354 Shadowtown Road","city":"Blountville","state":"TN","zip":"37617","distance":"9.5665922164917","lon":"-82.395035","lat":"36.530952","theaterChainName":"Independent Chains","ticketType":"STANDARD"},{"id":"2679","name":"Real to Reel","address":"130 W. Springbrook Dr.","city":"Johnson City","state":"TN","zip":"37604","distance":"11.954970359802246","lon":"-82.381798","lat":"36.350101","theaterChainName":"Independent Chains","ticketType":"STANDARD"},{"id":"2254","name":"Carmike 14 Johnson City","address":"1805 N. Roan St","city":"Johnson City","state":"TN","zip":"37601","distance":"12.648900032043457","lon":"-82.376404","lat":"36.333260","theaterChainName":"Carmike Cinemas","ticketType":"STANDARD"},{"id":"5386","name":"Kingsport Town Center","address":"2101 Fort Henry Drive","city":"Kingsport","state":"TN","zip":"37664","distance":"16.222415924072266","lon":"-82.520943","lat":"36.529671","theaterChainName":"Frank Theatres","ticketType":"STANDARD"}]