[{"id":"5855","name":"Marquee Pinnacle 12","address":"680 Pinnacle Parkway","city":"Bristol","state":"TN","zip":"37620","distance":"23.97627067565918","lon":"-82.264297","lat":"36.591000","theaterChainName":"Marquee Cinemas","ticketType":"STANDARD"},{"id":"4825","name":"Tri-Cities 7 Cinemas","address":"354 Shadowtown Road","city":"Blountville","state":"TN","zip":"37617","distance":"17.114778518676758","lon":"-82.395035","lat":"36.530952","theaterChainName":"Independent Chains","ticketType":"STANDARD"},{"id":"2679","name":"Real to Reel","address":"130 W. Springbrook Dr.","city":"Johnson City","state":"TN","zip":"37604","distance":"7.120721817016602","lon":"-82.381798","lat":"36.350101","theaterChainName":"Independent Chains","ticketType":"STANDARD"},{"id":"2254","name":"Carmike 14 Johnson City","address":"1805 N. Roan St","city":"Johnson City","state":"TN","zip":"37601","distance":"6.854538917541504","lon":"-82.376404","lat":"36.333260","theaterChainName":"Carmike Cinemas","ticketType":"STANDARD"},{"id":"5386","name":"Kingsport Town Center","address":"2101 Fort Henry Drive","city":"Kingsport","state":"TN","zip":"37664","distance":"16.277667999267578","lon":"-82.520943","lat":"36.529671","theaterChainName":"Frank Theatres","ticketType":"STANDARD"},{"id":"5276","name":"Towne Center","address":"925 W. Andrew Johnson Way","city":"Greeneville","state":"TN","zip":"37745","distance":"21.060741424560547","lon":"-82.836700","lat":"36.173801","theaterChainName":"Carmike Cinemas","ticketType":"STANDARD"}]