[{"id":"2254","tribuneTheaterId":"4788","providerTheaterId":"","name":"Carmike 14 Johnson City","address":"1805 N. Roan St","city":"Johnson City","state":"TN","zip":"37601","distance":7.1920527959565,"lon":"-82.3764","lat":"36.333261","theaterChainName":"Carmike Cinemas","ticketType":"STANDARD"},{"id":"2679","tribuneTheaterId":"1204","providerTheaterId":"","name":"Real to Reel","address":"130 W. Springbrook Dr.","city":"Johnson City","state":"TN","zip":"37604","distance":6.4591149334621,"lon":"-82.3818","lat":"36.3501","theaterChainName":"Independent Chains","ticketType":"STANDARD"},{"id":"4825","tribuneTheaterId":"10099","providerTheaterId":"","name":"Tri-Cities 7 Cinemas","address":"354 Shadowtown Road","city":"Blountville","state":"TN","zip":"37617","distance":9.2130859614352,"lon":"-82.395036","lat":"36.530952","theaterChainName":"Independent Chains","ticketType":"STANDARD"},{"id":"5855","tribuneTheaterId":"11268","providerTheaterId":"","name":"Marquee Pinnacle 12","address":"680 Pinnacle Parkway","city":"Bristol","state":"TN","zip":"37620","distance":12.052881963806,"lon":"-82.2643","lat":"36.591","theaterChainName":"Marquee Cinemas","ticketType":"STANDARD"},{"id":"5386","tribuneTheaterId":"10823","providerTheaterId":"","name":"Kingsport Town Center","address":"2101 Fort Henry Drive","city":"Kingsport","state":"TN","zip":"37664","distance":14.25563701656,"lon":"-82.520942","lat":"36.529672","theaterChainName":"Frank Theatres","ticketType":"STANDARD"},{"id":"1580","tribuneTheaterId":"4238","providerTheaterId":"","name":"Cinemark Tinseltown USA 14 Bristol","address":"3004 Linden Drive","city":"Bristol","state":"VA","zip":"24202","distance":17.343876940696,"lon":"-82.1308","lat":"36.6284","theaterChainName":"Cinemark","ticketType":"STANDARD"}]