[{"id":"2256","tribuneTheaterId":"6925","providerTheaterId":"","name":"Carmike 10 Knoxville","address":"5020 Millertown Pike","city":"Knoxville","state":"TN","zip":"37917","distance":14.120543634585,"lon":"-83.872831","lat":"36.027697","theaterChainName":"Carmike Cinemas","ticketType":"STANDARD"},{"id":"679","tribuneTheaterId":"8797","providerTheaterId":"","name":"Regal Knoxville Center Stadium 10","address":"3051 N Mall Rd","city":"Knoxville","state":"TN","zip":"37924","distance":13.975435183637,"lon":"-83.876452","lat":"36.0347","theaterChainName":"Regal Cinemas","ticketType":"STANDARD"},{"id":"1773","tribuneTheaterId":"2031","providerTheaterId":"","name":"Halls Cinema","address":"3800 Neal Road","city":"Knoxville","state":"TN","zip":"37918","distance":15.266652045811,"lon":"-83.929523","lat":"36.070926","theaterChainName":"Independent Chains","ticketType":"STANDARD"},{"id":"4377","tribuneTheaterId":"9419","providerTheaterId":"","name":"Regal Riviera Stadium 8","address":"510 S. Gay St","city":"Knoxville","state":"TN","zip":"37902","distance":18.916601506818,"lon":"-83.917877","lat":"35.964782","theaterChainName":"Regal Cinemas","ticketType":"STANDARD"},{"id":"4633","tribuneTheaterId":"9817","providerTheaterId":"","name":"Carmike 12 Morristown","address":"2550 East Morris Blvd","city":"Morristown","state":"TN","zip":"37813","distance":23.62402862295,"lon":"-83.261535","lat":"36.219683","theaterChainName":"Carmike Cinemas","ticketType":"STANDARD"},{"id":"5851","tribuneTheaterId":"11263","providerTheaterId":"","name":"Governor's Crossing Stadium 14","address":"1402 Hurley Dr.","city":"Sevierville","state":"TN","zip":"37862","distance":22.873298619363,"lon":"-83.567174","lat":"35.839692","theaterChainName":"Southeast Cinemas","ticketType":"STANDARD"},{"id":"4956","tribuneTheaterId":"10314","providerTheaterId":"","name":"The Forge Cinemas","address":"2530 Parkway, Suite 7","city":"Pigeon Forge","state":"TN","zip":"37863","distance":24.931613767818,"lon":"-83.5775","lat":"35.8068","theaterChainName":"Phoenix Theatres","ticketType":"STANDARD"}]