[{"id":"1581","tribuneTheaterId":"5254","providerTheaterId":"","name":"Cinemark Tinseltown USA 14 Oak Ridge","address":"755 West Main St","city":"Oak Ridge","state":"TN","zip":"37830","distance":7.6958819773721,"lon":"-84.256103","lat":"36.011618","theaterChainName":"Cinemark","ticketType":"STANDARD"},{"id":"4000","tribuneTheaterId":"4644","providerTheaterId":"","name":"Regal Pinnacle Stadium 18 & IMAX","address":"11240 Parkside Drive","city":"Knoxville","state":"TN","zip":"37922","distance":16.131582597788,"lon":"-84.155837","lat":"35.899635","theaterChainName":"Regal Cinemas","ticketType":"STANDARD"},{"id":"2255","tribuneTheaterId":"6924","providerTheaterId":"","name":"Carmike Movies 7","address":"175 N. Seven Oaks Dr.","city":"Knoxville","state":"TN","zip":"37922","distance":18.349474092655,"lon":"-84.100353","lat":"35.911438","theaterChainName":"Carmike Cinemas","ticketType":"STANDARD"},{"id":"2869","tribuneTheaterId":"7435","providerTheaterId":"","name":"Carmike Wynnsong 16 Knoxville","address":"200 N. Peters Rd.","city":"Knoxville","state":"TN","zip":"37923","distance":19.134574503586,"lon":"-84.079903","lat":"35.919285","theaterChainName":"Carmike Cinemas","ticketType":"STANDARD"},{"id":"652","tribuneTheaterId":"8796","providerTheaterId":"","name":"Regal Downtown West Cinema 8","address":"1640 Downtown West Boulevard","city":"Knoxville","state":"TN","zip":"37919","distance":20.573495665469,"lon":"-84.050421","lat":"35.9219","theaterChainName":"Regal Cinemas","ticketType":"STANDARD"},{"id":"1485","tribuneTheaterId":"5630","providerTheaterId":"","name":"Regal West Town Stadium 9","address":"7600 Kingston Pike Ste 1520","city":"Knoxville","state":"TN","zip":"37919","distance":21.192804289199,"lon":"-84.037449","lat":"35.923998","theaterChainName":"Regal Cinemas","ticketType":"STANDARD"}]