[{"id":"2257","tribuneTheaterId":"4785","providerTheaterId":"","name":"Carmike Movies 2","address":"2140 Jacksboro Hwy","city":"La Follette","state":"TN","zip":"37766","distance":15.802896354855,"lon":"-84.160101","lat":"36.349932","theaterChainName":"Carmike Cinemas","ticketType":"STANDARD"},{"id":"5176","tribuneTheaterId":"10588","providerTheaterId":"","name":"Capitol 3 Theatre","address":"19552 Alberta St.","city":"Oneida","state":"TN","zip":"37841","distance":21.779314231902,"lon":"-84.510002","lat":"36.512299","theaterChainName":"Phoenix Theatres","ticketType":"STANDARD"},{"id":"4075","tribuneTheaterId":"2163","providerTheaterId":"","name":"Tri County Cineplex","address":"1871 Cumberland Falls Hwy.","city":"Corbin","state":"KY","zip":"40702","distance":23.512270432067,"lon":"-84.125359","lat":"36.917297","theaterChainName":"Independent Chains","ticketType":"STANDARD"},{"id":"1857","tribuneTheaterId":"4715","providerTheaterId":"","name":"Carmike 4 Middlesboro","address":"905 N 12th St.","city":"Middlesboro","state":"KY","zip":"40965","distance":23.599291949467,"lon":"-83.704102","lat":"36.620998","theaterChainName":"Carmike Cinemas","ticketType":"STANDARD"}]