[{"id":"4000","tribuneTheaterId":"4644","providerTheaterId":"","name":"Regal Pinnacle Stadium 18 & IMAX","address":"11240 Parkside Drive","city":"Knoxville","state":"TN","zip":"37922","distance":8.741773187138,"lon":"-84.155837","lat":"35.899635","theaterChainName":"Regal Cinemas","ticketType":"STANDARD"},{"id":"2255","tribuneTheaterId":"6924","providerTheaterId":"","name":"Carmike Movies 7","address":"175 N. Seven Oaks Dr.","city":"Knoxville","state":"TN","zip":"37922","distance":11.631490161089,"lon":"-84.100353","lat":"35.911438","theaterChainName":"Carmike Cinemas","ticketType":"STANDARD"},{"id":"2869","tribuneTheaterId":"7435","providerTheaterId":"","name":"Carmike Wynnsong 16 Knoxville","address":"200 N. Peters Rd.","city":"Knoxville","state":"TN","zip":"37923","distance":12.874909577405,"lon":"-84.079903","lat":"35.919285","theaterChainName":"Carmike Cinemas","ticketType":"STANDARD"},{"id":"1485","tribuneTheaterId":"5630","providerTheaterId":"","name":"Regal West Town Stadium 9","address":"7600 Kingston Pike Ste 1520","city":"Knoxville","state":"TN","zip":"37919","distance":15.036073399597,"lon":"-84.037449","lat":"35.923998","theaterChainName":"Regal Cinemas","ticketType":"STANDARD"},{"id":"652","tribuneTheaterId":"8796","providerTheaterId":"","name":"Regal Downtown West Cinema 8","address":"1640 Downtown West Boulevard","city":"Knoxville","state":"TN","zip":"37919","distance":14.343303466201,"lon":"-84.050421","lat":"35.9219","theaterChainName":"Regal Cinemas","ticketType":"STANDARD"},{"id":"1581","tribuneTheaterId":"5254","providerTheaterId":"","name":"Cinemark Tinseltown USA 14 Oak Ridge","address":"755 West Main St","city":"Oak Ridge","state":"TN","zip":"37830","distance":13.914985279762,"lon":"-84.256103","lat":"36.011618","theaterChainName":"Cinemark","ticketType":"STANDARD"},{"id":"5134","tribuneTheaterId":"10540","providerTheaterId":"","name":"Foothills 12","address":"134 Foothills Mall Drive","city":"Maryville","state":"TN","zip":"37801","distance":15.980793477721,"lon":"-83.994378","lat":"35.741445","theaterChainName":"Carmike Cinemas","ticketType":"STANDARD"},{"id":"4377","tribuneTheaterId":"9419","providerTheaterId":"","name":"Regal Riviera Stadium 8","address":"510 S. Gay St","city":"Knoxville","state":"TN","zip":"37902","distance":22.239874733989,"lon":"-83.917877","lat":"35.964782","theaterChainName":"Regal Cinemas","ticketType":"STANDARD"}]