[{"id":"679","name":"Regal Knoxville Center Stadium 10","address":"3051 N Mall Rd","city":"Knoxville","state":"TN","zip":"37924","distance":"13.147860527038574","lon":"-83.876450","lat":"36.034698","theaterChainName":"Regal Cinemas","ticketType":"STANDARD"},{"id":"2256","name":"Carmike 10 Knoxville","address":"5020 Millertown Pike","city":"Knoxville","state":"TN","zip":"37917","distance":"13.475022315979004","lon":"-83.872833","lat":"36.027699","theaterChainName":"Carmike Cinemas","ticketType":"STANDARD"},{"id":"1773","name":"Halls Cinema","address":"3800 Neal Road","city":"Knoxville","state":"TN","zip":"37918","distance":"13.005975723266602","lon":"-83.929520","lat":"36.070927","theaterChainName":"Independent Chains","ticketType":"STANDARD"},{"id":"4377","name":"Regal Riviera Stadium 8","address":"510 S. Gay St","city":"Knoxville","state":"TN","zip":"37902","distance":"18.496137619018555","lon":"-83.917877","lat":"35.964783","theaterChainName":"Regal Cinemas","ticketType":"STANDARD"},{"id":"1485","name":"Regal West Town Stadium 9","address":"7600 Kingston Pike Ste 1520","city":"Knoxville","state":"TN","zip":"37919","distance":"24.579225540161133","lon":"-84.037453","lat":"35.924000","theaterChainName":"Regal Cinemas","ticketType":"STANDARD"},{"id":"2257","name":"Carmike Movies 2","address":"2140 Jacksboro Hwy","city":"La Follette","state":"TN","zip":"37766","distance":"24.57505226135254","lon":"-84.160103","lat":"36.349934","theaterChainName":"Carmike Cinemas","ticketType":"STANDARD"}]