[{"id":"1773","tribuneTheaterId":"2031","providerTheaterId":"","name":"Halls Cinema","address":"3800 Neal Road","city":"Knoxville","state":"TN","zip":"37918","distance":13.005426466916,"lon":"-83.929523","lat":"36.070926","theaterChainName":"Independent Chains","ticketType":"STANDARD"},{"id":"679","tribuneTheaterId":"8797","providerTheaterId":"","name":"Regal Knoxville Center Stadium 10","address":"3051 N Mall Rd","city":"Knoxville","state":"TN","zip":"37924","distance":13.147083567998,"lon":"-83.876452","lat":"36.0347","theaterChainName":"Regal Cinemas","ticketType":"STANDARD"},{"id":"2256","tribuneTheaterId":"6925","providerTheaterId":"","name":"Carmike 10 Knoxville","address":"5020 Millertown Pike","city":"Knoxville","state":"TN","zip":"37917","distance":13.474280368959,"lon":"-83.872831","lat":"36.027697","theaterChainName":"Carmike Cinemas","ticketType":"STANDARD"},{"id":"4377","tribuneTheaterId":"9419","providerTheaterId":"","name":"Regal Riviera Stadium 8","address":"510 S. Gay St","city":"Knoxville","state":"TN","zip":"37902","distance":18.495090399929,"lon":"-83.917877","lat":"35.964782","theaterChainName":"Regal Cinemas","ticketType":"STANDARD"},{"id":"2257","tribuneTheaterId":"4785","providerTheaterId":"","name":"Carmike Movies 2","address":"2140 Jacksboro Hwy","city":"La Follette","state":"TN","zip":"37766","distance":24.573494940387,"lon":"-84.160101","lat":"36.349932","theaterChainName":"Carmike Cinemas","ticketType":"STANDARD"},{"id":"1485","tribuneTheaterId":"5630","providerTheaterId":"","name":"Regal West Town Stadium 9","address":"7600 Kingston Pike Ste 1520","city":"Knoxville","state":"TN","zip":"37919","distance":24.57774523596,"lon":"-84.037449","lat":"35.923998","theaterChainName":"Regal Cinemas","ticketType":"STANDARD"}]