[{"id":"4633","tribuneTheaterId":"9817","providerTheaterId":"","name":"Carmike 12 Morristown","address":"2550 East Morris Blvd","city":"Morristown","state":"TN","zip":"37813","distance":0.88019733323877,"lon":"-83.261535","lat":"36.219683","theaterChainName":"Carmike Cinemas","ticketType":"STANDARD"},{"id":"5241","tribuneTheaterId":"10669","providerTheaterId":"","name":"Newport Cinema 4","address":"424 Heritage Blvd.","city":"Newport","state":"TN","zip":"37821","distance":18.99452624016,"lon":"-83.19903","lat":"35.94537","theaterChainName":"Independent Chains","ticketType":"STANDARD"},{"id":"1775","tribuneTheaterId":"6522","providerTheaterId":"","name":"Rogersville Cinema 4","address":"1287 E. Main St","city":"Rogersville","state":"TN","zip":"37857","distance":21.143302821617,"lon":"-82.990224","lat":"36.415572","theaterChainName":"Independent Chains","ticketType":"STANDARD"},{"id":"5276","tribuneTheaterId":"10710","providerTheaterId":"","name":"Towne Center","address":"925 W. Andrew Johnson Way","city":"Greeneville","state":"TN","zip":"37745","distance":24.602645835374,"lon":"-82.8367","lat":"36.1738","theaterChainName":"Carmike Cinemas","ticketType":"STANDARD"}]