[{"id":"679","name":"Regal Knoxville Center Stadium 10","address":"3051 N Mall Rd","city":"Knoxville","state":"TN","zip":"37924","distance":"16.36463737487793","lon":"-83.876450","lat":"36.034698","theaterChainName":"Regal Cinemas","ticketType":"STANDARD"},{"id":"2256","name":"Carmike 10 Knoxville","address":"5020 Millertown Pike","city":"Knoxville","state":"TN","zip":"37917","distance":"16.8489990234375","lon":"-83.872833","lat":"36.027699","theaterChainName":"Carmike Cinemas","ticketType":"STANDARD"},{"id":"1773","name":"Halls Cinema","address":"3800 Neal Road","city":"Knoxville","state":"TN","zip":"37918","distance":"12.498785972595215","lon":"-83.929520","lat":"36.070927","theaterChainName":"Independent Chains","ticketType":"STANDARD"},{"id":"4377","name":"Regal Riviera Stadium 8","address":"510 S. Gay St","city":"Knoxville","state":"TN","zip":"37902","distance":"18.794036865234375","lon":"-83.917877","lat":"35.964783","theaterChainName":"Regal Cinemas","ticketType":"STANDARD"},{"id":"1485","name":"Regal West Town Stadium 9","address":"7600 Kingston Pike Ste 1520","city":"Knoxville","state":"TN","zip":"37919","distance":"19.29544448852539","lon":"-84.037453","lat":"35.924000","theaterChainName":"Regal Cinemas","ticketType":"STANDARD"},{"id":"652","name":"Regal Downtown West Cinema 8","address":"1640 Downtown West Boulevard","city":"Knoxville","state":"TN","zip":"37919","distance":"19.35166358947754","lon":"-84.050423","lat":"35.921902","theaterChainName":"Regal Cinemas","ticketType":"STANDARD"},{"id":"2869","name":"Carmike Wynnsong 16 Knoxville","address":"200 N. Peters Rd.","city":"Knoxville","state":"TN","zip":"37923","distance":"19.43411636352539","lon":"-84.079903","lat":"35.919285","theaterChainName":"Carmike Cinemas","ticketType":"STANDARD"},{"id":"2255","name":"Carmike Movies 7","address":"175 N. Seven Oaks Dr.","city":"Knoxville","state":"TN","zip":"37922","distance":"19.990049362182617","lon":"-84.100349","lat":"35.911438","theaterChainName":"Carmike Cinemas","ticketType":"STANDARD"},{"id":"2257","name":"Carmike Movies 2","address":"2140 Jacksboro Hwy","city":"La Follette","state":"TN","zip":"37766","distance":"11.124167442321777","lon":"-84.160103","lat":"36.349934","theaterChainName":"Carmike Cinemas","ticketType":"STANDARD"},{"id":"4000","name":"Regal Pinnacle Stadium 18 & IMAX","address":"11240 Parkside Drive","city":"Knoxville","state":"TN","zip":"37922","distance":"21.154056549072266","lon":"-84.155838","lat":"35.899635","theaterChainName":"Regal Cinemas","ticketType":"STANDARD"},{"id":"1581","name":"Cinemark Tinseltown USA 14 Oak Ridge","address":"755 West Main St","city":"Oak Ridge","state":"TN","zip":"37830","distance":"16.146926879882812","lon":"-84.256104","lat":"36.011620","theaterChainName":"Cinemark","ticketType":"STANDARD"}]