[{"id":"4956","name":"The Forge Cinemas","address":"2530 Parkway, Suite 7","city":"Pigeon Forge","state":"TN","zip":"37863","distance":"1.2679914236068726","lon":"-83.577499","lat":"35.806801","theaterChainName":"Phoenix Theatres","ticketType":"STANDARD"},{"id":"5851","name":"Governor's Crossing Stadium 14","address":"1402 Hurley Dr.","city":"Sevierville","state":"TN","zip":"37862","distance":"3.287109851837158","lon":"-83.567177","lat":"35.839691","theaterChainName":"Southeast Cinemas","ticketType":"STANDARD"},{"id":"5241","name":"Newport Cinema 4","address":"424 Heritage Blvd.","city":"Newport","state":"TN","zip":"37821","distance":"23.0041446685791","lon":"-83.199028","lat":"35.945370","theaterChainName":"Independent Chains","ticketType":"STANDARD"},{"id":"5134","name":"Foothills 12","address":"134 Foothills Mall Drive","city":"Maryville","state":"TN","zip":"37801","distance":"24.394269943237305","lon":"-83.994377","lat":"35.741444","theaterChainName":"Carmike Cinemas","ticketType":"STANDARD"},{"id":"679","name":"Regal Knoxville Center Stadium 10","address":"3051 N Mall Rd","city":"Knoxville","state":"TN","zip":"37924","distance":"24.226144790649414","lon":"-83.876450","lat":"36.034698","theaterChainName":"Regal Cinemas","ticketType":"STANDARD"},{"id":"2256","name":"Carmike 10 Knoxville","address":"5020 Millertown Pike","city":"Knoxville","state":"TN","zip":"37917","distance":"23.74692153930664","lon":"-83.872833","lat":"36.027699","theaterChainName":"Carmike Cinemas","ticketType":"STANDARD"},{"id":"4377","name":"Regal Riviera Stadium 8","address":"510 S. Gay St","city":"Knoxville","state":"TN","zip":"37902","distance":"23.134323120117188","lon":"-83.917877","lat":"35.964783","theaterChainName":"Regal Cinemas","ticketType":"STANDARD"}]