[{"id":"4633","name":"Carmike 12 Morristown","address":"2550 East Morris Blvd","city":"Morristown","state":"TN","zip":"37813","distance":"24.398221969604492","lon":"-83.261536","lat":"36.219685","theaterChainName":"Carmike Cinemas","ticketType":"STANDARD"},{"id":"4956","name":"The Forge Cinemas","address":"2530 Parkway, Suite 7","city":"Pigeon Forge","state":"TN","zip":"37863","distance":"18.632394790649414","lon":"-83.577499","lat":"35.806801","theaterChainName":"Phoenix Theatres","ticketType":"STANDARD"},{"id":"5851","name":"Governor's Crossing Stadium 14","address":"1402 Hurley Dr.","city":"Sevierville","state":"TN","zip":"37862","distance":"16.598926544189453","lon":"-83.567177","lat":"35.839691","theaterChainName":"Southeast Cinemas","ticketType":"STANDARD"},{"id":"679","name":"Regal Knoxville Center Stadium 10","address":"3051 N Mall Rd","city":"Knoxville","state":"TN","zip":"37924","distance":"12.493517875671387","lon":"-83.876450","lat":"36.034698","theaterChainName":"Regal Cinemas","ticketType":"STANDARD"},{"id":"2256","name":"Carmike 10 Knoxville","address":"5020 Millertown Pike","city":"Knoxville","state":"TN","zip":"37917","distance":"12.397194862365723","lon":"-83.872833","lat":"36.027699","theaterChainName":"Carmike Cinemas","ticketType":"STANDARD"},{"id":"1773","name":"Halls Cinema","address":"3800 Neal Road","city":"Knoxville","state":"TN","zip":"37918","distance":"15.232637405395508","lon":"-83.929520","lat":"36.070927","theaterChainName":"Independent Chains","ticketType":"STANDARD"},{"id":"4377","name":"Regal Riviera Stadium 8","address":"510 S. Gay St","city":"Knoxville","state":"TN","zip":"37902","distance":"16.26245880126953","lon":"-83.917877","lat":"35.964783","theaterChainName":"Regal Cinemas","ticketType":"STANDARD"},{"id":"1485","name":"Regal West Town Stadium 9","address":"7600 Kingston Pike Ste 1520","city":"Knoxville","state":"TN","zip":"37919","distance":"23.511734008789062","lon":"-84.037453","lat":"35.924000","theaterChainName":"Regal Cinemas","ticketType":"STANDARD"},{"id":"652","name":"Regal Downtown West Cinema 8","address":"1640 Downtown West Boulevard","city":"Knoxville","state":"TN","zip":"37919","distance":"24.23053741455078","lon":"-84.050423","lat":"35.921902","theaterChainName":"Regal Cinemas","ticketType":"STANDARD"}]