[{"id":"5134","name":"Foothills 12","address":"134 Foothills Mall Drive","city":"Maryville","state":"TN","zip":"37801","distance":"10.851948738098145","lon":"-83.994377","lat":"35.741444","theaterChainName":"Carmike Cinemas","ticketType":"STANDARD"},{"id":"1485","name":"Regal West Town Stadium 9","address":"7600 Kingston Pike Ste 1520","city":"Knoxville","state":"TN","zip":"37919","distance":"23.601701736450195","lon":"-84.037453","lat":"35.924000","theaterChainName":"Regal Cinemas","ticketType":"STANDARD"},{"id":"652","name":"Regal Downtown West Cinema 8","address":"1640 Downtown West Boulevard","city":"Knoxville","state":"TN","zip":"37919","distance":"23.547178268432617","lon":"-84.050423","lat":"35.921902","theaterChainName":"Regal Cinemas","ticketType":"STANDARD"},{"id":"2869","name":"Carmike Wynnsong 16 Knoxville","address":"200 N. Peters Rd.","city":"Knoxville","state":"TN","zip":"37923","distance":"23.655391693115234","lon":"-84.079903","lat":"35.919285","theaterChainName":"Carmike Cinemas","ticketType":"STANDARD"},{"id":"2255","name":"Carmike Movies 7","address":"175 N. Seven Oaks Dr.","city":"Knoxville","state":"TN","zip":"37922","distance":"23.395769119262695","lon":"-84.100349","lat":"35.911438","theaterChainName":"Carmike Cinemas","ticketType":"STANDARD"},{"id":"4000","name":"Regal Pinnacle Stadium 18 & IMAX","address":"11240 Parkside Drive","city":"Knoxville","state":"TN","zip":"37922","distance":"23.634166717529297","lon":"-84.155838","lat":"35.899635","theaterChainName":"Regal Cinemas","ticketType":"STANDARD"}]