[{"id":"4633","name":"Carmike 12 Morristown","address":"2550 East Morris Blvd","city":"Morristown","state":"TN","zip":"37813","distance":"19.542741775512695","lon":"-83.261536","lat":"36.219685","theaterChainName":"Carmike Cinemas","ticketType":"STANDARD"},{"id":"1857","name":"Carmike 4 Middlesboro","address":"905 N 12th St.","city":"Middlesboro","state":"KY","zip":"40965","distance":"22.307971954345703","lon":"-83.704102","lat":"36.620998","theaterChainName":"Carmike Cinemas","ticketType":"STANDARD"},{"id":"679","name":"Regal Knoxville Center Stadium 10","address":"3051 N Mall Rd","city":"Knoxville","state":"TN","zip":"37924","distance":"24.74230194091797","lon":"-83.876450","lat":"36.034698","theaterChainName":"Regal Cinemas","ticketType":"STANDARD"},{"id":"2256","name":"Carmike 10 Knoxville","address":"5020 Millertown Pike","city":"Knoxville","state":"TN","zip":"37917","distance":"24.991140365600586","lon":"-83.872833","lat":"36.027699","theaterChainName":"Carmike Cinemas","ticketType":"STANDARD"},{"id":"1773","name":"Halls Cinema","address":"3800 Neal Road","city":"Knoxville","state":"TN","zip":"37918","distance":"24.999500274658203","lon":"-83.929520","lat":"36.070927","theaterChainName":"Independent Chains","ticketType":"STANDARD"}]