[{"id":"4633","tribuneTheaterId":"9817","providerTheaterId":"","name":"Carmike 12 Morristown","address":"2550 East Morris Blvd","city":"Morristown","state":"TN","zip":"37813","distance":19.541773659886,"lon":"-83.261535","lat":"36.219683","theaterChainName":"Carmike Cinemas","ticketType":"STANDARD"},{"id":"1857","tribuneTheaterId":"4715","providerTheaterId":"","name":"Carmike 4 Middlesboro","address":"905 N 12th St.","city":"Middlesboro","state":"KY","zip":"40965","distance":22.306537654997,"lon":"-83.704102","lat":"36.620998","theaterChainName":"Carmike Cinemas","ticketType":"STANDARD"},{"id":"1773","tribuneTheaterId":"2031","providerTheaterId":"","name":"Halls Cinema","address":"3800 Neal Road","city":"Knoxville","state":"TN","zip":"37918","distance":24.99796694779,"lon":"-83.929523","lat":"36.070926","theaterChainName":"Independent Chains","ticketType":"STANDARD"},{"id":"2256","tribuneTheaterId":"6925","providerTheaterId":"","name":"Carmike 10 Knoxville","address":"5020 Millertown Pike","city":"Knoxville","state":"TN","zip":"37917","distance":24.989461649941,"lon":"-83.872831","lat":"36.027697","theaterChainName":"Carmike Cinemas","ticketType":"STANDARD"},{"id":"679","tribuneTheaterId":"8797","providerTheaterId":"","name":"Regal Knoxville Center Stadium 10","address":"3051 N Mall Rd","city":"Knoxville","state":"TN","zip":"37924","distance":24.740638650254,"lon":"-83.876452","lat":"36.0347","theaterChainName":"Regal Cinemas","ticketType":"STANDARD"}]