[{"id":"5134","name":"Foothills 12","address":"134 Foothills Mall Drive","city":"Maryville","state":"TN","zip":"37801","distance":"15.819506645202637","lon":"-83.994377","lat":"35.741444","theaterChainName":"Carmike Cinemas","ticketType":"STANDARD"},{"id":"679","name":"Regal Knoxville Center Stadium 10","address":"3051 N Mall Rd","city":"Knoxville","state":"TN","zip":"37924","distance":"16.721084594726562","lon":"-83.876450","lat":"36.034698","theaterChainName":"Regal Cinemas","ticketType":"STANDARD"},{"id":"2256","name":"Carmike 10 Knoxville","address":"5020 Millertown Pike","city":"Knoxville","state":"TN","zip":"37917","distance":"16.711322784423828","lon":"-83.872833","lat":"36.027699","theaterChainName":"Carmike Cinemas","ticketType":"STANDARD"},{"id":"1773","name":"Halls Cinema","address":"3800 Neal Road","city":"Knoxville","state":"TN","zip":"37918","distance":"15.474763870239258","lon":"-83.929520","lat":"36.070927","theaterChainName":"Independent Chains","ticketType":"STANDARD"},{"id":"4377","name":"Regal Riviera Stadium 8","address":"510 S. Gay St","city":"Knoxville","state":"TN","zip":"37902","distance":"13.058270454406738","lon":"-83.917877","lat":"35.964783","theaterChainName":"Regal Cinemas","ticketType":"STANDARD"},{"id":"1485","name":"Regal West Town Stadium 9","address":"7600 Kingston Pike Ste 1520","city":"Knoxville","state":"TN","zip":"37919","distance":"6.2256855964660645","lon":"-84.037453","lat":"35.924000","theaterChainName":"Regal Cinemas","ticketType":"STANDARD"},{"id":"652","name":"Regal Downtown West Cinema 8","address":"1640 Downtown West Boulevard","city":"Knoxville","state":"TN","zip":"37919","distance":"5.5238037109375","lon":"-84.050423","lat":"35.921902","theaterChainName":"Regal Cinemas","ticketType":"STANDARD"},{"id":"2869","name":"Carmike Wynnsong 16 Knoxville","address":"200 N. Peters Rd.","city":"Knoxville","state":"TN","zip":"37923","distance":"3.9403235912323","lon":"-84.079903","lat":"35.919285","theaterChainName":"Carmike Cinemas","ticketType":"STANDARD"},{"id":"2255","name":"Carmike Movies 7","address":"175 N. Seven Oaks Dr.","city":"Knoxville","state":"TN","zip":"37922","distance":"3.0762500762939453","lon":"-84.100349","lat":"35.911438","theaterChainName":"Carmike Cinemas","ticketType":"STANDARD"},{"id":"4000","name":"Regal Pinnacle Stadium 18 & IMAX","address":"11240 Parkside Drive","city":"Knoxville","state":"TN","zip":"37922","distance":"2.379568576812744","lon":"-84.155838","lat":"35.899635","theaterChainName":"Regal Cinemas","ticketType":"STANDARD"},{"id":"1581","name":"Cinemark Tinseltown USA 14 Oak Ridge","address":"755 West Main St","city":"Oak Ridge","state":"TN","zip":"37830","distance":"8.10024642944336","lon":"-84.256104","lat":"36.011620","theaterChainName":"Cinemark","ticketType":"STANDARD"}]