[{"id":"4956","name":"The Forge Cinemas","address":"2530 Parkway, Suite 7","city":"Pigeon Forge","state":"TN","zip":"37863","distance":"13.122686386108398","lon":"-83.577499","lat":"35.806801","theaterChainName":"Phoenix Theatres","ticketType":"STANDARD"},{"id":"5851","name":"Governor's Crossing Stadium 14","address":"1402 Hurley Dr.","city":"Sevierville","state":"TN","zip":"37862","distance":"12.188103675842285","lon":"-83.567177","lat":"35.839691","theaterChainName":"Southeast Cinemas","ticketType":"STANDARD"},{"id":"5134","name":"Foothills 12","address":"134 Foothills Mall Drive","city":"Maryville","state":"TN","zip":"37801","distance":"19.130788803100586","lon":"-83.994377","lat":"35.741444","theaterChainName":"Carmike Cinemas","ticketType":"STANDARD"},{"id":"679","name":"Regal Knoxville Center Stadium 10","address":"3051 N Mall Rd","city":"Knoxville","state":"TN","zip":"37924","distance":"9.854536056518555","lon":"-83.876450","lat":"36.034698","theaterChainName":"Regal Cinemas","ticketType":"STANDARD"},{"id":"2256","name":"Carmike 10 Knoxville","address":"5020 Millertown Pike","city":"Knoxville","state":"TN","zip":"37917","distance":"9.374496459960938","lon":"-83.872833","lat":"36.027699","theaterChainName":"Carmike Cinemas","ticketType":"STANDARD"},{"id":"1773","name":"Halls Cinema","address":"3800 Neal Road","city":"Knoxville","state":"TN","zip":"37918","distance":"13.727705001831055","lon":"-83.929520","lat":"36.070927","theaterChainName":"Independent Chains","ticketType":"STANDARD"},{"id":"4377","name":"Regal Riviera Stadium 8","address":"510 S. Gay St","city":"Knoxville","state":"TN","zip":"37902","distance":"9.5955810546875","lon":"-83.917877","lat":"35.964783","theaterChainName":"Regal Cinemas","ticketType":"STANDARD"},{"id":"1485","name":"Regal West Town Stadium 9","address":"7600 Kingston Pike Ste 1520","city":"Knoxville","state":"TN","zip":"37919","distance":"16.084915161132812","lon":"-84.037453","lat":"35.924000","theaterChainName":"Regal Cinemas","ticketType":"STANDARD"},{"id":"652","name":"Regal Downtown West Cinema 8","address":"1640 Downtown West Boulevard","city":"Knoxville","state":"TN","zip":"37919","distance":"16.817270278930664","lon":"-84.050423","lat":"35.921902","theaterChainName":"Regal Cinemas","ticketType":"STANDARD"},{"id":"2869","name":"Carmike Wynnsong 16 Knoxville","address":"200 N. Peters Rd.","city":"Knoxville","state":"TN","zip":"37923","distance":"18.474632263183594","lon":"-84.079903","lat":"35.919285","theaterChainName":"Carmike Cinemas","ticketType":"STANDARD"},{"id":"2255","name":"Carmike Movies 7","address":"175 N. Seven Oaks Dr.","city":"Knoxville","state":"TN","zip":"37922","distance":"19.655426025390625","lon":"-84.100349","lat":"35.911438","theaterChainName":"Carmike Cinemas","ticketType":"STANDARD"},{"id":"4000","name":"Regal Pinnacle Stadium 18 & IMAX","address":"11240 Parkside Drive","city":"Knoxville","state":"TN","zip":"37922","distance":"22.8258056640625","lon":"-84.155838","lat":"35.899635","theaterChainName":"Regal Cinemas","ticketType":"STANDARD"}]