[{"id":"974","name":"Malco Wolfchase Galleria","address":"2766 N. Germantown Pkwy.","city":"Memphis","state":"TN","zip":"38133","distance":"3.246337652206421","lon":"-89.790550","lat":"35.201096","theaterChainName":"Malco Theatre","ticketType":"STANDARD"},{"id":"970","name":"Malco Stage Cinema 13","address":"7930 Stage Rd.","city":"Bartlett","state":"TN","zip":"38134","distance":"3.7863218784332275","lon":"-89.798416","lat":"35.207302","theaterChainName":"Malco Theatre","ticketType":"STANDARD"},{"id":"3459","name":"Malco Cordova Cinema","address":"1080 N. Germantown Parkway","city":"Cordova","state":"TN","zip":"38018","distance":"0.9388052821159363","lon":"-89.792770","lat":"35.154583","theaterChainName":"Malco Theatre","ticketType":"STANDARD"},{"id":"888","name":"Hollywood 20 Cinema","address":"6711 Stage Rd.","city":"Bartlett","state":"TN","zip":"38134","distance":"4.878559589385986","lon":"-89.839508","lat":"35.203636","theaterChainName":"Independent Chains","ticketType":"STANDARD"},{"id":"887","name":"Malco Bartlett Cinema 10","address":"2809 Bartlett Blvd.","city":"Memphis","state":"TN","zip":"38134","distance":"6.01069974899292","lon":"-89.866081","lat":"35.202183","theaterChainName":"Malco Theatre","ticketType":"STANDARD"},{"id":"2006","name":"Malco Collierville Towne Cinema 16","address":"380 Market Blvd.","city":"Collierville","state":"TN","zip":"38017","distance":"8.667750358581543","lon":"-89.692627","lat":"35.050430","theaterChainName":"Malco Theatre","ticketType":"STANDARD"},{"id":"890","name":"Malco Forest Hill","address":"3180 Village Shops Dr.","city":"Germantown","state":"TN","zip":"38138","distance":"6.430660247802734","lon":"-89.758331","lat":"35.063690","theaterChainName":"Malco Theatre","ticketType":"STANDARD"},{"id":"978","name":"Palace Cinema 12","address":"5117 Old Summer Road","city":"Memphis","state":"TN","zip":"38122","distance":"6.444833278656006","lon":"-89.890007","lat":"35.149204","theaterChainName":"Independent Chains","ticketType":"STANDARD"},{"id":"976","name":"Malco Ridgeway 4","address":"5853 Ridgeway Ctr. Pkwy.","city":"Memphis","state":"TN","zip":"38120","distance":"6.243258476257324","lon":"-89.866745","lat":"35.103832","theaterChainName":"Malco Theatre","ticketType":"STANDARD"},{"id":"3615","name":"Malco Paradiso","address":"584 South Mendenhall","city":"Memphis","state":"TN","zip":"38117","distance":"7.230271339416504","lon":"-89.894173","lat":"35.115089","theaterChainName":"Malco Theatre","ticketType":"STANDARD"},{"id":"1154","name":"Malco Majestic 20 Theatre","address":"7051 Malco Crossing","city":"Memphis","state":"TN","zip":"38115","distance":"8.123970985412598","lon":"-89.827782","lat":"35.045864","theaterChainName":"Malco Theatre","ticketType":"STANDARD"},{"id":"3005","name":"Malco Studio on the Square","address":"2105 Court St.","city":"Memphis","state":"TN","zip":"38104","distance":"12.205350875854492","lon":"-89.991119","lat":"35.137760","theaterChainName":"Malco Theatre","ticketType":"STANDARD"},{"id":"5427","name":"Malco Olive Branch","address":"6430 Goodman Rd.","city":"Olive Branch","state":"MS","zip":"38654","distance":"14.51574420928955","lon":"-89.876404","lat":"34.962200","theaterChainName":"Malco Theatre","ticketType":"STANDARD"},{"id":"2504","name":"Malco DeSoto Cinema 16","address":"7130 Malco Blvd.","city":"Southaven","state":"MS","zip":"38671","distance":"17.760961532592773","lon":"-89.987175","lat":"34.965214","theaterChainName":"Malco Theatre","ticketType":"STANDARD"}]