[{"id":"974","name":"Malco Wolfchase Galleria","address":"2766 N. Germantown Pkwy.","city":"Memphis","state":"TN","zip":"38133","distance":"19.89315414428711","lon":"-89.790550","lat":"35.201096","theaterChainName":"Malco Theatre","ticketType":"STANDARD"},{"id":"970","name":"Malco Stage Cinema 13","address":"7930 Stage Rd.","city":"Bartlett","state":"TN","zip":"38134","distance":"19.560707092285156","lon":"-89.798416","lat":"35.207302","theaterChainName":"Malco Theatre","ticketType":"STANDARD"},{"id":"3459","name":"Malco Cordova Cinema","address":"1080 N. Germantown Parkway","city":"Cordova","state":"TN","zip":"38018","distance":"23.07954978942871","lon":"-89.792770","lat":"35.154583","theaterChainName":"Malco Theatre","ticketType":"STANDARD"},{"id":"888","name":"Hollywood 20 Cinema","address":"6711 Stage Rd.","city":"Bartlett","state":"TN","zip":"38134","distance":"20.41758918762207","lon":"-89.839508","lat":"35.203636","theaterChainName":"Independent Chains","ticketType":"STANDARD"},{"id":"887","name":"Malco Bartlett Cinema 10","address":"2809 Bartlett Blvd.","city":"Memphis","state":"TN","zip":"38134","distance":"21.03186798095703","lon":"-89.866081","lat":"35.202183","theaterChainName":"Malco Theatre","ticketType":"STANDARD"},{"id":"978","name":"Palace Cinema 12","address":"5117 Old Summer Road","city":"Memphis","state":"TN","zip":"38122","distance":"24.93221664428711","lon":"-89.890007","lat":"35.149204","theaterChainName":"Independent Chains","ticketType":"STANDARD"}]