[{"id":"974","name":"Malco Wolfchase Galleria","address":"2766 N. Germantown Pkwy.","city":"Memphis","state":"TN","zip":"38133","distance":"24.030445098876953","lon":"-89.790550","lat":"35.201096","theaterChainName":"Malco Theatre","ticketType":"STANDARD"},{"id":"970","name":"Malco Stage Cinema 13","address":"7930 Stage Rd.","city":"Bartlett","state":"TN","zip":"38134","distance":"24.52670669555664","lon":"-89.798416","lat":"35.207302","theaterChainName":"Malco Theatre","ticketType":"STANDARD"},{"id":"3459","name":"Malco Cordova Cinema","address":"1080 N. Germantown Parkway","city":"Cordova","state":"TN","zip":"38018","distance":"23.974916458129883","lon":"-89.792770","lat":"35.154583","theaterChainName":"Malco Theatre","ticketType":"STANDARD"},{"id":"2006","name":"Malco Collierville Towne Cinema 16","address":"380 Market Blvd.","city":"Collierville","state":"TN","zip":"38017","distance":"19.767742156982422","lon":"-89.692627","lat":"35.050430","theaterChainName":"Malco Theatre","ticketType":"STANDARD"},{"id":"890","name":"Malco Forest Hill","address":"3180 Village Shops Dr.","city":"Germantown","state":"TN","zip":"38138","distance":"22.976085662841797","lon":"-89.758331","lat":"35.063690","theaterChainName":"Malco Theatre","ticketType":"STANDARD"}]