[{"id":"974","name":"Malco Wolfchase Galleria","address":"2766 N. Germantown Pkwy.","city":"Memphis","state":"TN","zip":"38133","distance":"13.926823616027832","lon":"-89.790550","lat":"35.201096","theaterChainName":"Malco Theatre","ticketType":"STANDARD"},{"id":"970","name":"Malco Stage Cinema 13","address":"7930 Stage Rd.","city":"Bartlett","state":"TN","zip":"38134","distance":"13.393477439880371","lon":"-89.798416","lat":"35.207302","theaterChainName":"Malco Theatre","ticketType":"STANDARD"},{"id":"3459","name":"Malco Cordova Cinema","address":"1080 N. Germantown Parkway","city":"Cordova","state":"TN","zip":"38018","distance":"14.939427375793457","lon":"-89.792770","lat":"35.154583","theaterChainName":"Malco Theatre","ticketType":"STANDARD"},{"id":"888","name":"Hollywood 20 Cinema","address":"6711 Stage Rd.","city":"Bartlett","state":"TN","zip":"38134","distance":"11.21762466430664","lon":"-89.839508","lat":"35.203636","theaterChainName":"Independent Chains","ticketType":"STANDARD"},{"id":"887","name":"Malco Bartlett Cinema 10","address":"2809 Bartlett Blvd.","city":"Memphis","state":"TN","zip":"38134","distance":"9.826863288879395","lon":"-89.866081","lat":"35.202183","theaterChainName":"Malco Theatre","ticketType":"STANDARD"},{"id":"2006","name":"Malco Collierville Towne Cinema 16","address":"380 Market Blvd.","city":"Collierville","state":"TN","zip":"38017","distance":"23.548133850097656","lon":"-89.692627","lat":"35.050430","theaterChainName":"Malco Theatre","ticketType":"STANDARD"},{"id":"890","name":"Malco Forest Hill","address":"3180 Village Shops Dr.","city":"Germantown","state":"TN","zip":"38138","distance":"20.05886459350586","lon":"-89.758331","lat":"35.063690","theaterChainName":"Malco Theatre","ticketType":"STANDARD"},{"id":"978","name":"Palace Cinema 12","address":"5117 Old Summer Road","city":"Memphis","state":"TN","zip":"38122","distance":"10.564033508300781","lon":"-89.890007","lat":"35.149204","theaterChainName":"Independent Chains","ticketType":"STANDARD"},{"id":"976","name":"Malco Ridgeway 4","address":"5853 Ridgeway Ctr. Pkwy.","city":"Memphis","state":"TN","zip":"38120","distance":"13.71159839630127","lon":"-89.866745","lat":"35.103832","theaterChainName":"Malco Theatre","ticketType":"STANDARD"},{"id":"3615","name":"Malco Paradiso","address":"584 South Mendenhall","city":"Memphis","state":"TN","zip":"38117","distance":"12.111501693725586","lon":"-89.894173","lat":"35.115089","theaterChainName":"Malco Theatre","ticketType":"STANDARD"},{"id":"1154","name":"Malco Majestic 20 Theatre","address":"7051 Malco Crossing","city":"Memphis","state":"TN","zip":"38115","distance":"18.191492080688477","lon":"-89.827782","lat":"35.045864","theaterChainName":"Malco Theatre","ticketType":"STANDARD"},{"id":"3005","name":"Malco Studio on the Square","address":"2105 Court St.","city":"Memphis","state":"TN","zip":"38104","distance":"8.120691299438477","lon":"-89.991119","lat":"35.137760","theaterChainName":"Malco Theatre","ticketType":"STANDARD"},{"id":"5427","name":"Malco Olive Branch","address":"6430 Goodman Rd.","city":"Olive Branch","state":"MS","zip":"38654","distance":"21.753374099731445","lon":"-89.876404","lat":"34.962200","theaterChainName":"Malco Theatre","ticketType":"STANDARD"},{"id":"2504","name":"Malco DeSoto Cinema 16","address":"7130 Malco Blvd.","city":"Southaven","state":"MS","zip":"38671","distance":"19.89219856262207","lon":"-89.987175","lat":"34.965214","theaterChainName":"Malco Theatre","ticketType":"STANDARD"}]