[{"id":"3005","tribuneTheaterId":"4132","providerTheaterId":"","name":"Malco Studio on the Square","address":"2105 Court St.","city":"Memphis","state":"TN","zip":"38104","distance":4.9309455560299,"lon":"-89.991123","lat":"35.137762","theaterChainName":"Malco Theatre","ticketType":"STANDARD"},{"id":"3615","tribuneTheaterId":"6354","providerTheaterId":"","name":"Malco Paradiso","address":"584 South Mendenhall","city":"Memphis","state":"TN","zip":"38117","distance":6.4782678925632,"lon":"-89.894172","lat":"35.115088","theaterChainName":"Malco Theatre","ticketType":"STANDARD"},{"id":"2504","tribuneTheaterId":"7052","providerTheaterId":"","name":"Malco DeSoto Cinema 16","address":"7130 Malco Blvd.","city":"Southaven","state":"MS","zip":"38671","distance":6.9968274069844,"lon":"-89.987175","lat":"34.965214","theaterChainName":"Malco Theatre","ticketType":"STANDARD"},{"id":"976","tribuneTheaterId":"6586","providerTheaterId":"","name":"Malco Ridgeway 4","address":"5853 Ridgeway Ctr. Pkwy.","city":"Memphis","state":"TN","zip":"38120","distance":7.5444286544661,"lon":"-89.866748","lat":"35.103832","theaterChainName":"Malco Theatre","ticketType":"STANDARD"},{"id":"978","tribuneTheaterId":"2289","providerTheaterId":"","name":"Palace Cinema 12","address":"5117 Old Summer Road","city":"Memphis","state":"TN","zip":"38122","distance":8.1261543303172,"lon":"-89.890005","lat":"35.149205","theaterChainName":"Independent Chains","ticketType":"STANDARD"},{"id":"5427","tribuneTheaterId":"10866","providerTheaterId":"","name":"Malco Olive Branch","address":"6430 Goodman Rd.","city":"Olive Branch","state":"MS","zip":"38654","distance":9.7313600456641,"lon":"-89.8764","lat":"34.9622","theaterChainName":"Malco Theatre","ticketType":"STANDARD"},{"id":"1154","tribuneTheaterId":"6953","providerTheaterId":"","name":"Malco Majestic 20 Theatre","address":"7051 Malco Crossing","city":"Memphis","state":"TN","zip":"38115","distance":9.4014635463846,"lon":"-89.82778","lat":"35.045865","theaterChainName":"Malco Theatre","ticketType":"STANDARD"},{"id":"887","tribuneTheaterId":"7950","providerTheaterId":"","name":"Malco Bartlett Cinema 10","address":"2809 Bartlett Blvd.","city":"Memphis","state":"TN","zip":"38134","distance":11.777947201336,"lon":"-89.866083","lat":"35.202184","theaterChainName":"Malco Theatre","ticketType":"STANDARD"},{"id":"890","tribuneTheaterId":"8814","providerTheaterId":"","name":"Malco Forest Hill","address":"3180 Village Shops Dr.","city":"Germantown","state":"TN","zip":"38138","distance":13.221521033013,"lon":"-89.758333","lat":"35.063692","theaterChainName":"Malco Theatre","ticketType":"STANDARD"},{"id":"3459","tribuneTheaterId":"3109","providerTheaterId":"","name":"Malco Cordova Cinema","address":"1080 N. Germantown Parkway","city":"Cordova","state":"TN","zip":"38018","distance":12.808269188701,"lon":"-89.792773","lat":"35.154584","theaterChainName":"Malco Theatre","ticketType":"STANDARD"},{"id":"888","tribuneTheaterId":"2414","providerTheaterId":"","name":"Hollywood 20 Cinema","address":"6711 Stage Rd.","city":"Bartlett","state":"TN","zip":"38134","distance":12.816149859067,"lon":"-89.839505","lat":"35.203636","theaterChainName":"Independent Chains","ticketType":"STANDARD"},{"id":"974","tribuneTheaterId":"6531","providerTheaterId":"","name":"Malco Wolfchase Galleria","address":"2766 N. Germantown Pkwy.","city":"Memphis","state":"TN","zip":"38133","distance":14.707554271823,"lon":"-89.790552","lat":"35.201097","theaterChainName":"Malco Theatre","ticketType":"STANDARD"},{"id":"970","tribuneTheaterId":"4099","providerTheaterId":"","name":"Malco Stage Cinema 13","address":"7930 Stage Rd.","city":"Bartlett","state":"TN","zip":"38134","distance":14.647248254389,"lon":"-89.798417","lat":"35.207302","theaterChainName":"Malco Theatre","ticketType":"STANDARD"},{"id":"2006","tribuneTheaterId":"6488","providerTheaterId":"","name":"Malco Collierville Towne Cinema 16","address":"380 Market Blvd.","city":"Collierville","state":"TN","zip":"38017","distance":16.973168405924,"lon":"-89.69263","lat":"35.05043","theaterChainName":"Malco Theatre","ticketType":"STANDARD"}]