[{"id":"4228","name":"Plaza Theatre - Humboldt","address":"1408 E. Main Street","city":"Humboldt","state":"TN","zip":"38343","distance":"24.381669998168945","lon":"-88.916718","lat":"35.819786","theaterChainName":"Independent Chains","ticketType":"STANDARD"},{"id":"4871","name":"Ritz 3 Cinema","address":"1109 S. Main","city":"Milan","state":"TN","zip":"38358","distance":"24.722309112548828","lon":"-88.759010","lat":"35.919403","theaterChainName":"Independent Chains","ticketType":"STANDARD"},{"id":"2822","name":"Carmike 9 Dyersburg","address":"528 Green Village Shopping Center","city":"Dyersburg","state":"TN","zip":"38024","distance":"16.32835578918457","lon":"-89.383202","lat":"36.047600","theaterChainName":"Carmike Cinemas","ticketType":"STANDARD"},{"id":"3476","name":"Hollywood Showcase","address":"1800 W. Reelfoot Ave.","city":"Union City","state":"TN","zip":"38261","distance":"18.9674015045166","lon":"-89.080750","lat":"36.408764","theaterChainName":"Independent Chains","ticketType":"STANDARD"},{"id":"4054","name":"Cine 6 Theatres","address":"Hwy 22 University Plaza","city":"Martin","state":"TN","zip":"38237","distance":"20.872190475463867","lon":"-88.848999","lat":"36.350700","theaterChainName":"Independent Chains","ticketType":"STANDARD"}]