[{"id":"654","tribuneTheaterId":"4148","providerTheaterId":"","name":"Jackson Cinema 10","address":"71 Conrad Drive","city":"Jackson","state":"TN","zip":"38305","distance":9.3144968488924,"lon":"-88.849322","lat":"35.644171","theaterChainName":"Independent Chains","ticketType":"STANDARD"},{"id":"2552","tribuneTheaterId":"2375","providerTheaterId":"","name":"Hollywood Cinema 16","address":"575 Vann Drive","city":"Jackson","state":"TN","zip":"38305","distance":10.657655104105,"lon":"-88.845009","lat":"35.668769","theaterChainName":"Independent Chains","ticketType":"STANDARD"},{"id":"4961","tribuneTheaterId":"10321","providerTheaterId":"","name":"Cinema Planet 10","address":"231 Kenworth Blvd","city":"Jackson","state":"TN","zip":"38305","distance":13.69367729001,"lon":"-88.7867","lat":"35.6821","theaterChainName":"Independent Chains","ticketType":"STANDARD"},{"id":"4228","tribuneTheaterId":"1650","providerTheaterId":"","name":"Plaza Theatre - Humboldt","address":"1408 E. Main Street","city":"Humboldt","state":"TN","zip":"38343","distance":18.45122173442,"lon":"-88.916716","lat":"35.819786","theaterChainName":"Independent Chains","ticketType":"STANDARD"}]