[{"id":"2147","name":"Carmike 10 Huntsville","address":"1359 Old Monrovia Road","city":"Huntsville","state":"AL","zip":"35806","distance":"24.246206283569336","lon":"-86.676666","lat":"34.748482","theaterChainName":"Carmike Cinemas","ticketType":"STANDARD"},{"id":"6139","name":"Cineplanet 15","address":"2100 Hughes Road","city":"Madison","state":"AL","zip":"35758","distance":"22.1395263671875","lon":"-86.741814","lat":"34.757576","theaterChainName":"Independent Chains","ticketType":"STANDARD"},{"id":"3514","name":"Cinemagic Theatre - Athens","address":"1702 S. Jefferson St.","city":"Athens","state":"AL","zip":"35611","distance":"18.84392547607422","lon":"-86.971771","lat":"34.795364","theaterChainName":"Independent Chains","ticketType":"STANDARD"},{"id":"3516","name":"The Lincoln Theatre","address":"120 E. College St.","city":"Fayetteville","state":"TN","zip":"37334","distance":"18.700645446777344","lon":"-86.569786","lat":"35.152294","theaterChainName":"Independent Chains","ticketType":"STANDARD"}]