[{"id":"1873","tribuneTheaterId":"2294","providerTheaterId":"","name":"Shadybrook 12 Cinemas","address":"1907 Shadybrook Street","city":"Columbia","state":"TN","zip":"38401","distance":12.208045710747,"lon":"-87.0574","lat":"35.5995","theaterChainName":"Independent Chains","ticketType":"STANDARD"},{"id":"5731","tribuneTheaterId":"11174","providerTheaterId":"","name":"Carmike 12 Spring Hill","address":"20658 Crossing Circle","city":"Spring Hill","state":"TN","zip":"37174","distance":15.674711518641,"lon":"-86.872","lat":"35.7542","theaterChainName":"Carmike Cinemas","ticketType":"STANDARD"},{"id":"985","tribuneTheaterId":"5391","providerTheaterId":"","name":"Franklin Theatre","address":"419 Main St.","city":"Franklin","state":"TN","zip":"37064","distance":19.445820620337,"lon":"-86.870495","lat":"35.924088","theaterChainName":"Independent Chains","ticketType":"STANDARD"},{"id":"2852","tribuneTheaterId":"7908","providerTheaterId":"","name":"Carmike Thoroughbred 20","address":"633 Frazier Drive","city":"Franklin","state":"TN","zip":"37064","distance":22.328826746827,"lon":"-86.823921","lat":"35.943026","theaterChainName":"Carmike Cinemas","ticketType":"STANDARD"},{"id":"3621","tribuneTheaterId":"2131","providerTheaterId":"","name":"Roxy 8 Theater","address":"Hwy 46 South","city":"Dickson","state":"TN","zip":"37055","distance":23.668347328054,"lon":"-87.369231","lat":"36.052471","theaterChainName":"Independent Chains","ticketType":"STANDARD"}]