[{"id":"2006","name":"Malco Collierville Towne Cinema 16","address":"380 Market Blvd.","city":"Collierville","state":"TN","zip":"38017","distance":"24.477352142333984","lon":"-89.692627","lat":"35.050430","theaterChainName":"Malco Theatre","ticketType":"STANDARD"},{"id":"890","name":"Malco Forest Hill","address":"3180 Village Shops Dr.","city":"Germantown","state":"TN","zip":"38138","distance":"22.597911834716797","lon":"-89.758331","lat":"35.063690","theaterChainName":"Malco Theatre","ticketType":"STANDARD"},{"id":"978","name":"Palace Cinema 12","address":"5117 Old Summer Road","city":"Memphis","state":"TN","zip":"38122","distance":"24.421483993530273","lon":"-89.890007","lat":"35.149204","theaterChainName":"Independent Chains","ticketType":"STANDARD"},{"id":"976","name":"Malco Ridgeway 4","address":"5853 Ridgeway Ctr. Pkwy.","city":"Memphis","state":"TN","zip":"38120","distance":"21.879043579101562","lon":"-89.866745","lat":"35.103832","theaterChainName":"Malco Theatre","ticketType":"STANDARD"},{"id":"3615","name":"Malco Paradiso","address":"584 South Mendenhall","city":"Memphis","state":"TN","zip":"38117","distance":"22.095664978027344","lon":"-89.894173","lat":"35.115089","theaterChainName":"Malco Theatre","ticketType":"STANDARD"},{"id":"1154","name":"Malco Majestic 20 Theatre","address":"7051 Malco Crossing","city":"Memphis","state":"TN","zip":"38115","distance":"19.299985885620117","lon":"-89.827782","lat":"35.045864","theaterChainName":"Malco Theatre","ticketType":"STANDARD"},{"id":"3005","name":"Malco Studio on the Square","address":"2105 Court St.","city":"Memphis","state":"TN","zip":"38104","distance":"22.698883056640625","lon":"-89.991119","lat":"35.137760","theaterChainName":"Malco Theatre","ticketType":"STANDARD"},{"id":"5427","name":"Malco Olive Branch","address":"6430 Goodman Rd.","city":"Olive Branch","state":"MS","zip":"38654","distance":"12.96497631072998","lon":"-89.876404","lat":"34.962200","theaterChainName":"Malco Theatre","ticketType":"STANDARD"},{"id":"2504","name":"Malco DeSoto Cinema 16","address":"7130 Malco Blvd.","city":"Southaven","state":"MS","zip":"38671","distance":"10.826667785644531","lon":"-89.987175","lat":"34.965214","theaterChainName":"Malco Theatre","ticketType":"STANDARD"}]