[{"id":"2504","tribuneTheaterId":"7052","providerTheaterId":"","name":"Malco DeSoto Cinema 16","address":"7130 Malco Blvd.","city":"Southaven","state":"MS","zip":"38671","distance":11.0067020633,"lon":"-89.987175","lat":"34.965214","theaterChainName":"Malco Theatre","ticketType":"STANDARD"},{"id":"5427","tribuneTheaterId":"10866","providerTheaterId":"","name":"Malco Olive Branch","address":"6430 Goodman Rd.","city":"Olive Branch","state":"MS","zip":"38654","distance":16.791418359287,"lon":"-89.8764","lat":"34.9622","theaterChainName":"Malco Theatre","ticketType":"STANDARD"},{"id":"3005","tribuneTheaterId":"4132","providerTheaterId":"","name":"Malco Studio on the Square","address":"2105 Court St.","city":"Memphis","state":"TN","zip":"38104","distance":19.404928207476,"lon":"-89.991123","lat":"35.137762","theaterChainName":"Malco Theatre","ticketType":"STANDARD"},{"id":"1154","tribuneTheaterId":"6953","providerTheaterId":"","name":"Malco Majestic 20 Theatre","address":"7051 Malco Crossing","city":"Memphis","state":"TN","zip":"38115","distance":21.588261405128,"lon":"-89.82778","lat":"35.045865","theaterChainName":"Malco Theatre","ticketType":"STANDARD"},{"id":"976","tribuneTheaterId":"6586","providerTheaterId":"","name":"Malco Ridgeway 4","address":"5853 Ridgeway Ctr. Pkwy.","city":"Memphis","state":"TN","zip":"38120","distance":22.085763656919,"lon":"-89.866748","lat":"35.103832","theaterChainName":"Malco Theatre","ticketType":"STANDARD"},{"id":"3615","tribuneTheaterId":"6354","providerTheaterId":"","name":"Malco Paradiso","address":"584 South Mendenhall","city":"Memphis","state":"TN","zip":"38117","distance":21.486771149276,"lon":"-89.894172","lat":"35.115088","theaterChainName":"Malco Theatre","ticketType":"STANDARD"},{"id":"978","tribuneTheaterId":"2289","providerTheaterId":"","name":"Palace Cinema 12","address":"5117 Old Summer Road","city":"Memphis","state":"TN","zip":"38122","distance":23.37579631418,"lon":"-89.890005","lat":"35.149205","theaterChainName":"Independent Chains","ticketType":"STANDARD"}]