[{"id":"2006","tribuneTheaterId":"6488","providerTheaterId":"","name":"Malco Collierville Towne Cinema 16","address":"380 Market Blvd.","city":"Collierville","state":"TN","zip":"38017","distance":13.021704038263,"lon":"-89.69263","lat":"35.05043","theaterChainName":"Malco Theatre","ticketType":"STANDARD"},{"id":"890","tribuneTheaterId":"8814","providerTheaterId":"","name":"Malco Forest Hill","address":"3180 Village Shops Dr.","city":"Germantown","state":"TN","zip":"38138","distance":16.05836415248,"lon":"-89.758333","lat":"35.063692","theaterChainName":"Malco Theatre","ticketType":"STANDARD"},{"id":"5427","tribuneTheaterId":"10866","providerTheaterId":"","name":"Malco Olive Branch","address":"6430 Goodman Rd.","city":"Olive Branch","state":"MS","zip":"38654","distance":18.269450773148,"lon":"-89.8764","lat":"34.9622","theaterChainName":"Malco Theatre","ticketType":"STANDARD"},{"id":"1154","tribuneTheaterId":"6953","providerTheaterId":"","name":"Malco Majestic 20 Theatre","address":"7051 Malco Crossing","city":"Memphis","state":"TN","zip":"38115","distance":18.222706741771,"lon":"-89.82778","lat":"35.045865","theaterChainName":"Malco Theatre","ticketType":"STANDARD"},{"id":"976","tribuneTheaterId":"6586","providerTheaterId":"","name":"Malco Ridgeway 4","address":"5853 Ridgeway Ctr. Pkwy.","city":"Memphis","state":"TN","zip":"38120","distance":22.420143244366,"lon":"-89.866748","lat":"35.103832","theaterChainName":"Malco Theatre","ticketType":"STANDARD"},{"id":"3459","tribuneTheaterId":"3109","providerTheaterId":"","name":"Malco Cordova Cinema","address":"1080 N. Germantown Parkway","city":"Cordova","state":"TN","zip":"38018","distance":22.161904202732,"lon":"-89.792773","lat":"35.154584","theaterChainName":"Malco Theatre","ticketType":"STANDARD"},{"id":"2504","tribuneTheaterId":"7052","providerTheaterId":"","name":"Malco DeSoto Cinema 16","address":"7130 Malco Blvd.","city":"Southaven","state":"MS","zip":"38671","distance":24.425454624809,"lon":"-89.987175","lat":"34.965214","theaterChainName":"Malco Theatre","ticketType":"STANDARD"},{"id":"974","tribuneTheaterId":"6531","providerTheaterId":"","name":"Malco Wolfchase Galleria","address":"2766 N. Germantown Pkwy.","city":"Memphis","state":"TN","zip":"38133","distance":24.779381148651,"lon":"-89.790552","lat":"35.201097","theaterChainName":"Malco Theatre","ticketType":"STANDARD"},{"id":"3615","tribuneTheaterId":"6354","providerTheaterId":"","name":"Malco Paradiso","address":"584 South Mendenhall","city":"Memphis","state":"TN","zip":"38117","distance":24.109057223286,"lon":"-89.894172","lat":"35.115088","theaterChainName":"Malco Theatre","ticketType":"STANDARD"}]