[{"id":"974","name":"Malco Wolfchase Galleria","address":"2766 N. Germantown Pkwy.","city":"Memphis","state":"TN","zip":"38133","distance":"24.78070831298828","lon":"-89.790550","lat":"35.201096","theaterChainName":"Malco Theatre","ticketType":"STANDARD"},{"id":"3459","name":"Malco Cordova Cinema","address":"1080 N. Germantown Parkway","city":"Cordova","state":"TN","zip":"38018","distance":"22.163047790527344","lon":"-89.792770","lat":"35.154583","theaterChainName":"Malco Theatre","ticketType":"STANDARD"},{"id":"2006","name":"Malco Collierville Towne Cinema 16","address":"380 Market Blvd.","city":"Collierville","state":"TN","zip":"38017","distance":"13.022350311279297","lon":"-89.692627","lat":"35.050430","theaterChainName":"Malco Theatre","ticketType":"STANDARD"},{"id":"890","name":"Malco Forest Hill","address":"3180 Village Shops Dr.","city":"Germantown","state":"TN","zip":"38138","distance":"16.059093475341797","lon":"-89.758331","lat":"35.063690","theaterChainName":"Malco Theatre","ticketType":"STANDARD"},{"id":"976","name":"Malco Ridgeway 4","address":"5853 Ridgeway Ctr. Pkwy.","city":"Memphis","state":"TN","zip":"38120","distance":"22.421289443969727","lon":"-89.866745","lat":"35.103832","theaterChainName":"Malco Theatre","ticketType":"STANDARD"},{"id":"3615","name":"Malco Paradiso","address":"584 South Mendenhall","city":"Memphis","state":"TN","zip":"38117","distance":"24.110515594482422","lon":"-89.894173","lat":"35.115089","theaterChainName":"Malco Theatre","ticketType":"STANDARD"},{"id":"1154","name":"Malco Majestic 20 Theatre","address":"7051 Malco Crossing","city":"Memphis","state":"TN","zip":"38115","distance":"18.22374153137207","lon":"-89.827782","lat":"35.045864","theaterChainName":"Malco Theatre","ticketType":"STANDARD"},{"id":"5427","name":"Malco Olive Branch","address":"6430 Goodman Rd.","city":"Olive Branch","state":"MS","zip":"38654","distance":"18.27062225341797","lon":"-89.876404","lat":"34.962200","theaterChainName":"Malco Theatre","ticketType":"STANDARD"},{"id":"2504","name":"Malco DeSoto Cinema 16","address":"7130 Malco Blvd.","city":"Southaven","state":"MS","zip":"38671","distance":"24.426788330078125","lon":"-89.987175","lat":"34.965214","theaterChainName":"Malco Theatre","ticketType":"STANDARD"}]