[{"id":"4167","tribuneTheaterId":"2400","providerTheaterId":"","name":"Malco Grandview","address":"221 Grandview Blvd.","city":"Madison","state":"MS","zip":"39110","distance":12.641979726687,"lon":"-90.137812","lat":"32.463155","theaterChainName":"Malco Theatre","ticketType":"STANDARD"},{"id":"1575","tribuneTheaterId":"4679","providerTheaterId":"","name":"United Artists Clinton Center 10","address":"201 Clinton Center Drive","city":"Clinton","state":"MS","zip":"39056","distance":16.001791235596,"lon":"-90.330191","lat":"32.326272","theaterChainName":"United Artists","ticketType":"STANDARD"},{"id":"1576","tribuneTheaterId":"4681","providerTheaterId":"","name":"United Artists Northpark Stadium 14","address":"250 Ring Road","city":"Ridgeland","state":"MS","zip":"39157","distance":15.450924633876,"lon":"-90.129497","lat":"32.405402","theaterChainName":"United Artists","ticketType":"STANDARD"},{"id":"2062","tribuneTheaterId":"1147","providerTheaterId":"","name":"Plaza Theatre - Yazoo City","address":"K Mart Plaza","city":"Yazoo City","state":"MS","zip":"39194","distance":20.463233795739,"lon":"-90.412697","lat":"32.844299","theaterChainName":"Independent Chains","ticketType":"STANDARD"},{"id":"1577","tribuneTheaterId":"4680","providerTheaterId":"","name":"United Artists Parkway Place Stadium 10","address":"1075 Parkway Boulevard","city":"Flowood","state":"MS","zip":"39232","distance":20.396777166044,"lon":"-90.090749","lat":"32.337418","theaterChainName":"United Artists","ticketType":"STANDARD"},{"id":"1412","tribuneTheaterId":"4189","providerTheaterId":"","name":"Cinemark Tinseltown Pearl","address":"411 Riverwind Drive","city":"Pearl","state":"MS","zip":"39208","distance":22.695915876068,"lon":"-90.140644","lat":"32.26785","theaterChainName":"Cinemark","ticketType":"STANDARD"}]