[{"id":"1412","tribuneTheaterId":"4189","providerTheaterId":"","name":"Cinemark Tinseltown Pearl","address":"411 Riverwind Drive","city":"Pearl","state":"MS","zip":"39208","distance":12.737357696207,"lon":"-90.140644","lat":"32.26785","theaterChainName":"Cinemark","ticketType":"STANDARD"},{"id":"1577","tribuneTheaterId":"4680","providerTheaterId":"","name":"United Artists Parkway Place Stadium 10","address":"1075 Parkway Boulevard","city":"Flowood","state":"MS","zip":"39232","distance":16.760891295742,"lon":"-90.090749","lat":"32.337418","theaterChainName":"United Artists","ticketType":"STANDARD"},{"id":"1575","tribuneTheaterId":"4679","providerTheaterId":"","name":"United Artists Clinton Center 10","address":"201 Clinton Center Drive","city":"Clinton","state":"MS","zip":"39056","distance":22.352603795626,"lon":"-90.330191","lat":"32.326272","theaterChainName":"United Artists","ticketType":"STANDARD"},{"id":"1576","tribuneTheaterId":"4681","providerTheaterId":"","name":"United Artists Northpark Stadium 14","address":"250 Ring Road","city":"Ridgeland","state":"MS","zip":"39157","distance":21.736922664431,"lon":"-90.129497","lat":"32.405402","theaterChainName":"United Artists","ticketType":"STANDARD"}]