[{"id":"4167","name":"Malco Grandview","address":"221 Grandview Blvd.","city":"Madison","state":"MS","zip":"39110","distance":"16.247900009155273","lon":"-90.137810","lat":"32.463154","theaterChainName":"Malco Theatre","ticketType":"STANDARD"},{"id":"1576","name":"United Artists Northpark Stadium 14","address":"250 Ring Road","city":"Ridgeland","state":"MS","zip":"39157","distance":"12.3316650390625","lon":"-90.129494","lat":"32.405403","theaterChainName":"United Artists","ticketType":"STANDARD"},{"id":"1575","name":"United Artists Clinton Center 10","address":"201 Clinton Center Drive","city":"Clinton","state":"MS","zip":"39056","distance":"12.056344985961914","lon":"-90.330193","lat":"32.326271","theaterChainName":"United Artists","ticketType":"STANDARD"},{"id":"1577","name":"United Artists Parkway Place Stadium 10","address":"1075 Parkway Boulevard","city":"Flowood","state":"MS","zip":"39232","distance":"8.507426261901855","lon":"-90.090752","lat":"32.337418","theaterChainName":"United Artists","ticketType":"STANDARD"},{"id":"1412","name":"Cinemark Tinseltown Pearl","address":"411 Riverwind Drive","city":"Pearl","state":"MS","zip":"39208","distance":"2.912421703338623","lon":"-90.140640","lat":"32.267849","theaterChainName":"Cinemark","ticketType":"STANDARD"}]