[{"id":"2796","tribuneTheaterId":"4188","providerTheaterId":"","name":"Cinemark 16 Gulfport","address":"15171 Community Road","city":"Gulfport","state":"MS","zip":"39503","distance":11.921870459975,"lon":"-89.09027","lat":"30.441053","theaterChainName":"Cinemark","ticketType":"STANDARD"},{"id":"4021","tribuneTheaterId":"5094","providerTheaterId":"","name":"The Grand 18 - D'Iberville","address":"11470 Cinema Drive","city":"Diberville","state":"MS","zip":"39540","distance":23.892333785637,"lon":"-88.888641","lat":"30.455308","theaterChainName":"Southern Theatres","ticketType":"STANDARD"},{"id":"5970","tribuneTheaterId":"11406","providerTheaterId":"","name":"Picayune Cinema 4","address":"997 Cooper Road","city":"Picayune","state":"MS","zip":"39466","distance":24.071903771875,"lon":"-89.651566","lat":"30.544446","theaterChainName":"Independent Chains","ticketType":"STANDARD"},{"id":"6094","tribuneTheaterId":"11508","providerTheaterId":"","name":"Geneva Theater","address":"244 Broad Street","city":"Lake Geneva","state":"WI","zip":"53147","distance":24.071903771875,"lon":"-89.651566","lat":"30.544446","theaterChainName":"Independent Chains","ticketType":"STANDARD"}]