[{"id":"1377","name":"Tinseltown Louisville","address":"4400 Towne Center Drive","city":"Louisville","state":"KY","zip":"40241","distance":"22.880823135375977","lon":"-85.565201","lat":"38.309502","theaterChainName":"Cinemark","ticketType":"STANDARD"},{"id":"5768","name":"Xscape Theatres Blankenbaker 14","address":"12450 Sycamore Station Place","city":"Louisville","state":"KY","zip":"40299","distance":"24.22400665283203","lon":"-85.528198","lat":"38.222000","theaterChainName":"Independent Chains","ticketType":"STANDARD"},{"id":"3845","name":"Regal Shelbyville 8","address":"250 Brighton Circle","city":"Shelbyville","state":"KY","zip":"40065","distance":"17.873016357421875","lon":"-85.277206","lat":"38.191330","theaterChainName":"Regal Cinemas","ticketType":"STANDARD"},{"id":"2038","name":"Ohio Theatre","address":"105 E. Main St.","city":"Madison","state":"IN","zip":"47250","distance":"23.421911239624023","lon":"-85.379868","lat":"38.736408","theaterChainName":"Independent Chains","ticketType":"STANDARD"},{"id":"1901","name":"Chakeres Franklin Square 6","address":"161 Franklin Square Shopping Center","city":"Frankfort","state":"KY","zip":"40604","distance":"24.009395599365234","lon":"-84.896317","lat":"38.167767","theaterChainName":"Republic Theaters","ticketType":"STANDARD"}]