[{"id":"2038","tribuneTheaterId":"2719","providerTheaterId":"","name":"Ohio Theatre","address":"105 E. Main St.","city":"Madison","state":"IN","zip":"47250","distance":17.977185835453,"lon":"-85.379869","lat":"38.736407","theaterChainName":"Independent Chains","ticketType":"STANDARD"},{"id":"1377","tribuneTheaterId":"5225","providerTheaterId":"","name":"Tinseltown Louisville","address":"4400 Towne Center Drive","city":"Louisville","state":"KY","zip":"40241","distance":17.913440056766,"lon":"-85.5652","lat":"38.3095","theaterChainName":"Cinemark","ticketType":"STANDARD"},{"id":"6052","tribuneTheaterId":"6052","providerTheaterId":"","name":"Madison 6 Theater","address":"744 Jefferson Court","city":"Madison","state":"IN","zip":"47250","distance":20.978531598745,"lon":"-85.403","lat":"38.777","theaterChainName":"Independent Chains","ticketType":"STANDARD"},{"id":"3845","tribuneTheaterId":"2139","providerTheaterId":"","name":"Regal Shelbyville 8","address":"250 Brighton Circle","city":"Shelbyville","state":"KY","zip":"40065","distance":20.123231471816,"lon":"-85.277209","lat":"38.19133","theaterChainName":"Regal Cinemas","ticketType":"STANDARD"},{"id":"5768","tribuneTheaterId":"11213","providerTheaterId":"","name":"Xscape Theatres Blankenbaker 14","address":"12450 Sycamore Station Place","city":"Louisville","state":"KY","zip":"40299","distance":21.235534077852,"lon":"-85.5282","lat":"38.222","theaterChainName":"Independent Chains","ticketType":"STANDARD"},{"id":"5388","tribuneTheaterId":"10825","providerTheaterId":"","name":"Carmike Stonybrook 20","address":"2745 S. Hurstborne Parkway","city":"Louisville","state":"KY","zip":"40220","distance":24.02000891565,"lon":"-85.5967","lat":"38.2112","theaterChainName":"Carmike Cinemas","ticketType":"STANDARD"},{"id":"5325","tribuneTheaterId":"10762","providerTheaterId":"","name":"Cinemark Mall St. Matthews","address":"5000 Shelbyville Road","city":"Louisville","state":"KY","zip":"40207","distance":23.041246504452,"lon":"-85.624","lat":"38.2501","theaterChainName":"Cinemark","ticketType":"STANDARD"},{"id":"1287","tribuneTheaterId":"3081","providerTheaterId":"","name":"Apex Village 8","address":"4014 Dutchman Lane","city":"Louisville","state":"KY","zip":"40207","distance":24.23128860422,"lon":"-85.633231","lat":"38.232905","theaterChainName":"Independent Chains","ticketType":"STANDARD"}]