[{"id":"1377","name":"Tinseltown Louisville","address":"4400 Towne Center Drive","city":"Louisville","state":"KY","zip":"40241","distance":"20.663875579833984","lon":"-85.565201","lat":"38.309502","theaterChainName":"Cinemark","ticketType":"STANDARD"},{"id":"5768","name":"Xscape Theatres Blankenbaker 14","address":"12450 Sycamore Station Place","city":"Louisville","state":"KY","zip":"40299","distance":"17.241558074951172","lon":"-85.528198","lat":"38.222000","theaterChainName":"Independent Chains","ticketType":"STANDARD"},{"id":"5325","name":"Cinemark Mall St. Matthews","address":"5000 Shelbyville Road","city":"Louisville","state":"KY","zip":"40207","distance":"22.649757385253906","lon":"-85.624001","lat":"38.250099","theaterChainName":"Cinemark","ticketType":"STANDARD"},{"id":"5388","name":"Carmike Stonybrook 20","address":"2745 S. Hurstborne Parkway","city":"Louisville","state":"KY","zip":"40220","distance":"20.89984893798828","lon":"-85.596703","lat":"38.211201","theaterChainName":"Carmike Cinemas","ticketType":"STANDARD"},{"id":"3845","name":"Regal Shelbyville 8","address":"250 Brighton Circle","city":"Shelbyville","state":"KY","zip":"40065","distance":"3.554394006729126","lon":"-85.277206","lat":"38.191330","theaterChainName":"Regal Cinemas","ticketType":"STANDARD"},{"id":"1287","name":"Apex Village 8","address":"4014 Dutchman Lane","city":"Louisville","state":"KY","zip":"40207","distance":"22.98984718322754","lon":"-85.633232","lat":"38.232906","theaterChainName":"Independent Chains","ticketType":"STANDARD"},{"id":"5111","name":"Keystone Cinemas - Mount Washington","address":"220 Armstrong Ln.","city":"Mount Washington","state":"KY","zip":"40047","distance":"22.46767234802246","lon":"-85.571198","lat":"38.036201","theaterChainName":"Independent Chains","ticketType":"STANDARD"},{"id":"1901","name":"Chakeres Franklin Square 6","address":"161 Franklin Square Shopping Center","city":"Frankfort","state":"KY","zip":"40604","distance":"17.27757453918457","lon":"-84.896317","lat":"38.167767","theaterChainName":"Republic Theaters","ticketType":"STANDARD"}]