[{"id":"1377","name":"Tinseltown Louisville","address":"4400 Towne Center Drive","city":"Louisville","state":"KY","zip":"40241","distance":"20.659093856811523","lon":"-85.565201","lat":"38.309502","theaterChainName":"Cinemark","ticketType":"STANDARD"},{"id":"5768","name":"Xscape Theatres Blankenbaker 14","address":"12450 Sycamore Station Place","city":"Louisville","state":"KY","zip":"40299","distance":"14.436596870422363","lon":"-85.528198","lat":"38.222000","theaterChainName":"Independent Chains","ticketType":"STANDARD"},{"id":"5325","name":"Cinemark Mall St. Matthews","address":"5000 Shelbyville Road","city":"Louisville","state":"KY","zip":"40207","distance":"19.19363021850586","lon":"-85.624001","lat":"38.250099","theaterChainName":"Cinemark","ticketType":"STANDARD"},{"id":"5388","name":"Carmike Stonybrook 20","address":"2745 S. Hurstborne Parkway","city":"Louisville","state":"KY","zip":"40220","distance":"16.236454010009766","lon":"-85.596703","lat":"38.211201","theaterChainName":"Carmike Cinemas","ticketType":"STANDARD"},{"id":"3845","name":"Regal Shelbyville 8","address":"250 Brighton Circle","city":"Shelbyville","state":"KY","zip":"40065","distance":"11.503461837768555","lon":"-85.277206","lat":"38.191330","theaterChainName":"Regal Cinemas","ticketType":"STANDARD"},{"id":"1287","name":"Apex Village 8","address":"4014 Dutchman Lane","city":"Louisville","state":"KY","zip":"40207","distance":"18.706125259399414","lon":"-85.633232","lat":"38.232906","theaterChainName":"Independent Chains","ticketType":"STANDARD"},{"id":"5149","name":"Floyd Theater","address":"2100 S Floyd St.","city":"Louisville","state":"KY","zip":"40208","distance":"23.428192138671875","lon":"-85.755249","lat":"38.217918","theaterChainName":"Independent Chains","ticketType":"STANDARD"},{"id":"3695","name":"Preston Crossings 16","address":"9700 Preston Crossing Blvd.","city":"Okolona","state":"KY","zip":"40229","distance":"16.261545181274414","lon":"-85.671593","lat":"38.108265","theaterChainName":"Cinemark","ticketType":"STANDARD"},{"id":"5111","name":"Keystone Cinemas - Mount Washington","address":"220 Armstrong Ln.","city":"Mount Washington","state":"KY","zip":"40047","distance":"10.274733543395996","lon":"-85.571198","lat":"38.036201","theaterChainName":"Independent Chains","ticketType":"STANDARD"},{"id":"3065","name":"Keystone Cinemas - Bardstown","address":"2725 E. John Rowan Blvd.","city":"Bardstown","state":"KY","zip":"40004","distance":"16.548446655273438","lon":"-85.428299","lat":"37.810299","theaterChainName":"Independent Chains","ticketType":"STANDARD"}]