[{"id":"3695","name":"Preston Crossings 16","address":"9700 Preston Crossing Blvd.","city":"Okolona","state":"KY","zip":"40229","distance":"18.00242805480957","lon":"-85.671593","lat":"38.108265","theaterChainName":"Cinemark","ticketType":"STANDARD"},{"id":"5111","name":"Keystone Cinemas - Mount Washington","address":"220 Armstrong Ln.","city":"Mount Washington","state":"KY","zip":"40047","distance":"15.279414176940918","lon":"-85.571198","lat":"38.036201","theaterChainName":"Independent Chains","ticketType":"STANDARD"},{"id":"3065","name":"Keystone Cinemas - Bardstown","address":"2725 E. John Rowan Blvd.","city":"Bardstown","state":"KY","zip":"40004","distance":"16.4146785736084","lon":"-85.428299","lat":"37.810299","theaterChainName":"Independent Chains","ticketType":"STANDARD"},{"id":"1859","name":"Movie Palace","address":"1231 Woodland Drive","city":"Elizabethtown","state":"KY","zip":"42701","distance":"12.50233268737793","lon":"-85.881874","lat":"37.719612","theaterChainName":"Republic Theaters","ticketType":"STANDARD"},{"id":"3284","name":"Showtime Cinemas - Radcliff","address":"Radcliff Plaza","city":"Radcliff","state":"KY","zip":"40160","distance":"12.525599479675293","lon":"-85.954063","lat":"37.857018","theaterChainName":"Republic Theaters","ticketType":"STANDARD"}]