[{"id":"3695","tribuneTheaterId":"6011","providerTheaterId":"","name":"Preston Crossings 16","address":"9700 Preston Crossing Blvd.","city":"Okolona","state":"KY","zip":"40229","distance":1.6085569978447,"lon":"-85.671596","lat":"38.108265","theaterChainName":"Cinemark","ticketType":"STANDARD"},{"id":"5111","tribuneTheaterId":"10511","providerTheaterId":"","name":"Keystone Cinemas - Mount Washington","address":"220 Armstrong Ln.","city":"Mount Washington","state":"KY","zip":"40047","distance":5.8345450671766,"lon":"-85.5712","lat":"38.0362","theaterChainName":"Independent Chains","ticketType":"STANDARD"},{"id":"5149","tribuneTheaterId":"10555","providerTheaterId":"","name":"Floyd Theater","address":"2100 S Floyd St.","city":"Louisville","state":"KY","zip":"40208","distance":10.440536819145,"lon":"-85.755251","lat":"38.217918","theaterChainName":"Independent Chains","ticketType":"STANDARD"},{"id":"1287","tribuneTheaterId":"3081","providerTheaterId":"","name":"Apex Village 8","address":"4014 Dutchman Lane","city":"Louisville","state":"KY","zip":"40207","distance":10.004818270557,"lon":"-85.633231","lat":"38.232905","theaterChainName":"Independent Chains","ticketType":"STANDARD"},{"id":"5388","tribuneTheaterId":"10825","providerTheaterId":"","name":"Carmike Stonybrook 20","address":"2745 S. Hurstborne Parkway","city":"Louisville","state":"KY","zip":"40220","distance":9.0075888921297,"lon":"-85.5967","lat":"38.2112","theaterChainName":"Carmike Cinemas","ticketType":"STANDARD"},{"id":"5768","tribuneTheaterId":"11213","providerTheaterId":"","name":"Xscape Theatres Blankenbaker 14","address":"12450 Sycamore Station Place","city":"Louisville","state":"KY","zip":"40299","distance":11.472949935392,"lon":"-85.5282","lat":"38.222","theaterChainName":"Independent Chains","ticketType":"STANDARD"},{"id":"5325","tribuneTheaterId":"10762","providerTheaterId":"","name":"Cinemark Mall St. Matthews","address":"5000 Shelbyville Road","city":"Louisville","state":"KY","zip":"40207","distance":11.249132514904,"lon":"-85.624","lat":"38.2501","theaterChainName":"Cinemark","ticketType":"STANDARD"},{"id":"4868","tribuneTheaterId":"10166","providerTheaterId":"","name":"KentuckyShow!","address":"501 W. Main St.","city":"Louisville","state":"KY","zip":"40202","distance":13.037059132959,"lon":"-85.762665","lat":"38.25766","theaterChainName":"Independent Chains","ticketType":"STANDARD"},{"id":"1377","tribuneTheaterId":"5225","providerTheaterId":"","name":"Tinseltown Louisville","address":"4400 Towne Center Drive","city":"Louisville","state":"KY","zip":"40241","distance":15.986433976212,"lon":"-85.5652","lat":"38.3095","theaterChainName":"Cinemark","ticketType":"STANDARD"},{"id":"4268","tribuneTheaterId":"9220","providerTheaterId":"","name":"Great Escape River Falls Stadium 12","address":"951 Lewis ","city":"Clarksville","state":"IN","zip":"47129","distance":17.161548506257,"lon":"-85.761724","lat":"38.32284","theaterChainName":"Regal Cinemas","ticketType":"STANDARD"},{"id":"3649","tribuneTheaterId":"2378","providerTheaterId":"","name":"Great Escape 16","address":"300 Professional Ct,  Suite 100","city":"New Albany","state":"IN","zip":"47150","distance":19.586387511495,"lon":"-85.792086","lat":"38.351257","theaterChainName":"Regal Cinemas","ticketType":"STANDARD"},{"id":"3845","tribuneTheaterId":"2139","providerTheaterId":"","name":"Regal Shelbyville 8","address":"250 Brighton Circle","city":"Shelbyville","state":"KY","zip":"40065","distance":21.700744235578,"lon":"-85.277209","lat":"38.19133","theaterChainName":"Regal Cinemas","ticketType":"STANDARD"},{"id":"3284","tribuneTheaterId":"1549","providerTheaterId":"","name":"Showtime Cinemas - Radcliff","address":"Radcliff Plaza","city":"Radcliff","state":"KY","zip":"40160","distance":22.865030394151,"lon":"-85.954062","lat":"37.857018","theaterChainName":"Republic Theaters","ticketType":"STANDARD"},{"id":"3065","tribuneTheaterId":"6532","providerTheaterId":"","name":"Keystone Cinemas - Bardstown","address":"2725 E. John Rowan Blvd.","city":"Bardstown","state":"KY","zip":"40004","distance":22.877045163184,"lon":"-85.4283","lat":"37.8103","theaterChainName":"Independent Chains","ticketType":"STANDARD"}]