[{"id":"1377","name":"Tinseltown Louisville","address":"4400 Towne Center Drive","city":"Louisville","state":"KY","zip":"40241","distance":"10.295862197875977","lon":"-85.565201","lat":"38.309502","theaterChainName":"Cinemark","ticketType":"STANDARD"},{"id":"5768","name":"Xscape Theatres Blankenbaker 14","address":"12450 Sycamore Station Place","city":"Louisville","state":"KY","zip":"40299","distance":"8.38480281829834","lon":"-85.528198","lat":"38.222000","theaterChainName":"Independent Chains","ticketType":"STANDARD"},{"id":"5325","name":"Cinemark Mall St. Matthews","address":"5000 Shelbyville Road","city":"Louisville","state":"KY","zip":"40207","distance":"5.103020668029785","lon":"-85.624001","lat":"38.250099","theaterChainName":"Cinemark","ticketType":"STANDARD"},{"id":"5388","name":"Carmike Stonybrook 20","address":"2745 S. Hurstborne Parkway","city":"Louisville","state":"KY","zip":"40220","distance":"4.612148284912109","lon":"-85.596703","lat":"38.211201","theaterChainName":"Carmike Cinemas","ticketType":"STANDARD"},{"id":"3845","name":"Regal Shelbyville 8","address":"250 Brighton Circle","city":"Shelbyville","state":"KY","zip":"40065","distance":"21.701963424682617","lon":"-85.277206","lat":"38.191330","theaterChainName":"Regal Cinemas","ticketType":"STANDARD"},{"id":"1287","name":"Apex Village 8","address":"4014 Dutchman Lane","city":"Louisville","state":"KY","zip":"40207","distance":"3.8471462726593018","lon":"-85.633232","lat":"38.232906","theaterChainName":"Independent Chains","ticketType":"STANDARD"},{"id":"4268","name":"Great Escape River Falls Stadium 12","address":"951 Lewis ","city":"Clarksville","state":"IN","zip":"47129","distance":"10.332528114318848","lon":"-85.761726","lat":"38.322842","theaterChainName":"Regal Cinemas","ticketType":"STANDARD"},{"id":"4868","name":"KentuckyShow!","address":"501 W. Main St.","city":"Louisville","state":"KY","zip":"40202","distance":"6.650692462921143","lon":"-85.762665","lat":"38.257660","theaterChainName":"Independent Chains","ticketType":"STANDARD"},{"id":"3649","name":"Great Escape 16","address":"300 Professional Ct,  Suite 100","city":"New Albany","state":"IN","zip":"47150","distance":"12.837858200073242","lon":"-85.792084","lat":"38.351257","theaterChainName":"Regal Cinemas","ticketType":"STANDARD"},{"id":"5149","name":"Floyd Theater","address":"2100 S Floyd St.","city":"Louisville","state":"KY","zip":"40208","distance":"4.704880237579346","lon":"-85.755249","lat":"38.217918","theaterChainName":"Independent Chains","ticketType":"STANDARD"},{"id":"3695","name":"Preston Crossings 16","address":"9700 Preston Crossing Blvd.","city":"Okolona","state":"KY","zip":"40229","distance":"5.585723400115967","lon":"-85.671593","lat":"38.108265","theaterChainName":"Cinemark","ticketType":"STANDARD"},{"id":"5111","name":"Keystone Cinemas - Mount Washington","address":"220 Armstrong Ln.","city":"Mount Washington","state":"KY","zip":"40047","distance":"12.018054962158203","lon":"-85.571198","lat":"38.036201","theaterChainName":"Independent Chains","ticketType":"STANDARD"}]