[{"id":"1377","name":"Tinseltown Louisville","address":"4400 Towne Center Drive","city":"Louisville","state":"KY","zip":"40241","distance":"7.827578544616699","lon":"-85.565201","lat":"38.309502","theaterChainName":"Cinemark","ticketType":"STANDARD"},{"id":"5768","name":"Xscape Theatres Blankenbaker 14","address":"12450 Sycamore Station Place","city":"Louisville","state":"KY","zip":"40299","distance":"8.696003913879395","lon":"-85.528198","lat":"38.222000","theaterChainName":"Independent Chains","ticketType":"STANDARD"},{"id":"5325","name":"Cinemark Mall St. Matthews","address":"5000 Shelbyville Road","city":"Louisville","state":"KY","zip":"40207","distance":"3.334824562072754","lon":"-85.624001","lat":"38.250099","theaterChainName":"Cinemark","ticketType":"STANDARD"},{"id":"5388","name":"Carmike Stonybrook 20","address":"2745 S. Hurstborne Parkway","city":"Louisville","state":"KY","zip":"40220","distance":"5.398590564727783","lon":"-85.596703","lat":"38.211201","theaterChainName":"Carmike Cinemas","ticketType":"STANDARD"},{"id":"3845","name":"Regal Shelbyville 8","address":"250 Brighton Circle","city":"Shelbyville","state":"KY","zip":"40065","distance":"22.482091903686523","lon":"-85.277206","lat":"38.191330","theaterChainName":"Regal Cinemas","ticketType":"STANDARD"},{"id":"1287","name":"Apex Village 8","address":"4014 Dutchman Lane","city":"Louisville","state":"KY","zip":"40207","distance":"2.982337474822998","lon":"-85.633232","lat":"38.232906","theaterChainName":"Independent Chains","ticketType":"STANDARD"},{"id":"4268","name":"Great Escape River Falls Stadium 12","address":"951 Lewis ","city":"Clarksville","state":"IN","zip":"47129","distance":"6.697859287261963","lon":"-85.761726","lat":"38.322842","theaterChainName":"Regal Cinemas","ticketType":"STANDARD"},{"id":"4868","name":"KentuckyShow!","address":"501 W. Main St.","city":"Louisville","state":"KY","zip":"40202","distance":"4.265570163726807","lon":"-85.762665","lat":"38.257660","theaterChainName":"Independent Chains","ticketType":"STANDARD"},{"id":"3649","name":"Great Escape 16","address":"300 Professional Ct,  Suite 100","city":"New Albany","state":"IN","zip":"47150","distance":"9.258734703063965","lon":"-85.792084","lat":"38.351257","theaterChainName":"Regal Cinemas","ticketType":"STANDARD"},{"id":"5149","name":"Floyd Theater","address":"2100 S Floyd St.","city":"Louisville","state":"KY","zip":"40208","distance":"4.2858171463012695","lon":"-85.755249","lat":"38.217918","theaterChainName":"Independent Chains","ticketType":"STANDARD"},{"id":"3695","name":"Preston Crossings 16","address":"9700 Preston Crossing Blvd.","city":"Okolona","state":"KY","zip":"40229","distance":"9.594493865966797","lon":"-85.671593","lat":"38.108265","theaterChainName":"Cinemark","ticketType":"STANDARD"},{"id":"5111","name":"Keystone Cinemas - Mount Washington","address":"220 Armstrong Ln.","city":"Mount Washington","state":"KY","zip":"40047","distance":"15.811639785766602","lon":"-85.571198","lat":"38.036201","theaterChainName":"Independent Chains","ticketType":"STANDARD"},{"id":"3002","name":"Corydon Cinemas","address":"2025 Edsel Lane NW","city":"Corydon","state":"IN","zip":"47112","distance":"24.43206024169922","lon":"-86.135002","lat":"38.230400","theaterChainName":"Independent Chains","ticketType":"STANDARD"}]