[{"id":"5157","name":"Danville Cinemas 8","address":"1001 Ben Ali Dr","city":"Danville","state":"KY","zip":"40422","distance":"7.410464763641357","lon":"-84.805428","lat":"37.650646","theaterChainName":"Independent Chains","ticketType":"STANDARD"},{"id":"4219","name":"Cinemark Fayette Mall","address":"3800 Mall Rd.","city":"Lexington","state":"KY","zip":"40503","distance":"20.468584060668945","lon":"-84.530579","lat":"37.983692","theaterChainName":"Cinemark","ticketType":"STANDARD"},{"id":"5749","name":"Movie Tavern Brannon Crossing","address":"150 Langley Drive","city":"Nicholasville","state":"KY","zip":"40356","distance":"16.17225456237793","lon":"-84.556297","lat":"37.918301","theaterChainName":"Movie Tavern","ticketType":"STANDARD"},{"id":"2775","name":"Kentucky Theatre","address":"214 E. Main Street","city":"Lexington","state":"KY","zip":"40507","distance":"24.971555709838867","lon":"-84.495087","lat":"38.044437","theaterChainName":"Independent Chains","ticketType":"STANDARD"},{"id":"5520","name":"Lancaster Grand Theatre","address":"117 Lexington St","city":"Lancaster","state":"KY","zip":"40444","distance":"13.795378684997559","lon":"-84.578590","lat":"37.620270","theaterChainName":"Independent Chains","ticketType":"STANDARD"},{"id":"4611","name":"Cinemark Theatres at Richmond Centre","address":"2103 Lantern Ridge Drive","city":"Richmond","state":"KY","zip":"40475","distance":"24.002655029296875","lon":"-84.327812","lat":"37.736649","theaterChainName":"Cinemark","ticketType":"STANDARD"}]