[{"id":"5157","name":"Danville Cinemas 8","address":"1001 Ben Ali Dr","city":"Danville","state":"KY","zip":"40422","distance":"10.971991539001465","lon":"-84.805428","lat":"37.650646","theaterChainName":"Independent Chains","ticketType":"STANDARD"},{"id":"4219","name":"Cinemark Fayette Mall","address":"3800 Mall Rd.","city":"Lexington","state":"KY","zip":"40503","distance":"21.895475387573242","lon":"-84.530579","lat":"37.983692","theaterChainName":"Cinemark","ticketType":"STANDARD"},{"id":"5749","name":"Movie Tavern Brannon Crossing","address":"150 Langley Drive","city":"Nicholasville","state":"KY","zip":"40356","distance":"18.409469604492188","lon":"-84.556297","lat":"37.918301","theaterChainName":"Movie Tavern","ticketType":"STANDARD"},{"id":"5520","name":"Lancaster Grand Theatre","address":"117 Lexington St","city":"Lancaster","state":"KY","zip":"40444","distance":"19.943729400634766","lon":"-84.578590","lat":"37.620270","theaterChainName":"Independent Chains","ticketType":"STANDARD"}]