[{"id":"3845","name":"Regal Shelbyville 8","address":"250 Brighton Circle","city":"Shelbyville","state":"KY","zip":"40065","distance":"22.32796287536621","lon":"-85.277206","lat":"38.191330","theaterChainName":"Regal Cinemas","ticketType":"STANDARD"},{"id":"1901","name":"Chakeres Franklin Square 6","address":"161 Franklin Square Shopping Center","city":"Frankfort","state":"KY","zip":"40604","distance":"10.44707202911377","lon":"-84.896317","lat":"38.167767","theaterChainName":"Republic Theaters","ticketType":"STANDARD"},{"id":"4219","name":"Cinemark Fayette Mall","address":"3800 Mall Rd.","city":"Lexington","state":"KY","zip":"40503","distance":"21.878257751464844","lon":"-84.530579","lat":"37.983692","theaterChainName":"Cinemark","ticketType":"STANDARD"},{"id":"5749","name":"Movie Tavern Brannon Crossing","address":"150 Langley Drive","city":"Nicholasville","state":"KY","zip":"40356","distance":"21.505699157714844","lon":"-84.556297","lat":"37.918301","theaterChainName":"Movie Tavern","ticketType":"STANDARD"},{"id":"2775","name":"Kentucky Theatre","address":"214 E. Main Street","city":"Lexington","state":"KY","zip":"40507","distance":"23.730926513671875","lon":"-84.495087","lat":"38.044437","theaterChainName":"Independent Chains","ticketType":"STANDARD"}]