[{"id":"2774","name":"Theatres of Georgetown","address":"401 Outlet Center Dr.","city":"Georgetown","state":"KY","zip":"40324","distance":"23.96451187133789","lon":"-84.538902","lat":"38.219898","theaterChainName":"Independent Chains","ticketType":"STANDARD"},{"id":"2775","name":"Kentucky Theatre","address":"214 E. Main Street","city":"Lexington","state":"KY","zip":"40507","distance":"22.212692260742188","lon":"-84.495087","lat":"38.044437","theaterChainName":"Independent Chains","ticketType":"STANDARD"},{"id":"1359","name":"Cinemark Movies 10 Lexington","address":"425 Codell Drive","city":"Lexington","state":"KY","zip":"40509","distance":"20.68994140625","lon":"-84.452805","lat":"38.020420","theaterChainName":"Cinemark","ticketType":"STANDARD"},{"id":"2206","name":"Carmike 10 Lexington","address":"3151 Mapleleaf Drive","city":"Lexington","state":"KY","zip":"40509","distance":"19.746639251708984","lon":"-84.424210","lat":"38.006432","theaterChainName":"Carmike Cinemas","ticketType":"STANDARD"},{"id":"2863","name":"Regal Hamburg Pavilion Stadium 16","address":"1949 Star Shoot Pkwy","city":"Lexington","state":"KY","zip":"40509","distance":"18.95136070251465","lon":"-84.420166","lat":"38.025005","theaterChainName":"Regal Cinemas","ticketType":"STANDARD"},{"id":"1793","name":"Movies 9","address":"40 Winchester Plaza","city":"Winchester","state":"KY","zip":"40391","distance":"11.06025505065918","lon":"-84.211479","lat":"38.008751","theaterChainName":"Malco Theatre","ticketType":"STANDARD"},{"id":"3416","name":"Tenth Frame Cinemas","address":"930 Camargo Rd.","city":"Mount Sterling","state":"KY","zip":"40353","distance":"11.260825157165527","lon":"-83.941002","lat":"38.049702","theaterChainName":"Independent Chains","ticketType":"STANDARD"}]