[{"id":"5749","tribuneTheaterId":"11191","providerTheaterId":"","name":"Movie Tavern Brannon Crossing","address":"150 Langley Drive","city":"Nicholasville","state":"KY","zip":"40356","distance":16.428913101545,"lon":"-84.5563","lat":"37.9183","theaterChainName":"Movie Tavern","ticketType":"STANDARD"},{"id":"1901","tribuneTheaterId":"6406","providerTheaterId":"","name":"Chakeres Franklin Square 6","address":"161 Franklin Square Shopping Center","city":"Frankfort","state":"KY","zip":"40604","distance":17.473769183249,"lon":"-84.896314","lat":"38.167766","theaterChainName":"Republic Theaters","ticketType":"STANDARD"},{"id":"4219","tribuneTheaterId":"5228","providerTheaterId":"","name":"Cinemark Fayette Mall","address":"3800 Mall Rd.","city":"Lexington","state":"KY","zip":"40503","distance":18.413669788725,"lon":"-84.530582","lat":"37.983691","theaterChainName":"Cinemark","ticketType":"STANDARD"},{"id":"5157","tribuneTheaterId":"10563","providerTheaterId":"","name":"Danville Cinemas 8","address":"1001 Ben Ali Dr","city":"Danville","state":"KY","zip":"40422","distance":18.602719522913,"lon":"-84.805426","lat":"37.650648","theaterChainName":"Independent Chains","ticketType":"STANDARD"},{"id":"2775","tribuneTheaterId":"2760","providerTheaterId":"","name":"Kentucky Theatre","address":"214 E. Main Street","city":"Lexington","state":"KY","zip":"40507","distance":21.630451072511,"lon":"-84.49509","lat":"38.044437","theaterChainName":"Independent Chains","ticketType":"STANDARD"},{"id":"1359","tribuneTheaterId":"6852","providerTheaterId":"","name":"Cinemark Movies 10 Lexington","address":"425 Codell Drive","city":"Lexington","state":"KY","zip":"40509","distance":23.189392110579,"lon":"-84.452808","lat":"38.02042","theaterChainName":"Cinemark","ticketType":"STANDARD"},{"id":"2863","tribuneTheaterId":"7268","providerTheaterId":"","name":"Regal Hamburg Pavilion Stadium 16","address":"1949 Star Shoot Pkwy","city":"Lexington","state":"KY","zip":"40509","distance":24.97866998419,"lon":"-84.420168","lat":"38.025005","theaterChainName":"Regal Cinemas","ticketType":"STANDARD"},{"id":"2206","tribuneTheaterId":"7153","providerTheaterId":"","name":"Carmike 10 Lexington","address":"3151 Mapleleaf Drive","city":"Lexington","state":"KY","zip":"40509","distance":24.414657565383,"lon":"-84.424208","lat":"38.006431","theaterChainName":"Carmike Cinemas","ticketType":"STANDARD"}]