[{"id":"2206","name":"Carmike 10 Lexington","address":"3151 Mapleleaf Drive","city":"Lexington","state":"KY","zip":"40509","distance":"23.78567886352539","lon":"-84.424210","lat":"38.006432","theaterChainName":"Carmike Cinemas","ticketType":"STANDARD"},{"id":"4611","name":"Cinemark Theatres at Richmond Centre","address":"2103 Lantern Ridge Drive","city":"Richmond","state":"KY","zip":"40475","distance":"10.047089576721191","lon":"-84.327812","lat":"37.736649","theaterChainName":"Cinemark","ticketType":"STANDARD"},{"id":"2863","name":"Regal Hamburg Pavilion Stadium 16","address":"1949 Star Shoot Pkwy","city":"Lexington","state":"KY","zip":"40509","distance":"24.64652442932129","lon":"-84.420166","lat":"38.025005","theaterChainName":"Regal Cinemas","ticketType":"STANDARD"},{"id":"1793","name":"Movies 9","address":"40 Winchester Plaza","city":"Winchester","state":"KY","zip":"40391","distance":"18.754051208496094","lon":"-84.211479","lat":"38.008751","theaterChainName":"Malco Theatre","ticketType":"STANDARD"},{"id":"3416","name":"Tenth Frame Cinemas","address":"930 Camargo Rd.","city":"Mount Sterling","state":"KY","zip":"40353","distance":"23.935815811157227","lon":"-83.941002","lat":"38.049702","theaterChainName":"Independent Chains","ticketType":"STANDARD"}]