[{"id":"5520","tribuneTheaterId":"10946","providerTheaterId":"","name":"Lancaster Grand Theatre","address":"117 Lexington St","city":"Lancaster","state":"KY","zip":"40444","distance":7.5670412750377,"lon":"-84.578588","lat":"37.620271","theaterChainName":"Independent Chains","ticketType":"STANDARD"},{"id":"5157","tribuneTheaterId":"10563","providerTheaterId":"","name":"Danville Cinemas 8","address":"1001 Ben Ali Dr","city":"Danville","state":"KY","zip":"40422","distance":9.6194116056581,"lon":"-84.805426","lat":"37.650648","theaterChainName":"Independent Chains","ticketType":"STANDARD"},{"id":"5749","tribuneTheaterId":"11191","providerTheaterId":"","name":"Movie Tavern Brannon Crossing","address":"150 Langley Drive","city":"Nicholasville","state":"KY","zip":"40356","distance":14.964530303437,"lon":"-84.5563","lat":"37.9183","theaterChainName":"Movie Tavern","ticketType":"STANDARD"},{"id":"4611","tribuneTheaterId":"9784","providerTheaterId":"","name":"Cinemark Theatres at Richmond Centre","address":"2103 Lantern Ridge Drive","city":"Richmond","state":"KY","zip":"40475","distance":17.624589591783,"lon":"-84.327815","lat":"37.73665","theaterChainName":"Cinemark","ticketType":"STANDARD"},{"id":"4219","tribuneTheaterId":"5228","providerTheaterId":"","name":"Cinemark Fayette Mall","address":"3800 Mall Rd.","city":"Lexington","state":"KY","zip":"40503","distance":19.69122265087,"lon":"-84.530582","lat":"37.983691","theaterChainName":"Cinemark","ticketType":"STANDARD"},{"id":"2206","tribuneTheaterId":"7153","providerTheaterId":"","name":"Carmike 10 Lexington","address":"3151 Mapleleaf Drive","city":"Lexington","state":"KY","zip":"40509","distance":23.608173243755,"lon":"-84.424208","lat":"38.006431","theaterChainName":"Carmike Cinemas","ticketType":"STANDARD"},{"id":"1359","tribuneTheaterId":"6852","providerTheaterId":"","name":"Cinemark Movies 10 Lexington","address":"425 Codell Drive","city":"Lexington","state":"KY","zip":"40509","distance":23.693994244117,"lon":"-84.452808","lat":"38.02042","theaterChainName":"Cinemark","ticketType":"STANDARD"},{"id":"2863","tribuneTheaterId":"7268","providerTheaterId":"","name":"Regal Hamburg Pavilion Stadium 16","address":"1949 Star Shoot Pkwy","city":"Lexington","state":"KY","zip":"40509","distance":24.82297714794,"lon":"-84.420168","lat":"38.025005","theaterChainName":"Regal Cinemas","ticketType":"STANDARD"},{"id":"2775","tribuneTheaterId":"2760","providerTheaterId":"","name":"Kentucky Theatre","address":"214 E. Main Street","city":"Lexington","state":"KY","zip":"40507","distance":24.29445872139,"lon":"-84.49509","lat":"38.044437","theaterChainName":"Independent Chains","ticketType":"STANDARD"}]