[{"id":"5157","name":"Danville Cinemas 8","address":"1001 Ben Ali Dr","city":"Danville","state":"KY","zip":"40422","distance":"9.620092391967773","lon":"-84.805428","lat":"37.650646","theaterChainName":"Independent Chains","ticketType":"STANDARD"},{"id":"4219","name":"Cinemark Fayette Mall","address":"3800 Mall Rd.","city":"Lexington","state":"KY","zip":"40503","distance":"19.692575454711914","lon":"-84.530579","lat":"37.983692","theaterChainName":"Cinemark","ticketType":"STANDARD"},{"id":"5749","name":"Movie Tavern Brannon Crossing","address":"150 Langley Drive","city":"Nicholasville","state":"KY","zip":"40356","distance":"14.965543746948242","lon":"-84.556297","lat":"37.918301","theaterChainName":"Movie Tavern","ticketType":"STANDARD"},{"id":"2775","name":"Kentucky Theatre","address":"214 E. Main Street","city":"Lexington","state":"KY","zip":"40507","distance":"24.296049118041992","lon":"-84.495087","lat":"38.044437","theaterChainName":"Independent Chains","ticketType":"STANDARD"},{"id":"1359","name":"Cinemark Movies 10 Lexington","address":"425 Codell Drive","city":"Lexington","state":"KY","zip":"40509","distance":"23.695556640625","lon":"-84.452805","lat":"38.020420","theaterChainName":"Cinemark","ticketType":"STANDARD"},{"id":"5520","name":"Lancaster Grand Theatre","address":"117 Lexington St","city":"Lancaster","state":"KY","zip":"40444","distance":"7.567576885223389","lon":"-84.578590","lat":"37.620270","theaterChainName":"Independent Chains","ticketType":"STANDARD"},{"id":"2206","name":"Carmike 10 Lexington","address":"3151 Mapleleaf Drive","city":"Lexington","state":"KY","zip":"40509","distance":"23.609636306762695","lon":"-84.424210","lat":"38.006432","theaterChainName":"Carmike Cinemas","ticketType":"STANDARD"},{"id":"4611","name":"Cinemark Theatres at Richmond Centre","address":"2103 Lantern Ridge Drive","city":"Richmond","state":"KY","zip":"40475","distance":"17.625892639160156","lon":"-84.327812","lat":"37.736649","theaterChainName":"Cinemark","ticketType":"STANDARD"},{"id":"2863","name":"Regal Hamburg Pavilion Stadium 16","address":"1949 Star Shoot Pkwy","city":"Lexington","state":"KY","zip":"40509","distance":"24.824600219726562","lon":"-84.420166","lat":"38.025005","theaterChainName":"Regal Cinemas","ticketType":"STANDARD"}]