[{"id":"6091","name":"Harbor Springs Lyric Theatre","address":"275 East Main Street","city":"Harbor Springs","state":"MI","zip":"49740","distance":"24.46440887451172","lon":"-84.625061","lat":"37.035034","theaterChainName":"Independent Chains","ticketType":"STANDARD"},{"id":"6106","name":"ShowPlace Family Cinemas","address":"4150 S Hwy 27","city":"Somerset","state":"KY","zip":"42501","distance":"24.46440887451172","lon":"-84.625061","lat":"37.035034","theaterChainName":"Independent Chains","ticketType":"STANDARD"},{"id":"4695","name":"Somerset Cinemas 8","address":"100 Mercury Blvd","city":"Somerset","state":"KY","zip":"42503","distance":"19.316431045532227","lon":"-84.606003","lat":"37.116001","theaterChainName":"Independent Chains","ticketType":"STANDARD"},{"id":"5157","name":"Danville Cinemas 8","address":"1001 Ben Ali Dr","city":"Danville","state":"KY","zip":"40422","distance":"19.2291202545166","lon":"-84.805428","lat":"37.650646","theaterChainName":"Independent Chains","ticketType":"STANDARD"},{"id":"5520","name":"Lancaster Grand Theatre","address":"117 Lexington St","city":"Lancaster","state":"KY","zip":"40444","distance":"18.090351104736328","lon":"-84.578590","lat":"37.620270","theaterChainName":"Independent Chains","ticketType":"STANDARD"}]