[{"id":"4695","name":"Somerset Cinemas 8","address":"100 Mercury Blvd","city":"Somerset","state":"KY","zip":"42503","distance":"24.098894119262695","lon":"-84.606003","lat":"37.116001","theaterChainName":"Independent Chains","ticketType":"STANDARD"},{"id":"5520","name":"Lancaster Grand Theatre","address":"117 Lexington St","city":"Lancaster","state":"KY","zip":"40444","distance":"21.00254249572754","lon":"-84.578590","lat":"37.620270","theaterChainName":"Independent Chains","ticketType":"STANDARD"},{"id":"4611","name":"Cinemark Theatres at Richmond Centre","address":"2103 Lantern Ridge Drive","city":"Richmond","state":"KY","zip":"40475","distance":"24.09848403930664","lon":"-84.327812","lat":"37.736649","theaterChainName":"Cinemark","ticketType":"STANDARD"},{"id":"1874","name":"Regency Cinema 8","address":"1808 Highway 192 West","city":"London","state":"KY","zip":"40741","distance":"23.206993103027344","lon":"-84.095253","lat":"37.109680","theaterChainName":"Independent Chains","ticketType":"STANDARD"}]