[{"id":"2774","name":"Theatres of Georgetown","address":"401 Outlet Center Dr.","city":"Georgetown","state":"KY","zip":"40324","distance":"15.194811820983887","lon":"-84.538902","lat":"38.219898","theaterChainName":"Independent Chains","ticketType":"STANDARD"},{"id":"4219","name":"Cinemark Fayette Mall","address":"3800 Mall Rd.","city":"Lexington","state":"KY","zip":"40503","distance":"10.74393367767334","lon":"-84.530579","lat":"37.983692","theaterChainName":"Cinemark","ticketType":"STANDARD"},{"id":"5749","name":"Movie Tavern Brannon Crossing","address":"150 Langley Drive","city":"Nicholasville","state":"KY","zip":"40356","distance":"14.451996803283691","lon":"-84.556297","lat":"37.918301","theaterChainName":"Movie Tavern","ticketType":"STANDARD"},{"id":"2775","name":"Kentucky Theatre","address":"214 E. Main Street","city":"Lexington","state":"KY","zip":"40507","distance":"7.664536476135254","lon":"-84.495087","lat":"38.044437","theaterChainName":"Independent Chains","ticketType":"STANDARD"},{"id":"1359","name":"Cinemark Movies 10 Lexington","address":"425 Codell Drive","city":"Lexington","state":"KY","zip":"40509","distance":"5.8276872634887695","lon":"-84.452805","lat":"38.020420","theaterChainName":"Cinemark","ticketType":"STANDARD"},{"id":"2206","name":"Carmike 10 Lexington","address":"3151 Mapleleaf Drive","city":"Lexington","state":"KY","zip":"40509","distance":"5.025844097137451","lon":"-84.424210","lat":"38.006432","theaterChainName":"Carmike Cinemas","ticketType":"STANDARD"},{"id":"4611","name":"Cinemark Theatres at Richmond Centre","address":"2103 Lantern Ridge Drive","city":"Richmond","state":"KY","zip":"40475","distance":"22.005203247070312","lon":"-84.327812","lat":"37.736649","theaterChainName":"Cinemark","ticketType":"STANDARD"},{"id":"2863","name":"Regal Hamburg Pavilion Stadium 16","address":"1949 Star Shoot Pkwy","city":"Lexington","state":"KY","zip":"40509","distance":"4.096419334411621","lon":"-84.420166","lat":"38.025005","theaterChainName":"Regal Cinemas","ticketType":"STANDARD"},{"id":"1793","name":"Movies 9","address":"40 Winchester Plaza","city":"Winchester","state":"KY","zip":"40391","distance":"8.413911819458008","lon":"-84.211479","lat":"38.008751","theaterChainName":"Malco Theatre","ticketType":"STANDARD"},{"id":"3416","name":"Tenth Frame Cinemas","address":"930 Camargo Rd.","city":"Mount Sterling","state":"KY","zip":"40353","distance":"22.517335891723633","lon":"-83.941002","lat":"38.049702","theaterChainName":"Independent Chains","ticketType":"STANDARD"}]