[{"id":"4525","name":"Rave Motion Pictures Florence 14","address":"7860 Mall Rd.","city":"Florence","state":"KY","zip":"41042","distance":"21.006715774536133","lon":"-84.647293","lat":"38.993465","theaterChainName":"Cinemark","ticketType":"STANDARD"},{"id":"3129","name":"Great Escape Wilder 14","address":"103 Crossing Dr","city":"Wilder","state":"KY","zip":"41076","distance":"16.77242088317871","lon":"-84.484512","lat":"39.018250","theaterChainName":"Regal Cinemas","ticketType":"STANDARD"},{"id":"3418","name":"AMC Newport On The Levee  20","address":"One Levee Way Suite 4100","city":"Newport","state":"KY","zip":"41071","distance":"21.804187774658203","lon":"-84.496201","lat":"39.094002","theaterChainName":"AMC Theatres","ticketType":"STANDARD"},{"id":"1081","name":"Mariemont 3 Theatre","address":"6906 Wooster Pike","city":"Cincinnati","state":"OH","zip":"45227","distance":"23.809598922729492","lon":"-84.374397","lat":"39.145100","theaterChainName":"Independent Chains","ticketType":"STANDARD"},{"id":"6051","name":"Carmike  Anderson Township Ovation Cinema Grill 9","address":"7490 Beechmont Ave","city":"Anderson Township","state":"OH","zip":"45230","distance":"18.98134994506836","lon":"-84.348709","lat":"39.075985","theaterChainName":"Carmike Cinemas","ticketType":"STANDARD"},{"id":"5912","name":"Eastgate Brew and View","address":"4450 Eastgate Square Dr","city":"Cincinnati","state":"OH","zip":"45245","distance":"20.764171600341797","lon":"-84.257072","lat":"39.093994","theaterChainName":"Independent Chains","ticketType":"STANDARD"},{"id":"4562","name":"Pierce Point Cinema 10","address":"1255 West Ohio Pike","city":"Amelia","state":"OH","zip":"45102","distance":"17.74354362487793","lon":"-84.248390","lat":"39.046940","theaterChainName":"GHTC Theatres","ticketType":"STANDARD"}]