[{"id":"4525","name":"Rave Motion Pictures Florence 14","address":"7860 Mall Rd.","city":"Florence","state":"KY","zip":"41042","distance":"6.943320274353027","lon":"-84.647293","lat":"38.993465","theaterChainName":"Cinemark","ticketType":"STANDARD"},{"id":"1082","name":"Parkland Theatre","address":"6550 Parkland Avenue","city":"Cincinnati","state":"OH","zip":"45233","distance":"8.06328296661377","lon":"-84.690437","lat":"39.112202","theaterChainName":"Independent Chains","ticketType":"STANDARD"},{"id":"5554","name":"Greendale Cinema","address":"1605 Flossie Dr.","city":"Greendale","state":"IN","zip":"47025","distance":"8.59151840209961","lon":"-84.840698","lat":"39.127899","theaterChainName":"Independent Chains","ticketType":"STANDARD"},{"id":"273","name":"Rave Motion Pictures Western Hills 14","address":"5870 Harrison Ave.","city":"Cincinnati","state":"OH","zip":"45248","distance":"13.24952507019043","lon":"-84.639816","lat":"39.176208","theaterChainName":"Cinemark","ticketType":"STANDARD"},{"id":"1080","name":"Esquire 6 Theatre","address":"320 Ludlow Avenue","city":"Cincinnati","state":"OH","zip":"45220","distance":"16.2396240234375","lon":"-84.520264","lat":"39.143696","theaterChainName":"Independent Chains","ticketType":"STANDARD"},{"id":"3129","name":"Great Escape Wilder 14","address":"103 Crossing Dr","city":"Wilder","state":"KY","zip":"41076","distance":"15.521539688110352","lon":"-84.484512","lat":"39.018250","theaterChainName":"Regal Cinemas","ticketType":"STANDARD"},{"id":"3418","name":"AMC Newport On The Levee  20","address":"One Levee Way Suite 4100","city":"Newport","state":"KY","zip":"41071","distance":"15.853885650634766","lon":"-84.496201","lat":"39.094002","theaterChainName":"AMC Theatres","ticketType":"STANDARD"},{"id":"5622","name":"Xscape 14 Northgate","address":"9471 Colerain Ave.","city":"Cincinnati","state":"OH","zip":"45251","distance":"18.470062255859375","lon":"-84.595001","lat":"39.243599","theaterChainName":"Independent Chains","ticketType":"STANDARD"},{"id":"5366","name":"Cinemark Oakley Station","address":"3025 Disney St.","city":"Cincinnati","state":"OH","zip":"45209","distance":"20.997779846191406","lon":"-84.430298","lat":"39.161098","theaterChainName":"Cinemark","ticketType":"STANDARD"},{"id":"1081","name":"Mariemont 3 Theatre","address":"6906 Wooster Pike","city":"Cincinnati","state":"OH","zip":"45227","distance":"23.222848892211914","lon":"-84.374397","lat":"39.145100","theaterChainName":"Independent Chains","ticketType":"STANDARD"},{"id":"6051","name":"Carmike  Anderson Township Ovation Cinema Grill 9","address":"7490 Beechmont Ave","city":"Anderson Township","state":"OH","zip":"45230","distance":"23.18747901916504","lon":"-84.348709","lat":"39.075985","theaterChainName":"Carmike Cinemas","ticketType":"STANDARD"},{"id":"4994","name":"Kenwood Theatre","address":"7815 Kenwood Rd","city":"Cincinnati","state":"OH","zip":"45236","distance":"24.730297088623047","lon":"-84.380775","lat":"39.202579","theaterChainName":"Independent Chains","ticketType":"STANDARD"}]