[{"id":"4525","tribuneTheaterId":"9649","providerTheaterId":"","name":"Rave Motion Pictures Florence 14","address":"7860 Mall Rd.","city":"Florence","state":"KY","zip":"41042","distance":2.8508284906483,"lon":"-84.647292","lat":"38.993465","theaterChainName":"Cinemark","ticketType":"STANDARD"},{"id":"3129","tribuneTheaterId":"6078","providerTheaterId":"","name":"Great Escape Wilder 14","address":"103 Crossing Dr","city":"Wilder","state":"KY","zip":"41076","distance":6.1162729394204,"lon":"-84.484509","lat":"39.018251","theaterChainName":"Regal Cinemas","ticketType":"STANDARD"},{"id":"1082","tribuneTheaterId":"235","providerTheaterId":"","name":"Parkland Theatre","address":"6550 Parkland Avenue","city":"Cincinnati","state":"OH","zip":"45233","distance":8.7399730700361,"lon":"-84.690435","lat":"39.1122","theaterChainName":"Independent Chains","ticketType":"STANDARD"},{"id":"3418","tribuneTheaterId":"6756","providerTheaterId":"665","name":"AMC Newport On The Levee  20","address":"One Levee Way Suite 4100","city":"Newport","state":"KY","zip":"41071","distance":8.0501113482817,"lon":"-84.4962","lat":"39.094","theaterChainName":"AMC Theatres","ticketType":"STANDARD"},{"id":"1080","tribuneTheaterId":"2980","providerTheaterId":"","name":"Esquire 6 Theatre","address":"320 Ludlow Avenue","city":"Cincinnati","state":"OH","zip":"45220","distance":10.241814939914,"lon":"-84.520267","lat":"39.143696","theaterChainName":"Independent Chains","ticketType":"STANDARD"},{"id":"273","tribuneTheaterId":"8534","providerTheaterId":"","name":"Rave Motion Pictures Western Hills 14","address":"5870 Harrison Ave.","city":"Cincinnati","state":"OH","zip":"45248","distance":11.826001082694,"lon":"-84.63982","lat":"39.176209","theaterChainName":"Cinemark","ticketType":"STANDARD"},{"id":"6051","tribuneTheaterId":"11455","providerTheaterId":"","name":"Carmike  Anderson Township Ovation Cinema Grill 9","address":"7490 Beechmont Ave","city":"Anderson Township","state":"OH","zip":"45230","distance":14.158773310813,"lon":"-84.348709","lat":"39.075984","theaterChainName":"Carmike Cinemas","ticketType":"STANDARD"},{"id":"5366","tribuneTheaterId":"10803","providerTheaterId":"","name":"Cinemark Oakley Station","address":"3025 Disney St.","city":"Cincinnati","state":"OH","zip":"45209","distance":13.863907489196,"lon":"-84.4303","lat":"39.1611","theaterChainName":"Cinemark","ticketType":"STANDARD"},{"id":"1081","tribuneTheaterId":"2803","providerTheaterId":"","name":"Mariemont 3 Theatre","address":"6906 Wooster Pike","city":"Cincinnati","state":"OH","zip":"45227","distance":15.261844011285,"lon":"-84.3744","lat":"39.1451","theaterChainName":"Independent Chains","ticketType":"STANDARD"},{"id":"5622","tribuneTheaterId":"11084","providerTheaterId":"","name":"Xscape 14 Northgate","address":"9471 Colerain Ave.","city":"Cincinnati","state":"OH","zip":"45251","distance":16.265207302955,"lon":"-84.595","lat":"39.2436","theaterChainName":"Independent Chains","ticketType":"STANDARD"},{"id":"5554","tribuneTheaterId":"10999","providerTheaterId":"","name":"Greendale Cinema","address":"1605 Flossie Dr.","city":"Greendale","state":"IN","zip":"47025","distance":15.437738838081,"lon":"-84.8407","lat":"39.1279","theaterChainName":"Independent Chains","ticketType":"STANDARD"},{"id":"4994","tribuneTheaterId":"10363","providerTheaterId":"","name":"Kenwood Theatre","address":"7815 Kenwood Rd","city":"Cincinnati","state":"OH","zip":"45236","distance":17.766238563439,"lon":"-84.380777","lat":"39.202579","theaterChainName":"Independent Chains","ticketType":"STANDARD"},{"id":"4562","tribuneTheaterId":"9704","providerTheaterId":"","name":"Pierce Point Cinema 10","address":"1255 West Ohio Pike","city":"Amelia","state":"OH","zip":"45102","distance":18.938968880775,"lon":"-84.248394","lat":"39.04694","theaterChainName":"GHTC Theatres","ticketType":"STANDARD"},{"id":"5912","tribuneTheaterId":"11336","providerTheaterId":"","name":"Eastgate Brew and View","address":"4450 Eastgate Square Dr","city":"Cincinnati","state":"OH","zip":"45245","distance":19.214433609336,"lon":"-84.257069","lat":"39.093996","theaterChainName":"Independent Chains","ticketType":"STANDARD"},{"id":"3101","tribuneTheaterId":"8097","providerTheaterId":"","name":"Rave Cinemas Milford 16","address":"500 Rivers Edge","city":"Milford","state":"OH","zip":"45150","distance":20.360435351066,"lon":"-84.273399","lat":"39.1614","theaterChainName":"Cinemark","ticketType":"STANDARD"},{"id":"5849","tribuneTheaterId":"11261","providerTheaterId":"","name":"Envision Grille","address":"4780 Cornell Road","city":"Cincinnati","state":"OH","zip":"45241","distance":21.739444192861,"lon":"-84.37338","lat":"39.270358","theaterChainName":"Independent Chains","ticketType":"STANDARD"},{"id":"274","tribuneTheaterId":"6939","providerTheaterId":"","name":"Springdale 18: Cinema De Lux","address":"12064 Springfield Pike","city":"Springdale","state":"OH","zip":"45246","distance":20.987835612371,"lon":"-84.484497","lat":"39.299","theaterChainName":"National Amusements","ticketType":"STANDARD"},{"id":"5287","tribuneTheaterId":"10721","providerTheaterId":"467","name":"AMC West Chester 18","address":"9415 Civic Center Blvd.","city":"West Chester","state":"OH","zip":"45069","distance":23.47263819894,"lon":"-84.420887","lat":"39.319035","theaterChainName":"AMC Theatres","ticketType":"STANDARD"}]