[{"id":"4525","name":"Rave Motion Pictures Florence 14","address":"7860 Mall Rd.","city":"Florence","state":"KY","zip":"41042","distance":"15.385838508605957","lon":"-84.647293","lat":"38.993465","theaterChainName":"Cinemark","ticketType":"STANDARD"},{"id":"1082","name":"Parkland Theatre","address":"6550 Parkland Avenue","city":"Cincinnati","state":"OH","zip":"45233","distance":"23.882051467895508","lon":"-84.690437","lat":"39.112202","theaterChainName":"Independent Chains","ticketType":"STANDARD"},{"id":"3129","name":"Great Escape Wilder 14","address":"103 Crossing Dr","city":"Wilder","state":"KY","zip":"41076","distance":"17.943700790405273","lon":"-84.484512","lat":"39.018250","theaterChainName":"Regal Cinemas","ticketType":"STANDARD"},{"id":"3418","name":"AMC Newport On The Levee  20","address":"One Levee Way Suite 4100","city":"Newport","state":"KY","zip":"41071","distance":"22.7740478515625","lon":"-84.496201","lat":"39.094002","theaterChainName":"AMC Theatres","ticketType":"STANDARD"},{"id":"6051","name":"Carmike  Anderson Township Ovation Cinema Grill 9","address":"7490 Beechmont Ave","city":"Anderson Township","state":"OH","zip":"45230","distance":"24.798828125","lon":"-84.348709","lat":"39.075985","theaterChainName":"Carmike Cinemas","ticketType":"STANDARD"}]