[{"id":"4749","name":"Cinemark Huntington Mall","address":"Unit 700, 500 Mall Road","city":"Barboursville","state":"WV","zip":"25504","distance":"24.415807723999023","lon":"-82.266289","lat":"38.420658","theaterChainName":"Cinemark","ticketType":"STANDARD"},{"id":"3922","name":"Marquee Pullman Square 16","address":"26 Pullman Square","city":"Huntington","state":"WV","zip":"25701","distance":"14.817009925842285","lon":"-82.443596","lat":"38.422611","theaterChainName":"Marquee Cinemas","ticketType":"STANDARD"},{"id":"1351","name":"Cinemark Movies 10 Ashland","address":"400 Winchester Ave.","city":"Ashland","state":"KY","zip":"41101","distance":"5.654057502746582","lon":"-82.652863","lat":"38.486214","theaterChainName":"Cinemark","ticketType":"STANDARD"},{"id":"4720","name":"KYOVA 10 Theatre","address":"10699 US Rt. 60","city":"Ashland","state":"KY","zip":"41102","distance":"1.381257176399231","lon":"-82.713318","lat":"38.402054","theaterChainName":"Independent Chains","ticketType":"STANDARD"},{"id":"1655","name":"Wheelersburg Cinema","address":"8805 Ohio River Rd.","city":"Wheelersburg","state":"OH","zip":"45694","distance":"21.833677291870117","lon":"-82.858398","lat":"38.717899","theaterChainName":"Independent Chains","ticketType":"STANDARD"}]