[{"id":"4039","tribuneTheaterId":"2161","providerTheaterId":"","name":"Portsmouth Cinemas","address":"1623 Chillicothe Street","city":"Portsmouth","state":"OH","zip":"45662","distance":22.857440310781,"lon":"-82.993813","lat":"38.746156","theaterChainName":"Republic Theaters","ticketType":"STANDARD"},{"id":"4720","tribuneTheaterId":"9936","providerTheaterId":"","name":"KYOVA 10 Theatre","address":"10699 US Rt. 60","city":"Ashland","state":"KY","zip":"41102","distance":22.857900723233,"lon":"-82.713318","lat":"38.402052","theaterChainName":"Independent Chains","ticketType":"STANDARD"},{"id":"4740","tribuneTheaterId":"9963","providerTheaterId":"","name":"Morehead Cinema 6","address":"200 Newton Square","city":"Morehead","state":"KY","zip":"40351","distance":22.943323989871,"lon":"-83.422302","lat":"38.191101","theaterChainName":"Independent Chains","ticketType":"STANDARD"},{"id":"1655","tribuneTheaterId":"1914","providerTheaterId":"","name":"Wheelersburg Cinema","address":"8805 Ohio River Rd.","city":"Wheelersburg","state":"OH","zip":"45694","distance":24.617369119232,"lon":"-82.8584","lat":"38.7179","theaterChainName":"Independent Chains","ticketType":"STANDARD"}]