[{"id":"4061","tribuneTheaterId":"6835","providerTheaterId":"","name":"Main Street Cinema","address":"387 E.Main St.","city":"Inez","state":"KY","zip":"41224","distance":7.7670479894762,"lon":"-82.533127","lat":"37.868334","theaterChainName":"Independent Chains","ticketType":"STANDARD"},{"id":"4179","tribuneTheaterId":"2171","providerTheaterId":"","name":"Fountain Place Cinema 8","address":"102 George Kostas Drive","city":"Logan","state":"WV","zip":"25601","distance":21.440958872158,"lon":"-82.008978","lat":"37.842945","theaterChainName":"GHTC Theatres","ticketType":"STANDARD"},{"id":"1647","tribuneTheaterId":"3916","providerTheaterId":"","name":"Movies 5 - Mayo Plaza","address":"449 N. Mayo Trail","city":"Paintsville","state":"KY","zip":"41240","distance":22.856200377058,"lon":"-82.820091","lat":"37.824157","theaterChainName":"Independent Chains","ticketType":"STANDARD"},{"id":"1648","tribuneTheaterId":"2225","providerTheaterId":"","name":"Riverfill 10","address":"215 Pike Street","city":"Pikeville","state":"KY","zip":"41501","distance":24.842142681768,"lon":"-82.516899","lat":"37.478199","theaterChainName":"Independent Chains","ticketType":"STANDARD"}]