[{"id":"5137","tribuneTheaterId":"10543","providerTheaterId":"","name":"Cinema City 9","address":"206 Coeburn Avenue SW","city":"Norton","state":"VA","zip":"24273","distance":21.156463115884,"lon":"-82.620233","lat":"36.936461","theaterChainName":"Independent Chains","ticketType":"STANDARD"},{"id":"2933","tribuneTheaterId":"1719","providerTheaterId":"","name":"Hillside Theater","address":"410 Morton Blvd","city":"Hazard","state":"KY","zip":"41701","distance":22.019014810612,"lon":"-83.226097","lat":"37.279202","theaterChainName":"Independent Chains","ticketType":"STANDARD"},{"id":"2204","tribuneTheaterId":"4716","providerTheaterId":"","name":"Carmike 4 Harlan","address":"3373 US HWY 421 SOUTH","city":"Harlan","state":"KY","zip":"40831","distance":23.093446412182,"lon":"-83.313929","lat":"36.814182","theaterChainName":"Carmike Cinemas","ticketType":"STANDARD"},{"id":"1868","tribuneTheaterId":"1827","providerTheaterId":"","name":"Fugate's Cinema","address":"197 Entertainment Dr.","city":"Hazard","state":"KY","zip":"41701","distance":24.396751712924,"lon":"-83.2455","lat":"37.310542","theaterChainName":"Independent Chains","ticketType":"STANDARD"}]