[{"id":"3572","name":"Capitol 8 Theatre","address":"455 Madison Square Drive","city":"Madisonville","state":"KY","zip":"42431","distance":"20.860363006591797","lon":"-87.476067","lat":"37.318237","theaterChainName":"Carmike Cinemas","ticketType":"STANDARD"},{"id":"1473","name":"Malco Cinema 16","address":"5333 Frederica St.","city":"Owensboro","state":"KY","zip":"42303","distance":"16.950164794921875","lon":"-87.123428","lat":"37.714211","theaterChainName":"Malco Theatre","ticketType":"STANDARD"},{"id":"1731","name":"Showplace Newburgh 7","address":"8099 Bell Oaks Dr.","city":"Newburgh","state":"IN","zip":"47630","distance":"24.837051391601562","lon":"-87.397675","lat":"37.974476","theaterChainName":"Independent Chains","ticketType":"STANDARD"},{"id":"2037","name":"Showplace Cinema South","address":"950 South Hebron Ave.","city":"Evansville","state":"IN","zip":"47714","distance":"24.58631134033203","lon":"-87.494614","lat":"37.964104","theaterChainName":"Independent Chains","ticketType":"STANDARD"},{"id":"4997","name":"Showplace Henderson","address":"406 Walker Drive","city":"Henderson","state":"KY","zip":"42420","distance":"19.615182876586914","lon":"-87.568672","lat":"37.868519","theaterChainName":"Independent Chains","ticketType":"STANDARD"}]