[{"id":"4997","tribuneTheaterId":"10366","providerTheaterId":"","name":"Showplace Henderson","address":"406 Walker Drive","city":"Henderson","state":"KY","zip":"42420","distance":16.248359515595,"lon":"-87.568674","lat":"37.86852","theaterChainName":"Independent Chains","ticketType":"STANDARD"},{"id":"2509","tribuneTheaterId":"5938","providerTheaterId":"6261","name":"AMC Evansville 16","address":"5600 Pearl Dr.","city":"Evansville","state":"IN","zip":"47712","distance":22.935488045711,"lon":"-87.643163","lat":"37.972949","theaterChainName":"AMC Theatres","ticketType":"STANDARD"},{"id":"2037","tribuneTheaterId":"3050","providerTheaterId":"","name":"Showplace Cinema South","address":"950 South Hebron Ave.","city":"Evansville","state":"IN","zip":"47714","distance":23.765506756116,"lon":"-87.49461","lat":"37.964104","theaterChainName":"Independent Chains","ticketType":"STANDARD"},{"id":"3572","tribuneTheaterId":"2130","providerTheaterId":"","name":"Capitol 8 Theatre","address":"455 Madison Square Drive","city":"Madisonville","state":"KY","zip":"42431","distance":24.124957723573,"lon":"-87.476063","lat":"37.318236","theaterChainName":"Carmike Cinemas","ticketType":"STANDARD"}]