[{"id":"3572","name":"Capitol 8 Theatre","address":"455 Madison Square Drive","city":"Madisonville","state":"KY","zip":"42431","distance":"24.861589431762695","lon":"-87.476067","lat":"37.318237","theaterChainName":"Carmike Cinemas","ticketType":"STANDARD"},{"id":"1473","name":"Malco Cinema 16","address":"5333 Frederica St.","city":"Owensboro","state":"KY","zip":"42303","distance":"22.20292091369629","lon":"-87.123428","lat":"37.714211","theaterChainName":"Malco Theatre","ticketType":"STANDARD"},{"id":"1731","name":"Showplace Newburgh 7","address":"8099 Bell Oaks Dr.","city":"Newburgh","state":"IN","zip":"47630","distance":"21.8044490814209","lon":"-87.397675","lat":"37.974476","theaterChainName":"Independent Chains","ticketType":"STANDARD"},{"id":"2037","name":"Showplace Cinema South","address":"950 South Hebron Ave.","city":"Evansville","state":"IN","zip":"47714","distance":"19.99744415283203","lon":"-87.494614","lat":"37.964104","theaterChainName":"Independent Chains","ticketType":"STANDARD"},{"id":"1912","name":"Showplace Cinema East","address":"1801 Morgan Center Drive","city":"Evansville","state":"IN","zip":"47715","distance":"21.940412521362305","lon":"-87.495903","lat":"37.992401","theaterChainName":"Independent Chains","ticketType":"STANDARD"},{"id":"4997","name":"Showplace Henderson","address":"406 Walker Drive","city":"Henderson","state":"KY","zip":"42420","distance":"13.513161659240723","lon":"-87.568672","lat":"37.868519","theaterChainName":"Independent Chains","ticketType":"STANDARD"},{"id":"1913","name":"Showplace Cinema North","address":"4200 North Third Ave.","city":"Evansville","state":"IN","zip":"47710","distance":"23.702272415161133","lon":"-87.578468","lat":"38.016373","theaterChainName":"Independent Chains","ticketType":"STANDARD"},{"id":"2509","name":"AMC Evansville 16","address":"5600 Pearl Dr.","city":"Evansville","state":"IN","zip":"47712","distance":"21.495351791381836","lon":"-87.643166","lat":"37.972950","theaterChainName":"AMC Theatres","ticketType":"STANDARD"}]