[{"id":"4997","tribuneTheaterId":"10366","providerTheaterId":"","name":"Showplace Henderson","address":"406 Walker Drive","city":"Henderson","state":"KY","zip":"42420","distance":13.512476958766,"lon":"-87.568674","lat":"37.86852","theaterChainName":"Independent Chains","ticketType":"STANDARD"},{"id":"2037","tribuneTheaterId":"3050","providerTheaterId":"","name":"Showplace Cinema South","address":"950 South Hebron Ave.","city":"Evansville","state":"IN","zip":"47714","distance":19.996248470836,"lon":"-87.49461","lat":"37.964104","theaterChainName":"Independent Chains","ticketType":"STANDARD"},{"id":"2509","tribuneTheaterId":"5938","providerTheaterId":"6261","name":"AMC Evansville 16","address":"5600 Pearl Dr.","city":"Evansville","state":"IN","zip":"47712","distance":21.493993402721,"lon":"-87.643163","lat":"37.972949","theaterChainName":"AMC Theatres","ticketType":"STANDARD"},{"id":"1731","tribuneTheaterId":"3123","providerTheaterId":"","name":"Showplace Newburgh 7","address":"8099 Bell Oaks Dr.","city":"Newburgh","state":"IN","zip":"47630","distance":21.803038091669,"lon":"-87.397676","lat":"37.974476","theaterChainName":"Independent Chains","ticketType":"STANDARD"},{"id":"1912","tribuneTheaterId":"3238","providerTheaterId":"","name":"Showplace Cinema East","address":"1801 Morgan Center Drive","city":"Evansville","state":"IN","zip":"47715","distance":21.938995189346,"lon":"-87.4959","lat":"37.9924","theaterChainName":"Independent Chains","ticketType":"STANDARD"},{"id":"1473","tribuneTheaterId":"7631","providerTheaterId":"","name":"Malco Cinema 16","address":"5333 Frederica St.","city":"Owensboro","state":"KY","zip":"42303","distance":22.201423914593,"lon":"-87.123427","lat":"37.714211","theaterChainName":"Malco Theatre","ticketType":"STANDARD"},{"id":"1913","tribuneTheaterId":"3127","providerTheaterId":"","name":"Showplace Cinema North","address":"4200 North Third Ave.","city":"Evansville","state":"IN","zip":"47710","distance":23.700813188627,"lon":"-87.57847","lat":"38.016372","theaterChainName":"Independent Chains","ticketType":"STANDARD"},{"id":"3572","tribuneTheaterId":"2130","providerTheaterId":"","name":"Capitol 8 Theatre","address":"455 Madison Square Drive","city":"Madisonville","state":"KY","zip":"42431","distance":24.860115281928,"lon":"-87.476063","lat":"37.318236","theaterChainName":"Carmike Cinemas","ticketType":"STANDARD"}]