[{"id":"4695","tribuneTheaterId":"9905","providerTheaterId":"","name":"Somerset Cinemas 8","address":"100 Mercury Blvd","city":"Somerset","state":"KY","zip":"42503","distance":21.417960591317,"lon":"-84.606","lat":"37.116","theaterChainName":"Independent Chains","ticketType":"STANDARD"},{"id":"6106","tribuneTheaterId":"11520","providerTheaterId":"","name":"ShowPlace Family Cinemas","address":"4150 S Hwy 27","city":"Somerset","state":"KY","zip":"42501","distance":22.484767036076,"lon":"-84.625064","lat":"37.035033","theaterChainName":"Independent Chains","ticketType":"STANDARD"},{"id":"6091","tribuneTheaterId":"11505","providerTheaterId":"","name":"Harbor Springs Lyric Theatre","address":"275 East Main Street","city":"Harbor Springs","state":"MI","zip":"49740","distance":22.484767036076,"lon":"-84.625064","lat":"37.035033","theaterChainName":"Independent Chains","ticketType":"STANDARD"},{"id":"3282","tribuneTheaterId":"1955","providerTheaterId":"","name":"Green River Cinema 6","address":"730 Campbellsville Blvd.","city":"Campbellsville","state":"KY","zip":"42718","distance":23.900605056983,"lon":"-85.37101","lat":"37.347318","theaterChainName":"Independent Chains","ticketType":"STANDARD"}]