[{"id":"1895","name":"Chakeres Bellefontaine Cinema 8","address":"888 East Sandusky St","city":"Bellefontaine","state":"OH","zip":"43311","distance":"13.732128143310547","lon":"-83.737213","lat":"40.364834","theaterChainName":"Chakeres Theatres","ticketType":"STANDARD"},{"id":"5763","name":"London State Theatre","address":"67 South Main Street","city":"London","state":"OH","zip":"43140","distance":"22.864788055419922","lon":"-83.447433","lat":"39.884888","theaterChainName":"Independent Chains","ticketType":"STANDARD"},{"id":"1906","name":"Chakeres Cinema 10","address":"3115 East National Road","city":"Springfield","state":"OH","zip":"45505","distance":"18.647581100463867","lon":"-83.759224","lat":"39.922562","theaterChainName":"Chakeres Theatres","ticketType":"STANDARD"},{"id":"1298","name":"Chakeres Upper Valley 5","address":"1475 Upper Valley Pike","city":"Springfield","state":"OH","zip":"45504","distance":"19.338153839111328","lon":"-83.853745","lat":"39.947552","theaterChainName":"Chakeres Theatres","ticketType":"STANDARD"}]