[{"id":"4141","name":"Polaris 18","address":"1071 Gemini Place","city":"Columbus","state":"OH","zip":"43240","distance":"20.205669403076172","lon":"-82.986389","lat":"40.146832","theaterChainName":"Cinemark","ticketType":"STANDARD"},{"id":"1479","name":"Marcus Crosswoods Center","address":"200 Hutchinson Avenue","city":"Columbus","state":"OH","zip":"43235","distance":"21.248655319213867","lon":"-83.009628","lat":"40.114479","theaterChainName":"Marcus Theaters","ticketType":"STANDARD"},{"id":"3708","name":"The Screens at the Continent","address":"6360 Busch Blvd.","city":"Columbus","state":"OH","zip":"43229","distance":"20.350282669067383","lon":"-82.992416","lat":"40.094227","theaterChainName":"Independent Chains","ticketType":"STANDARD"},{"id":"2553","name":"AMC Easton Town Center 30","address":"275 Easton Town Ctr","city":"Columbus","state":"OH","zip":"43219","distance":"16.682527542114258","lon":"-82.914818","lat":"40.050625","theaterChainName":"AMC Theatres","ticketType":"STANDARD"},{"id":"948","name":"Cinemark Stoneridge Plaza Movies 16","address":"323 Stoneridge Lane","city":"Gahanna","state":"OH","zip":"43230","distance":"14.221295356750488","lon":"-82.867126","lat":"40.051636","theaterChainName":"Cinemark","ticketType":"STANDARD"},{"id":"972","name":"Studio 35 Cinema","address":"3055 Indianola Avenue","city":"Columbus","state":"OH","zip":"43202","distance":"21.548999786376953","lon":"-83.001579","lat":"40.026043","theaterChainName":"Independent Chains","ticketType":"STANDARD"},{"id":"4284","name":"The Gateway Film Center","address":"1550 North High Street","city":"Columbus","state":"OH","zip":"43201","distance":"22.459177017211914","lon":"-83.006264","lat":"39.993908","theaterChainName":"Independent Chains","ticketType":"STANDARD"},{"id":"275","name":"AMC Lennox Town Center 24","address":"777 Kinnear Rd.","city":"Columbus","state":"OH","zip":"43212","distance":"23.480844497680664","lon":"-83.027763","lat":"39.996067","theaterChainName":"AMC Theatres","ticketType":"STANDARD"},{"id":"961","name":"Grandview Theatre","address":"1247 Grandview Avenue","city":"Columbus","state":"OH","zip":"43212","distance":"24.64215087890625","lon":"-83.044998","lat":"39.983074","theaterChainName":"Independent Chains","ticketType":"STANDARD"},{"id":"973","name":"Marcus Cinemas - Pickerington","address":"1776 Hill Road N","city":"Pickerington","state":"OH","zip":"43147","distance":"15.492934226989746","lon":"-82.784210","lat":"39.927116","theaterChainName":"Marcus Theaters","ticketType":"STANDARD"},{"id":"3155","name":"UEC Premier Theatre Mt. Vernon","address":"11535 Upper Gilchrist Rd.","city":"Mount Vernon","state":"OH","zip":"43050","distance":"22.24455451965332","lon":"-82.438187","lat":"40.400791","theaterChainName":"UEC Theatres","ticketType":"STANDARD"},{"id":"5892","name":"AMC Indian Mound 9","address":"771 S. 30th Street","city":"Heath","state":"OH","zip":"43056","distance":"9.904905319213867","lon":"-82.447380","lat":"40.031860","theaterChainName":"AMC Theatres","ticketType":"STANDARD"}]