[{"id":"5763","tribuneTheaterId":"11205","providerTheaterId":"","name":"London State Theatre","address":"67 South Main Street","city":"London","state":"OH","zip":"43140","distance":16.835536669092,"lon":"-83.447436","lat":"39.884889","theaterChainName":"Independent Chains","ticketType":"STANDARD"},{"id":"942","tribuneTheaterId":"3139","providerTheaterId":"","name":"Starplex Cinemas 10","address":"5275 Westpointe Plaza Drive","city":"Columbus","state":"OH","zip":"43228","distance":19.22137538108,"lon":"-83.149005","lat":"39.982794","theaterChainName":"Starplex Cinemas","ticketType":"STANDARD"},{"id":"941","tribuneTheaterId":"5242","providerTheaterId":"","name":"Cinemark Carriage Place Movies 12","address":"2570 Bethel Road","city":"Columbus","state":"OH","zip":"43220","distance":20.095020529355,"lon":"-83.0877","lat":"40.0648","theaterChainName":"Cinemark","ticketType":"STANDARD"},{"id":"208","tribuneTheaterId":"6677","providerTheaterId":"377","name":"AMC Dublin Village 18","address":"6700 Village Parkway","city":"Dublin","state":"OH","zip":"43017","distance":19.150958572133,"lon":"-83.097496","lat":"40.105452","theaterChainName":"AMC Theatres","ticketType":"STANDARD"},{"id":"1906","tribuneTheaterId":"3152","providerTheaterId":"","name":"Chakeres Cinema 10","address":"3115 East National Road","city":"Springfield","state":"OH","zip":"45505","distance":21.33284649588,"lon":"-83.759224","lat":"39.92256","theaterChainName":"Chakeres Theatres","ticketType":"STANDARD"},{"id":"1895","tribuneTheaterId":"3949","providerTheaterId":"","name":"Chakeres Bellefontaine Cinema 8","address":"888 East Sandusky St","city":"Bellefontaine","state":"OH","zip":"43311","distance":21.968162529313,"lon":"-83.737214","lat":"40.364834","theaterChainName":"Chakeres Theatres","ticketType":"STANDARD"},{"id":"1479","tribuneTheaterId":"5799","providerTheaterId":"","name":"Marcus Crosswoods Center","address":"200 Hutchinson Avenue","city":"Columbus","state":"OH","zip":"43235","distance":23.745912534655,"lon":"-83.009627","lat":"40.11448","theaterChainName":"Marcus Theaters","ticketType":"STANDARD"},{"id":"961","tribuneTheaterId":"2431","providerTheaterId":"","name":"Grandview Theatre","address":"1247 Grandview Avenue","city":"Columbus","state":"OH","zip":"43212","distance":24.072908024582,"lon":"-83.044997","lat":"39.983073","theaterChainName":"Independent Chains","ticketType":"STANDARD"},{"id":"847","tribuneTheaterId":"8882","providerTheaterId":"","name":"Regal Georgesville Square Stadium 16","address":"1800 Georgesville Square Drive","city":"Columbus","state":"OH","zip":"43228","distance":23.276145695407,"lon":"-83.115874","lat":"39.917295","theaterChainName":"Regal Cinemas","ticketType":"STANDARD"},{"id":"971","tribuneTheaterId":"2800","providerTheaterId":"","name":"Strand Theatre I, II, III","address":"28 East Winter Street","city":"Delaware","state":"OH","zip":"43015","distance":23.851810874287,"lon":"-83.06649","lat":"40.300062","theaterChainName":"Independent Chains","ticketType":"STANDARD"},{"id":"1298","tribuneTheaterId":"3899","providerTheaterId":"","name":"Chakeres Upper Valley 5","address":"1475 Upper Valley Pike","city":"Springfield","state":"OH","zip":"45504","distance":24.348254635135,"lon":"-83.853745","lat":"39.947553","theaterChainName":"Chakeres Theatres","ticketType":"STANDARD"},{"id":"275","tribuneTheaterId":"6678","providerTheaterId":"383","name":"AMC Lennox Town Center 24","address":"777 Kinnear Rd.","city":"Columbus","state":"OH","zip":"43212","distance":24.553983075815,"lon":"-83.027761","lat":"39.996068","theaterChainName":"AMC Theatres","ticketType":"STANDARD"},{"id":"4141","tribuneTheaterId":"2410","providerTheaterId":"","name":"Polaris 18","address":"1071 Gemini Place","city":"Columbus","state":"OH","zip":"43240","distance":24.980889786997,"lon":"-82.986386","lat":"40.146832","theaterChainName":"Cinemark","ticketType":"STANDARD"},{"id":"3708","tribuneTheaterId":"2137","providerTheaterId":"","name":"The Screens at the Continent","address":"6360 Busch Blvd.","city":"Columbus","state":"OH","zip":"43229","distance":24.752392878735,"lon":"-82.992414","lat":"40.094228","theaterChainName":"Independent Chains","ticketType":"STANDARD"}]