[{"id":"5892","tribuneTheaterId":"11313","providerTheaterId":"","name":"AMC Indian Mound 9","address":"771 S. 30th Street","city":"Heath","state":"OH","zip":"43056","distance":4.4530620764193,"lon":"-82.447379","lat":"40.03186","theaterChainName":"AMC Theatres","ticketType":"STANDARD"},{"id":"5545","tribuneTheaterId":"10985","providerTheaterId":"","name":"Cinemark River Valley Mall and XD","address":"1611 River Valley Circle S","city":"Lancaster","state":"OH","zip":"43130","distance":19.549914475143,"lon":"-82.6281","lat":"39.7302","theaterChainName":"Cinemark","ticketType":"STANDARD"},{"id":"973","tribuneTheaterId":"5798","providerTheaterId":"","name":"Marcus Cinemas - Pickerington","address":"1776 Hill Road N","city":"Pickerington","state":"OH","zip":"43147","distance":18.982052134772,"lon":"-82.784214","lat":"39.927117","theaterChainName":"Marcus Theaters","ticketType":"STANDARD"},{"id":"4238","tribuneTheaterId":"5243","providerTheaterId":"","name":"Cinemark Colony Square","address":"3575 Maple Ave","city":"Zanesville","state":"OH","zip":"43701","distance":21.305721758288,"lon":"-82.028282","lat":"39.986839","theaterChainName":"Cinemark","ticketType":"STANDARD"},{"id":"948","tribuneTheaterId":"8950","providerTheaterId":"","name":"Cinemark Stoneridge Plaza Movies 16","address":"323 Stoneridge Lane","city":"Gahanna","state":"OH","zip":"43230","distance":23.830426510087,"lon":"-82.867126","lat":"40.051634","theaterChainName":"Cinemark","ticketType":"STANDARD"}]