[{"id":"948","name":"Cinemark Stoneridge Plaza Movies 16","address":"323 Stoneridge Lane","city":"Gahanna","state":"OH","zip":"43230","distance":"23.831947326660156","lon":"-82.867126","lat":"40.051636","theaterChainName":"Cinemark","ticketType":"STANDARD"},{"id":"973","name":"Marcus Cinemas - Pickerington","address":"1776 Hill Road N","city":"Pickerington","state":"OH","zip":"43147","distance":"18.983016967773438","lon":"-82.784210","lat":"39.927116","theaterChainName":"Marcus Theaters","ticketType":"STANDARD"},{"id":"5892","name":"AMC Indian Mound 9","address":"771 S. 30th Street","city":"Heath","state":"OH","zip":"43056","distance":"4.453397750854492","lon":"-82.447380","lat":"40.031860","theaterChainName":"AMC Theatres","ticketType":"STANDARD"},{"id":"4238","name":"Cinemark Colony Square","address":"3575 Maple Ave","city":"Zanesville","state":"OH","zip":"43701","distance":"21.307052612304688","lon":"-82.028282","lat":"39.986839","theaterChainName":"Cinemark","ticketType":"STANDARD"},{"id":"5545","name":"Cinemark River Valley Mall and XD","address":"1611 River Valley Circle S","city":"Lancaster","state":"OH","zip":"43130","distance":"19.550922393798828","lon":"-82.628098","lat":"39.730202","theaterChainName":"Cinemark","ticketType":"STANDARD"}]