[{"id":"971","name":"Strand Theatre I, II, III","address":"28 East Winter Street","city":"Delaware","state":"OH","zip":"43015","distance":"23.208526611328125","lon":"-83.066490","lat":"40.300060","theaterChainName":"Independent Chains","ticketType":"STANDARD"},{"id":"4141","name":"Polaris 18","address":"1071 Gemini Place","city":"Columbus","state":"OH","zip":"43240","distance":"23.315444946289062","lon":"-82.986389","lat":"40.146832","theaterChainName":"Cinemark","ticketType":"STANDARD"},{"id":"948","name":"Cinemark Stoneridge Plaza Movies 16","address":"323 Stoneridge Lane","city":"Gahanna","state":"OH","zip":"43230","distance":"23.917112350463867","lon":"-82.867126","lat":"40.051636","theaterChainName":"Cinemark","ticketType":"STANDARD"},{"id":"3155","name":"UEC Premier Theatre Mt. Vernon","address":"11535 Upper Gilchrist Rd.","city":"Mount Vernon","state":"OH","zip":"43050","distance":"10.776848793029785","lon":"-82.438187","lat":"40.400791","theaterChainName":"UEC Theatres","ticketType":"STANDARD"},{"id":"5892","name":"AMC Indian Mound 9","address":"771 S. 30th Street","city":"Heath","state":"OH","zip":"43056","distance":"23.79892349243164","lon":"-82.447380","lat":"40.031860","theaterChainName":"AMC Theatres","ticketType":"STANDARD"}]