[{"id":"942","name":"Starplex Cinemas 10","address":"5275 Westpointe Plaza Drive","city":"Columbus","state":"OH","zip":"43228","distance":"23.107332229614258","lon":"-83.149002","lat":"39.982796","theaterChainName":"Starplex Cinemas","ticketType":"STANDARD"},{"id":"1895","name":"Chakeres Bellefontaine Cinema 8","address":"888 East Sandusky St","city":"Bellefontaine","state":"OH","zip":"43311","distance":"22.48792266845703","lon":"-83.737213","lat":"40.364834","theaterChainName":"Chakeres Theatres","ticketType":"STANDARD"},{"id":"5763","name":"London State Theatre","address":"67 South Main Street","city":"London","state":"OH","zip":"43140","distance":"14.0769681930542","lon":"-83.447433","lat":"39.884888","theaterChainName":"Independent Chains","ticketType":"STANDARD"},{"id":"1906","name":"Chakeres Cinema 10","address":"3115 East National Road","city":"Springfield","state":"OH","zip":"45505","distance":"13.937992095947266","lon":"-83.759224","lat":"39.922562","theaterChainName":"Chakeres Theatres","ticketType":"STANDARD"},{"id":"1298","name":"Chakeres Upper Valley 5","address":"1475 Upper Valley Pike","city":"Springfield","state":"OH","zip":"45504","distance":"16.948564529418945","lon":"-83.853745","lat":"39.947552","theaterChainName":"Chakeres Theatres","ticketType":"STANDARD"},{"id":"1300","name":"Little Art Theatre","address":"247 Xenia Ave","city":"Yellow Springs","state":"OH","zip":"45387","distance":"24.56551742553711","lon":"-83.889214","lat":"39.805119","theaterChainName":"Independent Chains","ticketType":"STANDARD"}]