[{"id":"5892","tribuneTheaterId":"11313","providerTheaterId":"","name":"AMC Indian Mound 9","address":"771 S. 30th Street","city":"Heath","state":"OH","zip":"43056","distance":3.0376579614994,"lon":"-82.447379","lat":"40.03186","theaterChainName":"AMC Theatres","ticketType":"STANDARD"},{"id":"4238","tribuneTheaterId":"5243","providerTheaterId":"","name":"Cinemark Colony Square","address":"3575 Maple Ave","city":"Zanesville","state":"OH","zip":"43701","distance":20.341655656386,"lon":"-82.028282","lat":"39.986839","theaterChainName":"Cinemark","ticketType":"STANDARD"},{"id":"973","tribuneTheaterId":"5798","providerTheaterId":"","name":"Marcus Cinemas - Pickerington","address":"1776 Hill Road N","city":"Pickerington","state":"OH","zip":"43147","distance":22.197873930152,"lon":"-82.784214","lat":"39.927117","theaterChainName":"Marcus Theaters","ticketType":"STANDARD"},{"id":"948","tribuneTheaterId":"8950","providerTheaterId":"","name":"Cinemark Stoneridge Plaza Movies 16","address":"323 Stoneridge Lane","city":"Gahanna","state":"OH","zip":"43230","distance":24.639690051762,"lon":"-82.867126","lat":"40.051634","theaterChainName":"Cinemark","ticketType":"STANDARD"},{"id":"3155","tribuneTheaterId":"2044","providerTheaterId":"","name":"UEC Premier Theatre Mt. Vernon","address":"11535 Upper Gilchrist Rd.","city":"Mount Vernon","state":"OH","zip":"43050","distance":23.757611403822,"lon":"-82.438188","lat":"40.400793","theaterChainName":"UEC Theatres","ticketType":"STANDARD"}]