[{"id":"4141","name":"Polaris 18","address":"1071 Gemini Place","city":"Columbus","state":"OH","zip":"43240","distance":"16.516782760620117","lon":"-82.986389","lat":"40.146832","theaterChainName":"Cinemark","ticketType":"STANDARD"},{"id":"1479","name":"Marcus Crosswoods Center","address":"200 Hutchinson Avenue","city":"Columbus","state":"OH","zip":"43235","distance":"15.63977336883545","lon":"-83.009628","lat":"40.114479","theaterChainName":"Marcus Theaters","ticketType":"STANDARD"},{"id":"3708","name":"The Screens at the Continent","address":"6360 Busch Blvd.","city":"Columbus","state":"OH","zip":"43229","distance":"14.014365196228027","lon":"-82.992416","lat":"40.094227","theaterChainName":"Independent Chains","ticketType":"STANDARD"},{"id":"208","name":"AMC Dublin Village 18","address":"6700 Village Parkway","city":"Dublin","state":"OH","zip":"43017","distance":"18.879459381103516","lon":"-83.097496","lat":"40.105453","theaterChainName":"AMC Theatres","ticketType":"STANDARD"},{"id":"2553","name":"AMC Easton Town Center 30","address":"275 Easton Town Ctr","city":"Columbus","state":"OH","zip":"43219","distance":"8.980512619018555","lon":"-82.914818","lat":"40.050625","theaterChainName":"AMC Theatres","ticketType":"STANDARD"},{"id":"948","name":"Cinemark Stoneridge Plaza Movies 16","address":"323 Stoneridge Lane","city":"Gahanna","state":"OH","zip":"43230","distance":"7.553143501281738","lon":"-82.867126","lat":"40.051636","theaterChainName":"Cinemark","ticketType":"STANDARD"},{"id":"941","name":"Cinemark Carriage Place Movies 12","address":"2570 Bethel Road","city":"Columbus","state":"OH","zip":"43220","distance":"17.034143447875977","lon":"-83.087700","lat":"40.064800","theaterChainName":"Cinemark","ticketType":"STANDARD"},{"id":"972","name":"Studio 35 Cinema","address":"3055 Indianola Avenue","city":"Columbus","state":"OH","zip":"43202","distance":"11.770317077636719","lon":"-83.001579","lat":"40.026043","theaterChainName":"Independent Chains","ticketType":"STANDARD"},{"id":"4284","name":"The Gateway Film Center","address":"1550 North High Street","city":"Columbus","state":"OH","zip":"43201","distance":"11.280804634094238","lon":"-83.006264","lat":"39.993908","theaterChainName":"Independent Chains","ticketType":"STANDARD"},{"id":"275","name":"AMC Lennox Town Center 24","address":"777 Kinnear Rd.","city":"Columbus","state":"OH","zip":"43212","distance":"12.422806739807129","lon":"-83.027763","lat":"39.996067","theaterChainName":"AMC Theatres","ticketType":"STANDARD"},{"id":"961","name":"Grandview Theatre","address":"1247 Grandview Avenue","city":"Columbus","state":"OH","zip":"43212","distance":"13.154979705810547","lon":"-83.044998","lat":"39.983074","theaterChainName":"Independent Chains","ticketType":"STANDARD"},{"id":"942","name":"Starplex Cinemas 10","address":"5275 Westpointe Plaza Drive","city":"Columbus","state":"OH","zip":"43228","distance":"18.619667053222656","lon":"-83.149002","lat":"39.982796","theaterChainName":"Starplex Cinemas","ticketType":"STANDARD"},{"id":"973","name":"Marcus Cinemas - Pickerington","address":"1776 Hill Road N","city":"Pickerington","state":"OH","zip":"43147","distance":"2.1160502433776855","lon":"-82.784210","lat":"39.927116","theaterChainName":"Marcus Theaters","ticketType":"STANDARD"},{"id":"847","name":"Regal Georgesville Square Stadium 16","address":"1800 Georgesville Square Drive","city":"Columbus","state":"OH","zip":"43228","distance":"16.984132766723633","lon":"-83.115875","lat":"39.917294","theaterChainName":"Regal Cinemas","ticketType":"STANDARD"},{"id":"5892","name":"AMC Indian Mound 9","address":"771 S. 30th Street","city":"Heath","state":"OH","zip":"43056","distance":"19.35722541809082","lon":"-82.447380","lat":"40.031860","theaterChainName":"AMC Theatres","ticketType":"STANDARD"},{"id":"5545","name":"Cinemark River Valley Mall and XD","address":"1611 River Valley Circle S","city":"Lancaster","state":"OH","zip":"43130","distance":"18.020998001098633","lon":"-82.628098","lat":"39.730202","theaterChainName":"Cinemark","ticketType":"STANDARD"},{"id":"5285","name":"AMC Grove City 14","address":"4218 Buckeye Pky.","city":"Grove City","state":"OH","zip":"43123","distance":"13.836387634277344","lon":"-83.037567","lat":"39.873817","theaterChainName":"AMC Theatres","ticketType":"STANDARD"},{"id":"1942","name":"Star Cinema 8-Grove City","address":"2384 Stringtown Rd.","city":"Grove City","state":"OH","zip":"43123","distance":"14.96121597290039","lon":"-83.064857","lat":"39.882221","theaterChainName":"Independent Chains","ticketType":"STANDARD"}]