[{"id":"1895","name":"Chakeres Bellefontaine Cinema 8","address":"888 East Sandusky St","city":"Bellefontaine","state":"OH","zip":"43311","distance":"18.908632278442383","lon":"-83.737213","lat":"40.364834","theaterChainName":"Chakeres Theatres","ticketType":"STANDARD"},{"id":"1906","name":"Chakeres Cinema 10","address":"3115 East National Road","city":"Springfield","state":"OH","zip":"45505","distance":"13.092248916625977","lon":"-83.759224","lat":"39.922562","theaterChainName":"Chakeres Theatres","ticketType":"STANDARD"},{"id":"1298","name":"Chakeres Upper Valley 5","address":"1475 Upper Valley Pike","city":"Springfield","state":"OH","zip":"45504","distance":"10.718636512756348","lon":"-83.853745","lat":"39.947552","theaterChainName":"Chakeres Theatres","ticketType":"STANDARD"},{"id":"1300","name":"Little Art Theatre","address":"247 Xenia Ave","city":"Yellow Springs","state":"OH","zip":"45387","distance":"20.706745147705078","lon":"-83.889214","lat":"39.805119","theaterChainName":"Independent Chains","ticketType":"STANDARD"},{"id":"2556","name":"Movies 5 - Troy","address":"916 N. Market St.","city":"Troy","state":"OH","zip":"45373","distance":"19.199308395385742","lon":"-84.194733","lat":"40.050705","theaterChainName":"Independent Chains","ticketType":"STANDARD"},{"id":"4617","name":"Cinemark at Miami Valley Centre","address":"1020 Garbry Road","city":"Piqua","state":"OH","zip":"45356","distance":"20.402978897094727","lon":"-84.219742","lat":"40.146233","theaterChainName":"Cinemark","ticketType":"STANDARD"},{"id":"288","name":"Rave Motion Pictures Huber Heights 16","address":"7737 Wayne Town Boulevard","city":"Huber Heights","state":"OH","zip":"45424","distance":"22.88918113708496","lon":"-84.142601","lat":"39.867199","theaterChainName":"Cinemark","ticketType":"STANDARD"}]