[{"id":"1298","tribuneTheaterId":"3899","providerTheaterId":"","name":"Chakeres Upper Valley 5","address":"1475 Upper Valley Pike","city":"Springfield","state":"OH","zip":"45504","distance":10.717909685844,"lon":"-83.853745","lat":"39.947553","theaterChainName":"Chakeres Theatres","ticketType":"STANDARD"},{"id":"1906","tribuneTheaterId":"3152","providerTheaterId":"","name":"Chakeres Cinema 10","address":"3115 East National Road","city":"Springfield","state":"OH","zip":"45505","distance":13.091602561259,"lon":"-83.759224","lat":"39.92256","theaterChainName":"Chakeres Theatres","ticketType":"STANDARD"},{"id":"1895","tribuneTheaterId":"3949","providerTheaterId":"","name":"Chakeres Bellefontaine Cinema 8","address":"888 East Sandusky St","city":"Bellefontaine","state":"OH","zip":"43311","distance":18.907454637061,"lon":"-83.737214","lat":"40.364834","theaterChainName":"Chakeres Theatres","ticketType":"STANDARD"},{"id":"2556","tribuneTheaterId":"7479","providerTheaterId":"","name":"Movies 5 - Troy","address":"916 N. Market St.","city":"Troy","state":"OH","zip":"45373","distance":19.19784190031,"lon":"-84.194729","lat":"40.050705","theaterChainName":"Independent Chains","ticketType":"STANDARD"},{"id":"4617","tribuneTheaterId":"9791","providerTheaterId":"","name":"Cinemark at Miami Valley Centre","address":"1020 Garbry Road","city":"Piqua","state":"OH","zip":"45356","distance":20.401559604615,"lon":"-84.219741","lat":"40.146231","theaterChainName":"Cinemark","ticketType":"STANDARD"},{"id":"1300","tribuneTheaterId":"2488","providerTheaterId":"","name":"Little Art Theatre","address":"247 Xenia Ave","city":"Yellow Springs","state":"OH","zip":"45387","distance":20.705432022416,"lon":"-83.889211","lat":"39.805119","theaterChainName":"Independent Chains","ticketType":"STANDARD"},{"id":"288","tribuneTheaterId":"8536","providerTheaterId":"","name":"Rave Motion Pictures Huber Heights 16","address":"7737 Wayne Town Boulevard","city":"Huber Heights","state":"OH","zip":"45424","distance":22.887716015301,"lon":"-84.142601","lat":"39.867199","theaterChainName":"Cinemark","ticketType":"STANDARD"}]