[{"id":"2553","name":"AMC Easton Town Center 30","address":"275 Easton Town Ctr","city":"Columbus","state":"OH","zip":"43219","distance":"23.054262161254883","lon":"-82.914818","lat":"40.050625","theaterChainName":"AMC Theatres","ticketType":"STANDARD"},{"id":"948","name":"Cinemark Stoneridge Plaza Movies 16","address":"323 Stoneridge Lane","city":"Gahanna","state":"OH","zip":"43230","distance":"20.547351837158203","lon":"-82.867126","lat":"40.051636","theaterChainName":"Cinemark","ticketType":"STANDARD"},{"id":"973","name":"Marcus Cinemas - Pickerington","address":"1776 Hill Road N","city":"Pickerington","state":"OH","zip":"43147","distance":"19.732118606567383","lon":"-82.784210","lat":"39.927116","theaterChainName":"Marcus Theaters","ticketType":"STANDARD"},{"id":"3155","name":"UEC Premier Theatre Mt. Vernon","address":"11535 Upper Gilchrist Rd.","city":"Mount Vernon","state":"OH","zip":"43050","distance":"21.252531051635742","lon":"-82.438187","lat":"40.400791","theaterChainName":"UEC Theatres","ticketType":"STANDARD"},{"id":"5892","name":"AMC Indian Mound 9","address":"771 S. 30th Street","city":"Heath","state":"OH","zip":"43056","distance":"4.7521162033081055","lon":"-82.447380","lat":"40.031860","theaterChainName":"AMC Theatres","ticketType":"STANDARD"}]