[{"id":"5545","tribuneTheaterId":"10985","providerTheaterId":"","name":"Cinemark River Valley Mall and XD","address":"1611 River Valley Circle S","city":"Lancaster","state":"OH","zip":"43130","distance":9.2817827560917,"lon":"-82.6281","lat":"39.7302","theaterChainName":"Cinemark","ticketType":"STANDARD"},{"id":"973","tribuneTheaterId":"5798","providerTheaterId":"","name":"Marcus Cinemas - Pickerington","address":"1776 Hill Road N","city":"Pickerington","state":"OH","zip":"43147","distance":9.5313060646512,"lon":"-82.784214","lat":"39.927117","theaterChainName":"Marcus Theaters","ticketType":"STANDARD"},{"id":"5892","tribuneTheaterId":"11313","providerTheaterId":"","name":"AMC Indian Mound 9","address":"771 S. 30th Street","city":"Heath","state":"OH","zip":"43056","distance":14.874019419642,"lon":"-82.447379","lat":"40.03186","theaterChainName":"AMC Theatres","ticketType":"STANDARD"},{"id":"948","tribuneTheaterId":"8950","providerTheaterId":"","name":"Cinemark Stoneridge Plaza Movies 16","address":"323 Stoneridge Lane","city":"Gahanna","state":"OH","zip":"43230","distance":18.247557542981,"lon":"-82.867126","lat":"40.051634","theaterChainName":"Cinemark","ticketType":"STANDARD"},{"id":"2553","tribuneTheaterId":"5287","providerTheaterId":"385","name":"AMC Easton Town Center 30","address":"275 Easton Town Ctr","city":"Columbus","state":"OH","zip":"43219","distance":20.065078627848,"lon":"-82.914821","lat":"40.050624","theaterChainName":"AMC Theatres","ticketType":"STANDARD"},{"id":"5285","tribuneTheaterId":"10719","providerTheaterId":"466","name":"AMC Grove City 14","address":"4218 Buckeye Pky.","city":"Grove City","state":"OH","zip":"43123","distance":21.94070494659,"lon":"-83.037565","lat":"39.873817","theaterChainName":"AMC Theatres","ticketType":"STANDARD"},{"id":"4284","tribuneTheaterId":"2077","providerTheaterId":"","name":"The Gateway Film Center","address":"1550 North High Street","city":"Columbus","state":"OH","zip":"43201","distance":22.139232393614,"lon":"-83.00626","lat":"39.993908","theaterChainName":"Independent Chains","ticketType":"STANDARD"},{"id":"1942","tribuneTheaterId":"3089","providerTheaterId":"","name":"Star Cinema 8-Grove City","address":"2384 Stringtown Rd.","city":"Grove City","state":"OH","zip":"43123","distance":23.409208398428,"lon":"-83.064858","lat":"39.882221","theaterChainName":"Independent Chains","ticketType":"STANDARD"},{"id":"961","tribuneTheaterId":"2431","providerTheaterId":"","name":"Grandview Theatre","address":"1247 Grandview Avenue","city":"Columbus","state":"OH","zip":"43212","distance":23.764397748974,"lon":"-83.044997","lat":"39.983073","theaterChainName":"Independent Chains","ticketType":"STANDARD"},{"id":"972","tribuneTheaterId":"2433","providerTheaterId":"","name":"Studio 35 Cinema","address":"3055 Indianola Avenue","city":"Columbus","state":"OH","zip":"43202","distance":22.904244277148,"lon":"-83.001577","lat":"40.026044","theaterChainName":"Independent Chains","ticketType":"STANDARD"},{"id":"275","tribuneTheaterId":"6678","providerTheaterId":"383","name":"AMC Lennox Town Center 24","address":"777 Kinnear Rd.","city":"Columbus","state":"OH","zip":"43212","distance":23.243601377628,"lon":"-83.027761","lat":"39.996068","theaterChainName":"AMC Theatres","ticketType":"STANDARD"}]