[{"id":"973","name":"Marcus Cinemas - Pickerington","address":"1776 Hill Road N","city":"Pickerington","state":"OH","zip":"43147","distance":"23.971031188964844","lon":"-82.784210","lat":"39.927116","theaterChainName":"Marcus Theaters","ticketType":"STANDARD"},{"id":"847","name":"Regal Georgesville Square Stadium 16","address":"1800 Georgesville Square Drive","city":"Columbus","state":"OH","zip":"43228","distance":"24.12046241760254","lon":"-83.115875","lat":"39.917294","theaterChainName":"Regal Cinemas","ticketType":"STANDARD"},{"id":"5545","name":"Cinemark River Valley Mall and XD","address":"1611 River Valley Circle S","city":"Lancaster","state":"OH","zip":"43130","distance":"18.447555541992188","lon":"-82.628098","lat":"39.730202","theaterChainName":"Cinemark","ticketType":"STANDARD"},{"id":"5285","name":"AMC Grove City 14","address":"4218 Buckeye Pky.","city":"Grove City","state":"OH","zip":"43123","distance":"19.843944549560547","lon":"-83.037567","lat":"39.873817","theaterChainName":"AMC Theatres","ticketType":"STANDARD"},{"id":"1942","name":"Star Cinema 8-Grove City","address":"2384 Stringtown Rd.","city":"Grove City","state":"OH","zip":"43123","distance":"20.853330612182617","lon":"-83.064857","lat":"39.882221","theaterChainName":"Independent Chains","ticketType":"STANDARD"}]