[{"id":"208","name":"AMC Dublin Village 18","address":"6700 Village Parkway","city":"Dublin","state":"OH","zip":"43017","distance":"23.96469497680664","lon":"-83.097496","lat":"40.105453","theaterChainName":"AMC Theatres","ticketType":"STANDARD"},{"id":"2553","name":"AMC Easton Town Center 30","address":"275 Easton Town Ctr","city":"Columbus","state":"OH","zip":"43219","distance":"24.843124389648438","lon":"-82.914818","lat":"40.050625","theaterChainName":"AMC Theatres","ticketType":"STANDARD"},{"id":"941","name":"Cinemark Carriage Place Movies 12","address":"2570 Bethel Road","city":"Columbus","state":"OH","zip":"43220","distance":"21.394258499145508","lon":"-83.087700","lat":"40.064800","theaterChainName":"Cinemark","ticketType":"STANDARD"},{"id":"972","name":"Studio 35 Cinema","address":"3055 Indianola Avenue","city":"Columbus","state":"OH","zip":"43202","distance":"20.815465927124023","lon":"-83.001579","lat":"40.026043","theaterChainName":"Independent Chains","ticketType":"STANDARD"},{"id":"4284","name":"The Gateway Film Center","address":"1550 North High Street","city":"Columbus","state":"OH","zip":"43201","distance":"18.814537048339844","lon":"-83.006264","lat":"39.993908","theaterChainName":"Independent Chains","ticketType":"STANDARD"},{"id":"275","name":"AMC Lennox Town Center 24","address":"777 Kinnear Rd.","city":"Columbus","state":"OH","zip":"43212","distance":"18.32588768005371","lon":"-83.027763","lat":"39.996067","theaterChainName":"AMC Theatres","ticketType":"STANDARD"},{"id":"961","name":"Grandview Theatre","address":"1247 Grandview Avenue","city":"Columbus","state":"OH","zip":"43212","distance":"17.089181900024414","lon":"-83.044998","lat":"39.983074","theaterChainName":"Independent Chains","ticketType":"STANDARD"},{"id":"942","name":"Starplex Cinemas 10","address":"5275 Westpointe Plaza Drive","city":"Columbus","state":"OH","zip":"43228","distance":"15.095991134643555","lon":"-83.149002","lat":"39.982796","theaterChainName":"Starplex Cinemas","ticketType":"STANDARD"},{"id":"973","name":"Marcus Cinemas - Pickerington","address":"1776 Hill Road N","city":"Pickerington","state":"OH","zip":"43147","distance":"24.895559310913086","lon":"-82.784210","lat":"39.927116","theaterChainName":"Marcus Theaters","ticketType":"STANDARD"},{"id":"847","name":"Regal Georgesville Square Stadium 16","address":"1800 Georgesville Square Drive","city":"Columbus","state":"OH","zip":"43228","distance":"11.319584846496582","lon":"-83.115875","lat":"39.917294","theaterChainName":"Regal Cinemas","ticketType":"STANDARD"},{"id":"5763","name":"London State Theatre","address":"67 South Main Street","city":"London","state":"OH","zip":"43140","distance":"15.132768630981445","lon":"-83.447433","lat":"39.884888","theaterChainName":"Independent Chains","ticketType":"STANDARD"},{"id":"5285","name":"AMC Grove City 14","address":"4218 Buckeye Pky.","city":"Grove City","state":"OH","zip":"43123","distance":"11.505526542663574","lon":"-83.037567","lat":"39.873817","theaterChainName":"AMC Theatres","ticketType":"STANDARD"},{"id":"1942","name":"Star Cinema 8-Grove City","address":"2384 Stringtown Rd.","city":"Grove City","state":"OH","zip":"43123","distance":"10.834853172302246","lon":"-83.064857","lat":"39.882221","theaterChainName":"Independent Chains","ticketType":"STANDARD"}]