[{"id":"2905","name":"Athena Cinema","address":"20 South Court Street","city":"Athens","state":"OH","zip":"45701","distance":"22.01600456237793","lon":"-82.100998","lat":"39.328400","theaterChainName":"Independent Chains","ticketType":"STANDARD"},{"id":"4589","name":"Athena Grand","address":"1008 East State St.","city":"Athens","state":"OH","zip":"45701","distance":"23.101028442382812","lon":"-82.066200","lat":"39.336700","theaterChainName":"Independent Chains","ticketType":"STANDARD"},{"id":"1834","name":"Movies 10-Nelsonville","address":"14333 US 33 South","city":"Nelsonville","state":"OH","zip":"45764","distance":"14.77078914642334","lon":"-82.188026","lat":"39.412113","theaterChainName":"Independent Chains","ticketType":"STANDARD"},{"id":"5545","name":"Cinemark River Valley Mall and XD","address":"1611 River Valley Circle S","city":"Lancaster","state":"OH","zip":"43130","distance":"17.588489532470703","lon":"-82.628098","lat":"39.730202","theaterChainName":"Cinemark","ticketType":"STANDARD"}]