[{"id":"5545","tribuneTheaterId":"10985","providerTheaterId":"","name":"Cinemark River Valley Mall and XD","address":"1611 River Valley Circle S","city":"Lancaster","state":"OH","zip":"43130","distance":9.1686099491454,"lon":"-82.6281","lat":"39.7302","theaterChainName":"Cinemark","ticketType":"STANDARD"},{"id":"5892","tribuneTheaterId":"11313","providerTheaterId":"","name":"AMC Indian Mound 9","address":"771 S. 30th Street","city":"Heath","state":"OH","zip":"43056","distance":14.762905544864,"lon":"-82.447379","lat":"40.03186","theaterChainName":"AMC Theatres","ticketType":"STANDARD"},{"id":"973","tribuneTheaterId":"5798","providerTheaterId":"","name":"Marcus Cinemas - Pickerington","address":"1776 Hill Road N","city":"Pickerington","state":"OH","zip":"43147","distance":16.503030787818,"lon":"-82.784214","lat":"39.927117","theaterChainName":"Marcus Theaters","ticketType":"STANDARD"},{"id":"948","tribuneTheaterId":"8950","providerTheaterId":"","name":"Cinemark Stoneridge Plaza Movies 16","address":"323 Stoneridge Lane","city":"Gahanna","state":"OH","zip":"43230","distance":24.893119917797,"lon":"-82.867126","lat":"40.051634","theaterChainName":"Cinemark","ticketType":"STANDARD"}]