[{"id":"4284","name":"The Gateway Film Center","address":"1550 North High Street","city":"Columbus","state":"OH","zip":"43201","distance":"24.011125564575195","lon":"-83.006264","lat":"39.993908","theaterChainName":"Independent Chains","ticketType":"STANDARD"},{"id":"275","name":"AMC Lennox Town Center 24","address":"777 Kinnear Rd.","city":"Columbus","state":"OH","zip":"43212","distance":"23.459754943847656","lon":"-83.027763","lat":"39.996067","theaterChainName":"AMC Theatres","ticketType":"STANDARD"},{"id":"961","name":"Grandview Theatre","address":"1247 Grandview Avenue","city":"Columbus","state":"OH","zip":"43212","distance":"22.202468872070312","lon":"-83.044998","lat":"39.983074","theaterChainName":"Independent Chains","ticketType":"STANDARD"},{"id":"942","name":"Starplex Cinemas 10","address":"5275 Westpointe Plaza Drive","city":"Columbus","state":"OH","zip":"43228","distance":"19.615665435791016","lon":"-83.149002","lat":"39.982796","theaterChainName":"Starplex Cinemas","ticketType":"STANDARD"},{"id":"847","name":"Regal Georgesville Square Stadium 16","address":"1800 Georgesville Square Drive","city":"Columbus","state":"OH","zip":"43228","distance":"16.340713500976562","lon":"-83.115875","lat":"39.917294","theaterChainName":"Regal Cinemas","ticketType":"STANDARD"},{"id":"5763","name":"London State Theatre","address":"67 South Main Street","city":"London","state":"OH","zip":"43140","distance":"14.56748104095459","lon":"-83.447433","lat":"39.884888","theaterChainName":"Independent Chains","ticketType":"STANDARD"},{"id":"5285","name":"AMC Grove City 14","address":"4218 Buckeye Pky.","city":"Grove City","state":"OH","zip":"43123","distance":"16.826919555664062","lon":"-83.037567","lat":"39.873817","theaterChainName":"AMC Theatres","ticketType":"STANDARD"},{"id":"1942","name":"Star Cinema 8-Grove City","address":"2384 Stringtown Rd.","city":"Grove City","state":"OH","zip":"43123","distance":"16.14688491821289","lon":"-83.064857","lat":"39.882221","theaterChainName":"Independent Chains","ticketType":"STANDARD"}]