[{"id":"5763","tribuneTheaterId":"11205","providerTheaterId":"","name":"London State Theatre","address":"67 South Main Street","city":"London","state":"OH","zip":"43140","distance":12.651835559726,"lon":"-83.447436","lat":"39.884889","theaterChainName":"Independent Chains","ticketType":"STANDARD"},{"id":"1906","tribuneTheaterId":"3152","providerTheaterId":"","name":"Chakeres Cinema 10","address":"3115 East National Road","city":"Springfield","state":"OH","zip":"45505","distance":15.139572777082,"lon":"-83.759224","lat":"39.92256","theaterChainName":"Chakeres Theatres","ticketType":"STANDARD"},{"id":"1300","tribuneTheaterId":"2488","providerTheaterId":"","name":"Little Art Theatre","address":"247 Xenia Ave","city":"Yellow Springs","state":"OH","zip":"45387","distance":16.113019303596,"lon":"-83.889211","lat":"39.805119","theaterChainName":"Independent Chains","ticketType":"STANDARD"},{"id":"1298","tribuneTheaterId":"3899","providerTheaterId":"","name":"Chakeres Upper Valley 5","address":"1475 Upper Valley Pike","city":"Springfield","state":"OH","zip":"45504","distance":19.662662498025,"lon":"-83.853745","lat":"39.947553","theaterChainName":"Chakeres Theatres","ticketType":"STANDARD"},{"id":"1914","tribuneTheaterId":"1830","providerTheaterId":"","name":"Chakeres Wilmington Plaza 5","address":"1276 Romback Avenue","city":"Wilmington","state":"OH","zip":"45177","distance":23.236222333381,"lon":"-83.806484","lat":"39.447271","theaterChainName":"Republic Theaters","ticketType":"STANDARD"},{"id":"2582","tribuneTheaterId":"8306","providerTheaterId":"","name":"Regal Hollywood Stadium 20  Fairfield Commons","address":"2651 Fairfield Commons","city":"Beavercreek","state":"OH","zip":"45431","distance":24.582216359466,"lon":"-84.058928","lat":"39.763787","theaterChainName":"Regal Cinemas","ticketType":"STANDARD"}]