[{"id":"4284","tribuneTheaterId":"2077","providerTheaterId":"","name":"The Gateway Film Center","address":"1550 North High Street","city":"Columbus","state":"OH","zip":"43201","distance":0.81579147700477,"lon":"-83.00626","lat":"39.993908","theaterChainName":"Independent Chains","ticketType":"STANDARD"},{"id":"275","tribuneTheaterId":"6678","providerTheaterId":"383","name":"AMC Lennox Town Center 24","address":"777 Kinnear Rd.","city":"Columbus","state":"OH","zip":"43212","distance":0.760226757677,"lon":"-83.027761","lat":"39.996068","theaterChainName":"AMC Theatres","ticketType":"STANDARD"},{"id":"972","tribuneTheaterId":"2433","providerTheaterId":"","name":"Studio 35 Cinema","address":"3055 Indianola Avenue","city":"Columbus","state":"OH","zip":"43202","distance":1.7873234599425,"lon":"-83.001577","lat":"40.026044","theaterChainName":"Independent Chains","ticketType":"STANDARD"},{"id":"961","tribuneTheaterId":"2431","providerTheaterId":"","name":"Grandview Theatre","address":"1247 Grandview Avenue","city":"Columbus","state":"OH","zip":"43212","distance":2.0369658739662,"lon":"-83.044997","lat":"39.983073","theaterChainName":"Independent Chains","ticketType":"STANDARD"},{"id":"2553","tribuneTheaterId":"5287","providerTheaterId":"385","name":"AMC Easton Town Center 30","address":"275 Easton Town Ctr","city":"Columbus","state":"OH","zip":"43219","distance":6.3088725236252,"lon":"-82.914821","lat":"40.050624","theaterChainName":"AMC Theatres","ticketType":"STANDARD"},{"id":"3708","tribuneTheaterId":"2137","providerTheaterId":"","name":"The Screens at the Continent","address":"6360 Busch Blvd.","city":"Columbus","state":"OH","zip":"43229","distance":6.4431924290836,"lon":"-82.992414","lat":"40.094228","theaterChainName":"Independent Chains","ticketType":"STANDARD"},{"id":"941","tribuneTheaterId":"5242","providerTheaterId":"","name":"Cinemark Carriage Place Movies 12","address":"2570 Bethel Road","city":"Columbus","state":"OH","zip":"43220","distance":5.7077412286561,"lon":"-83.0877","lat":"40.0648","theaterChainName":"Cinemark","ticketType":"STANDARD"},{"id":"1942","tribuneTheaterId":"3089","providerTheaterId":"","name":"Star Cinema 8-Grove City","address":"2384 Stringtown Rd.","city":"Grove City","state":"OH","zip":"43123","distance":8.7176969367236,"lon":"-83.064858","lat":"39.882221","theaterChainName":"Independent Chains","ticketType":"STANDARD"},{"id":"847","tribuneTheaterId":"8882","providerTheaterId":"","name":"Regal Georgesville Square Stadium 16","address":"1800 Georgesville Square Drive","city":"Columbus","state":"OH","zip":"43228","distance":7.9155009613132,"lon":"-83.115874","lat":"39.917295","theaterChainName":"Regal Cinemas","ticketType":"STANDARD"},{"id":"942","tribuneTheaterId":"3139","providerTheaterId":"","name":"Starplex Cinemas 10","address":"5275 Westpointe Plaza Drive","city":"Columbus","state":"OH","zip":"43228","distance":7.1541369190008,"lon":"-83.149005","lat":"39.982794","theaterChainName":"Starplex Cinemas","ticketType":"STANDARD"},{"id":"1479","tribuneTheaterId":"5799","providerTheaterId":"","name":"Marcus Crosswoods Center","address":"200 Hutchinson Avenue","city":"Columbus","state":"OH","zip":"43235","distance":7.7246484977553,"lon":"-83.009627","lat":"40.11448","theaterChainName":"Marcus Theaters","ticketType":"STANDARD"},{"id":"208","tribuneTheaterId":"6677","providerTheaterId":"377","name":"AMC Dublin Village 18","address":"6700 Village Parkway","city":"Dublin","state":"OH","zip":"43017","distance":8.2884882406202,"lon":"-83.097496","lat":"40.105452","theaterChainName":"AMC Theatres","ticketType":"STANDARD"},{"id":"5285","tribuneTheaterId":"10719","providerTheaterId":"466","name":"AMC Grove City 14","address":"4218 Buckeye Pky.","city":"Grove City","state":"OH","zip":"43123","distance":8.9821189792026,"lon":"-83.037565","lat":"39.873817","theaterChainName":"AMC Theatres","ticketType":"STANDARD"},{"id":"948","tribuneTheaterId":"8950","providerTheaterId":"","name":"Cinemark Stoneridge Plaza Movies 16","address":"323 Stoneridge Lane","city":"Gahanna","state":"OH","zip":"43230","distance":8.5882642106413,"lon":"-82.867126","lat":"40.051634","theaterChainName":"Cinemark","ticketType":"STANDARD"},{"id":"4141","tribuneTheaterId":"2410","providerTheaterId":"","name":"Polaris 18","address":"1071 Gemini Place","city":"Columbus","state":"OH","zip":"43240","distance":10.077369457872,"lon":"-82.986386","lat":"40.146832","theaterChainName":"Cinemark","ticketType":"STANDARD"},{"id":"973","tribuneTheaterId":"5798","providerTheaterId":"","name":"Marcus Cinemas - Pickerington","address":"1776 Hill Road N","city":"Pickerington","state":"OH","zip":"43147","distance":13.361336457392,"lon":"-82.784214","lat":"39.927117","theaterChainName":"Marcus Theaters","ticketType":"STANDARD"},{"id":"971","tribuneTheaterId":"2800","providerTheaterId":"","name":"Strand Theatre I, II, III","address":"28 East Winter Street","city":"Delaware","state":"OH","zip":"43015","distance":20.708462678759,"lon":"-83.06649","lat":"40.300062","theaterChainName":"Independent Chains","ticketType":"STANDARD"},{"id":"5763","tribuneTheaterId":"11205","providerTheaterId":"","name":"London State Theatre","address":"67 South Main Street","city":"London","state":"OH","zip":"43140","distance":24.24271325095,"lon":"-83.447436","lat":"39.884889","theaterChainName":"Independent Chains","ticketType":"STANDARD"}]