[{"id":"1895","name":"Chakeres Bellefontaine Cinema 8","address":"888 East Sandusky St","city":"Bellefontaine","state":"OH","zip":"43311","distance":"10.228452682495117","lon":"-83.737213","lat":"40.364834","theaterChainName":"Chakeres Theatres","ticketType":"STANDARD"},{"id":"1298","name":"Chakeres Upper Valley 5","address":"1475 Upper Valley Pike","city":"Springfield","state":"OH","zip":"45504","distance":"24.966896057128906","lon":"-83.853745","lat":"39.947552","theaterChainName":"Chakeres Theatres","ticketType":"STANDARD"},{"id":"2035","name":"Elder Theatre","address":"106 W. Pike St.","city":"Jackson Center","state":"OH","zip":"45334","distance":"11.372252464294434","lon":"-84.040611","lat":"40.439865","theaterChainName":"Independent Chains","ticketType":"STANDARD"},{"id":"2556","name":"Movies 5 - Troy","address":"916 N. Market St.","city":"Troy","state":"OH","zip":"45373","distance":"22.98529052734375","lon":"-84.194733","lat":"40.050705","theaterChainName":"Independent Chains","ticketType":"STANDARD"},{"id":"4617","name":"Cinemark at Miami Valley Centre","address":"1020 Garbry Road","city":"Piqua","state":"OH","zip":"45356","distance":"19.481592178344727","lon":"-84.219742","lat":"40.146233","theaterChainName":"Cinemark","ticketType":"STANDARD"}]