[{"id":"1992","tribuneTheaterId":"2507","providerTheaterId":"","name":"Ada Theatre","address":"215 S Main St","city":"Ada","state":"OH","zip":"45810","distance":21.325856022623,"lon":"-83.823097","lat":"40.768902","theaterChainName":"Independent Chains","ticketType":"STANDARD"},{"id":"4129","tribuneTheaterId":"4772","providerTheaterId":"","name":"Carmike 12 Findlay","address":"906 Interstate Drive","city":"Findlay","state":"OH","zip":"45840","distance":21.680692402993,"lon":"-83.667398","lat":"41.064841","theaterChainName":"Carmike Cinemas","ticketType":"STANDARD"},{"id":"4184","tribuneTheaterId":"5238","providerTheaterId":"","name":"Cinemark Tiffin Mall 8","address":"870 West Market Street","city":"Tiffin","state":"OH","zip":"44883","distance":23.317190421858,"lon":"-83.212382","lat":"41.112004","theaterChainName":"Cinemark","ticketType":"STANDARD"},{"id":"5164","tribuneTheaterId":"10571","providerTheaterId":"","name":"Marion Centre Cinemas","address":"1509 Marion-Waldo Rd.","city":"Marion","state":"OH","zip":"43302","distance":23.357446744623,"lon":"-83.119499","lat":"40.563","theaterChainName":"Independent Chains","ticketType":"STANDARD"}]