[{"id":"971","name":"Strand Theatre I, II, III","address":"28 East Winter Street","city":"Delaware","state":"OH","zip":"43015","distance":"11.088027954101562","lon":"-83.066490","lat":"40.300060","theaterChainName":"Independent Chains","ticketType":"STANDARD"},{"id":"5164","name":"Marion Centre Cinemas","address":"1509 Marion-Waldo Rd.","city":"Marion","state":"OH","zip":"43302","distance":"7.533985137939453","lon":"-83.119499","lat":"40.563000","theaterChainName":"Independent Chains","ticketType":"STANDARD"},{"id":"4141","name":"Polaris 18","address":"1071 Gemini Place","city":"Columbus","state":"OH","zip":"43240","distance":"22.123291015625","lon":"-82.986389","lat":"40.146832","theaterChainName":"Cinemark","ticketType":"STANDARD"},{"id":"1479","name":"Marcus Crosswoods Center","address":"200 Hutchinson Avenue","city":"Columbus","state":"OH","zip":"43235","distance":"24.124160766601562","lon":"-83.009628","lat":"40.114479","theaterChainName":"Marcus Theaters","ticketType":"STANDARD"},{"id":"208","name":"AMC Dublin Village 18","address":"6700 Village Parkway","city":"Dublin","state":"OH","zip":"43017","distance":"24.573698043823242","lon":"-83.097496","lat":"40.105453","theaterChainName":"AMC Theatres","ticketType":"STANDARD"}]