[{"id":"5164","tribuneTheaterId":"10571","providerTheaterId":"","name":"Marion Centre Cinemas","address":"1509 Marion-Waldo Rd.","city":"Marion","state":"OH","zip":"43302","distance":7.5334981267649,"lon":"-83.119499","lat":"40.563","theaterChainName":"Independent Chains","ticketType":"STANDARD"},{"id":"971","tribuneTheaterId":"2800","providerTheaterId":"","name":"Strand Theatre I, II, III","address":"28 East Winter Street","city":"Delaware","state":"OH","zip":"43015","distance":11.087301772897,"lon":"-83.06649","lat":"40.300062","theaterChainName":"Independent Chains","ticketType":"STANDARD"},{"id":"4141","tribuneTheaterId":"2410","providerTheaterId":"","name":"Polaris 18","address":"1071 Gemini Place","city":"Columbus","state":"OH","zip":"43240","distance":22.121975796864,"lon":"-82.986386","lat":"40.146832","theaterChainName":"Cinemark","ticketType":"STANDARD"},{"id":"208","tribuneTheaterId":"6677","providerTheaterId":"377","name":"AMC Dublin Village 18","address":"6700 Village Parkway","city":"Dublin","state":"OH","zip":"43017","distance":24.572366720522,"lon":"-83.097496","lat":"40.105452","theaterChainName":"AMC Theatres","ticketType":"STANDARD"},{"id":"1479","tribuneTheaterId":"5799","providerTheaterId":"","name":"Marcus Crosswoods Center","address":"200 Hutchinson Avenue","city":"Columbus","state":"OH","zip":"43235","distance":24.122674997246,"lon":"-83.009627","lat":"40.11448","theaterChainName":"Marcus Theaters","ticketType":"STANDARD"}]