[{"id":"2686","tribuneTheaterId":"5070","providerTheaterId":"","name":"Paramount Cinema","address":"301 South Front Street","city":"Fremont","state":"OH","zip":"43420","distance":6.9421503369682,"lon":"-83.113447","lat":"41.344224","theaterChainName":"Independent Chains","ticketType":"STANDARD"},{"id":"4184","tribuneTheaterId":"5238","providerTheaterId":"","name":"Cinemark Tiffin Mall 8","address":"870 West Market Street","city":"Tiffin","state":"OH","zip":"44883","distance":17.450709676745,"lon":"-83.212382","lat":"41.112004","theaterChainName":"Cinemark","ticketType":"STANDARD"},{"id":"4958","tribuneTheaterId":"10318","providerTheaterId":"","name":"Cinemark Stadium","address":"4314 Milan Road","city":"Sandusky","state":"OH","zip":"44870","distance":18.468814553192,"lon":"-82.671218","lat":"41.418821","theaterChainName":"Cinemark","ticketType":"STANDARD"},{"id":"4497","tribuneTheaterId":"9599","providerTheaterId":"","name":"Premiere Theaters 8","address":"Highway 250 Industrial Parkway","city":"Norwalk","state":"OH","zip":"44857","distance":20.178875096768,"lon":"-82.605444","lat":"41.270592","theaterChainName":"UEC Theatres","ticketType":"STANDARD"}]