[{"id":"2686","tribuneTheaterId":"5070","providerTheaterId":"","name":"Paramount Cinema","address":"301 South Front Street","city":"Fremont","state":"OH","zip":"43420","distance":7.1146160941243,"lon":"-83.113447","lat":"41.344224","theaterChainName":"Independent Chains","ticketType":"STANDARD"},{"id":"4184","tribuneTheaterId":"5238","providerTheaterId":"","name":"Cinemark Tiffin Mall 8","address":"870 West Market Street","city":"Tiffin","state":"OH","zip":"44883","distance":20.914346976576,"lon":"-83.212382","lat":"41.112004","theaterChainName":"Cinemark","ticketType":"STANDARD"},{"id":"5555","tribuneTheaterId":"11000","providerTheaterId":"","name":"Eastwood Theater","address":"817 E Broadway Street","city":"Toledo","state":"OH","zip":"43605","distance":21.842872209306,"lon":"-83.515311","lat":"41.635803","theaterChainName":"Independent Chains","ticketType":"STANDARD"},{"id":"1352","tribuneTheaterId":"4192","providerTheaterId":"","name":"Cinemark Woodland Mall Cinema 5","address":"1234 North Main Street","city":"Bowling Green","state":"OH","zip":"43402","distance":22.500261980911,"lon":"-83.647117","lat":"41.398128","theaterChainName":"Cinemark","ticketType":"STANDARD"},{"id":"3906","tribuneTheaterId":"8856","providerTheaterId":"","name":"Rave Motion Pictures Levis Commons","address":"2005 Hollenbeck Drive","city":"Perrysburg","state":"OH","zip":"43551","distance":23.495274618634,"lon":"-83.641292","lat":"41.528236","theaterChainName":"Cinemark","ticketType":"STANDARD"}]