[{"id":"4184","name":"Cinemark Tiffin Mall 8","address":"870 West Market Street","city":"Tiffin","state":"OH","zip":"44883","distance":"15.849723815917969","lon":"-83.212379","lat":"41.112003","theaterChainName":"Cinemark","ticketType":"STANDARD"},{"id":"4129","name":"Carmike 12 Findlay","address":"906 Interstate Drive","city":"Findlay","state":"OH","zip":"45840","distance":"18.742706298828125","lon":"-83.667397","lat":"41.064842","theaterChainName":"Carmike Cinemas","ticketType":"STANDARD"},{"id":"2686","name":"Paramount Cinema","address":"301 South Front Street","city":"Fremont","state":"OH","zip":"43420","distance":"17.329036712646484","lon":"-83.113449","lat":"41.344223","theaterChainName":"Independent Chains","ticketType":"STANDARD"},{"id":"1352","name":"Cinemark Woodland Mall Cinema 5","address":"1234 North Main Street","city":"Bowling Green","state":"OH","zip":"43402","distance":"14.195837020874023","lon":"-83.647118","lat":"41.398129","theaterChainName":"Cinemark","ticketType":"STANDARD"},{"id":"3906","name":"Rave Motion Pictures Levis Commons","address":"2005 Hollenbeck Drive","city":"Perrysburg","state":"OH","zip":"43551","distance":"20.830528259277344","lon":"-83.641289","lat":"41.528236","theaterChainName":"Cinemark","ticketType":"STANDARD"},{"id":"4442","name":"Rave Motion Pictures Fallen Timbers 14","address":"2300 Village Dr. West Suite 1700","city":"Maumee","state":"OH","zip":"43537","distance":"23.7584228515625","lon":"-83.704987","lat":"41.547169","theaterChainName":"Cinemark","ticketType":"STANDARD"},{"id":"3794","name":"Maumee Indoor Theatre","address":"601 Conant St.","city":"Maumee","state":"OH","zip":"43537","distance":"23.377185821533203","lon":"-83.655235","lat":"41.564857","theaterChainName":"Independent Chains","ticketType":"STANDARD"}]