[{"id":"4129","name":"Carmike 12 Findlay","address":"906 Interstate Drive","city":"Findlay","state":"OH","zip":"45840","distance":"16.2105712890625","lon":"-83.667397","lat":"41.064842","theaterChainName":"Carmike Cinemas","ticketType":"STANDARD"},{"id":"1352","name":"Cinemark Woodland Mall Cinema 5","address":"1234 North Main Street","city":"Bowling Green","state":"OH","zip":"43402","distance":"17.67283821105957","lon":"-83.647118","lat":"41.398129","theaterChainName":"Cinemark","ticketType":"STANDARD"},{"id":"3906","name":"Rave Motion Pictures Levis Commons","address":"2005 Hollenbeck Drive","city":"Perrysburg","state":"OH","zip":"43551","distance":"24.843137741088867","lon":"-83.641289","lat":"41.528236","theaterChainName":"Cinemark","ticketType":"STANDARD"},{"id":"4442","name":"Rave Motion Pictures Fallen Timbers 14","address":"2300 Village Dr. West Suite 1700","city":"Maumee","state":"OH","zip":"43537","distance":"24.442136764526367","lon":"-83.704987","lat":"41.547169","theaterChainName":"Cinemark","ticketType":"STANDARD"},{"id":"4578","name":"Northtowne Cinema 9","address":"1500 North Clinton","city":"Defiance","state":"OH","zip":"43512","distance":"24.831960678100586","lon":"-84.362801","lat":"41.302895","theaterChainName":"WPA\/Pittsburgh Theatres","ticketType":"STANDARD"}]