[{"id":"1352","tribuneTheaterId":"4192","providerTheaterId":"","name":"Cinemark Woodland Mall Cinema 5","address":"1234 North Main Street","city":"Bowling Green","state":"OH","zip":"43402","distance":15.379369634963,"lon":"-83.647117","lat":"41.398128","theaterChainName":"Cinemark","ticketType":"STANDARD"},{"id":"4019","tribuneTheaterId":"1430","providerTheaterId":"","name":"Skye Cinema","address":"455 East Airport Hwy","city":"Wauseon","state":"OH","zip":"43567","distance":16.999515265259,"lon":"-84.140999","lat":"41.573299","theaterChainName":"Independent Chains","ticketType":"STANDARD"},{"id":"4442","tribuneTheaterId":"9522","providerTheaterId":"","name":"Rave Motion Pictures Fallen Timbers 14","address":"2300 Village Dr. West Suite 1700","city":"Maumee","state":"OH","zip":"43537","distance":16.999644055869,"lon":"-83.70499","lat":"41.547169","theaterChainName":"Cinemark","ticketType":"STANDARD"},{"id":"3794","tribuneTheaterId":"5067","providerTheaterId":"","name":"Maumee Indoor Theatre","address":"601 Conant St.","city":"Maumee","state":"OH","zip":"43537","distance":19.725773552925,"lon":"-83.655239","lat":"41.564859","theaterChainName":"Independent Chains","ticketType":"STANDARD"},{"id":"3906","tribuneTheaterId":"8856","providerTheaterId":"","name":"Rave Motion Pictures Levis Commons","address":"2005 Hollenbeck Drive","city":"Perrysburg","state":"OH","zip":"43551","distance":18.763285485544,"lon":"-83.641292","lat":"41.528236","theaterChainName":"Cinemark","ticketType":"STANDARD"},{"id":"4578","tribuneTheaterId":"9724","providerTheaterId":"","name":"Northtowne Cinema 9","address":"1500 North Clinton","city":"Defiance","state":"OH","zip":"43512","distance":22.401028131064,"lon":"-84.362799","lat":"41.302895","theaterChainName":"WPA\/Pittsburgh Theatres","ticketType":"STANDARD"}]