[{"id":"1352","tribuneTheaterId":"4192","providerTheaterId":"","name":"Cinemark Woodland Mall Cinema 5","address":"1234 North Main Street","city":"Bowling Green","state":"OH","zip":"43402","distance":8.4241635921874,"lon":"-83.647117","lat":"41.398128","theaterChainName":"Cinemark","ticketType":"STANDARD"},{"id":"3906","tribuneTheaterId":"8856","providerTheaterId":"","name":"Rave Motion Pictures Levis Commons","address":"2005 Hollenbeck Drive","city":"Perrysburg","state":"OH","zip":"43551","distance":14.637000183089,"lon":"-83.641292","lat":"41.528236","theaterChainName":"Cinemark","ticketType":"STANDARD"},{"id":"4442","tribuneTheaterId":"9522","providerTheaterId":"","name":"Rave Motion Pictures Fallen Timbers 14","address":"2300 Village Dr. West Suite 1700","city":"Maumee","state":"OH","zip":"43537","distance":14.333236907998,"lon":"-83.70499","lat":"41.547169","theaterChainName":"Cinemark","ticketType":"STANDARD"},{"id":"3794","tribuneTheaterId":"5067","providerTheaterId":"","name":"Maumee Indoor Theatre","address":"601 Conant St.","city":"Maumee","state":"OH","zip":"43537","distance":16.468916379852,"lon":"-83.655239","lat":"41.564859","theaterChainName":"Independent Chains","ticketType":"STANDARD"},{"id":"4129","tribuneTheaterId":"4772","providerTheaterId":"","name":"Carmike 12 Findlay","address":"906 Interstate Drive","city":"Findlay","state":"OH","zip":"45840","distance":20.932124093089,"lon":"-83.667398","lat":"41.064841","theaterChainName":"Carmike Cinemas","ticketType":"STANDARD"},{"id":"4019","tribuneTheaterId":"1430","providerTheaterId":"","name":"Skye Cinema","address":"455 East Airport Hwy","city":"Wauseon","state":"OH","zip":"43567","distance":23.480499928342,"lon":"-84.140999","lat":"41.573299","theaterChainName":"Independent Chains","ticketType":"STANDARD"},{"id":"5555","tribuneTheaterId":"11000","providerTheaterId":"","name":"Eastwood Theater","address":"817 E Broadway Street","city":"Toledo","state":"OH","zip":"43605","distance":24.465660889844,"lon":"-83.515311","lat":"41.635803","theaterChainName":"Independent Chains","ticketType":"STANDARD"}]