[{"id":"4129","name":"Carmike 12 Findlay","address":"906 Interstate Drive","city":"Findlay","state":"OH","zip":"45840","distance":"20.93344497680664","lon":"-83.667397","lat":"41.064842","theaterChainName":"Carmike Cinemas","ticketType":"STANDARD"},{"id":"1352","name":"Cinemark Woodland Mall Cinema 5","address":"1234 North Main Street","city":"Bowling Green","state":"OH","zip":"43402","distance":"8.424759864807129","lon":"-83.647118","lat":"41.398129","theaterChainName":"Cinemark","ticketType":"STANDARD"},{"id":"3906","name":"Rave Motion Pictures Levis Commons","address":"2005 Hollenbeck Drive","city":"Perrysburg","state":"OH","zip":"43551","distance":"14.638049125671387","lon":"-83.641289","lat":"41.528236","theaterChainName":"Cinemark","ticketType":"STANDARD"},{"id":"4442","name":"Rave Motion Pictures Fallen Timbers 14","address":"2300 Village Dr. West Suite 1700","city":"Maumee","state":"OH","zip":"43537","distance":"14.334163665771484","lon":"-83.704987","lat":"41.547169","theaterChainName":"Cinemark","ticketType":"STANDARD"},{"id":"3794","name":"Maumee Indoor Theatre","address":"601 Conant St.","city":"Maumee","state":"OH","zip":"43537","distance":"16.469940185546875","lon":"-83.655235","lat":"41.564857","theaterChainName":"Independent Chains","ticketType":"STANDARD"},{"id":"5555","name":"Eastwood Theater","address":"817 E Broadway Street","city":"Toledo","state":"OH","zip":"43605","distance":"24.467185974121094","lon":"-83.515312","lat":"41.635803","theaterChainName":"Independent Chains","ticketType":"STANDARD"},{"id":"4019","name":"Skye Cinema","address":"455 East Airport Hwy","city":"Wauseon","state":"OH","zip":"43567","distance":"23.481849670410156","lon":"-84.140999","lat":"41.573299","theaterChainName":"Independent Chains","ticketType":"STANDARD"}]