[{"id":"1352","name":"Cinemark Woodland Mall Cinema 5","address":"1234 North Main Street","city":"Bowling Green","state":"OH","zip":"43402","distance":"18.988027572631836","lon":"-83.647118","lat":"41.398129","theaterChainName":"Cinemark","ticketType":"STANDARD"},{"id":"3906","name":"Rave Motion Pictures Levis Commons","address":"2005 Hollenbeck Drive","city":"Perrysburg","state":"OH","zip":"43551","distance":"10.045278549194336","lon":"-83.641289","lat":"41.528236","theaterChainName":"Cinemark","ticketType":"STANDARD"},{"id":"4442","name":"Rave Motion Pictures Fallen Timbers 14","address":"2300 Village Dr. West Suite 1700","city":"Maumee","state":"OH","zip":"43537","distance":"9.980016708374023","lon":"-83.704987","lat":"41.547169","theaterChainName":"Cinemark","ticketType":"STANDARD"},{"id":"3794","name":"Maumee Indoor Theatre","address":"601 Conant St.","city":"Maumee","state":"OH","zip":"43537","distance":"7.775656700134277","lon":"-83.655235","lat":"41.564857","theaterChainName":"Independent Chains","ticketType":"STANDARD"},{"id":"5555","name":"Eastwood Theater","address":"817 E Broadway Street","city":"Toledo","state":"OH","zip":"43605","distance":"5.282512664794922","lon":"-83.515312","lat":"41.635803","theaterChainName":"Independent Chains","ticketType":"STANDARD"},{"id":"4015","name":"Rave Motion Pictures Franklin Park 16","address":"5001 Monroe Street","city":"Toledo","state":"OH","zip":"43623","distance":"2.529486894607544","lon":"-83.641769","lat":"41.696232","theaterChainName":"Cinemark","ticketType":"STANDARD"},{"id":"4427","name":"Phoenix Theatres at Mall of Monroe","address":"2121 N. Monroe St.","city":"Monroe","state":"MI","zip":"48162","distance":"22.17890739440918","lon":"-83.388214","lat":"41.948105","theaterChainName":"Phoenix Theatres - Michigan","ticketType":"STANDARD"}]