[{"id":"4015","tribuneTheaterId":"5145","providerTheaterId":"","name":"Rave Motion Pictures Franklin Park 16","address":"5001 Monroe Street","city":"Toledo","state":"OH","zip":"43623","distance":3.5740360887285,"lon":"-83.64177","lat":"41.696232","theaterChainName":"Cinemark","ticketType":"STANDARD"},{"id":"3794","tribuneTheaterId":"5067","providerTheaterId":"","name":"Maumee Indoor Theatre","address":"601 Conant St.","city":"Maumee","state":"OH","zip":"43537","distance":5.881185620612,"lon":"-83.655239","lat":"41.564859","theaterChainName":"Independent Chains","ticketType":"STANDARD"},{"id":"4442","tribuneTheaterId":"9522","providerTheaterId":"","name":"Rave Motion Pictures Fallen Timbers 14","address":"2300 Village Dr. West Suite 1700","city":"Maumee","state":"OH","zip":"43537","distance":7.2701502371997,"lon":"-83.70499","lat":"41.547169","theaterChainName":"Cinemark","ticketType":"STANDARD"},{"id":"3906","tribuneTheaterId":"8856","providerTheaterId":"","name":"Rave Motion Pictures Levis Commons","address":"2005 Hollenbeck Drive","city":"Perrysburg","state":"OH","zip":"43551","distance":8.4939216400843,"lon":"-83.641292","lat":"41.528236","theaterChainName":"Cinemark","ticketType":"STANDARD"},{"id":"5555","tribuneTheaterId":"11000","providerTheaterId":"","name":"Eastwood Theater","address":"817 E Broadway Street","city":"Toledo","state":"OH","zip":"43605","distance":8.0714124576917,"lon":"-83.515311","lat":"41.635803","theaterChainName":"Independent Chains","ticketType":"STANDARD"},{"id":"1352","tribuneTheaterId":"4192","providerTheaterId":"","name":"Cinemark Woodland Mall Cinema 5","address":"1234 North Main Street","city":"Bowling Green","state":"OH","zip":"43402","distance":17.389872865204,"lon":"-83.647117","lat":"41.398128","theaterChainName":"Cinemark","ticketType":"STANDARD"},{"id":"4019","tribuneTheaterId":"1430","providerTheaterId":"","name":"Skye Cinema","address":"455 East Airport Hwy","city":"Wauseon","state":"OH","zip":"43567","distance":24.859670033048,"lon":"-84.140999","lat":"41.573299","theaterChainName":"Independent Chains","ticketType":"STANDARD"}]