[{"id":"1352","name":"Cinemark Woodland Mall Cinema 5","address":"1234 North Main Street","city":"Bowling Green","state":"OH","zip":"43402","distance":"21.412246704101562","lon":"-83.647118","lat":"41.398129","theaterChainName":"Cinemark","ticketType":"STANDARD"},{"id":"3906","name":"Rave Motion Pictures Levis Commons","address":"2005 Hollenbeck Drive","city":"Perrysburg","state":"OH","zip":"43551","distance":"12.421723365783691","lon":"-83.641289","lat":"41.528236","theaterChainName":"Cinemark","ticketType":"STANDARD"},{"id":"4442","name":"Rave Motion Pictures Fallen Timbers 14","address":"2300 Village Dr. West Suite 1700","city":"Maumee","state":"OH","zip":"43537","distance":"11.559304237365723","lon":"-83.704987","lat":"41.547169","theaterChainName":"Cinemark","ticketType":"STANDARD"},{"id":"3794","name":"Maumee Indoor Theatre","address":"601 Conant St.","city":"Maumee","state":"OH","zip":"43537","distance":"9.909674644470215","lon":"-83.655235","lat":"41.564857","theaterChainName":"Independent Chains","ticketType":"STANDARD"},{"id":"5555","name":"Eastwood Theater","address":"817 E Broadway Street","city":"Toledo","state":"OH","zip":"43605","distance":"8.282142639160156","lon":"-83.515312","lat":"41.635803","theaterChainName":"Independent Chains","ticketType":"STANDARD"},{"id":"4015","name":"Rave Motion Pictures Franklin Park 16","address":"5001 Monroe Street","city":"Toledo","state":"OH","zip":"43623","distance":"0.8175145983695984","lon":"-83.641769","lat":"41.696232","theaterChainName":"Cinemark","ticketType":"STANDARD"},{"id":"4427","name":"Phoenix Theatres at Mall of Monroe","address":"2121 N. Monroe St.","city":"Monroe","state":"MI","zip":"48162","distance":"21.163305282592773","lon":"-83.388214","lat":"41.948105","theaterChainName":"Phoenix Theatres - Michigan","ticketType":"STANDARD"},{"id":"5078","name":"Russellville ","address":"3800 West Main","city":"Russellville","state":"AR","zip":"72801","distance":"24.243785858154297","lon":"-84.006142","lat":"41.931667","theaterChainName":"UEC Theatres","ticketType":"STANDARD"},{"id":"783","name":"MJR Adrian Digital Cinema 10","address":"3150 N. Adrian Hwy.","city":"Adrian","state":"MI","zip":"49221","distance":"24.243785858154297","lon":"-84.006142","lat":"41.931667","theaterChainName":"MJR Theatres","ticketType":"E_TICKET"}]