[{"id":"2905","name":"Athena Cinema","address":"20 South Court Street","city":"Athens","state":"OH","zip":"45701","distance":"16.601654052734375","lon":"-82.100998","lat":"39.328400","theaterChainName":"Independent Chains","ticketType":"STANDARD"},{"id":"669","name":"Regal Grand Central Mall 12","address":"700 Grand Central Mall","city":"Vienna","state":"WV","zip":"26105","distance":"21.84888458251953","lon":"-81.550400","lat":"39.305099","theaterChainName":"Regal Cinemas","ticketType":"STANDARD"},{"id":"5143","name":"Lafayette Square 7","address":"430 Pike St.","city":"Marietta","state":"OH","zip":"45750","distance":"24.33066749572754","lon":"-81.434303","lat":"39.411701","theaterChainName":"Odyssey Entertainment\/CineMagic","ticketType":"STANDARD"},{"id":"4589","name":"Athena Grand","address":"1008 East State St.","city":"Athens","state":"OH","zip":"45701","distance":"14.892414093017578","lon":"-82.066200","lat":"39.336700","theaterChainName":"Independent Chains","ticketType":"STANDARD"},{"id":"1834","name":"Movies 10-Nelsonville","address":"14333 US 33 South","city":"Nelsonville","state":"OH","zip":"45764","distance":"17.546533584594727","lon":"-82.188026","lat":"39.412113","theaterChainName":"Independent Chains","ticketType":"STANDARD"}]