[{"id":"2649","tribuneTheaterId":"2750","providerTheaterId":"","name":"Salem Twin Cinema","address":"2350 East State Street","city":"Salem","state":"OH","zip":"44460","distance":15.841228139715,"lon":"-80.827711","lat":"40.903056","theaterChainName":"Independent Chains","ticketType":"STANDARD"},{"id":"5589","tribuneTheaterId":"11042","providerTheaterId":"","name":"Salem Twin Cinema","address":"2350 E State Street","city":"Salem","state":"OH","zip":"44460","distance":15.849680416667,"lon":"-80.827579","lat":"40.903161","theaterChainName":"Independent Chains","ticketType":"STANDARD"},{"id":"1353","tribuneTheaterId":"5236","providerTheaterId":"","name":"Carnation Cinema 5","address":"2500 W. State Street","city":"Alliance","state":"OH","zip":"44601","distance":20.740866509148,"lon":"-81.155582","lat":"40.898358","theaterChainName":"Cinemark","ticketType":"STANDARD"},{"id":"2235","tribuneTheaterId":"5752","providerTheaterId":"","name":"Carmike 6 Steubenville","address":"100 Mall Dr","city":"Steubenville","state":"OH","zip":"43952","distance":24.183750825595,"lon":"-80.667702","lat":"40.369999","theaterChainName":"Carmike Cinemas","ticketType":"STANDARD"}]