[{"id":"2026","name":"Apollo","address":"19 East College Street","city":"Oberlin","state":"OH","zip":"44074","distance":"18.022912979125977","lon":"-82.216713","lat":"41.291557","theaterChainName":"Cleveland Cinemas","ticketType":"STANDARD"},{"id":"5414","name":"Great Northern Mall Stadium 10 + RPX","address":"450 Great Northern Mall","city":"North Olmsted","state":"OH","zip":"44070","distance":"7.8031792640686035","lon":"-81.909500","lat":"41.418499","theaterChainName":"Regal Cinemas","ticketType":"STANDARD"},{"id":"4329","name":"Cinemark Strongsville","address":"17450 Southpark Center","city":"Strongsville","state":"OH","zip":"44136","distance":"16.51783561706543","lon":"-81.822029","lat":"41.309456","theaterChainName":"Cinemark","ticketType":"STANDARD"},{"id":"758","name":"Hickory Ridge Cinemas 8","address":"1055 Pearl Road","city":"Brunswick","state":"OH","zip":"44212","distance":"19.799936294555664","lon":"-81.839699","lat":"41.245838","theaterChainName":"Independent Chains","ticketType":"STANDARD"},{"id":"641","name":"Regal Middlesburg Town Square Stadium 16","address":"18348 Bagley Road","city":"Middleburg Heights","state":"OH","zip":"44130","distance":"12.85802936553955","lon":"-81.830528","lat":"41.374218","theaterChainName":"Regal Cinemas","ticketType":"STANDARD"},{"id":"643","name":"Regal Cinemas Crocker Park Stadium 16 & IMAX","address":"30147 Detroit Road","city":"Westlake","state":"OH","zip":"44145","distance":"4.1181535720825195","lon":"-81.952667","lat":"41.461456","theaterChainName":"Regal Cinemas","ticketType":"STANDARD"},{"id":"759","name":"AMC Westwood Town Center 6","address":"21653 Center Ridge Road","city":"Rocky River","state":"OH","zip":"44116","distance":"8.36931037902832","lon":"-81.860458","lat":"41.457928","theaterChainName":"AMC Theatres","ticketType":"STANDARD"},{"id":"2660","name":"Regal Cobblestone Square Stadium 20","address":"5500 Cobbleston Rd.","city":"Elyria","state":"OH","zip":"44035","distance":"6.613007068634033","lon":"-82.078697","lat":"41.420700","theaterChainName":"Regal Cinemas","ticketType":"STANDARD"},{"id":"4626","name":"Atlas Cinemas Midway Mall 8","address":"2650 Midway Mall Blvd.","city":"Elyria","state":"OH","zip":"44035","distance":"9.031758308410645","lon":"-82.111176","lat":"41.394855","theaterChainName":"Atlas Cinemas","ticketType":"STANDARD"},{"id":"757","name":"AMC Ridge Park Square 8","address":"4788 Ridge Road","city":"Brooklyn","state":"OH","zip":"44144","distance":"15.099209785461426","lon":"-81.737488","lat":"41.426331","theaterChainName":"AMC Theatres","ticketType":"STANDARD"},{"id":"4829","name":"Capitol Theatre - Cleveland","address":"1390 West 65th St.","city":"Cleveland","state":"OH","zip":"44102","distance":"14.584607124328613","lon":"-81.730301","lat":"41.484200","theaterChainName":"Cleveland Cinemas","ticketType":"STANDARD"},{"id":"1075","name":"Tower City 11","address":"230 Huron Road","city":"Cleveland","state":"OH","zip":"44113","distance":"16.433013916015625","lon":"-81.693634","lat":"41.496895","theaterChainName":"Cleveland Cinemas","ticketType":"STANDARD"},{"id":"2535","name":"Cinemark At Valley View and XD","address":"6001 Canal Road","city":"Valley View","state":"OH","zip":"44125","distance":"21.272768020629883","lon":"-81.623795","lat":"41.399384","theaterChainName":"Cinemark","ticketType":"STANDARD"},{"id":"839","name":"Shaker Square Cinemas","address":"13116 Shaker Square","city":"Cleveland","state":"OH","zip":"44120","distance":"21.763872146606445","lon":"-81.591331","lat":"41.483315","theaterChainName":"Cleveland Cinemas","ticketType":"STANDARD"},{"id":"2785","name":"Cleveland Cinematheque","address":"11610 Euclid Avenue","city":"Cleveland","state":"OH","zip":"44106","distance":"21.144977569580078","lon":"-81.602638","lat":"41.510674","theaterChainName":"Independent Chains","ticketType":"STANDARD"},{"id":"1067","name":"Cedar Lee Theatres","address":"2163 Lee Road","city":"Cleveland Heights","state":"OH","zip":"44118","distance":"23.072601318359375","lon":"-81.565254","lat":"41.500893","theaterChainName":"Cleveland Cinemas","ticketType":"STANDARD"},{"id":"2952","name":"Regal Severance Town Center Stadium 14","address":"3492 Mayfield Road","city":"Cleveland Heights","state":"OH","zip":"44118","distance":"23.882232666015625","lon":"-81.550079","lat":"41.518539","theaterChainName":"Regal Cinemas","ticketType":"STANDARD"}]