[{"id":"2786","name":"Garrettsville Cinema","address":"8001 State Street","city":"Garrettsville","state":"OH","zip":"44231","distance":"17.392597198486328","lon":"-81.100502","lat":"41.287510","theaterChainName":"Independent Chains","ticketType":"STANDARD"},{"id":"840","name":"Atlas Cinemas Diamond Ctr 16","address":"9555 Diamond Centre Dr.","city":"Mentor","state":"OH","zip":"44060","distance":"16.80735206604004","lon":"-81.296532","lat":"41.715454","theaterChainName":"Atlas Cinemas","ticketType":"STANDARD"},{"id":"4424","name":"Atlas Cinema Great Lakes Stadium 16","address":"7860 Mentor Avenue","city":"Mentor","state":"OH","zip":"44060","distance":"16.863636016845703","lon":"-81.357491","lat":"41.658524","theaterChainName":"Atlas Cinemas","ticketType":"STANDARD"},{"id":"2952","name":"Regal Severance Town Center Stadium 14","address":"3492 Mayfield Road","city":"Cleveland Heights","state":"OH","zip":"44118","distance":"24.695798873901367","lon":"-81.550079","lat":"41.518539","theaterChainName":"Regal Cinemas","ticketType":"STANDARD"},{"id":"642","name":"Digiplex Solon Cinemas","address":"6185 Enterprise Parkway","city":"Solon","state":"OH","zip":"44139","distance":"22.582178115844727","lon":"-81.463478","lat":"41.392227","theaterChainName":"Carmike Cinemas","ticketType":"STANDARD"},{"id":"4422","name":"Regal Richmond Town Center Stadium","address":"631 Richmond Road","city":"Richmond Heights","state":"OH","zip":"44143","distance":"21.678869247436523","lon":"-81.492546","lat":"41.541687","theaterChainName":"Regal Cinemas","ticketType":"STANDARD"},{"id":"838","name":"Atlas Lakeshore 7","address":"22624 Lake Shore Blvd","city":"Euclid","state":"OH","zip":"44123","distance":"23.794591903686523","lon":"-81.523346","lat":"41.611111","theaterChainName":"Atlas Cinemas","ticketType":"STANDARD"},{"id":"4850","name":"Atlas Cinemas Eastgate 10","address":"1345 SOM Center Road","city":"Mayfield Heights","state":"OH","zip":"44124","distance":"18.798097610473633","lon":"-81.436287","lat":"41.523697","theaterChainName":"Atlas Cinemas","ticketType":"STANDARD"},{"id":"4185","name":"Cinemark 10 Aurora","address":"140 Barrington Town Square Dr","city":"Aurora","state":"OH","zip":"44202","distance":"20.82364845275879","lon":"-81.348930","lat":"41.318981","theaterChainName":"Cinemark","ticketType":"STANDARD"},{"id":"1384","name":"Chagrin Cinemas","address":"8200 East Washington St.","city":"Chagrin Falls","state":"OH","zip":"44023","distance":"16.481618881225586","lon":"-81.348267","lat":"41.418034","theaterChainName":"Cleveland Cinemas","ticketType":"STANDARD"},{"id":"1484","name":"Regal Willoughby Commons 16","address":"36655 Euclid Avenue","city":"Willoughby","state":"OH","zip":"44094","distance":"19.21707534790039","lon":"-81.424248","lat":"41.630493","theaterChainName":"Regal Cinemas","ticketType":"STANDARD"}]