[{"id":"840","name":"Atlas Cinemas Diamond Ctr 16","address":"9555 Diamond Centre Dr.","city":"Mentor","state":"OH","zip":"44060","distance":"4.0646796226501465","lon":"-81.296532","lat":"41.715454","theaterChainName":"Atlas Cinemas","ticketType":"STANDARD"},{"id":"4424","name":"Atlas Cinema Great Lakes Stadium 16","address":"7860 Mentor Avenue","city":"Mentor","state":"OH","zip":"44060","distance":"1.0649877786636353","lon":"-81.357491","lat":"41.658524","theaterChainName":"Atlas Cinemas","ticketType":"STANDARD"},{"id":"4829","name":"Capitol Theatre - Cleveland","address":"1390 West 65th St.","city":"Cleveland","state":"OH","zip":"44102","distance":"23.79102325439453","lon":"-81.730301","lat":"41.484200","theaterChainName":"Cleveland Cinemas","ticketType":"STANDARD"},{"id":"1075","name":"Tower City 11","address":"230 Huron Road","city":"Cleveland","state":"OH","zip":"44113","distance":"21.71843910217285","lon":"-81.693634","lat":"41.496895","theaterChainName":"Cleveland Cinemas","ticketType":"STANDARD"},{"id":"2535","name":"Cinemark At Valley View and XD","address":"6001 Canal Road","city":"Valley View","state":"OH","zip":"44125","distance":"23.579294204711914","lon":"-81.623795","lat":"41.399384","theaterChainName":"Cinemark","ticketType":"STANDARD"},{"id":"839","name":"Shaker Square Cinemas","address":"13116 Shaker Square","city":"Cleveland","state":"OH","zip":"44120","distance":"18.13864517211914","lon":"-81.591331","lat":"41.483315","theaterChainName":"Cleveland Cinemas","ticketType":"STANDARD"},{"id":"2785","name":"Cleveland Cinematheque","address":"11610 Euclid Avenue","city":"Cleveland","state":"OH","zip":"44106","distance":"17.32857322692871","lon":"-81.602638","lat":"41.510674","theaterChainName":"Independent Chains","ticketType":"STANDARD"},{"id":"1067","name":"Cedar Lee Theatres","address":"2163 Lee Road","city":"Cleveland Heights","state":"OH","zip":"44118","distance":"16.3244571685791","lon":"-81.565254","lat":"41.500893","theaterChainName":"Cleveland Cinemas","ticketType":"STANDARD"},{"id":"2952","name":"Regal Severance Town Center Stadium 14","address":"3492 Mayfield Road","city":"Cleveland Heights","state":"OH","zip":"44118","distance":"14.913346290588379","lon":"-81.550079","lat":"41.518539","theaterChainName":"Regal Cinemas","ticketType":"STANDARD"},{"id":"642","name":"Digiplex Solon Cinemas","address":"6185 Enterprise Parkway","city":"Solon","state":"OH","zip":"44139","distance":"19.98588752746582","lon":"-81.463478","lat":"41.392227","theaterChainName":"Carmike Cinemas","ticketType":"STANDARD"},{"id":"4422","name":"Regal Richmond Town Center Stadium","address":"631 Richmond Road","city":"Richmond Heights","state":"OH","zip":"44143","distance":"11.681937217712402","lon":"-81.492546","lat":"41.541687","theaterChainName":"Regal Cinemas","ticketType":"STANDARD"},{"id":"838","name":"Atlas Lakeshore 7","address":"22624 Lake Shore Blvd","city":"Euclid","state":"OH","zip":"44123","distance":"10.2236967086792","lon":"-81.523346","lat":"41.611111","theaterChainName":"Atlas Cinemas","ticketType":"STANDARD"},{"id":"4850","name":"Atlas Cinemas Eastgate 10","address":"1345 SOM Center Road","city":"Mayfield Heights","state":"OH","zip":"44124","distance":"11.041622161865234","lon":"-81.436287","lat":"41.523697","theaterChainName":"Atlas Cinemas","ticketType":"STANDARD"},{"id":"4185","name":"Cinemark 10 Aurora","address":"140 Barrington Town Square Dr","city":"Aurora","state":"OH","zip":"44202","distance":"23.996755599975586","lon":"-81.348930","lat":"41.318981","theaterChainName":"Cinemark","ticketType":"STANDARD"},{"id":"1384","name":"Chagrin Cinemas","address":"8200 East Washington St.","city":"Chagrin Falls","state":"OH","zip":"44023","distance":"17.15346908569336","lon":"-81.348267","lat":"41.418034","theaterChainName":"Cleveland Cinemas","ticketType":"STANDARD"},{"id":"1484","name":"Regal Willoughby Commons 16","address":"36655 Euclid Avenue","city":"Willoughby","state":"OH","zip":"44094","distance":"5.018852233886719","lon":"-81.424248","lat":"41.630493","theaterChainName":"Regal Cinemas","ticketType":"STANDARD"}]