[{"id":"1384","tribuneTheaterId":"2335","providerTheaterId":"","name":"Chagrin Cinemas","address":"8200 East Washington St.","city":"Chagrin Falls","state":"OH","zip":"44023","distance":7.0857225187768,"lon":"-81.348265","lat":"41.418033","theaterChainName":"Cleveland Cinemas","ticketType":"STANDARD"},{"id":"4850","tribuneTheaterId":"10142","providerTheaterId":"","name":"Atlas Cinemas Eastgate 10","address":"1345 SOM Center Road","city":"Mayfield Heights","state":"OH","zip":"44124","distance":10.970778613421,"lon":"-81.436286","lat":"41.523697","theaterChainName":"Atlas Cinemas","ticketType":"STANDARD"},{"id":"4185","tribuneTheaterId":"5241","providerTheaterId":"","name":"Cinemark 10 Aurora","address":"140 Barrington Town Square Dr","city":"Aurora","state":"OH","zip":"44202","distance":12.303756840901,"lon":"-81.348932","lat":"41.318981","theaterChainName":"Cinemark","ticketType":"STANDARD"},{"id":"1484","tribuneTheaterId":"4642","providerTheaterId":"","name":"Regal Willoughby Commons 16","address":"36655 Euclid Avenue","city":"Willoughby","state":"OH","zip":"44094","distance":14.549352844855,"lon":"-81.424249","lat":"41.630495","theaterChainName":"Regal Cinemas","ticketType":"STANDARD"},{"id":"2786","tribuneTheaterId":"2848","providerTheaterId":"","name":"Garrettsville Cinema","address":"8001 State Street","city":"Garrettsville","state":"OH","zip":"44231","distance":14.699360266637,"lon":"-81.100503","lat":"41.28751","theaterChainName":"Independent Chains","ticketType":"STANDARD"},{"id":"4424","tribuneTheaterId":"9494","providerTheaterId":"","name":"Atlas Cinema Great Lakes Stadium 16","address":"7860 Mentor Avenue","city":"Mentor","state":"OH","zip":"44060","distance":14.18501515861,"lon":"-81.357491","lat":"41.658525","theaterChainName":"Atlas Cinemas","ticketType":"STANDARD"},{"id":"4422","tribuneTheaterId":"9491","providerTheaterId":"","name":"Regal Richmond Town Center Stadium","address":"631 Richmond Road","city":"Richmond Heights","state":"OH","zip":"44143","distance":14.124397007096,"lon":"-81.492548","lat":"41.541688","theaterChainName":"Regal Cinemas","ticketType":"STANDARD"},{"id":"642","tribuneTheaterId":"6487","providerTheaterId":"","name":"Digiplex Solon Cinemas","address":"6185 Enterprise Parkway","city":"Solon","state":"OH","zip":"44139","distance":13.167990991879,"lon":"-81.463478","lat":"41.392228","theaterChainName":"Carmike Cinemas","ticketType":"STANDARD"},{"id":"2952","tribuneTheaterId":"8410","providerTheaterId":"","name":"Regal Severance Town Center Stadium 14","address":"3492 Mayfield Road","city":"Cleveland Heights","state":"OH","zip":"44118","distance":16.60594162192,"lon":"-81.550076","lat":"41.51854","theaterChainName":"Regal Cinemas","ticketType":"STANDARD"},{"id":"838","tribuneTheaterId":"6340","providerTheaterId":"","name":"Atlas Lakeshore 7","address":"22624 Lake Shore Blvd","city":"Euclid","state":"OH","zip":"44123","distance":17.651102145251,"lon":"-81.523345","lat":"41.611112","theaterChainName":"Atlas Cinemas","ticketType":"STANDARD"},{"id":"1067","tribuneTheaterId":"1908","providerTheaterId":"","name":"Cedar Lee Theatres","address":"2163 Lee Road","city":"Cleveland Heights","state":"OH","zip":"44118","distance":17.212408490555,"lon":"-81.565258","lat":"41.500893","theaterChainName":"Cleveland Cinemas","ticketType":"STANDARD"},{"id":"840","tribuneTheaterId":"6483","providerTheaterId":"","name":"Atlas Cinemas Diamond Ctr 16","address":"9555 Diamond Centre Dr.","city":"Mentor","state":"OH","zip":"44060","distance":16.92014364421,"lon":"-81.296533","lat":"41.715454","theaterChainName":"Atlas Cinemas","ticketType":"STANDARD"},{"id":"2785","tribuneTheaterId":"472","providerTheaterId":"","name":"Cleveland Cinematheque","address":"11610 Euclid Avenue","city":"Cleveland","state":"OH","zip":"44106","distance":19.211046996069,"lon":"-81.602635","lat":"41.510673","theaterChainName":"Independent Chains","ticketType":"STANDARD"},{"id":"839","tribuneTheaterId":"6191","providerTheaterId":"","name":"Shaker Square Cinemas","address":"13116 Shaker Square","city":"Cleveland","state":"OH","zip":"44120","distance":18.480084708009,"lon":"-81.591331","lat":"41.483313","theaterChainName":"Cleveland Cinemas","ticketType":"STANDARD"},{"id":"2287","tribuneTheaterId":"5245","providerTheaterId":"","name":"Cinemark - Macedonia","address":"8161 Macedonia Commons Blvd","city":"Macedonia","state":"OH","zip":"44056","distance":18.390042899784,"lon":"-81.5156","lat":"41.3126","theaterChainName":"Cinemark","ticketType":"STANDARD"},{"id":"2535","tribuneTheaterId":"5246","providerTheaterId":"","name":"Cinemark At Valley View and XD","address":"6001 Canal Road","city":"Valley View","state":"OH","zip":"44125","distance":20.83047508516,"lon":"-81.623794","lat":"41.399383","theaterChainName":"Cinemark","ticketType":"STANDARD"},{"id":"639","tribuneTheaterId":"7267","providerTheaterId":"","name":"Regal Hudson Cinema 10","address":"5339 Darrow Road","city":"Hudson","state":"OH","zip":"44236","distance":21.110430142638,"lon":"-81.438491","lat":"41.21062","theaterChainName":"Regal Cinemas","ticketType":"STANDARD"},{"id":"1393","tribuneTheaterId":"3145","providerTheaterId":"","name":"Kent Plaza Theatres 10","address":"140 Cherry St.","city":"Kent","state":"OH","zip":"44240","distance":24.015245553745,"lon":"-81.359907","lat":"41.140432","theaterChainName":"WPA\/Pittsburgh Theatres","ticketType":"STANDARD"},{"id":"1075","tribuneTheaterId":"2279","providerTheaterId":"","name":"Tower City 11","address":"230 Huron Road","city":"Cleveland","state":"OH","zip":"44113","distance":23.812251077266,"lon":"-81.693631","lat":"41.496893","theaterChainName":"Cleveland Cinemas","ticketType":"STANDARD"}]