[{"id":"645","name":"Encore Cinema","address":"930 Great East Plaza","city":"Niles","state":"OH","zip":"44446","distance":"21.996416091918945","lon":"-80.746841","lat":"41.213623","theaterChainName":"Independent Chains","ticketType":"STANDARD"},{"id":"644","name":"Regal Boulevard Center Stadium 14","address":"24 Boulevard Centre","city":"Niles","state":"OH","zip":"44446","distance":"21.727088928222656","lon":"-80.748314","lat":"41.217937","theaterChainName":"Regal Cinemas","ticketType":"STANDARD"},{"id":"2786","name":"Garrettsville Cinema","address":"8001 State Street","city":"Garrettsville","state":"OH","zip":"44231","distance":"11.398077011108398","lon":"-81.100502","lat":"41.287510","theaterChainName":"Independent Chains","ticketType":"STANDARD"},{"id":"840","name":"Atlas Cinemas Diamond Ctr 16","address":"9555 Diamond Centre Dr.","city":"Mentor","state":"OH","zip":"44060","distance":"22.966705322265625","lon":"-81.296532","lat":"41.715454","theaterChainName":"Atlas Cinemas","ticketType":"STANDARD"},{"id":"4424","name":"Atlas Cinema Great Lakes Stadium 16","address":"7860 Mentor Avenue","city":"Mentor","state":"OH","zip":"44060","distance":"22.15380096435547","lon":"-81.357491","lat":"41.658524","theaterChainName":"Atlas Cinemas","ticketType":"STANDARD"},{"id":"642","name":"Digiplex Solon Cinemas","address":"6185 Enterprise Parkway","city":"Solon","state":"OH","zip":"44139","distance":"22.387426376342773","lon":"-81.463478","lat":"41.392227","theaterChainName":"Carmike Cinemas","ticketType":"STANDARD"},{"id":"4422","name":"Regal Richmond Town Center Stadium","address":"631 Richmond Road","city":"Richmond Heights","state":"OH","zip":"44143","distance":"24.481204986572266","lon":"-81.492546","lat":"41.541687","theaterChainName":"Regal Cinemas","ticketType":"STANDARD"},{"id":"4850","name":"Atlas Cinemas Eastgate 10","address":"1345 SOM Center Road","city":"Mayfield Heights","state":"OH","zip":"44124","distance":"21.34797477722168","lon":"-81.436287","lat":"41.523697","theaterChainName":"Atlas Cinemas","ticketType":"STANDARD"},{"id":"4185","name":"Cinemark 10 Aurora","address":"140 Barrington Town Square Dr","city":"Aurora","state":"OH","zip":"44202","distance":"18.369962692260742","lon":"-81.348930","lat":"41.318981","theaterChainName":"Cinemark","ticketType":"STANDARD"},{"id":"1384","name":"Chagrin Cinemas","address":"8200 East Washington St.","city":"Chagrin Falls","state":"OH","zip":"44023","distance":"16.221174240112305","lon":"-81.348267","lat":"41.418034","theaterChainName":"Cleveland Cinemas","ticketType":"STANDARD"},{"id":"1484","name":"Regal Willoughby Commons 16","address":"36655 Euclid Avenue","city":"Willoughby","state":"OH","zip":"44094","distance":"23.747024536132812","lon":"-81.424248","lat":"41.630493","theaterChainName":"Regal Cinemas","ticketType":"STANDARD"}]