[{"id":"4958","name":"Cinemark Stadium","address":"4314 Milan Road","city":"Sandusky","state":"OH","zip":"44870","distance":"24.900859832763672","lon":"-82.671219","lat":"41.418819","theaterChainName":"Cinemark","ticketType":"STANDARD"},{"id":"4497","name":"Premiere Theaters 8","address":"Highway 250 Industrial Parkway","city":"Norwalk","state":"OH","zip":"44857","distance":"19.908899307250977","lon":"-82.605446","lat":"41.270592","theaterChainName":"UEC Theatres","ticketType":"STANDARD"},{"id":"2026","name":"Apollo","address":"19 East College Street","city":"Oberlin","state":"OH","zip":"44074","distance":"0.3410000205039978","lon":"-82.216713","lat":"41.291557","theaterChainName":"Cleveland Cinemas","ticketType":"STANDARD"},{"id":"5414","name":"Great Northern Mall Stadium 10 + RPX","address":"450 Great Northern Mall","city":"North Olmsted","state":"OH","zip":"44070","distance":"18.525365829467773","lon":"-81.909500","lat":"41.418499","theaterChainName":"Regal Cinemas","ticketType":"STANDARD"},{"id":"4329","name":"Cinemark Strongsville","address":"17450 Southpark Center","city":"Strongsville","state":"OH","zip":"44136","distance":"20.85334587097168","lon":"-81.822029","lat":"41.309456","theaterChainName":"Cinemark","ticketType":"STANDARD"},{"id":"758","name":"Hickory Ridge Cinemas 8","address":"1055 Pearl Road","city":"Brunswick","state":"OH","zip":"44212","distance":"20.133527755737305","lon":"-81.839699","lat":"41.245838","theaterChainName":"Independent Chains","ticketType":"STANDARD"},{"id":"641","name":"Regal Middlesburg Town Square Stadium 16","address":"18348 Bagley Road","city":"Middleburg Heights","state":"OH","zip":"44130","distance":"21.175445556640625","lon":"-81.830528","lat":"41.374218","theaterChainName":"Regal Cinemas","ticketType":"STANDARD"},{"id":"643","name":"Regal Cinemas Crocker Park Stadium 16 & IMAX","address":"30147 Detroit Road","city":"Westlake","state":"OH","zip":"44145","distance":"18.35329246520996","lon":"-81.952667","lat":"41.461456","theaterChainName":"Regal Cinemas","ticketType":"STANDARD"},{"id":"759","name":"AMC Westwood Town Center 6","address":"21653 Center Ridge Road","city":"Rocky River","state":"OH","zip":"44116","distance":"22.090274810791016","lon":"-81.860458","lat":"41.457928","theaterChainName":"AMC Theatres","ticketType":"STANDARD"},{"id":"1618","name":"Regal Medina Stadium 16  Huntington Street","address":"200 West Reagan Pkwy","city":"Medina","state":"OH","zip":"44256","distance":"20.69158172607422","lon":"-81.867653","lat":"41.154713","theaterChainName":"Regal Cinemas","ticketType":"STANDARD"},{"id":"2660","name":"Regal Cobblestone Square Stadium 20","address":"5500 Cobbleston Rd.","city":"Elyria","state":"OH","zip":"44035","distance":"11.73127269744873","lon":"-82.078697","lat":"41.420700","theaterChainName":"Regal Cinemas","ticketType":"STANDARD"},{"id":"4626","name":"Atlas Cinemas Midway Mall 8","address":"2650 Midway Mall Blvd.","city":"Elyria","state":"OH","zip":"44035","distance":"9.283587455749512","lon":"-82.111176","lat":"41.394855","theaterChainName":"Atlas Cinemas","ticketType":"STANDARD"}]