[{"id":"2786","tribuneTheaterId":"2848","providerTheaterId":"","name":"Garrettsville Cinema","address":"8001 State Street","city":"Garrettsville","state":"OH","zip":"44231","distance":22.117444147684,"lon":"-81.100503","lat":"41.28751","theaterChainName":"Independent Chains","ticketType":"STANDARD"},{"id":"644","tribuneTheaterId":"7895","providerTheaterId":"","name":"Regal Boulevard Center Stadium 14","address":"24 Boulevard Centre","city":"Niles","state":"OH","zip":"44446","distance":21.83897205991,"lon":"-80.748315","lat":"41.217936","theaterChainName":"Regal Cinemas","ticketType":"STANDARD"},{"id":"645","tribuneTheaterId":"1902","providerTheaterId":"","name":"Encore Cinema","address":"930 Great East Plaza","city":"Niles","state":"OH","zip":"44446","distance":22.145753634802,"lon":"-80.746844","lat":"41.213622","theaterChainName":"Independent Chains","ticketType":"STANDARD"},{"id":"2234","tribuneTheaterId":"4771","providerTheaterId":"","name":"Carmike Ashtabula Mall 6","address":"3315 N Ridge East Unit 400","city":"Ashtabula","state":"OH","zip":"44004","distance":24.411632807449,"lon":"-80.753304","lat":"41.879002","theaterChainName":"Carmike Cinemas","ticketType":"STANDARD"}]