[{"id":"4495","tribuneTheaterId":"9596","providerTheaterId":"","name":"Shenango Valley Cinemas","address":"2996 East State Street","city":"Hermitage","state":"PA","zip":"16148","distance":22.50781366227,"lon":"-80.454748","lat":"41.230365","theaterChainName":"WPA\/Pittsburgh Theatres","ticketType":"STANDARD"},{"id":"4587","tribuneTheaterId":"9739","providerTheaterId":"","name":"Hermitage Cinema 8","address":"2461 E. State St.","city":"Hermitage","state":"PA","zip":"16148","distance":22.00632273398,"lon":"-80.464704","lat":"41.235512","theaterChainName":"WPA\/Pittsburgh Theatres","ticketType":"STANDARD"},{"id":"4698","tribuneTheaterId":"9910","providerTheaterId":"","name":"The Movies at Meadville","address":"11185 Perry Hwy","city":"Meadville","state":"PA","zip":"16335","distance":21.023045173729,"lon":"-80.204444","lat":"41.619631","theaterChainName":"Independent Chains","ticketType":"STANDARD"},{"id":"645","tribuneTheaterId":"1902","providerTheaterId":"","name":"Encore Cinema","address":"930 Great East Plaza","city":"Niles","state":"OH","zip":"44446","distance":23.750431092357,"lon":"-80.746844","lat":"41.213622","theaterChainName":"Independent Chains","ticketType":"STANDARD"},{"id":"644","tribuneTheaterId":"7895","providerTheaterId":"","name":"Regal Boulevard Center Stadium 14","address":"24 Boulevard Centre","city":"Niles","state":"OH","zip":"44446","distance":23.494469715657,"lon":"-80.748315","lat":"41.217936","theaterChainName":"Regal Cinemas","ticketType":"STANDARD"},{"id":"2234","tribuneTheaterId":"4771","providerTheaterId":"","name":"Carmike Ashtabula Mall 6","address":"3315 N Ridge East Unit 400","city":"Ashtabula","state":"OH","zip":"44004","distance":24.892607655332,"lon":"-80.753304","lat":"41.879002","theaterChainName":"Carmike Cinemas","ticketType":"STANDARD"}]