[{"id":"4829","tribuneTheaterId":"10103","providerTheaterId":"","name":"Capitol Theatre - Cleveland","address":"1390 West 65th St.","city":"Cleveland","state":"OH","zip":"44102","distance":3.3690239497759,"lon":"-81.730301","lat":"41.4842","theaterChainName":"Cleveland Cinemas","ticketType":"STANDARD"},{"id":"757","tribuneTheaterId":"7068","providerTheaterId":"835","name":"AMC Ridge Park Square 8","address":"4788 Ridge Road","city":"Brooklyn","state":"OH","zip":"44144","distance":3.2284972835676,"lon":"-81.73749","lat":"41.42633","theaterChainName":"AMC Theatres","ticketType":"STANDARD"},{"id":"759","tribuneTheaterId":"8247","providerTheaterId":"839","name":"AMC Westwood Town Center 6","address":"21653 Center Ridge Road","city":"Rocky River","state":"OH","zip":"44116","distance":3.938885128337,"lon":"-81.860459","lat":"41.457929","theaterChainName":"AMC Theatres","ticketType":"STANDARD"},{"id":"1075","tribuneTheaterId":"2279","providerTheaterId":"","name":"Tower City 11","address":"230 Huron Road","city":"Cleveland","state":"OH","zip":"44113","distance":5.4440576973466,"lon":"-81.693631","lat":"41.496893","theaterChainName":"Cleveland Cinemas","ticketType":"STANDARD"},{"id":"5414","tribuneTheaterId":"10851","providerTheaterId":"","name":"Great Northern Mall Stadium 10 + RPX","address":"450 Great Northern Mall","city":"North Olmsted","state":"OH","zip":"44070","distance":7.0072502573531,"lon":"-81.9095","lat":"41.4185","theaterChainName":"Regal Cinemas","ticketType":"STANDARD"},{"id":"641","tribuneTheaterId":"7416","providerTheaterId":"","name":"Regal Middlesburg Town Square Stadium 16","address":"18348 Bagley Road","city":"Middleburg Heights","state":"OH","zip":"44130","distance":6.2053656400691,"lon":"-81.830528","lat":"41.374218","theaterChainName":"Regal Cinemas","ticketType":"STANDARD"},{"id":"2535","tribuneTheaterId":"5246","providerTheaterId":"","name":"Cinemark At Valley View and XD","address":"6001 Canal Road","city":"Valley View","state":"OH","zip":"44125","distance":9.2265338658962,"lon":"-81.623794","lat":"41.399383","theaterChainName":"Cinemark","ticketType":"STANDARD"},{"id":"643","tribuneTheaterId":"8411","providerTheaterId":"","name":"Regal Cinemas Crocker Park Stadium 16 & IMAX","address":"30147 Detroit Road","city":"Westlake","state":"OH","zip":"44145","distance":8.7180137026514,"lon":"-81.952665","lat":"41.461455","theaterChainName":"Regal Cinemas","ticketType":"STANDARD"},{"id":"839","tribuneTheaterId":"6191","providerTheaterId":"","name":"Shaker Square Cinemas","address":"13116 Shaker Square","city":"Cleveland","state":"OH","zip":"44120","distance":10.158254026561,"lon":"-81.591331","lat":"41.483313","theaterChainName":"Cleveland Cinemas","ticketType":"STANDARD"},{"id":"2785","tribuneTheaterId":"472","providerTheaterId":"","name":"Cleveland Cinematheque","address":"11610 Euclid Avenue","city":"Cleveland","state":"OH","zip":"44106","distance":10.110247518274,"lon":"-81.602635","lat":"41.510673","theaterChainName":"Independent Chains","ticketType":"STANDARD"},{"id":"4329","tribuneTheaterId":"9304","providerTheaterId":"","name":"Cinemark Strongsville","address":"17450 Southpark Center","city":"Strongsville","state":"OH","zip":"44136","distance":10.386137437032,"lon":"-81.822031","lat":"41.309455","theaterChainName":"Cinemark","ticketType":"STANDARD"},{"id":"1067","tribuneTheaterId":"1908","providerTheaterId":"","name":"Cedar Lee Theatres","address":"2163 Lee Road","city":"Cleveland Heights","state":"OH","zip":"44118","distance":11.740407398835,"lon":"-81.565258","lat":"41.500893","theaterChainName":"Cleveland Cinemas","ticketType":"STANDARD"},{"id":"2952","tribuneTheaterId":"8410","providerTheaterId":"","name":"Regal Severance Town Center Stadium 14","address":"3492 Mayfield Road","city":"Cleveland Heights","state":"OH","zip":"44118","distance":12.849512312319,"lon":"-81.550076","lat":"41.51854","theaterChainName":"Regal Cinemas","ticketType":"STANDARD"},{"id":"2660","tribuneTheaterId":"4643","providerTheaterId":"","name":"Regal Cobblestone Square Stadium 20","address":"5500 Cobbleston Rd.","city":"Elyria","state":"OH","zip":"44035","distance":15.449812360339,"lon":"-82.0787","lat":"41.4207","theaterChainName":"Regal Cinemas","ticketType":"STANDARD"},{"id":"758","tribuneTheaterId":"5180","providerTheaterId":"","name":"Hickory Ridge Cinemas 8","address":"1055 Pearl Road","city":"Brunswick","state":"OH","zip":"44212","distance":14.875857179003,"lon":"-81.839701","lat":"41.245839","theaterChainName":"Independent Chains","ticketType":"STANDARD"},{"id":"838","tribuneTheaterId":"6340","providerTheaterId":"","name":"Atlas Lakeshore 7","address":"22624 Lake Shore Blvd","city":"Euclid","state":"OH","zip":"44123","distance":17.191166211368,"lon":"-81.523345","lat":"41.611112","theaterChainName":"Atlas Cinemas","ticketType":"STANDARD"},{"id":"2287","tribuneTheaterId":"5245","providerTheaterId":"","name":"Cinemark - Macedonia","address":"8161 Macedonia Commons Blvd","city":"Macedonia","state":"OH","zip":"44056","distance":17.142060674521,"lon":"-81.5156","lat":"41.3126","theaterChainName":"Cinemark","ticketType":"STANDARD"},{"id":"4422","tribuneTheaterId":"9491","providerTheaterId":"","name":"Regal Richmond Town Center Stadium","address":"631 Richmond Road","city":"Richmond Heights","state":"OH","zip":"44143","distance":16.19423990359,"lon":"-81.492548","lat":"41.541688","theaterChainName":"Regal Cinemas","ticketType":"STANDARD"},{"id":"642","tribuneTheaterId":"6487","providerTheaterId":"","name":"Digiplex Solon Cinemas","address":"6185 Enterprise Parkway","city":"Solon","state":"OH","zip":"44139","distance":17.219883721653,"lon":"-81.463478","lat":"41.392228","theaterChainName":"Carmike Cinemas","ticketType":"STANDARD"},{"id":"4626","tribuneTheaterId":"9808","providerTheaterId":"","name":"Atlas Cinemas Midway Mall 8","address":"2650 Midway Mall Blvd.","city":"Elyria","state":"OH","zip":"44035","distance":17.466800469105,"lon":"-82.111173","lat":"41.394857","theaterChainName":"Atlas Cinemas","ticketType":"STANDARD"},{"id":"4850","tribuneTheaterId":"10142","providerTheaterId":"","name":"Atlas Cinemas Eastgate 10","address":"1345 SOM Center Road","city":"Mayfield Heights","state":"OH","zip":"44124","distance":18.595104770871,"lon":"-81.436286","lat":"41.523697","theaterChainName":"Atlas Cinemas","ticketType":"STANDARD"},{"id":"1618","tribuneTheaterId":"8050","providerTheaterId":"","name":"Regal Medina Stadium 16  Huntington Street","address":"200 West Reagan Pkwy","city":"Medina","state":"OH","zip":"44256","distance":21.335107698471,"lon":"-81.86765","lat":"41.154712","theaterChainName":"Regal Cinemas","ticketType":"STANDARD"},{"id":"1484","tribuneTheaterId":"4642","providerTheaterId":"","name":"Regal Willoughby Commons 16","address":"36655 Euclid Avenue","city":"Willoughby","state":"OH","zip":"44094","distance":22.144941929431,"lon":"-81.424249","lat":"41.630495","theaterChainName":"Regal Cinemas","ticketType":"STANDARD"},{"id":"4185","tribuneTheaterId":"5241","providerTheaterId":"","name":"Cinemark 10 Aurora","address":"140 Barrington Town Square Dr","city":"Aurora","state":"OH","zip":"44202","distance":24.507730496609,"lon":"-81.348932","lat":"41.318981","theaterChainName":"Cinemark","ticketType":"STANDARD"},{"id":"638","tribuneTheaterId":"8589","providerTheaterId":"","name":"Regal Montrose Stadium 12","address":"4020 Medina Road","city":"Akron","state":"OH","zip":"44333","distance":23.598761490622,"lon":"-81.642129","lat":"41.132708","theaterChainName":"Regal Cinemas","ticketType":"STANDARD"},{"id":"1384","tribuneTheaterId":"2335","providerTheaterId":"","name":"Chagrin Cinemas","address":"8200 East Washington St.","city":"Chagrin Falls","state":"OH","zip":"44023","distance":22.751446715811,"lon":"-81.348265","lat":"41.418033","theaterChainName":"Cleveland Cinemas","ticketType":"STANDARD"},{"id":"639","tribuneTheaterId":"7267","providerTheaterId":"","name":"Regal Hudson Cinema 10","address":"5339 Darrow Road","city":"Hudson","state":"OH","zip":"44236","distance":24.740201607511,"lon":"-81.438491","lat":"41.21062","theaterChainName":"Regal Cinemas","ticketType":"STANDARD"}]