[{"id":"2786","name":"Garrettsville Cinema","address":"8001 State Street","city":"Garrettsville","state":"OH","zip":"44231","distance":"24.150686264038086","lon":"-81.100502","lat":"41.287510","theaterChainName":"Independent Chains","ticketType":"STANDARD"},{"id":"840","name":"Atlas Cinemas Diamond Ctr 16","address":"9555 Diamond Centre Dr.","city":"Mentor","state":"OH","zip":"44060","distance":"17.301607131958008","lon":"-81.296532","lat":"41.715454","theaterChainName":"Atlas Cinemas","ticketType":"STANDARD"},{"id":"4424","name":"Atlas Cinema Great Lakes Stadium 16","address":"7860 Mentor Avenue","city":"Mentor","state":"OH","zip":"44060","distance":"12.325995445251465","lon":"-81.357491","lat":"41.658524","theaterChainName":"Atlas Cinemas","ticketType":"STANDARD"},{"id":"5414","name":"Great Northern Mall Stadium 10 + RPX","address":"450 Great Northern Mall","city":"North Olmsted","state":"OH","zip":"44070","distance":"23.491979598999023","lon":"-81.909500","lat":"41.418499","theaterChainName":"Regal Cinemas","ticketType":"STANDARD"},{"id":"4329","name":"Cinemark Strongsville","address":"17450 Southpark Center","city":"Strongsville","state":"OH","zip":"44136","distance":"22.564783096313477","lon":"-81.822029","lat":"41.309456","theaterChainName":"Cinemark","ticketType":"STANDARD"},{"id":"641","name":"Regal Middlesburg Town Square Stadium 16","address":"18348 Bagley Road","city":"Middleburg Heights","state":"OH","zip":"44130","distance":"20.656410217285156","lon":"-81.830528","lat":"41.374218","theaterChainName":"Regal Cinemas","ticketType":"STANDARD"},{"id":"759","name":"AMC Westwood Town Center 6","address":"21653 Center Ridge Road","city":"Rocky River","state":"OH","zip":"44116","distance":"20.461746215820312","lon":"-81.860458","lat":"41.457928","theaterChainName":"AMC Theatres","ticketType":"STANDARD"},{"id":"757","name":"AMC Ridge Park Square 8","address":"4788 Ridge Road","city":"Brooklyn","state":"OH","zip":"44144","distance":"14.809475898742676","lon":"-81.737488","lat":"41.426331","theaterChainName":"AMC Theatres","ticketType":"STANDARD"},{"id":"4829","name":"Capitol Theatre - Cleveland","address":"1390 West 65th St.","city":"Cleveland","state":"OH","zip":"44102","distance":"13.55331039428711","lon":"-81.730301","lat":"41.484200","theaterChainName":"Cleveland Cinemas","ticketType":"STANDARD"},{"id":"1075","name":"Tower City 11","address":"230 Huron Road","city":"Cleveland","state":"OH","zip":"44113","distance":"11.608071327209473","lon":"-81.693634","lat":"41.496895","theaterChainName":"Cleveland Cinemas","ticketType":"STANDARD"},{"id":"2535","name":"Cinemark At Valley View and XD","address":"6001 Canal Road","city":"Valley View","state":"OH","zip":"44125","distance":"10.641472816467285","lon":"-81.623795","lat":"41.399384","theaterChainName":"Cinemark","ticketType":"STANDARD"},{"id":"839","name":"Shaker Square Cinemas","address":"13116 Shaker Square","city":"Cleveland","state":"OH","zip":"44120","distance":"6.428139686584473","lon":"-81.591331","lat":"41.483315","theaterChainName":"Cleveland Cinemas","ticketType":"STANDARD"},{"id":"2785","name":"Cleveland Cinematheque","address":"11610 Euclid Avenue","city":"Cleveland","state":"OH","zip":"44106","distance":"6.927000522613525","lon":"-81.602638","lat":"41.510674","theaterChainName":"Independent Chains","ticketType":"STANDARD"},{"id":"1067","name":"Cedar Lee Theatres","address":"2163 Lee Road","city":"Cleveland Heights","state":"OH","zip":"44118","distance":"4.960564613342285","lon":"-81.565254","lat":"41.500893","theaterChainName":"Cleveland Cinemas","ticketType":"STANDARD"},{"id":"2287","name":"Cinemark - Macedonia","address":"8161 Macedonia Commons Blvd","city":"Macedonia","state":"OH","zip":"44056","distance":"13.236394882202148","lon":"-81.515602","lat":"41.312599","theaterChainName":"Cinemark","ticketType":"STANDARD"},{"id":"2952","name":"Regal Severance Town Center Stadium 14","address":"3492 Mayfield Road","city":"Cleveland Heights","state":"OH","zip":"44118","distance":"4.347054481506348","lon":"-81.550079","lat":"41.518539","theaterChainName":"Regal Cinemas","ticketType":"STANDARD"},{"id":"5573","name":"Cinemark Cuyahoga Falls and XD","address":"2925 State Road","city":"Cuyahoga Falls","state":"OH","zip":"44223","distance":"24.235029220581055","lon":"-81.508598","lat":"41.151501","theaterChainName":"Cinemark","ticketType":"STANDARD"},{"id":"642","name":"Digiplex Solon Cinemas","address":"6185 Enterprise Parkway","city":"Solon","state":"OH","zip":"44139","distance":"7.522154331207275","lon":"-81.463478","lat":"41.392227","theaterChainName":"Carmike Cinemas","ticketType":"STANDARD"},{"id":"4422","name":"Regal Richmond Town Center Stadium","address":"631 Richmond Road","city":"Richmond Heights","state":"OH","zip":"44143","distance":"3.0558278560638428","lon":"-81.492546","lat":"41.541687","theaterChainName":"Regal Cinemas","ticketType":"STANDARD"},{"id":"639","name":"Regal Hudson Cinema 10","address":"5339 Darrow Road","city":"Hudson","state":"OH","zip":"44236","distance":"20.128389358520508","lon":"-81.438492","lat":"41.210621","theaterChainName":"Regal Cinemas","ticketType":"STANDARD"},{"id":"838","name":"Atlas Lakeshore 7","address":"22624 Lake Shore Blvd","city":"Euclid","state":"OH","zip":"44123","distance":"8.103635787963867","lon":"-81.523346","lat":"41.611111","theaterChainName":"Atlas Cinemas","ticketType":"STANDARD"},{"id":"4850","name":"Atlas Cinemas Eastgate 10","address":"1345 SOM Center Road","city":"Mayfield Heights","state":"OH","zip":"44124","distance":"2.322681188583374","lon":"-81.436287","lat":"41.523697","theaterChainName":"Atlas Cinemas","ticketType":"STANDARD"},{"id":"4185","name":"Cinemark 10 Aurora","address":"140 Barrington Town Square Dr","city":"Aurora","state":"OH","zip":"44202","distance":"14.041244506835938","lon":"-81.348930","lat":"41.318981","theaterChainName":"Cinemark","ticketType":"STANDARD"},{"id":"1384","name":"Chagrin Cinemas","address":"8200 East Washington St.","city":"Chagrin Falls","state":"OH","zip":"44023","distance":"8.497647285461426","lon":"-81.348267","lat":"41.418034","theaterChainName":"Cleveland Cinemas","ticketType":"STANDARD"},{"id":"1484","name":"Regal Willoughby Commons 16","address":"36655 Euclid Avenue","city":"Willoughby","state":"OH","zip":"44094","distance":"9.247160911560059","lon":"-81.424248","lat":"41.630493","theaterChainName":"Regal Cinemas","ticketType":"STANDARD"}]