[{"id":"4424","name":"Atlas Cinema Great Lakes Stadium 16","address":"7860 Mentor Avenue","city":"Mentor","state":"OH","zip":"44060","distance":"20.0935001373291","lon":"-81.357491","lat":"41.658524","theaterChainName":"Atlas Cinemas","ticketType":"STANDARD"},{"id":"5414","name":"Great Northern Mall Stadium 10 + RPX","address":"450 Great Northern Mall","city":"North Olmsted","state":"OH","zip":"44070","distance":"18.103591918945312","lon":"-81.909500","lat":"41.418499","theaterChainName":"Regal Cinemas","ticketType":"STANDARD"},{"id":"4329","name":"Cinemark Strongsville","address":"17450 Southpark Center","city":"Strongsville","state":"OH","zip":"44136","distance":"15.264201164245605","lon":"-81.822029","lat":"41.309456","theaterChainName":"Cinemark","ticketType":"STANDARD"},{"id":"758","name":"Hickory Ridge Cinemas 8","address":"1055 Pearl Road","city":"Brunswick","state":"OH","zip":"44212","distance":"18.428895950317383","lon":"-81.839699","lat":"41.245838","theaterChainName":"Independent Chains","ticketType":"STANDARD"},{"id":"641","name":"Regal Middlesburg Town Square Stadium 16","address":"18348 Bagley Road","city":"Middleburg Heights","state":"OH","zip":"44130","distance":"14.230232238769531","lon":"-81.830528","lat":"41.374218","theaterChainName":"Regal Cinemas","ticketType":"STANDARD"},{"id":"643","name":"Regal Cinemas Crocker Park Stadium 16 & IMAX","address":"30147 Detroit Road","city":"Westlake","state":"OH","zip":"44145","distance":"20.628026962280273","lon":"-81.952667","lat":"41.461456","theaterChainName":"Regal Cinemas","ticketType":"STANDARD"},{"id":"759","name":"AMC Westwood Town Center 6","address":"21653 Center Ridge Road","city":"Rocky River","state":"OH","zip":"44116","distance":"15.89072322845459","lon":"-81.860458","lat":"41.457928","theaterChainName":"AMC Theatres","ticketType":"STANDARD"},{"id":"1618","name":"Regal Medina Stadium 16  Huntington Street","address":"200 West Reagan Pkwy","city":"Medina","state":"OH","zip":"44256","distance":"23.813154220581055","lon":"-81.867653","lat":"41.154713","theaterChainName":"Regal Cinemas","ticketType":"STANDARD"},{"id":"757","name":"AMC Ridge Park Square 8","address":"4788 Ridge Road","city":"Brooklyn","state":"OH","zip":"44144","distance":"9.245985984802246","lon":"-81.737488","lat":"41.426331","theaterChainName":"AMC Theatres","ticketType":"STANDARD"},{"id":"4829","name":"Capitol Theatre - Cleveland","address":"1390 West 65th St.","city":"Cleveland","state":"OH","zip":"44102","distance":"10.171363830566406","lon":"-81.730301","lat":"41.484200","theaterChainName":"Cleveland Cinemas","ticketType":"STANDARD"},{"id":"1075","name":"Tower City 11","address":"230 Huron Road","city":"Cleveland","state":"OH","zip":"44113","distance":"9.127751350402832","lon":"-81.693634","lat":"41.496895","theaterChainName":"Cleveland Cinemas","ticketType":"STANDARD"},{"id":"2535","name":"Cinemark At Valley View and XD","address":"6001 Canal Road","city":"Valley View","state":"OH","zip":"44125","distance":"3.3790407180786133","lon":"-81.623795","lat":"41.399384","theaterChainName":"Cinemark","ticketType":"STANDARD"},{"id":"638","name":"Regal Montrose Stadium 12","address":"4020 Medina Road","city":"Akron","state":"OH","zip":"44333","distance":"19.659379959106445","lon":"-81.642128","lat":"41.132710","theaterChainName":"Regal Cinemas","ticketType":"STANDARD"},{"id":"839","name":"Shaker Square Cinemas","address":"13116 Shaker Square","city":"Cleveland","state":"OH","zip":"44120","distance":"5.281767845153809","lon":"-81.591331","lat":"41.483315","theaterChainName":"Cleveland Cinemas","ticketType":"STANDARD"},{"id":"2785","name":"Cleveland Cinematheque","address":"11610 Euclid Avenue","city":"Cleveland","state":"OH","zip":"44106","distance":"7.260642051696777","lon":"-81.602638","lat":"41.510674","theaterChainName":"Independent Chains","ticketType":"STANDARD"},{"id":"1067","name":"Cedar Lee Theatres","address":"2163 Lee Road","city":"Cleveland Heights","state":"OH","zip":"44118","distance":"6.251204013824463","lon":"-81.565254","lat":"41.500893","theaterChainName":"Cleveland Cinemas","ticketType":"STANDARD"},{"id":"2287","name":"Cinemark - Macedonia","address":"8161 Macedonia Commons Blvd","city":"Macedonia","state":"OH","zip":"44056","distance":"7.15088415145874","lon":"-81.515602","lat":"41.312599","theaterChainName":"Cinemark","ticketType":"STANDARD"},{"id":"2952","name":"Regal Severance Town Center Stadium 14","address":"3492 Mayfield Road","city":"Cleveland Heights","state":"OH","zip":"44118","distance":"7.48403787612915","lon":"-81.550079","lat":"41.518539","theaterChainName":"Regal Cinemas","ticketType":"STANDARD"},{"id":"1072","name":"Highland Theatre","address":"826 W. Market Street","city":"Akron","state":"OH","zip":"44303","distance":"21.70922088623047","lon":"-81.544098","lat":"41.096554","theaterChainName":"Independent Chains","ticketType":"STANDARD"},{"id":"5573","name":"Cinemark Cuyahoga Falls and XD","address":"2925 State Road","city":"Cuyahoga Falls","state":"OH","zip":"44223","distance":"18.096460342407227","lon":"-81.508598","lat":"41.151501","theaterChainName":"Cinemark","ticketType":"STANDARD"},{"id":"5497","name":"The Nightlight Cinema","address":"30 N. High St.","city":"Akron","state":"OH","zip":"44308","distance":"22.560731887817383","lon":"-81.515564","lat":"41.085732","theaterChainName":"Independent Chains","ticketType":"STANDARD"},{"id":"642","name":"Digiplex Solon Cinemas","address":"6185 Enterprise Parkway","city":"Solon","state":"OH","zip":"44139","distance":"5.174788475036621","lon":"-81.463478","lat":"41.392227","theaterChainName":"Carmike Cinemas","ticketType":"STANDARD"},{"id":"4422","name":"Regal Richmond Town Center Stadium","address":"631 Richmond Road","city":"Richmond Heights","state":"OH","zip":"44143","distance":"9.719766616821289","lon":"-81.492546","lat":"41.541687","theaterChainName":"Regal Cinemas","ticketType":"STANDARD"},{"id":"636","name":"Regal Independence Stadium 10","address":"1210 Independence Ave.","city":"Akron","state":"OH","zip":"44310","distance":"21.275548934936523","lon":"-81.471115","lat":"41.109982","theaterChainName":"Regal Cinemas","ticketType":"STANDARD"},{"id":"639","name":"Regal Hudson Cinema 10","address":"5339 Darrow Road","city":"Hudson","state":"OH","zip":"44236","distance":"15.189407348632812","lon":"-81.438492","lat":"41.210621","theaterChainName":"Regal Cinemas","ticketType":"STANDARD"},{"id":"838","name":"Atlas Lakeshore 7","address":"22624 Lake Shore Blvd","city":"Euclid","state":"OH","zip":"44123","distance":"13.99301815032959","lon":"-81.523346","lat":"41.611111","theaterChainName":"Atlas Cinemas","ticketType":"STANDARD"},{"id":"1392","name":"Linda Theatre","address":"1745 Goodyear Blvd","city":"Akron","state":"OH","zip":"44305","distance":"23.817100524902344","lon":"-81.463402","lat":"41.073601","theaterChainName":"Independent Chains","ticketType":"STANDARD"},{"id":"4850","name":"Atlas Cinemas Eastgate 10","address":"1345 SOM Center Road","city":"Mayfield Heights","state":"OH","zip":"44124","distance":"10.119793891906738","lon":"-81.436287","lat":"41.523697","theaterChainName":"Atlas Cinemas","ticketType":"STANDARD"},{"id":"4185","name":"Cinemark 10 Aurora","address":"140 Barrington Town Square Dr","city":"Aurora","state":"OH","zip":"44202","distance":"12.654829978942871","lon":"-81.348930","lat":"41.318981","theaterChainName":"Cinemark","ticketType":"STANDARD"},{"id":"1384","name":"Chagrin Cinemas","address":"8200 East Washington St.","city":"Chagrin Falls","state":"OH","zip":"44023","distance":"10.99992561340332","lon":"-81.348267","lat":"41.418034","theaterChainName":"Cleveland Cinemas","ticketType":"STANDARD"},{"id":"1393","name":"Kent Plaza Theatres 10","address":"140 Cherry St.","city":"Kent","state":"OH","zip":"44240","distance":"21.36659049987793","lon":"-81.359909","lat":"41.140430","theaterChainName":"WPA\/Pittsburgh Theatres","ticketType":"STANDARD"},{"id":"1484","name":"Regal Willoughby Commons 16","address":"36655 Euclid Avenue","city":"Willoughby","state":"OH","zip":"44094","distance":"16.751569747924805","lon":"-81.424248","lat":"41.630493","theaterChainName":"Regal Cinemas","ticketType":"STANDARD"}]