[{"id":"2026","name":"Apollo","address":"19 East College Street","city":"Oberlin","state":"OH","zip":"44074","distance":"20.207073211669922","lon":"-82.216713","lat":"41.291557","theaterChainName":"Cleveland Cinemas","ticketType":"STANDARD"},{"id":"5414","name":"Great Northern Mall Stadium 10 + RPX","address":"450 Great Northern Mall","city":"North Olmsted","state":"OH","zip":"44070","distance":"8.401289939880371","lon":"-81.909500","lat":"41.418499","theaterChainName":"Regal Cinemas","ticketType":"STANDARD"},{"id":"4329","name":"Cinemark Strongsville","address":"17450 Southpark Center","city":"Strongsville","state":"OH","zip":"44136","distance":"0.4239729940891266","lon":"-81.822029","lat":"41.309456","theaterChainName":"Cinemark","ticketType":"STANDARD"},{"id":"758","name":"Hickory Ridge Cinemas 8","address":"1055 Pearl Road","city":"Brunswick","state":"OH","zip":"44212","distance":"4.690863609313965","lon":"-81.839699","lat":"41.245838","theaterChainName":"Independent Chains","ticketType":"STANDARD"},{"id":"641","name":"Regal Middlesburg Town Square Stadium 16","address":"18348 Bagley Road","city":"Middleburg Heights","state":"OH","zip":"44130","distance":"4.21737813949585","lon":"-81.830528","lat":"41.374218","theaterChainName":"Regal Cinemas","ticketType":"STANDARD"},{"id":"643","name":"Regal Cinemas Crocker Park Stadium 16 & IMAX","address":"30147 Detroit Road","city":"Westlake","state":"OH","zip":"44145","distance":"12.098552703857422","lon":"-81.952667","lat":"41.461456","theaterChainName":"Regal Cinemas","ticketType":"STANDARD"},{"id":"759","name":"AMC Westwood Town Center 6","address":"21653 Center Ridge Road","city":"Rocky River","state":"OH","zip":"44116","distance":"10.136529922485352","lon":"-81.860458","lat":"41.457928","theaterChainName":"AMC Theatres","ticketType":"STANDARD"},{"id":"1618","name":"Regal Medina Stadium 16  Huntington Street","address":"200 West Reagan Pkwy","city":"Medina","state":"OH","zip":"44256","distance":"11.138614654541016","lon":"-81.867653","lat":"41.154713","theaterChainName":"Regal Cinemas","ticketType":"STANDARD"},{"id":"2660","name":"Regal Cobblestone Square Stadium 20","address":"5500 Cobbleston Rd.","city":"Elyria","state":"OH","zip":"44035","distance":"14.950345993041992","lon":"-82.078697","lat":"41.420700","theaterChainName":"Regal Cinemas","ticketType":"STANDARD"},{"id":"4626","name":"Atlas Cinemas Midway Mall 8","address":"2650 Midway Mall Blvd.","city":"Elyria","state":"OH","zip":"44035","distance":"15.70984172821045","lon":"-82.111176","lat":"41.394855","theaterChainName":"Atlas Cinemas","ticketType":"STANDARD"},{"id":"757","name":"AMC Ridge Park Square 8","address":"4788 Ridge Road","city":"Brooklyn","state":"OH","zip":"44144","distance":"9.131082534790039","lon":"-81.737488","lat":"41.426331","theaterChainName":"AMC Theatres","ticketType":"STANDARD"},{"id":"4829","name":"Capitol Theatre - Cleveland","address":"1390 West 65th St.","city":"Cleveland","state":"OH","zip":"44102","distance":"12.86516284942627","lon":"-81.730301","lat":"41.484200","theaterChainName":"Cleveland Cinemas","ticketType":"STANDARD"},{"id":"1075","name":"Tower City 11","address":"230 Huron Road","city":"Cleveland","state":"OH","zip":"44113","distance":"14.490002632141113","lon":"-81.693634","lat":"41.496895","theaterChainName":"Cleveland Cinemas","ticketType":"STANDARD"},{"id":"2535","name":"Cinemark At Valley View and XD","address":"6001 Canal Road","city":"Valley View","state":"OH","zip":"44125","distance":"12.173114776611328","lon":"-81.623795","lat":"41.399384","theaterChainName":"Cinemark","ticketType":"STANDARD"},{"id":"1071","name":"Great Oaks Cinema","address":"251 Great Oaks Trail","city":"Wadsworth","state":"OH","zip":"44281","distance":"18.945201873779297","lon":"-81.732979","lat":"41.048615","theaterChainName":"Independent Chains","ticketType":"STANDARD"},{"id":"638","name":"Regal Montrose Stadium 12","address":"4020 Medina Road","city":"Akron","state":"OH","zip":"44333","distance":"15.791118621826172","lon":"-81.642128","lat":"41.132710","theaterChainName":"Regal Cinemas","ticketType":"STANDARD"},{"id":"839","name":"Shaker Square Cinemas","address":"13116 Shaker Square","city":"Cleveland","state":"OH","zip":"44120","distance":"17.008251190185547","lon":"-81.591331","lat":"41.483315","theaterChainName":"Cleveland Cinemas","ticketType":"STANDARD"},{"id":"2785","name":"Cleveland Cinematheque","address":"11610 Euclid Avenue","city":"Cleveland","state":"OH","zip":"44106","distance":"17.977022171020508","lon":"-81.602638","lat":"41.510674","theaterChainName":"Independent Chains","ticketType":"STANDARD"},{"id":"1067","name":"Cedar Lee Theatres","address":"2163 Lee Road","city":"Cleveland Heights","state":"OH","zip":"44118","distance":"18.823320388793945","lon":"-81.565254","lat":"41.500893","theaterChainName":"Cleveland Cinemas","ticketType":"STANDARD"},{"id":"2287","name":"Cinemark - Macedonia","address":"8161 Macedonia Commons Blvd","city":"Macedonia","state":"OH","zip":"44056","distance":"16.239469528198242","lon":"-81.515602","lat":"41.312599","theaterChainName":"Cinemark","ticketType":"STANDARD"},{"id":"2952","name":"Regal Severance Town Center Stadium 14","address":"3492 Mayfield Road","city":"Cleveland Heights","state":"OH","zip":"44118","distance":"20.234914779663086","lon":"-81.550079","lat":"41.518539","theaterChainName":"Regal Cinemas","ticketType":"STANDARD"},{"id":"5317","name":"Lake 8 Movies","address":"588 W. Tuscarawas Ave.","city":"Barberton","state":"OH","zip":"44203","distance":"23.634159088134766","lon":"-81.611000","lat":"41.012901","theaterChainName":"Independent Chains","ticketType":"STANDARD"},{"id":"1072","name":"Highland Theatre","address":"826 W. Market Street","city":"Akron","state":"OH","zip":"44303","distance":"21.04018783569336","lon":"-81.544098","lat":"41.096554","theaterChainName":"Independent Chains","ticketType":"STANDARD"},{"id":"5573","name":"Cinemark Cuyahoga Falls and XD","address":"2925 State Road","city":"Cuyahoga Falls","state":"OH","zip":"44223","distance":"20.02939796447754","lon":"-81.508598","lat":"41.151501","theaterChainName":"Cinemark","ticketType":"STANDARD"},{"id":"5497","name":"The Nightlight Cinema","address":"30 N. High St.","city":"Akron","state":"OH","zip":"44308","distance":"22.62176513671875","lon":"-81.515564","lat":"41.085732","theaterChainName":"Independent Chains","ticketType":"STANDARD"},{"id":"642","name":"Digiplex Solon Cinemas","address":"6185 Enterprise Parkway","city":"Solon","state":"OH","zip":"44139","distance":"19.704774856567383","lon":"-81.463478","lat":"41.392227","theaterChainName":"Carmike Cinemas","ticketType":"STANDARD"},{"id":"4422","name":"Regal Richmond Town Center Stadium","address":"631 Richmond Road","city":"Richmond Heights","state":"OH","zip":"44143","distance":"23.49890899658203","lon":"-81.492546","lat":"41.541687","theaterChainName":"Regal Cinemas","ticketType":"STANDARD"},{"id":"636","name":"Regal Independence Stadium 10","address":"1210 Independence Ave.","city":"Akron","state":"OH","zip":"44310","distance":"23.287036895751953","lon":"-81.471115","lat":"41.109982","theaterChainName":"Regal Cinemas","ticketType":"STANDARD"},{"id":"639","name":"Regal Hudson Cinema 10","address":"5339 Darrow Road","city":"Hudson","state":"OH","zip":"44236","distance":"21.4615478515625","lon":"-81.438492","lat":"41.210621","theaterChainName":"Regal Cinemas","ticketType":"STANDARD"},{"id":"4850","name":"Atlas Cinemas Eastgate 10","address":"1345 SOM Center Road","city":"Mayfield Heights","state":"OH","zip":"44124","distance":"24.991331100463867","lon":"-81.436287","lat":"41.523697","theaterChainName":"Atlas Cinemas","ticketType":"STANDARD"},{"id":"4185","name":"Cinemark 10 Aurora","address":"140 Barrington Town Square Dr","city":"Aurora","state":"OH","zip":"44202","distance":"24.891685485839844","lon":"-81.348930","lat":"41.318981","theaterChainName":"Cinemark","ticketType":"STANDARD"}]