[{"id":"638","tribuneTheaterId":"8589","providerTheaterId":"","name":"Regal Montrose Stadium 12","address":"4020 Medina Road","city":"Akron","state":"OH","zip":"44333","distance":3.8947214009408,"lon":"-81.642129","lat":"41.132708","theaterChainName":"Regal Cinemas","ticketType":"STANDARD"},{"id":"1072","tribuneTheaterId":"2452","providerTheaterId":"","name":"Highland Theatre","address":"826 W. Market Street","city":"Akron","state":"OH","zip":"44303","distance":7.9797048278941,"lon":"-81.544098","lat":"41.096555","theaterChainName":"Independent Chains","ticketType":"STANDARD"},{"id":"5573","tribuneTheaterId":"11020","providerTheaterId":"","name":"Cinemark Cuyahoga Falls and XD","address":"2925 State Road","city":"Cuyahoga Falls","state":"OH","zip":"44223","distance":7.1218787698657,"lon":"-81.5086","lat":"41.1515","theaterChainName":"Cinemark","ticketType":"STANDARD"},{"id":"5497","tribuneTheaterId":"10966","providerTheaterId":"","name":"The Nightlight Cinema","address":"30 N. High St.","city":"Akron","state":"OH","zip":"44308","distance":9.4984855099151,"lon":"-81.515561","lat":"41.085731","theaterChainName":"Independent Chains","ticketType":"STANDARD"},{"id":"636","tribuneTheaterId":"8508","providerTheaterId":"","name":"Regal Independence Stadium 10","address":"1210 Independence Ave.","city":"Akron","state":"OH","zip":"44310","distance":10.173696489117,"lon":"-81.471112","lat":"41.109981","theaterChainName":"Regal Cinemas","ticketType":"STANDARD"},{"id":"639","tribuneTheaterId":"7267","providerTheaterId":"","name":"Regal Hudson Cinema 10","address":"5339 Darrow Road","city":"Hudson","state":"OH","zip":"44236","distance":10.387278956783,"lon":"-81.438491","lat":"41.21062","theaterChainName":"Regal Cinemas","ticketType":"STANDARD"},{"id":"758","tribuneTheaterId":"5180","providerTheaterId":"","name":"Hickory Ridge Cinemas 8","address":"1055 Pearl Road","city":"Brunswick","state":"OH","zip":"44212","distance":11.284537844855,"lon":"-81.839701","lat":"41.245839","theaterChainName":"Independent Chains","ticketType":"STANDARD"},{"id":"2287","tribuneTheaterId":"5245","providerTheaterId":"","name":"Cinemark - Macedonia","address":"8161 Macedonia Commons Blvd","city":"Macedonia","state":"OH","zip":"44056","distance":10.596957521034,"lon":"-81.5156","lat":"41.3126","theaterChainName":"Cinemark","ticketType":"STANDARD"},{"id":"1071","tribuneTheaterId":"2679","providerTheaterId":"","name":"Great Oaks Cinema","address":"251 Great Oaks Trail","city":"Wadsworth","state":"OH","zip":"44281","distance":10.923648773889,"lon":"-81.73298","lat":"41.048615","theaterChainName":"Independent Chains","ticketType":"STANDARD"},{"id":"1392","tribuneTheaterId":"2490","providerTheaterId":"","name":"Linda Theatre","address":"1745 Goodyear Blvd","city":"Akron","state":"OH","zip":"44305","distance":12.013907195245,"lon":"-81.4634","lat":"41.0736","theaterChainName":"Independent Chains","ticketType":"STANDARD"},{"id":"4329","tribuneTheaterId":"9304","providerTheaterId":"","name":"Cinemark Strongsville","address":"17450 Southpark Center","city":"Strongsville","state":"OH","zip":"44136","distance":12.750342914767,"lon":"-81.822031","lat":"41.309455","theaterChainName":"Cinemark","ticketType":"STANDARD"},{"id":"1618","tribuneTheaterId":"8050","providerTheaterId":"","name":"Regal Medina Stadium 16  Huntington Street","address":"200 West Reagan Pkwy","city":"Medina","state":"OH","zip":"44256","distance":12.267107722323,"lon":"-81.86765","lat":"41.154712","theaterChainName":"Regal Cinemas","ticketType":"STANDARD"},{"id":"5317","tribuneTheaterId":"10755","providerTheaterId":"","name":"Lake 8 Movies","address":"588 W. Tuscarawas Ave.","city":"Barberton","state":"OH","zip":"44203","distance":12.230998169056,"lon":"-81.611","lat":"41.0129","theaterChainName":"Independent Chains","ticketType":"STANDARD"},{"id":"2535","tribuneTheaterId":"5246","providerTheaterId":"","name":"Cinemark At Valley View and XD","address":"6001 Canal Road","city":"Valley View","state":"OH","zip":"44125","distance":14.557218486367,"lon":"-81.623794","lat":"41.399383","theaterChainName":"Cinemark","ticketType":"STANDARD"},{"id":"1393","tribuneTheaterId":"3145","providerTheaterId":"","name":"Kent Plaza Theatres 10","address":"140 Cherry St.","city":"Kent","state":"OH","zip":"44240","distance":14.756355397382,"lon":"-81.359907","lat":"41.140432","theaterChainName":"WPA\/Pittsburgh Theatres","ticketType":"STANDARD"},{"id":"641","tribuneTheaterId":"7416","providerTheaterId":"","name":"Regal Middlesburg Town Square Stadium 16","address":"18348 Bagley Road","city":"Middleburg Heights","state":"OH","zip":"44130","distance":16.301965141621,"lon":"-81.830528","lat":"41.374218","theaterChainName":"Regal Cinemas","ticketType":"STANDARD"},{"id":"637","tribuneTheaterId":"9072","providerTheaterId":"","name":"Regal Interstate Park Stadium 18","address":"1089 Interstate Parkway","city":"Akron","state":"OH","zip":"44312","distance":16.637056130404,"lon":"-81.483407","lat":"40.977437","theaterChainName":"Regal Cinemas","ticketType":"STANDARD"},{"id":"757","tribuneTheaterId":"7068","providerTheaterId":"835","name":"AMC Ridge Park Square 8","address":"4788 Ridge Road","city":"Brooklyn","state":"OH","zip":"44144","distance":17.226576963193,"lon":"-81.73749","lat":"41.42633","theaterChainName":"AMC Theatres","ticketType":"STANDARD"},{"id":"4185","tribuneTheaterId":"5241","providerTheaterId":"","name":"Cinemark 10 Aurora","address":"140 Barrington Town Square Dr","city":"Aurora","state":"OH","zip":"44202","distance":17.419527870807,"lon":"-81.348932","lat":"41.318981","theaterChainName":"Cinemark","ticketType":"STANDARD"},{"id":"642","tribuneTheaterId":"6487","providerTheaterId":"","name":"Digiplex Solon Cinemas","address":"6185 Enterprise Parkway","city":"Solon","state":"OH","zip":"44139","distance":16.666344519423,"lon":"-81.463478","lat":"41.392228","theaterChainName":"Carmike Cinemas","ticketType":"STANDARD"},{"id":"839","tribuneTheaterId":"6191","providerTheaterId":"","name":"Shaker Square Cinemas","address":"13116 Shaker Square","city":"Cleveland","state":"OH","zip":"44120","distance":20.474714535109,"lon":"-81.591331","lat":"41.483313","theaterChainName":"Cleveland Cinemas","ticketType":"STANDARD"},{"id":"5414","tribuneTheaterId":"10851","providerTheaterId":"","name":"Great Northern Mall Stadium 10 + RPX","address":"450 Great Northern Mall","city":"North Olmsted","state":"OH","zip":"44070","distance":21.281147486153,"lon":"-81.9095","lat":"41.4185","theaterChainName":"Regal Cinemas","ticketType":"STANDARD"},{"id":"1384","tribuneTheaterId":"2335","providerTheaterId":"","name":"Chagrin Cinemas","address":"8200 East Washington St.","city":"Chagrin Falls","state":"OH","zip":"44023","distance":21.77140715293,"lon":"-81.348265","lat":"41.418033","theaterChainName":"Cleveland Cinemas","ticketType":"STANDARD"},{"id":"759","tribuneTheaterId":"8247","providerTheaterId":"839","name":"AMC Westwood Town Center 6","address":"21653 Center Ridge Road","city":"Rocky River","state":"OH","zip":"44116","distance":21.929998983077,"lon":"-81.860459","lat":"41.457929","theaterChainName":"AMC Theatres","ticketType":"STANDARD"},{"id":"4829","tribuneTheaterId":"10103","providerTheaterId":"","name":"Capitol Theatre - Cleveland","address":"1390 West 65th St.","city":"Cleveland","state":"OH","zip":"44102","distance":20.979142583437,"lon":"-81.730301","lat":"41.4842","theaterChainName":"Cleveland Cinemas","ticketType":"STANDARD"},{"id":"1067","tribuneTheaterId":"1908","providerTheaterId":"","name":"Cedar Lee Theatres","address":"2163 Lee Road","city":"Cleveland Heights","state":"OH","zip":"44118","distance":21.868459314255,"lon":"-81.565258","lat":"41.500893","theaterChainName":"Cleveland Cinemas","ticketType":"STANDARD"},{"id":"1075","tribuneTheaterId":"2279","providerTheaterId":"","name":"Tower City 11","address":"230 Huron Road","city":"Cleveland","state":"OH","zip":"44113","distance":21.487771493278,"lon":"-81.693631","lat":"41.496893","theaterChainName":"Cleveland Cinemas","ticketType":"STANDARD"},{"id":"2785","tribuneTheaterId":"472","providerTheaterId":"","name":"Cleveland Cinematheque","address":"11610 Euclid Avenue","city":"Cleveland","state":"OH","zip":"44106","distance":22.300417954764,"lon":"-81.602635","lat":"41.510673","theaterChainName":"Independent Chains","ticketType":"STANDARD"},{"id":"2952","tribuneTheaterId":"8410","providerTheaterId":"","name":"Regal Severance Town Center Stadium 14","address":"3492 Mayfield Road","city":"Cleveland Heights","state":"OH","zip":"44118","distance":23.209789299283,"lon":"-81.550076","lat":"41.51854","theaterChainName":"Regal Cinemas","ticketType":"STANDARD"},{"id":"1347","tribuneTheaterId":"5240","providerTheaterId":"","name":"Cinemark Movies 10 North Canton","address":"6284 Dressler Rd. NW","city":"North Canton","state":"OH","zip":"44720","distance":24.629374259774,"lon":"-81.424184","lat":"40.870329","theaterChainName":"Cinemark","ticketType":"STANDARD"},{"id":"643","tribuneTheaterId":"8411","providerTheaterId":"","name":"Regal Cinemas Crocker Park Stadium 16 & IMAX","address":"30147 Detroit Road","city":"Westlake","state":"OH","zip":"44145","distance":24.985294337031,"lon":"-81.952665","lat":"41.461455","theaterChainName":"Regal Cinemas","ticketType":"STANDARD"},{"id":"1368","tribuneTheaterId":"5244","providerTheaterId":"","name":"Cinemark Tinseltown USA and XD North Canton","address":"4720 Mega St. NW","city":"North Canton","state":"OH","zip":"44720","distance":24.294038897538,"lon":"-81.436007","lat":"40.871371","theaterChainName":"Cinemark","ticketType":"STANDARD"}]