[{"id":"5317","tribuneTheaterId":"10755","providerTheaterId":"","name":"Lake 8 Movies","address":"588 W. Tuscarawas Ave.","city":"Barberton","state":"OH","zip":"44203","distance":5.2492862328382,"lon":"-81.611","lat":"41.0129","theaterChainName":"Independent Chains","ticketType":"STANDARD"},{"id":"637","tribuneTheaterId":"9072","providerTheaterId":"","name":"Regal Interstate Park Stadium 18","address":"1089 Interstate Parkway","city":"Akron","state":"OH","zip":"44312","distance":6.0241312328682,"lon":"-81.483407","lat":"40.977437","theaterChainName":"Regal Cinemas","ticketType":"STANDARD"},{"id":"1368","tribuneTheaterId":"5244","providerTheaterId":"","name":"Cinemark Tinseltown USA and XD North Canton","address":"4720 Mega St. NW","city":"North Canton","state":"OH","zip":"44720","distance":9.1734823305974,"lon":"-81.436007","lat":"40.871371","theaterChainName":"Cinemark","ticketType":"STANDARD"},{"id":"5497","tribuneTheaterId":"10966","providerTheaterId":"","name":"The Nightlight Cinema","address":"30 N. High St.","city":"Akron","state":"OH","zip":"44308","distance":10.79594581858,"lon":"-81.515561","lat":"41.085731","theaterChainName":"Independent Chains","ticketType":"STANDARD"},{"id":"1392","tribuneTheaterId":"2490","providerTheaterId":"","name":"Linda Theatre","address":"1745 Goodyear Blvd","city":"Akron","state":"OH","zip":"44305","distance":11.311945928628,"lon":"-81.4634","lat":"41.0736","theaterChainName":"Independent Chains","ticketType":"STANDARD"},{"id":"1072","tribuneTheaterId":"2452","providerTheaterId":"","name":"Highland Theatre","address":"826 W. Market Street","city":"Akron","state":"OH","zip":"44303","distance":11.107652300837,"lon":"-81.544098","lat":"41.096555","theaterChainName":"Independent Chains","ticketType":"STANDARD"},{"id":"1071","tribuneTheaterId":"2679","providerTheaterId":"","name":"Great Oaks Cinema","address":"251 Great Oaks Trail","city":"Wadsworth","state":"OH","zip":"44281","distance":10.729977783407,"lon":"-81.73298","lat":"41.048615","theaterChainName":"Independent Chains","ticketType":"STANDARD"},{"id":"4022","tribuneTheaterId":"2321","providerTheaterId":"","name":"Great Escape Massillon Stadium 12","address":"175 Cherry Rd. N.W.","city":"Massillon","state":"OH","zip":"44646","distance":10.165366633965,"lon":"-81.527406","lat":"40.799071","theaterChainName":"Regal Cinemas","ticketType":"STANDARD"},{"id":"1347","tribuneTheaterId":"5240","providerTheaterId":"","name":"Cinemark Movies 10 North Canton","address":"6284 Dressler Rd. NW","city":"North Canton","state":"OH","zip":"44720","distance":9.7445789783687,"lon":"-81.424184","lat":"40.870329","theaterChainName":"Cinemark","ticketType":"STANDARD"},{"id":"636","tribuneTheaterId":"8508","providerTheaterId":"","name":"Regal Independence Stadium 10","address":"1210 Independence Ave.","city":"Akron","state":"OH","zip":"44310","distance":13.264719518345,"lon":"-81.471112","lat":"41.109981","theaterChainName":"Regal Cinemas","ticketType":"STANDARD"},{"id":"638","tribuneTheaterId":"8589","providerTheaterId":"","name":"Regal Montrose Stadium 12","address":"4020 Medina Road","city":"Akron","state":"OH","zip":"44333","distance":13.680995578599,"lon":"-81.642129","lat":"41.132708","theaterChainName":"Regal Cinemas","ticketType":"STANDARD"},{"id":"2787","tribuneTheaterId":"473","providerTheaterId":"","name":"Canton Palace Theatre","address":"605 Market Avenue North","city":"Canton","state":"OH","zip":"44702","distance":14.630830563344,"lon":"-81.37364","lat":"40.802042","theaterChainName":"Independent Chains","ticketType":"STANDARD"},{"id":"5573","tribuneTheaterId":"11020","providerTheaterId":"","name":"Cinemark Cuyahoga Falls and XD","address":"2925 State Road","city":"Cuyahoga Falls","state":"OH","zip":"44223","distance":15.234854875555,"lon":"-81.5086","lat":"41.1515","theaterChainName":"Cinemark","ticketType":"STANDARD"},{"id":"1393","tribuneTheaterId":"3145","providerTheaterId":"","name":"Kent Plaza Theatres 10","address":"140 Cherry St.","city":"Kent","state":"OH","zip":"44240","distance":18.267194456831,"lon":"-81.359907","lat":"41.140432","theaterChainName":"WPA\/Pittsburgh Theatres","ticketType":"STANDARD"},{"id":"639","tribuneTheaterId":"7267","providerTheaterId":"","name":"Regal Hudson Cinema 10","address":"5339 Darrow Road","city":"Hudson","state":"OH","zip":"44236","distance":20.294334681385,"lon":"-81.438491","lat":"41.21062","theaterChainName":"Regal Cinemas","ticketType":"STANDARD"},{"id":"1321","tribuneTheaterId":"5239","providerTheaterId":"","name":"Cinemark Movies 10 Wooster","address":"4108 Burbank Rd.","city":"Wooster","state":"OH","zip":"44691","distance":19.872910398405,"lon":"-81.948234","lat":"40.848522","theaterChainName":"Cinemark","ticketType":"STANDARD"},{"id":"1618","tribuneTheaterId":"8050","providerTheaterId":"","name":"Regal Medina Stadium 16  Huntington Street","address":"200 West Reagan Pkwy","city":"Medina","state":"OH","zip":"44256","distance":20.872090434866,"lon":"-81.86765","lat":"41.154712","theaterChainName":"Regal Cinemas","ticketType":"STANDARD"},{"id":"1353","tribuneTheaterId":"5236","providerTheaterId":"","name":"Carnation Cinema 5","address":"2500 W. State Street","city":"Alliance","state":"OH","zip":"44601","distance":22.704550543888,"lon":"-81.155582","lat":"40.898358","theaterChainName":"Cinemark","ticketType":"STANDARD"},{"id":"758","tribuneTheaterId":"5180","providerTheaterId":"","name":"Hickory Ridge Cinemas 8","address":"1055 Pearl Road","city":"Brunswick","state":"OH","zip":"44212","distance":24.94356897532,"lon":"-81.839701","lat":"41.245839","theaterChainName":"Independent Chains","ticketType":"STANDARD"}]