[{"id":"639","tribuneTheaterId":"7267","providerTheaterId":"","name":"Regal Hudson Cinema 10","address":"5339 Darrow Road","city":"Hudson","state":"OH","zip":"44236","distance":2.4324834669435,"lon":"-81.438491","lat":"41.21062","theaterChainName":"Regal Cinemas","ticketType":"STANDARD"},{"id":"4185","tribuneTheaterId":"5241","providerTheaterId":"","name":"Cinemark 10 Aurora","address":"140 Barrington Town Square Dr","city":"Aurora","state":"OH","zip":"44202","distance":6.8068250390042,"lon":"-81.348932","lat":"41.318981","theaterChainName":"Cinemark","ticketType":"STANDARD"},{"id":"2287","tribuneTheaterId":"5245","providerTheaterId":"","name":"Cinemark - Macedonia","address":"8161 Macedonia Commons Blvd","city":"Macedonia","state":"OH","zip":"44056","distance":6.1713797114564,"lon":"-81.5156","lat":"41.3126","theaterChainName":"Cinemark","ticketType":"STANDARD"},{"id":"1393","tribuneTheaterId":"3145","providerTheaterId":"","name":"Kent Plaza Theatres 10","address":"140 Cherry St.","city":"Kent","state":"OH","zip":"44240","distance":8.3031827529347,"lon":"-81.359907","lat":"41.140432","theaterChainName":"WPA\/Pittsburgh Theatres","ticketType":"STANDARD"},{"id":"5573","tribuneTheaterId":"11020","providerTheaterId":"","name":"Cinemark Cuyahoga Falls and XD","address":"2925 State Road","city":"Cuyahoga Falls","state":"OH","zip":"44223","distance":7.5115798243313,"lon":"-81.5086","lat":"41.1515","theaterChainName":"Cinemark","ticketType":"STANDARD"},{"id":"636","tribuneTheaterId":"8508","providerTheaterId":"","name":"Regal Independence Stadium 10","address":"1210 Independence Ave.","city":"Akron","state":"OH","zip":"44310","distance":9.5532962807534,"lon":"-81.471112","lat":"41.109981","theaterChainName":"Regal Cinemas","ticketType":"STANDARD"},{"id":"642","tribuneTheaterId":"6487","providerTheaterId":"","name":"Digiplex Solon Cinemas","address":"6185 Enterprise Parkway","city":"Solon","state":"OH","zip":"44139","distance":10.212174863973,"lon":"-81.463478","lat":"41.392228","theaterChainName":"Carmike Cinemas","ticketType":"STANDARD"},{"id":"1392","tribuneTheaterId":"2490","providerTheaterId":"","name":"Linda Theatre","address":"1745 Goodyear Blvd","city":"Akron","state":"OH","zip":"44305","distance":11.978659311173,"lon":"-81.4634","lat":"41.0736","theaterChainName":"Independent Chains","ticketType":"STANDARD"},{"id":"5497","tribuneTheaterId":"10966","providerTheaterId":"","name":"The Nightlight Cinema","address":"30 N. High St.","city":"Akron","state":"OH","zip":"44308","distance":11.795856584222,"lon":"-81.515561","lat":"41.085731","theaterChainName":"Independent Chains","ticketType":"STANDARD"},{"id":"1072","tribuneTheaterId":"2452","providerTheaterId":"","name":"Highland Theatre","address":"826 W. Market Street","city":"Akron","state":"OH","zip":"44303","distance":11.727500333964,"lon":"-81.544098","lat":"41.096555","theaterChainName":"Independent Chains","ticketType":"STANDARD"},{"id":"638","tribuneTheaterId":"8589","providerTheaterId":"","name":"Regal Montrose Stadium 12","address":"4020 Medina Road","city":"Akron","state":"OH","zip":"44333","distance":13.234357613442,"lon":"-81.642129","lat":"41.132708","theaterChainName":"Regal Cinemas","ticketType":"STANDARD"},{"id":"1384","tribuneTheaterId":"2335","providerTheaterId":"","name":"Chagrin Cinemas","address":"8200 East Washington St.","city":"Chagrin Falls","state":"OH","zip":"44023","distance":12.754011336103,"lon":"-81.348265","lat":"41.418033","theaterChainName":"Cleveland Cinemas","ticketType":"STANDARD"},{"id":"2535","tribuneTheaterId":"5246","providerTheaterId":"","name":"Cinemark At Valley View and XD","address":"6001 Canal Road","city":"Valley View","state":"OH","zip":"44125","distance":14.382410657529,"lon":"-81.623794","lat":"41.399383","theaterChainName":"Cinemark","ticketType":"STANDARD"},{"id":"1067","tribuneTheaterId":"1908","providerTheaterId":"","name":"Cedar Lee Theatres","address":"2163 Lee Road","city":"Cleveland Heights","state":"OH","zip":"44118","distance":18.843517640235,"lon":"-81.565258","lat":"41.500893","theaterChainName":"Cleveland Cinemas","ticketType":"STANDARD"},{"id":"4850","tribuneTheaterId":"10142","providerTheaterId":"","name":"Atlas Cinemas Eastgate 10","address":"1345 SOM Center Road","city":"Mayfield Heights","state":"OH","zip":"44124","distance":19.200833552518,"lon":"-81.436286","lat":"41.523697","theaterChainName":"Atlas Cinemas","ticketType":"STANDARD"},{"id":"839","tribuneTheaterId":"6191","providerTheaterId":"","name":"Shaker Square Cinemas","address":"13116 Shaker Square","city":"Cleveland","state":"OH","zip":"44120","distance":18.26479983644,"lon":"-81.591331","lat":"41.483313","theaterChainName":"Cleveland Cinemas","ticketType":"STANDARD"},{"id":"2786","tribuneTheaterId":"2848","providerTheaterId":"","name":"Garrettsville Cinema","address":"8001 State Street","city":"Garrettsville","state":"OH","zip":"44231","distance":17.696230806577,"lon":"-81.100503","lat":"41.28751","theaterChainName":"Independent Chains","ticketType":"STANDARD"},{"id":"5317","tribuneTheaterId":"10755","providerTheaterId":"","name":"Lake 8 Movies","address":"588 W. Tuscarawas Ave.","city":"Barberton","state":"OH","zip":"44203","distance":18.472441041588,"lon":"-81.611","lat":"41.0129","theaterChainName":"Independent Chains","ticketType":"STANDARD"},{"id":"637","tribuneTheaterId":"9072","providerTheaterId":"","name":"Regal Interstate Park Stadium 18","address":"1089 Interstate Parkway","city":"Akron","state":"OH","zip":"44312","distance":18.700822053462,"lon":"-81.483407","lat":"40.977437","theaterChainName":"Regal Cinemas","ticketType":"STANDARD"},{"id":"2952","tribuneTheaterId":"8410","providerTheaterId":"","name":"Regal Severance Town Center Stadium 14","address":"3492 Mayfield Road","city":"Cleveland Heights","state":"OH","zip":"44118","distance":19.739850458694,"lon":"-81.550076","lat":"41.51854","theaterChainName":"Regal Cinemas","ticketType":"STANDARD"},{"id":"1071","tribuneTheaterId":"2679","providerTheaterId":"","name":"Great Oaks Cinema","address":"251 Great Oaks Trail","city":"Wadsworth","state":"OH","zip":"44281","distance":20.57283114816,"lon":"-81.73298","lat":"41.048615","theaterChainName":"Independent Chains","ticketType":"STANDARD"},{"id":"4329","tribuneTheaterId":"9304","providerTheaterId":"","name":"Cinemark Strongsville","address":"17450 Southpark Center","city":"Strongsville","state":"OH","zip":"44136","distance":20.486025404874,"lon":"-81.822031","lat":"41.309455","theaterChainName":"Cinemark","ticketType":"STANDARD"},{"id":"758","tribuneTheaterId":"5180","providerTheaterId":"","name":"Hickory Ridge Cinemas 8","address":"1055 Pearl Road","city":"Brunswick","state":"OH","zip":"44212","distance":20.936052327719,"lon":"-81.839701","lat":"41.245839","theaterChainName":"Independent Chains","ticketType":"STANDARD"},{"id":"2785","tribuneTheaterId":"472","providerTheaterId":"","name":"Cleveland Cinematheque","address":"11610 Euclid Avenue","city":"Cleveland","state":"OH","zip":"44106","distance":20.222122123846,"lon":"-81.602635","lat":"41.510673","theaterChainName":"Independent Chains","ticketType":"STANDARD"},{"id":"4422","tribuneTheaterId":"9491","providerTheaterId":"","name":"Regal Richmond Town Center Stadium","address":"631 Richmond Road","city":"Richmond Heights","state":"OH","zip":"44143","distance":20.647801493207,"lon":"-81.492548","lat":"41.541688","theaterChainName":"Regal Cinemas","ticketType":"STANDARD"},{"id":"757","tribuneTheaterId":"7068","providerTheaterId":"835","name":"AMC Ridge Park Square 8","address":"4788 Ridge Road","city":"Brooklyn","state":"OH","zip":"44144","distance":19.97717742172,"lon":"-81.73749","lat":"41.42633","theaterChainName":"AMC Theatres","ticketType":"STANDARD"},{"id":"1618","tribuneTheaterId":"8050","providerTheaterId":"","name":"Regal Medina Stadium 16  Huntington Street","address":"200 West Reagan Pkwy","city":"Medina","state":"OH","zip":"44256","distance":23.27081044459,"lon":"-81.86765","lat":"41.154712","theaterChainName":"Regal Cinemas","ticketType":"STANDARD"},{"id":"4829","tribuneTheaterId":"10103","providerTheaterId":"","name":"Capitol Theatre - Cleveland","address":"1390 West 65th St.","city":"Cleveland","state":"OH","zip":"44102","distance":22.430249981118,"lon":"-81.730301","lat":"41.4842","theaterChainName":"Cleveland Cinemas","ticketType":"STANDARD"},{"id":"1075","tribuneTheaterId":"2279","providerTheaterId":"","name":"Tower City 11","address":"230 Huron Road","city":"Cleveland","state":"OH","zip":"44113","distance":21.873660194993,"lon":"-81.693631","lat":"41.496893","theaterChainName":"Cleveland Cinemas","ticketType":"STANDARD"},{"id":"641","tribuneTheaterId":"7416","providerTheaterId":"","name":"Regal Middlesburg Town Square Stadium 16","address":"18348 Bagley Road","city":"Middleburg Heights","state":"OH","zip":"44130","distance":22.282179723682,"lon":"-81.830528","lat":"41.374218","theaterChainName":"Regal Cinemas","ticketType":"STANDARD"}]