[{"id":"1618","tribuneTheaterId":"8050","providerTheaterId":"","name":"Regal Medina Stadium 16  Huntington Street","address":"200 West Reagan Pkwy","city":"Medina","state":"OH","zip":"44256","distance":16.056769666282,"lon":"-81.86765","lat":"41.154712","theaterChainName":"Regal Cinemas","ticketType":"STANDARD"},{"id":"1321","tribuneTheaterId":"5239","providerTheaterId":"","name":"Cinemark Movies 10 Wooster","address":"4108 Burbank Rd.","city":"Wooster","state":"OH","zip":"44691","distance":15.384467568152,"lon":"-81.948234","lat":"40.848522","theaterChainName":"Cinemark","ticketType":"STANDARD"},{"id":"2026","tribuneTheaterId":"305","providerTheaterId":"","name":"Apollo","address":"19 East College Street","city":"Oberlin","state":"OH","zip":"44074","distance":18.911601352248,"lon":"-82.216715","lat":"41.291558","theaterChainName":"Cleveland Cinemas","ticketType":"STANDARD"},{"id":"1071","tribuneTheaterId":"2679","providerTheaterId":"","name":"Great Oaks Cinema","address":"251 Great Oaks Trail","city":"Wadsworth","state":"OH","zip":"44281","distance":20.486363968727,"lon":"-81.73298","lat":"41.048615","theaterChainName":"Independent Chains","ticketType":"STANDARD"},{"id":"758","tribuneTheaterId":"5180","providerTheaterId":"","name":"Hickory Ridge Cinemas 8","address":"1055 Pearl Road","city":"Brunswick","state":"OH","zip":"44212","distance":21.205195181517,"lon":"-81.839701","lat":"41.245839","theaterChainName":"Independent Chains","ticketType":"STANDARD"}]