[{"id":"2786","tribuneTheaterId":"2848","providerTheaterId":"","name":"Garrettsville Cinema","address":"8001 State Street","city":"Garrettsville","state":"OH","zip":"44231","distance":3.9052731642531,"lon":"-81.100503","lat":"41.28751","theaterChainName":"Independent Chains","ticketType":"STANDARD"},{"id":"4185","tribuneTheaterId":"5241","providerTheaterId":"","name":"Cinemark 10 Aurora","address":"140 Barrington Town Square Dr","city":"Aurora","state":"OH","zip":"44202","distance":10.54897317699,"lon":"-81.348932","lat":"41.318981","theaterChainName":"Cinemark","ticketType":"STANDARD"},{"id":"1384","tribuneTheaterId":"2335","providerTheaterId":"","name":"Chagrin Cinemas","address":"8200 East Washington St.","city":"Chagrin Falls","state":"OH","zip":"44023","distance":12.026207958794,"lon":"-81.348265","lat":"41.418033","theaterChainName":"Cleveland Cinemas","ticketType":"STANDARD"},{"id":"642","tribuneTheaterId":"6487","providerTheaterId":"","name":"Digiplex Solon Cinemas","address":"6185 Enterprise Parkway","city":"Solon","state":"OH","zip":"44139","distance":16.956263394526,"lon":"-81.463478","lat":"41.392228","theaterChainName":"Carmike Cinemas","ticketType":"STANDARD"},{"id":"639","tribuneTheaterId":"7267","providerTheaterId":"","name":"Regal Hudson Cinema 10","address":"5339 Darrow Road","city":"Hudson","state":"OH","zip":"44236","distance":17.342401258854,"lon":"-81.438491","lat":"41.21062","theaterChainName":"Regal Cinemas","ticketType":"STANDARD"},{"id":"1393","tribuneTheaterId":"3145","providerTheaterId":"","name":"Kent Plaza Theatres 10","address":"140 Cherry St.","city":"Kent","state":"OH","zip":"44240","distance":17.285985087395,"lon":"-81.359907","lat":"41.140432","theaterChainName":"WPA\/Pittsburgh Theatres","ticketType":"STANDARD"},{"id":"2287","tribuneTheaterId":"5245","providerTheaterId":"","name":"Cinemark - Macedonia","address":"8161 Macedonia Commons Blvd","city":"Macedonia","state":"OH","zip":"44056","distance":19.205862850282,"lon":"-81.5156","lat":"41.3126","theaterChainName":"Cinemark","ticketType":"STANDARD"},{"id":"4850","tribuneTheaterId":"10142","providerTheaterId":"","name":"Atlas Cinemas Eastgate 10","address":"1345 SOM Center Road","city":"Mayfield Heights","state":"OH","zip":"44124","distance":20.010229730587,"lon":"-81.436286","lat":"41.523697","theaterChainName":"Atlas Cinemas","ticketType":"STANDARD"},{"id":"5573","tribuneTheaterId":"11020","providerTheaterId":"","name":"Cinemark Cuyahoga Falls and XD","address":"2925 State Road","city":"Cuyahoga Falls","state":"OH","zip":"44223","distance":22.586528432672,"lon":"-81.5086","lat":"41.1515","theaterChainName":"Cinemark","ticketType":"STANDARD"},{"id":"636","tribuneTheaterId":"8508","providerTheaterId":"","name":"Regal Independence Stadium 10","address":"1210 Independence Ave.","city":"Akron","state":"OH","zip":"44310","distance":22.819439143302,"lon":"-81.471112","lat":"41.109981","theaterChainName":"Regal Cinemas","ticketType":"STANDARD"},{"id":"4422","tribuneTheaterId":"9491","providerTheaterId":"","name":"Regal Richmond Town Center Stadium","address":"631 Richmond Road","city":"Richmond Heights","state":"OH","zip":"44143","distance":23.038661211437,"lon":"-81.492548","lat":"41.541688","theaterChainName":"Regal Cinemas","ticketType":"STANDARD"},{"id":"644","tribuneTheaterId":"7895","providerTheaterId":"","name":"Regal Boulevard Center Stadium 14","address":"24 Boulevard Centre","city":"Niles","state":"OH","zip":"44446","distance":22.130162325503,"lon":"-80.748315","lat":"41.217936","theaterChainName":"Regal Cinemas","ticketType":"STANDARD"},{"id":"645","tribuneTheaterId":"1902","providerTheaterId":"","name":"Encore Cinema","address":"930 Great East Plaza","city":"Niles","state":"OH","zip":"44446","distance":22.309990408662,"lon":"-80.746844","lat":"41.213622","theaterChainName":"Independent Chains","ticketType":"STANDARD"},{"id":"1392","tribuneTheaterId":"2490","providerTheaterId":"","name":"Linda Theatre","address":"1745 Goodyear Blvd","city":"Akron","state":"OH","zip":"44305","distance":24.311599182045,"lon":"-81.4634","lat":"41.0736","theaterChainName":"Independent Chains","ticketType":"STANDARD"},{"id":"695","tribuneTheaterId":"7740","providerTheaterId":"","name":"Regal Austintown Plaza 10","address":"6020 Mahoning Ave.","city":"Youngstown","state":"OH","zip":"44515","distance":24.983021703347,"lon":"-80.776613","lat":"41.101282","theaterChainName":"Regal Cinemas","ticketType":"STANDARD"},{"id":"2952","tribuneTheaterId":"8410","providerTheaterId":"","name":"Regal Severance Town Center Stadium 14","address":"3492 Mayfield Road","city":"Cleveland Heights","state":"OH","zip":"44118","distance":24.555075847422,"lon":"-81.550076","lat":"41.51854","theaterChainName":"Regal Cinemas","ticketType":"STANDARD"},{"id":"1067","tribuneTheaterId":"1908","providerTheaterId":"","name":"Cedar Lee Theatres","address":"2163 Lee Road","city":"Cleveland Heights","state":"OH","zip":"44118","distance":24.631362201749,"lon":"-81.565258","lat":"41.500893","theaterChainName":"Cleveland Cinemas","ticketType":"STANDARD"}]