[{"id":"1618","tribuneTheaterId":"8050","providerTheaterId":"","name":"Regal Medina Stadium 16  Huntington Street","address":"200 West Reagan Pkwy","city":"Medina","state":"OH","zip":"44256","distance":11.388548973929,"lon":"-81.86765","lat":"41.154712","theaterChainName":"Regal Cinemas","ticketType":"STANDARD"},{"id":"1321","tribuneTheaterId":"5239","providerTheaterId":"","name":"Cinemark Movies 10 Wooster","address":"4108 Burbank Rd.","city":"Wooster","state":"OH","zip":"44691","distance":13.189826714174,"lon":"-81.948234","lat":"40.848522","theaterChainName":"Cinemark","ticketType":"STANDARD"},{"id":"1071","tribuneTheaterId":"2679","providerTheaterId":"","name":"Great Oaks Cinema","address":"251 Great Oaks Trail","city":"Wadsworth","state":"OH","zip":"44281","distance":14.722446477932,"lon":"-81.73298","lat":"41.048615","theaterChainName":"Independent Chains","ticketType":"STANDARD"},{"id":"758","tribuneTheaterId":"5180","providerTheaterId":"","name":"Hickory Ridge Cinemas 8","address":"1055 Pearl Road","city":"Brunswick","state":"OH","zip":"44212","distance":17.314430165879,"lon":"-81.839701","lat":"41.245839","theaterChainName":"Independent Chains","ticketType":"STANDARD"},{"id":"5317","tribuneTheaterId":"10755","providerTheaterId":"","name":"Lake 8 Movies","address":"588 W. Tuscarawas Ave.","city":"Barberton","state":"OH","zip":"44203","distance":21.088207358205,"lon":"-81.611","lat":"41.0129","theaterChainName":"Independent Chains","ticketType":"STANDARD"},{"id":"638","tribuneTheaterId":"8589","providerTheaterId":"","name":"Regal Montrose Stadium 12","address":"4020 Medina Road","city":"Akron","state":"OH","zip":"44333","distance":20.59708141094,"lon":"-81.642129","lat":"41.132708","theaterChainName":"Regal Cinemas","ticketType":"STANDARD"},{"id":"4329","tribuneTheaterId":"9304","providerTheaterId":"","name":"Cinemark Strongsville","address":"17450 Southpark Center","city":"Strongsville","state":"OH","zip":"44136","distance":21.588445270007,"lon":"-81.822031","lat":"41.309455","theaterChainName":"Cinemark","ticketType":"STANDARD"},{"id":"2026","tribuneTheaterId":"305","providerTheaterId":"","name":"Apollo","address":"19 East College Street","city":"Oberlin","state":"OH","zip":"44074","distance":20.743851463758,"lon":"-82.216715","lat":"41.291558","theaterChainName":"Cleveland Cinemas","ticketType":"STANDARD"},{"id":"1072","tribuneTheaterId":"2452","providerTheaterId":"","name":"Highland Theatre","address":"826 W. Market Street","city":"Akron","state":"OH","zip":"44303","distance":24.90944295928,"lon":"-81.544098","lat":"41.096555","theaterChainName":"Independent Chains","ticketType":"STANDARD"}]