[{"id":"4022","name":"Great Escape Massillon Stadium 12","address":"175 Cherry Rd. N.W.","city":"Massillon","state":"OH","zip":"44646","distance":"16.269697189331055","lon":"-81.527405","lat":"40.799072","theaterChainName":"Regal Cinemas","ticketType":"STANDARD"},{"id":"1353","name":"Carnation Cinema 5","address":"2500 W. State Street","city":"Alliance","state":"OH","zip":"44601","distance":"16.587568283081055","lon":"-81.155579","lat":"40.898357","theaterChainName":"Cinemark","ticketType":"STANDARD"},{"id":"2787","name":"Canton Palace Theatre","address":"605 Market Avenue North","city":"Canton","state":"OH","zip":"44702","distance":"15.474231719970703","lon":"-81.373642","lat":"40.802040","theaterChainName":"Independent Chains","ticketType":"STANDARD"},{"id":"1618","name":"Regal Medina Stadium 16  Huntington Street","address":"200 West Reagan Pkwy","city":"Medina","state":"OH","zip":"44256","distance":"24.664073944091797","lon":"-81.867653","lat":"41.154713","theaterChainName":"Regal Cinemas","ticketType":"STANDARD"},{"id":"1071","name":"Great Oaks Cinema","address":"251 Great Oaks Trail","city":"Wadsworth","state":"OH","zip":"44281","distance":"16.005159378051758","lon":"-81.732979","lat":"41.048615","theaterChainName":"Independent Chains","ticketType":"STANDARD"},{"id":"638","name":"Regal Montrose Stadium 12","address":"4020 Medina Road","city":"Akron","state":"OH","zip":"44333","distance":"13.520964622497559","lon":"-81.642128","lat":"41.132710","theaterChainName":"Regal Cinemas","ticketType":"STANDARD"},{"id":"2287","name":"Cinemark - Macedonia","address":"8161 Macedonia Commons Blvd","city":"Macedonia","state":"OH","zip":"44056","distance":"20.577783584594727","lon":"-81.515602","lat":"41.312599","theaterChainName":"Cinemark","ticketType":"STANDARD"},{"id":"5317","name":"Lake 8 Movies","address":"588 W. Tuscarawas Ave.","city":"Barberton","state":"OH","zip":"44203","distance":"9.56735897064209","lon":"-81.611000","lat":"41.012901","theaterChainName":"Independent Chains","ticketType":"STANDARD"},{"id":"1072","name":"Highland Theatre","address":"826 W. Market Street","city":"Akron","state":"OH","zip":"44303","distance":"7.940101146697998","lon":"-81.544098","lat":"41.096554","theaterChainName":"Independent Chains","ticketType":"STANDARD"},{"id":"5573","name":"Cinemark Cuyahoga Falls and XD","address":"2925 State Road","city":"Cuyahoga Falls","state":"OH","zip":"44223","distance":"9.873355865478516","lon":"-81.508598","lat":"41.151501","theaterChainName":"Cinemark","ticketType":"STANDARD"},{"id":"5497","name":"The Nightlight Cinema","address":"30 N. High St.","city":"Akron","state":"OH","zip":"44308","distance":"6.335129737854004","lon":"-81.515564","lat":"41.085732","theaterChainName":"Independent Chains","ticketType":"STANDARD"},{"id":"636","name":"Regal Independence Stadium 10","address":"1210 Independence Ave.","city":"Akron","state":"OH","zip":"44310","distance":"6.469694137573242","lon":"-81.471115","lat":"41.109982","theaterChainName":"Regal Cinemas","ticketType":"STANDARD"},{"id":"639","name":"Regal Hudson Cinema 10","address":"5339 Darrow Road","city":"Hudson","state":"OH","zip":"44236","distance":"13.030986785888672","lon":"-81.438492","lat":"41.210621","theaterChainName":"Regal Cinemas","ticketType":"STANDARD"},{"id":"1392","name":"Linda Theatre","address":"1745 Goodyear Blvd","city":"Akron","state":"OH","zip":"44305","distance":"4.004466533660889","lon":"-81.463402","lat":"41.073601","theaterChainName":"Independent Chains","ticketType":"STANDARD"},{"id":"637","name":"Regal Interstate Park Stadium 18","address":"1089 Interstate Parkway","city":"Akron","state":"OH","zip":"44312","distance":"4.236233711242676","lon":"-81.483406","lat":"40.977436","theaterChainName":"Regal Cinemas","ticketType":"STANDARD"},{"id":"4185","name":"Cinemark 10 Aurora","address":"140 Barrington Town Square Dr","city":"Aurora","state":"OH","zip":"44202","distance":"20.914093017578125","lon":"-81.348930","lat":"41.318981","theaterChainName":"Cinemark","ticketType":"STANDARD"},{"id":"1393","name":"Kent Plaza Theatres 10","address":"140 Cherry St.","city":"Kent","state":"OH","zip":"44240","distance":"8.903891563415527","lon":"-81.359909","lat":"41.140430","theaterChainName":"WPA\/Pittsburgh Theatres","ticketType":"STANDARD"},{"id":"1368","name":"Cinemark Tinseltown USA and XD North Canton","address":"4720 Mega St. NW","city":"North Canton","state":"OH","zip":"44720","distance":"10.430517196655273","lon":"-81.436005","lat":"40.871372","theaterChainName":"Cinemark","ticketType":"STANDARD"},{"id":"1347","name":"Cinemark Movies 10 North Canton","address":"6284 Dressler Rd. NW","city":"North Canton","state":"OH","zip":"44720","distance":"10.495692253112793","lon":"-81.424187","lat":"40.870331","theaterChainName":"Cinemark","ticketType":"STANDARD"}]