[{"id":"4022","name":"Great Escape Massillon Stadium 12","address":"175 Cherry Rd. N.W.","city":"Massillon","state":"OH","zip":"44646","distance":"17.737564086914062","lon":"-81.527405","lat":"40.799072","theaterChainName":"Regal Cinemas","ticketType":"STANDARD"},{"id":"2787","name":"Canton Palace Theatre","address":"605 Market Avenue North","city":"Canton","state":"OH","zip":"44702","distance":"24.259870529174805","lon":"-81.373642","lat":"40.802040","theaterChainName":"Independent Chains","ticketType":"STANDARD"},{"id":"4329","name":"Cinemark Strongsville","address":"17450 Southpark Center","city":"Strongsville","state":"OH","zip":"44136","distance":"23.65535545349121","lon":"-81.822029","lat":"41.309456","theaterChainName":"Cinemark","ticketType":"STANDARD"},{"id":"758","name":"Hickory Ridge Cinemas 8","address":"1055 Pearl Road","city":"Brunswick","state":"OH","zip":"44212","distance":"19.39949607849121","lon":"-81.839699","lat":"41.245838","theaterChainName":"Independent Chains","ticketType":"STANDARD"},{"id":"1618","name":"Regal Medina Stadium 16  Huntington Street","address":"200 West Reagan Pkwy","city":"Medina","state":"OH","zip":"44256","distance":"13.615100860595703","lon":"-81.867653","lat":"41.154713","theaterChainName":"Regal Cinemas","ticketType":"STANDARD"},{"id":"1071","name":"Great Oaks Cinema","address":"251 Great Oaks Trail","city":"Wadsworth","state":"OH","zip":"44281","distance":"6.116853713989258","lon":"-81.732979","lat":"41.048615","theaterChainName":"Independent Chains","ticketType":"STANDARD"},{"id":"638","name":"Regal Montrose Stadium 12","address":"4020 Medina Road","city":"Akron","state":"OH","zip":"44333","distance":"13.508537292480469","lon":"-81.642128","lat":"41.132710","theaterChainName":"Regal Cinemas","ticketType":"STANDARD"},{"id":"5317","name":"Lake 8 Movies","address":"588 W. Tuscarawas Ave.","city":"Barberton","state":"OH","zip":"44203","distance":"9.463501930236816","lon":"-81.611000","lat":"41.012901","theaterChainName":"Independent Chains","ticketType":"STANDARD"},{"id":"1072","name":"Highland Theatre","address":"826 W. Market Street","city":"Akron","state":"OH","zip":"44303","distance":"15.262855529785156","lon":"-81.544098","lat":"41.096554","theaterChainName":"Independent Chains","ticketType":"STANDARD"},{"id":"5573","name":"Cinemark Cuyahoga Falls and XD","address":"2925 State Road","city":"Cuyahoga Falls","state":"OH","zip":"44223","distance":"19.07533836364746","lon":"-81.508598","lat":"41.151501","theaterChainName":"Cinemark","ticketType":"STANDARD"},{"id":"1321","name":"Cinemark Movies 10 Wooster","address":"4108 Burbank Rd.","city":"Wooster","state":"OH","zip":"44691","distance":"11.976079940795898","lon":"-81.948235","lat":"40.848522","theaterChainName":"Cinemark","ticketType":"STANDARD"},{"id":"5497","name":"The Nightlight Cinema","address":"30 N. High St.","city":"Akron","state":"OH","zip":"44308","distance":"16.10875129699707","lon":"-81.515564","lat":"41.085732","theaterChainName":"Independent Chains","ticketType":"STANDARD"},{"id":"636","name":"Regal Independence Stadium 10","address":"1210 Independence Ave.","city":"Akron","state":"OH","zip":"44310","distance":"18.953754425048828","lon":"-81.471115","lat":"41.109982","theaterChainName":"Regal Cinemas","ticketType":"STANDARD"},{"id":"639","name":"Regal Hudson Cinema 10","address":"5339 Darrow Road","city":"Hudson","state":"OH","zip":"44236","distance":"24.520679473876953","lon":"-81.438492","lat":"41.210621","theaterChainName":"Regal Cinemas","ticketType":"STANDARD"},{"id":"1392","name":"Linda Theatre","address":"1745 Goodyear Blvd","city":"Akron","state":"OH","zip":"44305","distance":"18.158891677856445","lon":"-81.463402","lat":"41.073601","theaterChainName":"Independent Chains","ticketType":"STANDARD"},{"id":"637","name":"Regal Interstate Park Stadium 18","address":"1089 Interstate Parkway","city":"Akron","state":"OH","zip":"44312","distance":"15.621455192565918","lon":"-81.483406","lat":"40.977436","theaterChainName":"Regal Cinemas","ticketType":"STANDARD"},{"id":"1368","name":"Cinemark Tinseltown USA and XD North Canton","address":"4720 Mega St. NW","city":"North Canton","state":"OH","zip":"44720","distance":"19.29840087890625","lon":"-81.436005","lat":"40.871372","theaterChainName":"Cinemark","ticketType":"STANDARD"},{"id":"1347","name":"Cinemark Movies 10 North Canton","address":"6284 Dressler Rd. NW","city":"North Canton","state":"OH","zip":"44720","distance":"19.902685165405273","lon":"-81.424187","lat":"40.870331","theaterChainName":"Cinemark","ticketType":"STANDARD"}]