[{"id":"1728","name":"Westgate Cinema","address":"2000 West State Street","city":"New Castle","state":"PA","zip":"16101","distance":"14.870967864990234","lon":"-80.378799","lat":"41.006901","theaterChainName":"Golden Star Theaters","ticketType":"STANDARD"},{"id":"646","name":"Regal Cinema South Cinema 10","address":"7420 South Ave","city":"Youngstown","state":"OH","zip":"44512","distance":"10.229884147644043","lon":"-80.634872","lat":"41.021107","theaterChainName":"Regal Cinemas","ticketType":"STANDARD"},{"id":"1369","name":"Cinemark Tinseltown Boardman ","address":"7401 Market St. #575","city":"Boardman","state":"OH","zip":"44512","distance":"10.680060386657715","lon":"-80.659531","lat":"41.021168","theaterChainName":"Cinemark","ticketType":"STANDARD"},{"id":"5589","name":"Salem Twin Cinema","address":"2350 E State Street","city":"Salem","state":"OH","zip":"44460","distance":"22.193157196044922","lon":"-80.827576","lat":"40.903160","theaterChainName":"Independent Chains","ticketType":"STANDARD"},{"id":"2649","name":"Salem Twin Cinema","address":"2350 East State Street","city":"Salem","state":"OH","zip":"44460","distance":"22.203134536743164","lon":"-80.827713","lat":"40.903057","theaterChainName":"Independent Chains","ticketType":"STANDARD"},{"id":"4495","name":"Shenango Valley Cinemas","address":"2996 East State Street","city":"Hermitage","state":"PA","zip":"16148","distance":"7.8695831298828125","lon":"-80.454750","lat":"41.230366","theaterChainName":"WPA\/Pittsburgh Theatres","ticketType":"STANDARD"},{"id":"4587","name":"Hermitage Cinema 8","address":"2461 E. State St.","city":"Hermitage","state":"PA","zip":"16148","distance":"7.689228057861328","lon":"-80.464706","lat":"41.235512","theaterChainName":"WPA\/Pittsburgh Theatres","ticketType":"STANDARD"},{"id":"695","name":"Regal Austintown Plaza 10","address":"6020 Mahoning Ave.","city":"Youngstown","state":"OH","zip":"44515","distance":"11.252664566040039","lon":"-80.776611","lat":"41.101280","theaterChainName":"Regal Cinemas","ticketType":"STANDARD"},{"id":"645","name":"Encore Cinema","address":"930 Great East Plaza","city":"Niles","state":"OH","zip":"44446","distance":"9.5530366897583","lon":"-80.746841","lat":"41.213623","theaterChainName":"Independent Chains","ticketType":"STANDARD"},{"id":"644","name":"Regal Boulevard Center Stadium 14","address":"24 Boulevard Centre","city":"Niles","state":"OH","zip":"44446","distance":"9.737508773803711","lon":"-80.748314","lat":"41.217937","theaterChainName":"Regal Cinemas","ticketType":"STANDARD"}]