[{"id":"2649","tribuneTheaterId":"2750","providerTheaterId":"","name":"Salem Twin Cinema","address":"2350 East State Street","city":"Salem","state":"OH","zip":"44460","distance":10.574008149923,"lon":"-80.827711","lat":"40.903056","theaterChainName":"Independent Chains","ticketType":"STANDARD"},{"id":"5589","tribuneTheaterId":"11042","providerTheaterId":"","name":"Salem Twin Cinema","address":"2350 E State Street","city":"Salem","state":"OH","zip":"44460","distance":10.57847590781,"lon":"-80.827579","lat":"40.903161","theaterChainName":"Independent Chains","ticketType":"STANDARD"},{"id":"1369","tribuneTheaterId":"7644","providerTheaterId":"","name":"Cinemark Tinseltown Boardman ","address":"7401 Market St. #575","city":"Boardman","state":"OH","zip":"44512","distance":18.826905117672,"lon":"-80.659529","lat":"41.021169","theaterChainName":"Cinemark","ticketType":"STANDARD"},{"id":"646","tribuneTheaterId":"7567","providerTheaterId":"","name":"Regal Cinema South Cinema 10","address":"7420 South Ave","city":"Youngstown","state":"OH","zip":"44512","distance":19.217055958994,"lon":"-80.634869","lat":"41.021105","theaterChainName":"Regal Cinemas","ticketType":"STANDARD"},{"id":"1353","tribuneTheaterId":"5236","providerTheaterId":"","name":"Carnation Cinema 5","address":"2500 W. State Street","city":"Alliance","state":"OH","zip":"44601","distance":22.868651050815,"lon":"-81.155582","lat":"40.898358","theaterChainName":"Cinemark","ticketType":"STANDARD"},{"id":"1589","tribuneTheaterId":"5735","providerTheaterId":"","name":"Carmike Plaza 6 Beaver Falls","address":"6800 Big Beaver Blvd.","city":"Beaver Falls","state":"PA","zip":"15010","distance":22.356829797229,"lon":"-80.333533","lat":"40.791396","theaterChainName":"Carmike Cinemas","ticketType":"STANDARD"},{"id":"3879","tribuneTheaterId":"4203","providerTheaterId":"","name":"Cinemark Center Township Marketplace","address":"99 Wagner Road","city":"Monaca","state":"PA","zip":"15061","distance":24.209733607315,"lon":"-80.307827","lat":"40.681714","theaterChainName":"Cinemark","ticketType":"STANDARD"},{"id":"695","tribuneTheaterId":"7740","providerTheaterId":"","name":"Regal Austintown Plaza 10","address":"6020 Mahoning Ave.","city":"Youngstown","state":"OH","zip":"44515","distance":23.654064316267,"lon":"-80.776613","lat":"41.101282","theaterChainName":"Regal Cinemas","ticketType":"STANDARD"}]