[{"id":"1369","tribuneTheaterId":"7644","providerTheaterId":"","name":"Cinemark Tinseltown Boardman ","address":"7401 Market St. #575","city":"Boardman","state":"OH","zip":"44512","distance":5.4591072450426,"lon":"-80.659529","lat":"41.021169","theaterChainName":"Cinemark","ticketType":"STANDARD"},{"id":"646","tribuneTheaterId":"7567","providerTheaterId":"","name":"Regal Cinema South Cinema 10","address":"7420 South Ave","city":"Youngstown","state":"OH","zip":"44512","distance":5.1957974467778,"lon":"-80.634869","lat":"41.021105","theaterChainName":"Regal Cinemas","ticketType":"STANDARD"},{"id":"695","tribuneTheaterId":"7740","providerTheaterId":"","name":"Regal Austintown Plaza 10","address":"6020 Mahoning Ave.","city":"Youngstown","state":"OH","zip":"44515","distance":7.8556939215773,"lon":"-80.776613","lat":"41.101282","theaterChainName":"Regal Cinemas","ticketType":"STANDARD"},{"id":"644","tribuneTheaterId":"7895","providerTheaterId":"","name":"Regal Boulevard Center Stadium 14","address":"24 Boulevard Centre","city":"Niles","state":"OH","zip":"44446","distance":10.560930349082,"lon":"-80.748315","lat":"41.217936","theaterChainName":"Regal Cinemas","ticketType":"STANDARD"},{"id":"645","tribuneTheaterId":"1902","providerTheaterId":"","name":"Encore Cinema","address":"930 Great East Plaza","city":"Niles","state":"OH","zip":"44446","distance":10.277816450658,"lon":"-80.746844","lat":"41.213622","theaterChainName":"Independent Chains","ticketType":"STANDARD"},{"id":"4587","tribuneTheaterId":"9739","providerTheaterId":"","name":"Hermitage Cinema 8","address":"2461 E. State St.","city":"Hermitage","state":"PA","zip":"16148","distance":12.775596897731,"lon":"-80.464704","lat":"41.235512","theaterChainName":"WPA\/Pittsburgh Theatres","ticketType":"STANDARD"},{"id":"4495","tribuneTheaterId":"9596","providerTheaterId":"","name":"Shenango Valley Cinemas","address":"2996 East State Street","city":"Hermitage","state":"PA","zip":"16148","distance":12.862526302313,"lon":"-80.454748","lat":"41.230365","theaterChainName":"WPA\/Pittsburgh Theatres","ticketType":"STANDARD"},{"id":"1728","tribuneTheaterId":"6417","providerTheaterId":"","name":"Westgate Cinema","address":"2000 West State Street","city":"New Castle","state":"PA","zip":"16101","distance":14.271156209862,"lon":"-80.3788","lat":"41.0069","theaterChainName":"Golden Star Theaters","ticketType":"STANDARD"},{"id":"2649","tribuneTheaterId":"2750","providerTheaterId":"","name":"Salem Twin Cinema","address":"2350 East State Street","city":"Salem","state":"OH","zip":"44460","distance":16.984249176199,"lon":"-80.827711","lat":"40.903056","theaterChainName":"Independent Chains","ticketType":"STANDARD"},{"id":"5589","tribuneTheaterId":"11042","providerTheaterId":"","name":"Salem Twin Cinema","address":"2350 E State Street","city":"Salem","state":"OH","zip":"44460","distance":16.974284748703,"lon":"-80.827579","lat":"40.903161","theaterChainName":"Independent Chains","ticketType":"STANDARD"}]