[{"id":"1321","tribuneTheaterId":"5239","providerTheaterId":"","name":"Cinemark Movies 10 Wooster","address":"4108 Burbank Rd.","city":"Wooster","state":"OH","zip":"44691","distance":9.7194115797511,"lon":"-81.948234","lat":"40.848522","theaterChainName":"Cinemark","ticketType":"STANDARD"},{"id":"4022","tribuneTheaterId":"2321","providerTheaterId":"","name":"Great Escape Massillon Stadium 12","address":"175 Cherry Rd. N.W.","city":"Massillon","state":"OH","zip":"44646","distance":15.058717100974,"lon":"-81.527406","lat":"40.799071","theaterChainName":"Regal Cinemas","ticketType":"STANDARD"},{"id":"1368","tribuneTheaterId":"5244","providerTheaterId":"","name":"Cinemark Tinseltown USA and XD North Canton","address":"4720 Mega St. NW","city":"North Canton","state":"OH","zip":"44720","distance":21.108980658357,"lon":"-81.436007","lat":"40.871371","theaterChainName":"Cinemark","ticketType":"STANDARD"},{"id":"1071","tribuneTheaterId":"2679","providerTheaterId":"","name":"Great Oaks Cinema","address":"251 Great Oaks Trail","city":"Wadsworth","state":"OH","zip":"44281","distance":20.66786200273,"lon":"-81.73298","lat":"41.048615","theaterChainName":"Independent Chains","ticketType":"STANDARD"},{"id":"5317","tribuneTheaterId":"10755","providerTheaterId":"","name":"Lake 8 Movies","address":"588 W. Tuscarawas Ave.","city":"Barberton","state":"OH","zip":"44203","distance":20.605253006552,"lon":"-81.611","lat":"41.0129","theaterChainName":"Independent Chains","ticketType":"STANDARD"},{"id":"1347","tribuneTheaterId":"5240","providerTheaterId":"","name":"Cinemark Movies 10 North Canton","address":"6284 Dressler Rd. NW","city":"North Canton","state":"OH","zip":"44720","distance":21.655565366066,"lon":"-81.424184","lat":"40.870329","theaterChainName":"Cinemark","ticketType":"STANDARD"},{"id":"2787","tribuneTheaterId":"473","providerTheaterId":"","name":"Canton Palace Theatre","address":"605 Market Avenue North","city":"Canton","state":"OH","zip":"44702","distance":23.023377247467,"lon":"-81.37364","lat":"40.802042","theaterChainName":"Independent Chains","ticketType":"STANDARD"},{"id":"637","tribuneTheaterId":"9072","providerTheaterId":"","name":"Regal Interstate Park Stadium 18","address":"1089 Interstate Parkway","city":"Akron","state":"OH","zip":"44312","distance":22.933614037232,"lon":"-81.483407","lat":"40.977437","theaterChainName":"Regal Cinemas","ticketType":"STANDARD"}]