[{"id":"2704","tribuneTheaterId":"1207","providerTheaterId":"","name":"Quaker Cinemas","address":"158 West High Ave","city":"New Philadelphia","state":"OH","zip":"44663","distance":14.662019392244,"lon":"-81.447396","lat":"40.489764","theaterChainName":"Independent Chains","ticketType":"STANDARD"},{"id":"2787","tribuneTheaterId":"473","providerTheaterId":"","name":"Canton Palace Theatre","address":"605 Market Avenue North","city":"Canton","state":"OH","zip":"44702","distance":17.512708179516,"lon":"-81.37364","lat":"40.802042","theaterChainName":"Independent Chains","ticketType":"STANDARD"},{"id":"1353","tribuneTheaterId":"5236","providerTheaterId":"","name":"Carnation Cinema 5","address":"2500 W. State Street","city":"Alliance","state":"OH","zip":"44601","distance":21.692143266131,"lon":"-81.155582","lat":"40.898358","theaterChainName":"Cinemark","ticketType":"STANDARD"},{"id":"1347","tribuneTheaterId":"5240","providerTheaterId":"","name":"Cinemark Movies 10 North Canton","address":"6284 Dressler Rd. NW","city":"North Canton","state":"OH","zip":"44720","distance":22.916697080235,"lon":"-81.424184","lat":"40.870329","theaterChainName":"Cinemark","ticketType":"STANDARD"},{"id":"1368","tribuneTheaterId":"5244","providerTheaterId":"","name":"Cinemark Tinseltown USA and XD North Canton","address":"4720 Mega St. NW","city":"North Canton","state":"OH","zip":"44720","distance":23.302627790519,"lon":"-81.436007","lat":"40.871371","theaterChainName":"Cinemark","ticketType":"STANDARD"},{"id":"4022","tribuneTheaterId":"2321","providerTheaterId":"","name":"Great Escape Massillon Stadium 12","address":"175 Cherry Rd. N.W.","city":"Massillon","state":"OH","zip":"44646","distance":22.65483488312,"lon":"-81.527406","lat":"40.799071","theaterChainName":"Regal Cinemas","ticketType":"STANDARD"}]