[{"id":"2704","name":"Quaker Cinemas","address":"158 West High Ave","city":"New Philadelphia","state":"OH","zip":"44663","distance":"23.13519287109375","lon":"-81.447395","lat":"40.489765","theaterChainName":"Independent Chains","ticketType":"STANDARD"},{"id":"4022","name":"Great Escape Massillon Stadium 12","address":"175 Cherry Rd. N.W.","city":"Massillon","state":"OH","zip":"44646","distance":"12.026154518127441","lon":"-81.527405","lat":"40.799072","theaterChainName":"Regal Cinemas","ticketType":"STANDARD"},{"id":"2787","name":"Canton Palace Theatre","address":"605 Market Avenue North","city":"Canton","state":"OH","zip":"44702","distance":"19.81208610534668","lon":"-81.373642","lat":"40.802040","theaterChainName":"Independent Chains","ticketType":"STANDARD"},{"id":"1071","name":"Great Oaks Cinema","address":"251 Great Oaks Trail","city":"Wadsworth","state":"OH","zip":"44281","distance":"21.441242218017578","lon":"-81.732979","lat":"41.048615","theaterChainName":"Independent Chains","ticketType":"STANDARD"},{"id":"5317","name":"Lake 8 Movies","address":"588 W. Tuscarawas Ave.","city":"Barberton","state":"OH","zip":"44203","distance":"20.178693771362305","lon":"-81.611000","lat":"41.012901","theaterChainName":"Independent Chains","ticketType":"STANDARD"},{"id":"1321","name":"Cinemark Movies 10 Wooster","address":"4108 Burbank Rd.","city":"Wooster","state":"OH","zip":"44691","distance":"13.167852401733398","lon":"-81.948235","lat":"40.848522","theaterChainName":"Cinemark","ticketType":"STANDARD"},{"id":"637","name":"Regal Interstate Park Stadium 18","address":"1089 Interstate Parkway","city":"Akron","state":"OH","zip":"44312","distance":"21.36753273010254","lon":"-81.483406","lat":"40.977436","theaterChainName":"Regal Cinemas","ticketType":"STANDARD"},{"id":"1368","name":"Cinemark Tinseltown USA and XD North Canton","address":"4720 Mega St. NW","city":"North Canton","state":"OH","zip":"44720","distance":"18.4904842376709","lon":"-81.436005","lat":"40.871372","theaterChainName":"Cinemark","ticketType":"STANDARD"},{"id":"1347","name":"Cinemark Movies 10 North Canton","address":"6284 Dressler Rd. NW","city":"North Canton","state":"OH","zip":"44720","distance":"18.99483299255371","lon":"-81.424187","lat":"40.870331","theaterChainName":"Cinemark","ticketType":"STANDARD"}]