[{"id":"4694","name":"Shelby Theatres","address":"460 Downtowner Plaza","city":"Coshocton","state":"OH","zip":"43812","distance":"24.766233444213867","lon":"-81.869202","lat":"40.270000","theaterChainName":"Independent Chains","ticketType":"STANDARD"},{"id":"2704","name":"Quaker Cinemas","address":"158 West High Ave","city":"New Philadelphia","state":"OH","zip":"44663","distance":"19.833303451538086","lon":"-81.447395","lat":"40.489765","theaterChainName":"Independent Chains","ticketType":"STANDARD"},{"id":"4022","name":"Great Escape Massillon Stadium 12","address":"175 Cherry Rd. N.W.","city":"Massillon","state":"OH","zip":"44646","distance":"18.10292625427246","lon":"-81.527405","lat":"40.799072","theaterChainName":"Regal Cinemas","ticketType":"STANDARD"},{"id":"2787","name":"Canton Palace Theatre","address":"605 Market Avenue North","city":"Canton","state":"OH","zip":"44702","distance":"24.755149841308594","lon":"-81.373642","lat":"40.802040","theaterChainName":"Independent Chains","ticketType":"STANDARD"},{"id":"1321","name":"Cinemark Movies 10 Wooster","address":"4108 Burbank Rd.","city":"Wooster","state":"OH","zip":"44691","distance":"17.878450393676758","lon":"-81.948235","lat":"40.848522","theaterChainName":"Cinemark","ticketType":"STANDARD"}]