[{"id":"4022","name":"Great Escape Massillon Stadium 12","address":"175 Cherry Rd. N.W.","city":"Massillon","state":"OH","zip":"44646","distance":"18.046356201171875","lon":"-81.527405","lat":"40.799072","theaterChainName":"Regal Cinemas","ticketType":"STANDARD"},{"id":"1618","name":"Regal Medina Stadium 16  Huntington Street","address":"200 West Reagan Pkwy","city":"Medina","state":"OH","zip":"44256","distance":"20.420509338378906","lon":"-81.867653","lat":"41.154713","theaterChainName":"Regal Cinemas","ticketType":"STANDARD"},{"id":"1071","name":"Great Oaks Cinema","address":"251 Great Oaks Trail","city":"Wadsworth","state":"OH","zip":"44281","distance":"14.749485969543457","lon":"-81.732979","lat":"41.048615","theaterChainName":"Independent Chains","ticketType":"STANDARD"},{"id":"638","name":"Regal Montrose Stadium 12","address":"4020 Medina Road","city":"Akron","state":"OH","zip":"44333","distance":"22.140634536743164","lon":"-81.642128","lat":"41.132710","theaterChainName":"Regal Cinemas","ticketType":"STANDARD"},{"id":"5317","name":"Lake 8 Movies","address":"588 W. Tuscarawas Ave.","city":"Barberton","state":"OH","zip":"44203","distance":"16.91842269897461","lon":"-81.611000","lat":"41.012901","theaterChainName":"Independent Chains","ticketType":"STANDARD"},{"id":"1072","name":"Highland Theatre","address":"826 W. Market Street","city":"Akron","state":"OH","zip":"44303","distance":"23.37190055847168","lon":"-81.544098","lat":"41.096554","theaterChainName":"Independent Chains","ticketType":"STANDARD"},{"id":"1321","name":"Cinemark Movies 10 Wooster","address":"4108 Burbank Rd.","city":"Wooster","state":"OH","zip":"44691","distance":"4.500097751617432","lon":"-81.948235","lat":"40.848522","theaterChainName":"Cinemark","ticketType":"STANDARD"},{"id":"5497","name":"The Nightlight Cinema","address":"30 N. High St.","city":"Akron","state":"OH","zip":"44308","distance":"23.960739135742188","lon":"-81.515564","lat":"41.085732","theaterChainName":"Independent Chains","ticketType":"STANDARD"},{"id":"637","name":"Regal Interstate Park Stadium 18","address":"1089 Interstate Parkway","city":"Akron","state":"OH","zip":"44312","distance":"21.451904296875","lon":"-81.483406","lat":"40.977436","theaterChainName":"Regal Cinemas","ticketType":"STANDARD"},{"id":"1368","name":"Cinemark Tinseltown USA and XD North Canton","address":"4720 Mega St. NW","city":"North Canton","state":"OH","zip":"44720","distance":"22.34397315979004","lon":"-81.436005","lat":"40.871372","theaterChainName":"Cinemark","ticketType":"STANDARD"},{"id":"1347","name":"Cinemark Movies 10 North Canton","address":"6284 Dressler Rd. NW","city":"North Canton","state":"OH","zip":"44720","distance":"22.95874786376953","lon":"-81.424187","lat":"40.870331","theaterChainName":"Cinemark","ticketType":"STANDARD"}]