[{"id":"2704","name":"Quaker Cinemas","address":"158 West High Ave","city":"New Philadelphia","state":"OH","zip":"44663","distance":"8.698530197143555","lon":"-81.447395","lat":"40.489765","theaterChainName":"Independent Chains","ticketType":"STANDARD"},{"id":"4022","name":"Great Escape Massillon Stadium 12","address":"175 Cherry Rd. N.W.","city":"Massillon","state":"OH","zip":"44646","distance":"13.909989356994629","lon":"-81.527405","lat":"40.799072","theaterChainName":"Regal Cinemas","ticketType":"STANDARD"},{"id":"1353","name":"Carnation Cinema 5","address":"2500 W. State Street","city":"Alliance","state":"OH","zip":"44601","distance":"24.091733932495117","lon":"-81.155579","lat":"40.898357","theaterChainName":"Cinemark","ticketType":"STANDARD"},{"id":"2787","name":"Canton Palace Theatre","address":"605 Market Avenue North","city":"Canton","state":"OH","zip":"44702","distance":"13.227142333984375","lon":"-81.373642","lat":"40.802040","theaterChainName":"Independent Chains","ticketType":"STANDARD"},{"id":"1368","name":"Cinemark Tinseltown USA and XD North Canton","address":"4720 Mega St. NW","city":"North Canton","state":"OH","zip":"44720","distance":"17.784412384033203","lon":"-81.436005","lat":"40.871372","theaterChainName":"Cinemark","ticketType":"STANDARD"},{"id":"1347","name":"Cinemark Movies 10 North Canton","address":"6284 Dressler Rd. NW","city":"North Canton","state":"OH","zip":"44720","distance":"17.698253631591797","lon":"-81.424187","lat":"40.870331","theaterChainName":"Cinemark","ticketType":"STANDARD"}]