[{"id":"1321","tribuneTheaterId":"5239","providerTheaterId":"","name":"Cinemark Movies 10 Wooster","address":"4108 Burbank Rd.","city":"Wooster","state":"OH","zip":"44691","distance":2.7030703930513,"lon":"-81.948234","lat":"40.848522","theaterChainName":"Cinemark","ticketType":"STANDARD"},{"id":"1071","tribuneTheaterId":"2679","providerTheaterId":"","name":"Great Oaks Cinema","address":"251 Great Oaks Trail","city":"Wadsworth","state":"OH","zip":"44281","distance":19.987932550165,"lon":"-81.73298","lat":"41.048615","theaterChainName":"Independent Chains","ticketType":"STANDARD"},{"id":"4022","tribuneTheaterId":"2321","providerTheaterId":"","name":"Great Escape Massillon Stadium 12","address":"175 Cherry Rd. N.W.","city":"Massillon","state":"OH","zip":"44646","distance":22.024280017062,"lon":"-81.527406","lat":"40.799071","theaterChainName":"Regal Cinemas","ticketType":"STANDARD"},{"id":"5317","tribuneTheaterId":"10755","providerTheaterId":"","name":"Lake 8 Movies","address":"588 W. Tuscarawas Ave.","city":"Barberton","state":"OH","zip":"44203","distance":22.536411219218,"lon":"-81.611","lat":"41.0129","theaterChainName":"Independent Chains","ticketType":"STANDARD"},{"id":"1618","tribuneTheaterId":"8050","providerTheaterId":"","name":"Regal Medina Stadium 16  Huntington Street","address":"200 West Reagan Pkwy","city":"Medina","state":"OH","zip":"44256","distance":24.226755440039,"lon":"-81.86765","lat":"41.154712","theaterChainName":"Regal Cinemas","ticketType":"STANDARD"}]