[{"id":"1368","tribuneTheaterId":"5244","providerTheaterId":"","name":"Cinemark Tinseltown USA and XD North Canton","address":"4720 Mega St. NW","city":"North Canton","state":"OH","zip":"44720","distance":1.783459268874,"lon":"-81.436007","lat":"40.871371","theaterChainName":"Cinemark","ticketType":"STANDARD"},{"id":"1347","tribuneTheaterId":"5240","providerTheaterId":"","name":"Cinemark Movies 10 North Canton","address":"6284 Dressler Rd. NW","city":"North Canton","state":"OH","zip":"44720","distance":1.7531008747924,"lon":"-81.424184","lat":"40.870329","theaterChainName":"Cinemark","ticketType":"STANDARD"},{"id":"637","tribuneTheaterId":"9072","providerTheaterId":"","name":"Regal Interstate Park Stadium 18","address":"1089 Interstate Parkway","city":"Akron","state":"OH","zip":"44312","distance":6.4277225096458,"lon":"-81.483407","lat":"40.977437","theaterChainName":"Regal Cinemas","ticketType":"STANDARD"},{"id":"2787","tribuneTheaterId":"473","providerTheaterId":"","name":"Canton Palace Theatre","address":"605 Market Avenue North","city":"Canton","state":"OH","zip":"44702","distance":6.9978153269729,"lon":"-81.37364","lat":"40.802042","theaterChainName":"Independent Chains","ticketType":"STANDARD"},{"id":"4022","tribuneTheaterId":"2321","providerTheaterId":"","name":"Great Escape Massillon Stadium 12","address":"175 Cherry Rd. N.W.","city":"Massillon","state":"OH","zip":"44646","distance":8.5700843941454,"lon":"-81.527406","lat":"40.799071","theaterChainName":"Regal Cinemas","ticketType":"STANDARD"},{"id":"5317","tribuneTheaterId":"10755","providerTheaterId":"","name":"Lake 8 Movies","address":"588 W. Tuscarawas Ave.","city":"Barberton","state":"OH","zip":"44203","distance":12.656247129416,"lon":"-81.611","lat":"41.0129","theaterChainName":"Independent Chains","ticketType":"STANDARD"},{"id":"1392","tribuneTheaterId":"2490","providerTheaterId":"","name":"Linda Theatre","address":"1745 Goodyear Blvd","city":"Akron","state":"OH","zip":"44305","distance":12.457176728077,"lon":"-81.4634","lat":"41.0736","theaterChainName":"Independent Chains","ticketType":"STANDARD"},{"id":"5497","tribuneTheaterId":"10966","providerTheaterId":"","name":"The Nightlight Cinema","address":"30 N. High St.","city":"Akron","state":"OH","zip":"44308","distance":13.960574664383,"lon":"-81.515561","lat":"41.085731","theaterChainName":"Independent Chains","ticketType":"STANDARD"},{"id":"636","tribuneTheaterId":"8508","providerTheaterId":"","name":"Regal Independence Stadium 10","address":"1210 Independence Ave.","city":"Akron","state":"OH","zip":"44310","distance":15.002709860556,"lon":"-81.471112","lat":"41.109981","theaterChainName":"Regal Cinemas","ticketType":"STANDARD"},{"id":"1353","tribuneTheaterId":"5236","providerTheaterId":"","name":"Carnation Cinema 5","address":"2500 W. State Street","city":"Alliance","state":"OH","zip":"44601","distance":14.051132740824,"lon":"-81.155582","lat":"40.898358","theaterChainName":"Cinemark","ticketType":"STANDARD"},{"id":"1072","tribuneTheaterId":"2452","providerTheaterId":"","name":"Highland Theatre","address":"826 W. Market Street","city":"Akron","state":"OH","zip":"44303","distance":15.212648334232,"lon":"-81.544098","lat":"41.096555","theaterChainName":"Independent Chains","ticketType":"STANDARD"},{"id":"1393","tribuneTheaterId":"3145","providerTheaterId":"","name":"Kent Plaza Theatres 10","address":"140 Cherry St.","city":"Kent","state":"OH","zip":"44240","distance":17.242379778721,"lon":"-81.359907","lat":"41.140432","theaterChainName":"WPA\/Pittsburgh Theatres","ticketType":"STANDARD"},{"id":"5573","tribuneTheaterId":"11020","providerTheaterId":"","name":"Cinemark Cuyahoga Falls and XD","address":"2925 State Road","city":"Cuyahoga Falls","state":"OH","zip":"44223","distance":18.208378499188,"lon":"-81.5086","lat":"41.1515","theaterChainName":"Cinemark","ticketType":"STANDARD"},{"id":"638","tribuneTheaterId":"8589","providerTheaterId":"","name":"Regal Montrose Stadium 12","address":"4020 Medina Road","city":"Akron","state":"OH","zip":"44333","distance":19.919160033925,"lon":"-81.642129","lat":"41.132708","theaterChainName":"Regal Cinemas","ticketType":"STANDARD"},{"id":"1071","tribuneTheaterId":"2679","providerTheaterId":"","name":"Great Oaks Cinema","address":"251 Great Oaks Trail","city":"Wadsworth","state":"OH","zip":"44281","distance":19.246579749248,"lon":"-81.73298","lat":"41.048615","theaterChainName":"Independent Chains","ticketType":"STANDARD"},{"id":"639","tribuneTheaterId":"7267","providerTheaterId":"","name":"Regal Hudson Cinema 10","address":"5339 Darrow Road","city":"Hudson","state":"OH","zip":"44236","distance":21.77089683961,"lon":"-81.438491","lat":"41.21062","theaterChainName":"Regal Cinemas","ticketType":"STANDARD"}]