[{"id":"4129","tribuneTheaterId":"4772","providerTheaterId":"","name":"Carmike 12 Findlay","address":"906 Interstate Drive","city":"Findlay","state":"OH","zip":"45840","distance":9.4560440616876,"lon":"-83.667398","lat":"41.064841","theaterChainName":"Carmike Cinemas","ticketType":"STANDARD"},{"id":"1352","tribuneTheaterId":"4192","providerTheaterId":"","name":"Cinemark Woodland Mall Cinema 5","address":"1234 North Main Street","city":"Bowling Green","state":"OH","zip":"43402","distance":15.462007684552,"lon":"-83.647117","lat":"41.398128","theaterChainName":"Cinemark","ticketType":"STANDARD"},{"id":"4184","tribuneTheaterId":"5238","providerTheaterId":"","name":"Cinemark Tiffin Mall 8","address":"870 West Market Street","city":"Tiffin","state":"OH","zip":"44883","distance":19.337053426857,"lon":"-83.212382","lat":"41.112004","theaterChainName":"Cinemark","ticketType":"STANDARD"},{"id":"3906","tribuneTheaterId":"8856","providerTheaterId":"","name":"Rave Motion Pictures Levis Commons","address":"2005 Hollenbeck Drive","city":"Perrysburg","state":"OH","zip":"43551","distance":24.222106803935,"lon":"-83.641292","lat":"41.528236","theaterChainName":"Cinemark","ticketType":"STANDARD"}]