[{"id":"4958","name":"Cinemark Stadium","address":"4314 Milan Road","city":"Sandusky","state":"OH","zip":"44870","distance":"15.24040412902832","lon":"-82.671219","lat":"41.418819","theaterChainName":"Cinemark","ticketType":"STANDARD"},{"id":"4497","name":"Premiere Theaters 8","address":"Highway 250 Industrial Parkway","city":"Norwalk","state":"OH","zip":"44857","distance":"6.232006072998047","lon":"-82.605446","lat":"41.270592","theaterChainName":"UEC Theatres","ticketType":"STANDARD"},{"id":"2026","name":"Apollo","address":"19 East College Street","city":"Oberlin","state":"OH","zip":"44074","distance":"14.573766708374023","lon":"-82.216713","lat":"41.291557","theaterChainName":"Cleveland Cinemas","ticketType":"STANDARD"},{"id":"2660","name":"Regal Cobblestone Square Stadium 20","address":"5500 Cobbleston Rd.","city":"Elyria","state":"OH","zip":"44035","distance":"24.570005416870117","lon":"-82.078697","lat":"41.420700","theaterChainName":"Regal Cinemas","ticketType":"STANDARD"},{"id":"4626","name":"Atlas Cinemas Midway Mall 8","address":"2650 Midway Mall Blvd.","city":"Elyria","state":"OH","zip":"44035","distance":"22.237699508666992","lon":"-82.111176","lat":"41.394855","theaterChainName":"Atlas Cinemas","ticketType":"STANDARD"}]