[{"id":"2026","tribuneTheaterId":"305","providerTheaterId":"","name":"Apollo","address":"19 East College Street","city":"Oberlin","state":"OH","zip":"44074","distance":8.6032092968128,"lon":"-82.216715","lat":"41.291558","theaterChainName":"Cleveland Cinemas","ticketType":"STANDARD"},{"id":"4497","tribuneTheaterId":"9599","providerTheaterId":"","name":"Premiere Theaters 8","address":"Highway 250 Industrial Parkway","city":"Norwalk","state":"OH","zip":"44857","distance":11.8111670436,"lon":"-82.605444","lat":"41.270592","theaterChainName":"UEC Theatres","ticketType":"STANDARD"},{"id":"4626","tribuneTheaterId":"9808","providerTheaterId":"","name":"Atlas Cinemas Midway Mall 8","address":"2650 Midway Mall Blvd.","city":"Elyria","state":"OH","zip":"44035","distance":16.554937842857,"lon":"-82.111173","lat":"41.394857","theaterChainName":"Atlas Cinemas","ticketType":"STANDARD"},{"id":"4958","tribuneTheaterId":"10318","providerTheaterId":"","name":"Cinemark Stadium","address":"4314 Milan Road","city":"Sandusky","state":"OH","zip":"44870","distance":18.598808232695,"lon":"-82.671218","lat":"41.418821","theaterChainName":"Cinemark","ticketType":"STANDARD"},{"id":"2660","tribuneTheaterId":"4643","providerTheaterId":"","name":"Regal Cobblestone Square Stadium 20","address":"5500 Cobbleston Rd.","city":"Elyria","state":"OH","zip":"44035","distance":18.948445631446,"lon":"-82.0787","lat":"41.4207","theaterChainName":"Regal Cinemas","ticketType":"STANDARD"}]