[{"id":"535","tribuneTheaterId":"3133","providerTheaterId":"","name":"Danbarry Cinemas Middletown","address":"3479 Dixie Hwy","city":"Middletown","state":"OH","zip":"45005","distance":3.488840515251,"lon":"-84.337728","lat":"39.495981","theaterChainName":"Danbarry Cinemas","ticketType":"STANDARD"},{"id":"1294","tribuneTheaterId":"259","providerTheaterId":"","name":"Byjo Theatre","address":"20 N Main","city":"Germantown","state":"OH","zip":"45327","distance":7.7613642911437,"lon":"-84.370409","lat":"39.625355","theaterChainName":"Independent Chains","ticketType":"STANDARD"},{"id":"5859","tribuneTheaterId":"11273","providerTheaterId":"","name":"The Plaza Theatre","address":"33 South Main St.","city":"Miamisburg","state":"OH","zip":"45342","distance":10.456281026744,"lon":"-84.289677","lat":"39.641168","theaterChainName":"Independent Chains","ticketType":"STANDARD"},{"id":"5783","tribuneTheaterId":"11223","providerTheaterId":"","name":" Cobb Liberty Luxury 15","address":"7514 Bales Street","city":"Liberty Township","state":"OH","zip":"45069","distance":9.9131255455431,"lon":"-84.374237","lat":"39.372834","theaterChainName":"Cobb Theatres","ticketType":"STANDARD"},{"id":"560","tribuneTheaterId":"7166","providerTheaterId":"6352","name":"AMC Showplace Hamilton 8","address":"1453 Main St.","city":"Hamilton","state":"OH","zip":"45013","distance":12.29518515577,"lon":"-84.596261","lat":"39.423925","theaterChainName":"AMC Theatres","ticketType":"STANDARD"},{"id":"3102","tribuneTheaterId":"7945","providerTheaterId":"","name":"Dayton South: Rave Digital Projection","address":"195 Mall Woods Drive","city":"West Carrollton","state":"OH","zip":"45449","distance":12.658118242154,"lon":"-84.228455","lat":"39.643267","theaterChainName":"Cinemark","ticketType":"STANDARD"},{"id":"2132","tribuneTheaterId":"3052","providerTheaterId":"","name":"Colony 7 Cinemas","address":"726 E. Main St.","city":"Lebanon","state":"OH","zip":"45036","distance":12.325409811254,"lon":"-84.193604","lat":"39.432301","theaterChainName":"Independent Chains","ticketType":"STANDARD"},{"id":"5287","tribuneTheaterId":"10721","providerTheaterId":"467","name":"AMC West Chester 18","address":"9415 Civic Center Blvd.","city":"West Chester","state":"OH","zip":"45069","distance":13.600322458826,"lon":"-84.420887","lat":"39.319035","theaterChainName":"AMC Theatres","ticketType":"STANDARD"},{"id":"4369","tribuneTheaterId":"9400","providerTheaterId":"","name":"Regal Deerfield Town Center Stadium 16","address":"5500 Deerfield Blvd","city":"Mason","state":"OH","zip":"45040","distance":14.855087989625,"lon":"-84.319274","lat":"39.308951","theaterChainName":"Regal Cinemas","ticketType":"STANDARD"},{"id":"274","tribuneTheaterId":"6939","providerTheaterId":"","name":"Springdale 18: Cinema De Lux","address":"12064 Springfield Pike","city":"Springdale","state":"OH","zip":"45246","distance":15.624076887487,"lon":"-84.484497","lat":"39.299","theaterChainName":"National Amusements","ticketType":"STANDARD"},{"id":"5849","tribuneTheaterId":"11261","providerTheaterId":"","name":"Envision Grille","address":"4780 Cornell Road","city":"Cincinnati","state":"OH","zip":"45241","distance":16.962305319204,"lon":"-84.37338","lat":"39.270358","theaterChainName":"Independent Chains","ticketType":"STANDARD"},{"id":"4337","tribuneTheaterId":"9317","providerTheaterId":"","name":"The Greene: Rave Digital Projection","address":"4489 Glengarry Drive","city":"Beavercreek","state":"OH","zip":"45440","distance":20.014225524814,"lon":"-84.102097","lat":"39.693501","theaterChainName":"Cinemark","ticketType":"STANDARD"},{"id":"1301","tribuneTheaterId":"2701","providerTheaterId":"","name":"Neon Movies","address":"130 E. 5th Street","city":"Dayton","state":"OH","zip":"45402","distance":20.12086031298,"lon":"-84.18797","lat":"39.757109","theaterChainName":"Independent Chains","ticketType":"STANDARD"},{"id":"4994","tribuneTheaterId":"10363","providerTheaterId":"","name":"Kenwood Theatre","address":"7815 Kenwood Rd","city":"Cincinnati","state":"OH","zip":"45236","distance":21.61338995471,"lon":"-84.380777","lat":"39.202579","theaterChainName":"Independent Chains","ticketType":"STANDARD"},{"id":"5622","tribuneTheaterId":"11084","providerTheaterId":"","name":"Xscape 14 Northgate","address":"9471 Colerain Ave.","city":"Cincinnati","state":"OH","zip":"45251","distance":21.499986650081,"lon":"-84.595","lat":"39.2436","theaterChainName":"Independent Chains","ticketType":"STANDARD"},{"id":"2582","tribuneTheaterId":"8306","providerTheaterId":"","name":"Regal Hollywood Stadium 20  Fairfield Commons","address":"2651 Fairfield Commons","city":"Beavercreek","state":"OH","zip":"45431","distance":24.925763615387,"lon":"-84.058928","lat":"39.763787","theaterChainName":"Regal Cinemas","ticketType":"STANDARD"},{"id":"5366","tribuneTheaterId":"10803","providerTheaterId":"","name":"Cinemark Oakley Station","address":"3025 Disney St.","city":"Cincinnati","state":"OH","zip":"45209","distance":24.518732469954,"lon":"-84.4303","lat":"39.1611","theaterChainName":"Cinemark","ticketType":"STANDARD"}]