[{"id":"5287","tribuneTheaterId":"10721","providerTheaterId":"467","name":"AMC West Chester 18","address":"9415 Civic Center Blvd.","city":"West Chester","state":"OH","zip":"45069","distance":1.1405667076019,"lon":"-84.420887","lat":"39.319035","theaterChainName":"AMC Theatres","ticketType":"STANDARD"},{"id":"5783","tribuneTheaterId":"11223","providerTheaterId":"","name":" Cobb Liberty Luxury 15","address":"7514 Bales Street","city":"Liberty Township","state":"OH","zip":"45069","distance":3.3434997746461,"lon":"-84.374237","lat":"39.372834","theaterChainName":"Cobb Theatres","ticketType":"STANDARD"},{"id":"4369","tribuneTheaterId":"9400","providerTheaterId":"","name":"Regal Deerfield Town Center Stadium 16","address":"5500 Deerfield Blvd","city":"Mason","state":"OH","zip":"45040","distance":4.9556620190595,"lon":"-84.319274","lat":"39.308951","theaterChainName":"Regal Cinemas","ticketType":"STANDARD"},{"id":"5849","tribuneTheaterId":"11261","providerTheaterId":"","name":"Envision Grille","address":"4780 Cornell Road","city":"Cincinnati","state":"OH","zip":"45241","distance":4.6079360696895,"lon":"-84.37338","lat":"39.270358","theaterChainName":"Independent Chains","ticketType":"STANDARD"},{"id":"274","tribuneTheaterId":"6939","providerTheaterId":"","name":"Springdale 18: Cinema De Lux","address":"12064 Springfield Pike","city":"Springdale","state":"OH","zip":"45246","distance":4.709314322124,"lon":"-84.484497","lat":"39.299","theaterChainName":"National Amusements","ticketType":"STANDARD"},{"id":"4994","tribuneTheaterId":"10363","providerTheaterId":"","name":"Kenwood Theatre","address":"7815 Kenwood Rd","city":"Cincinnati","state":"OH","zip":"45236","distance":9.032667583153,"lon":"-84.380777","lat":"39.202579","theaterChainName":"Independent Chains","ticketType":"STANDARD"},{"id":"5366","tribuneTheaterId":"10803","providerTheaterId":"","name":"Cinemark Oakley Station","address":"3025 Disney St.","city":"Cincinnati","state":"OH","zip":"45209","distance":11.851946531684,"lon":"-84.4303","lat":"39.1611","theaterChainName":"Cinemark","ticketType":"STANDARD"},{"id":"560","tribuneTheaterId":"7166","providerTheaterId":"6352","name":"AMC Showplace Hamilton 8","address":"1453 Main St.","city":"Hamilton","state":"OH","zip":"45013","distance":11.93983433412,"lon":"-84.596261","lat":"39.423925","theaterChainName":"AMC Theatres","ticketType":"STANDARD"},{"id":"5622","tribuneTheaterId":"11084","providerTheaterId":"","name":"Xscape 14 Northgate","address":"9471 Colerain Ave.","city":"Cincinnati","state":"OH","zip":"45251","distance":11.743632852947,"lon":"-84.595","lat":"39.2436","theaterChainName":"Independent Chains","ticketType":"STANDARD"},{"id":"535","tribuneTheaterId":"3133","providerTheaterId":"","name":"Danbarry Cinemas Middletown","address":"3479 Dixie Hwy","city":"Middletown","state":"OH","zip":"45005","distance":11.941153640682,"lon":"-84.337728","lat":"39.495981","theaterChainName":"Danbarry Cinemas","ticketType":"STANDARD"},{"id":"3101","tribuneTheaterId":"8097","providerTheaterId":"","name":"Rave Cinemas Milford 16","address":"500 Rivers Edge","city":"Milford","state":"OH","zip":"45150","distance":13.773518530918,"lon":"-84.273399","lat":"39.1614","theaterChainName":"Cinemark","ticketType":"STANDARD"},{"id":"1080","tribuneTheaterId":"2980","providerTheaterId":"","name":"Esquire 6 Theatre","address":"320 Ludlow Avenue","city":"Cincinnati","state":"OH","zip":"45220","distance":14.32992762714,"lon":"-84.520267","lat":"39.143696","theaterChainName":"Independent Chains","ticketType":"STANDARD"},{"id":"2132","tribuneTheaterId":"3052","providerTheaterId":"","name":"Colony 7 Cinemas","address":"726 E. Main St.","city":"Lebanon","state":"OH","zip":"45036","distance":13.357901871409,"lon":"-84.193604","lat":"39.432301","theaterChainName":"Independent Chains","ticketType":"STANDARD"},{"id":"1081","tribuneTheaterId":"2803","providerTheaterId":"","name":"Mariemont 3 Theatre","address":"6906 Wooster Pike","city":"Cincinnati","state":"OH","zip":"45227","distance":13.011744941406,"lon":"-84.3744","lat":"39.1451","theaterChainName":"Independent Chains","ticketType":"STANDARD"},{"id":"273","tribuneTheaterId":"8534","providerTheaterId":"","name":"Rave Motion Pictures Western Hills 14","address":"5870 Harrison Ave.","city":"Cincinnati","state":"OH","zip":"45248","distance":16.441281096599,"lon":"-84.63982","lat":"39.176209","theaterChainName":"Cinemark","ticketType":"STANDARD"},{"id":"3418","tribuneTheaterId":"6756","providerTheaterId":"665","name":"AMC Newport On The Levee  20","address":"One Levee Way Suite 4100","city":"Newport","state":"KY","zip":"41071","distance":17.100613093068,"lon":"-84.4962","lat":"39.094","theaterChainName":"AMC Theatres","ticketType":"STANDARD"},{"id":"6051","tribuneTheaterId":"11455","providerTheaterId":"","name":"Carmike  Anderson Township Ovation Cinema Grill 9","address":"7490 Beechmont Ave","city":"Anderson Township","state":"OH","zip":"45230","distance":17.943651751006,"lon":"-84.348709","lat":"39.075984","theaterChainName":"Carmike Cinemas","ticketType":"STANDARD"},{"id":"5912","tribuneTheaterId":"11336","providerTheaterId":"","name":"Eastgate Brew and View","address":"4450 Eastgate Square Dr","city":"Cincinnati","state":"OH","zip":"45245","distance":18.284797813049,"lon":"-84.257069","lat":"39.093996","theaterChainName":"Independent Chains","ticketType":"STANDARD"},{"id":"1294","tribuneTheaterId":"259","providerTheaterId":"","name":"Byjo Theatre","address":"20 N Main","city":"Germantown","state":"OH","zip":"45327","distance":20.384243121853,"lon":"-84.370409","lat":"39.625355","theaterChainName":"Independent Chains","ticketType":"STANDARD"},{"id":"5859","tribuneTheaterId":"11273","providerTheaterId":"","name":"The Plaza Theatre","address":"33 South Main St.","city":"Miamisburg","state":"OH","zip":"45342","distance":22.281611343225,"lon":"-84.289677","lat":"39.641168","theaterChainName":"Independent Chains","ticketType":"STANDARD"},{"id":"1082","tribuneTheaterId":"235","providerTheaterId":"","name":"Parkland Theatre","address":"6550 Parkland Avenue","city":"Cincinnati","state":"OH","zip":"45233","distance":21.444139457084,"lon":"-84.690435","lat":"39.1122","theaterChainName":"Independent Chains","ticketType":"STANDARD"},{"id":"4562","tribuneTheaterId":"9704","providerTheaterId":"","name":"Pierce Point Cinema 10","address":"1255 West Ohio Pike","city":"Amelia","state":"OH","zip":"45102","distance":21.43429324065,"lon":"-84.248394","lat":"39.04694","theaterChainName":"GHTC Theatres","ticketType":"STANDARD"},{"id":"3129","tribuneTheaterId":"6078","providerTheaterId":"","name":"Great Escape Wilder 14","address":"103 Crossing Dr","city":"Wilder","state":"KY","zip":"41076","distance":22.049537712976,"lon":"-84.484509","lat":"39.018251","theaterChainName":"Regal Cinemas","ticketType":"STANDARD"},{"id":"3102","tribuneTheaterId":"7945","providerTheaterId":"","name":"Dayton South: Rave Digital Projection","address":"195 Mall Woods Drive","city":"West Carrollton","state":"OH","zip":"45449","distance":23.542850972749,"lon":"-84.228455","lat":"39.643267","theaterChainName":"Cinemark","ticketType":"STANDARD"},{"id":"2854","tribuneTheaterId":"1531","providerTheaterId":"","name":"Blanchester Showplace Cinemas","address":"115 E. Main St.","city":"Blanchester","state":"OH","zip":"45107","distance":22.560623707465,"lon":"-83.9881","lat":"39.2933","theaterChainName":"Independent Chains","ticketType":"STANDARD"}]