[{"id":"1082","name":"Parkland Theatre","address":"6550 Parkland Avenue","city":"Cincinnati","state":"OH","zip":"45233","distance":"21.445302963256836","lon":"-84.690437","lat":"39.112202","theaterChainName":"Independent Chains","ticketType":"STANDARD"},{"id":"273","name":"Rave Motion Pictures Western Hills 14","address":"5870 Harrison Ave.","city":"Cincinnati","state":"OH","zip":"45248","distance":"16.44199562072754","lon":"-84.639816","lat":"39.176208","theaterChainName":"Cinemark","ticketType":"STANDARD"},{"id":"1080","name":"Esquire 6 Theatre","address":"320 Ludlow Avenue","city":"Cincinnati","state":"OH","zip":"45220","distance":"14.330628395080566","lon":"-84.520264","lat":"39.143696","theaterChainName":"Independent Chains","ticketType":"STANDARD"},{"id":"3129","name":"Great Escape Wilder 14","address":"103 Crossing Dr","city":"Wilder","state":"KY","zip":"41076","distance":"22.05095863342285","lon":"-84.484512","lat":"39.018250","theaterChainName":"Regal Cinemas","ticketType":"STANDARD"},{"id":"3418","name":"AMC Newport On The Levee  20","address":"One Levee Way Suite 4100","city":"Newport","state":"KY","zip":"41071","distance":"17.10146713256836","lon":"-84.496201","lat":"39.094002","theaterChainName":"AMC Theatres","ticketType":"STANDARD"},{"id":"5622","name":"Xscape 14 Northgate","address":"9471 Colerain Ave.","city":"Cincinnati","state":"OH","zip":"45251","distance":"11.744263648986816","lon":"-84.595001","lat":"39.243599","theaterChainName":"Independent Chains","ticketType":"STANDARD"},{"id":"5366","name":"Cinemark Oakley Station","address":"3025 Disney St.","city":"Cincinnati","state":"OH","zip":"45209","distance":"11.852709770202637","lon":"-84.430298","lat":"39.161098","theaterChainName":"Cinemark","ticketType":"STANDARD"},{"id":"274","name":"Springdale 18: Cinema De Lux","address":"12064 Springfield Pike","city":"Springdale","state":"OH","zip":"45246","distance":"4.709423542022705","lon":"-84.484497","lat":"39.299000","theaterChainName":"National Amusements","ticketType":"STANDARD"},{"id":"1081","name":"Mariemont 3 Theatre","address":"6906 Wooster Pike","city":"Cincinnati","state":"OH","zip":"45227","distance":"13.012578964233398","lon":"-84.374397","lat":"39.145100","theaterChainName":"Independent Chains","ticketType":"STANDARD"},{"id":"6051","name":"Carmike  Anderson Township Ovation Cinema Grill 9","address":"7490 Beechmont Ave","city":"Anderson Township","state":"OH","zip":"45230","distance":"17.94468879699707","lon":"-84.348709","lat":"39.075985","theaterChainName":"Carmike Cinemas","ticketType":"STANDARD"},{"id":"4994","name":"Kenwood Theatre","address":"7815 Kenwood Rd","city":"Cincinnati","state":"OH","zip":"45236","distance":"9.033194541931152","lon":"-84.380775","lat":"39.202579","theaterChainName":"Independent Chains","ticketType":"STANDARD"},{"id":"560","name":"AMC Showplace Hamilton 8","address":"1453 Main St.","city":"Hamilton","state":"OH","zip":"45013","distance":"11.94033432006836","lon":"-84.596260","lat":"39.423923","theaterChainName":"AMC Theatres","ticketType":"STANDARD"},{"id":"5287","name":"AMC West Chester 18","address":"9415 Civic Center Blvd.","city":"West Chester","state":"OH","zip":"45069","distance":"1.140631079673767","lon":"-84.420891","lat":"39.319035","theaterChainName":"AMC Theatres","ticketType":"STANDARD"},{"id":"5849","name":"Envision Grille","address":"4780 Cornell Road","city":"Cincinnati","state":"OH","zip":"45241","distance":"4.6081390380859375","lon":"-84.373383","lat":"39.270359","theaterChainName":"Independent Chains","ticketType":"STANDARD"},{"id":"3101","name":"Rave Cinemas Milford 16","address":"500 Rivers Edge","city":"Milford","state":"OH","zip":"45150","distance":"13.774436950683594","lon":"-84.273399","lat":"39.161400","theaterChainName":"Cinemark","ticketType":"STANDARD"},{"id":"5912","name":"Eastgate Brew and View","address":"4450 Eastgate Square Dr","city":"Cincinnati","state":"OH","zip":"45245","distance":"18.286012649536133","lon":"-84.257072","lat":"39.093994","theaterChainName":"Independent Chains","ticketType":"STANDARD"},{"id":"4562","name":"Pierce Point Cinema 10","address":"1255 West Ohio Pike","city":"Amelia","state":"OH","zip":"45102","distance":"21.43575096130371","lon":"-84.248390","lat":"39.046940","theaterChainName":"GHTC Theatres","ticketType":"STANDARD"},{"id":"5783","name":" Cobb Liberty Luxury 15","address":"7514 Bales Street","city":"Liberty Township","state":"OH","zip":"45069","distance":"3.343801736831665","lon":"-84.374237","lat":"39.372833","theaterChainName":"Cobb Theatres","ticketType":"STANDARD"},{"id":"4369","name":"Regal Deerfield Town Center Stadium 16","address":"5500 Deerfield Blvd","city":"Mason","state":"OH","zip":"45040","distance":"4.956066608428955","lon":"-84.319275","lat":"39.308952","theaterChainName":"Regal Cinemas","ticketType":"STANDARD"},{"id":"2854","name":"Blanchester Showplace Cinemas","address":"115 E. Main St.","city":"Blanchester","state":"OH","zip":"45107","distance":"22.562305450439453","lon":"-83.988098","lat":"39.293301","theaterChainName":"Independent Chains","ticketType":"STANDARD"},{"id":"2132","name":"Colony 7 Cinemas","address":"726 E. Main St.","city":"Lebanon","state":"OH","zip":"45036","distance":"13.358926773071289","lon":"-84.193604","lat":"39.432301","theaterChainName":"Independent Chains","ticketType":"STANDARD"},{"id":"535","name":"Danbarry Cinemas Middletown","address":"3479 Dixie Hwy","city":"Middletown","state":"OH","zip":"45005","distance":"11.941844940185547","lon":"-84.337730","lat":"39.495979","theaterChainName":"Danbarry Cinemas","ticketType":"STANDARD"},{"id":"1294","name":"Byjo Theatre","address":"20 N Main","city":"Germantown","state":"OH","zip":"45327","distance":"20.385562896728516","lon":"-84.370407","lat":"39.625355","theaterChainName":"Independent Chains","ticketType":"STANDARD"},{"id":"5859","name":"The Plaza Theatre","address":"33 South Main St.","city":"Miamisburg","state":"OH","zip":"45342","distance":"22.282949447631836","lon":"-84.289680","lat":"39.641167","theaterChainName":"Independent Chains","ticketType":"STANDARD"},{"id":"3102","name":"Dayton South: Rave Digital Projection","address":"195 Mall Woods Drive","city":"West Carrollton","state":"OH","zip":"45449","distance":"23.544538497924805","lon":"-84.228455","lat":"39.643269","theaterChainName":"Cinemark","ticketType":"STANDARD"}]