[{"id":"4369","name":"Regal Deerfield Town Center Stadium 16","address":"5500 Deerfield Blvd","city":"Mason","state":"OH","zip":"45040","distance":"24.916027069091797","lon":"-84.319275","lat":"39.308952","theaterChainName":"Regal Cinemas","ticketType":"STANDARD"},{"id":"2854","name":"Blanchester Showplace Cinemas","address":"115 E. Main St.","city":"Blanchester","state":"OH","zip":"45107","distance":"8.2586088180542","lon":"-83.988098","lat":"39.293301","theaterChainName":"Independent Chains","ticketType":"STANDARD"},{"id":"2132","name":"Colony 7 Cinemas","address":"726 E. Main St.","city":"Lebanon","state":"OH","zip":"45036","distance":"18.70550537109375","lon":"-84.193604","lat":"39.432301","theaterChainName":"Independent Chains","ticketType":"STANDARD"},{"id":"2788","name":"Star Cinema - Hillsboro","address":"211 Harry Sauner Rd","city":"Hillsboro","state":"OH","zip":"45133","distance":"15.786993980407715","lon":"-83.614166","lat":"39.227100","theaterChainName":"Independent Chains","ticketType":"STANDARD"},{"id":"1914","name":"Chakeres Wilmington Plaza 5","address":"1276 Romback Avenue","city":"Wilmington","state":"OH","zip":"45177","distance":"6.812588214874268","lon":"-83.806480","lat":"39.447269","theaterChainName":"Republic Theaters","ticketType":"STANDARD"}]