[{"id":"2854","name":"Blanchester Showplace Cinemas","address":"115 E. Main St.","city":"Blanchester","state":"OH","zip":"45107","distance":"10.119743347167969","lon":"-83.988098","lat":"39.293301","theaterChainName":"Independent Chains","ticketType":"STANDARD"},{"id":"2132","name":"Colony 7 Cinemas","address":"726 E. Main St.","city":"Lebanon","state":"OH","zip":"45036","distance":"22.565458297729492","lon":"-84.193604","lat":"39.432301","theaterChainName":"Independent Chains","ticketType":"STANDARD"},{"id":"2788","name":"Star Cinema - Hillsboro","address":"211 Harry Sauner Rd","city":"Hillsboro","state":"OH","zip":"45133","distance":"11.590310096740723","lon":"-83.614166","lat":"39.227100","theaterChainName":"Independent Chains","ticketType":"STANDARD"},{"id":"1914","name":"Chakeres Wilmington Plaza 5","address":"1276 Romback Avenue","city":"Wilmington","state":"OH","zip":"45177","distance":"9.304022789001465","lon":"-83.806480","lat":"39.447269","theaterChainName":"Republic Theaters","ticketType":"STANDARD"}]