[{"id":"2854","tribuneTheaterId":"1531","providerTheaterId":"","name":"Blanchester Showplace Cinemas","address":"115 E. Main St.","city":"Blanchester","state":"OH","zip":"45107","distance":5.0811283827889,"lon":"-83.9881","lat":"39.2933","theaterChainName":"Independent Chains","ticketType":"STANDARD"},{"id":"1914","tribuneTheaterId":"1830","providerTheaterId":"","name":"Chakeres Wilmington Plaza 5","address":"1276 Romback Avenue","city":"Wilmington","state":"OH","zip":"45177","distance":11.702296080225,"lon":"-83.806484","lat":"39.447271","theaterChainName":"Republic Theaters","ticketType":"STANDARD"},{"id":"2788","tribuneTheaterId":"1944","providerTheaterId":"","name":"Star Cinema - Hillsboro","address":"211 Harry Sauner Rd","city":"Hillsboro","state":"OH","zip":"45133","distance":15.575688904597,"lon":"-83.614165","lat":"39.227102","theaterChainName":"Independent Chains","ticketType":"STANDARD"},{"id":"2132","tribuneTheaterId":"3052","providerTheaterId":"","name":"Colony 7 Cinemas","address":"726 E. Main St.","city":"Lebanon","state":"OH","zip":"45036","distance":18.763445909315,"lon":"-84.193604","lat":"39.432301","theaterChainName":"Independent Chains","ticketType":"STANDARD"},{"id":"3101","tribuneTheaterId":"8097","providerTheaterId":"","name":"Rave Cinemas Milford 16","address":"500 Rivers Edge","city":"Milford","state":"OH","zip":"45150","distance":22.256897357513,"lon":"-84.273399","lat":"39.1614","theaterChainName":"Cinemark","ticketType":"STANDARD"},{"id":"4369","tribuneTheaterId":"9400","providerTheaterId":"","name":"Regal Deerfield Town Center Stadium 16","address":"5500 Deerfield Blvd","city":"Mason","state":"OH","zip":"45040","distance":22.817346082481,"lon":"-84.319274","lat":"39.308951","theaterChainName":"Regal Cinemas","ticketType":"STANDARD"},{"id":"5912","tribuneTheaterId":"11336","providerTheaterId":"","name":"Eastgate Brew and View","address":"4450 Eastgate Square Dr","city":"Cincinnati","state":"OH","zip":"45245","distance":23.800429911821,"lon":"-84.257069","lat":"39.093996","theaterChainName":"Independent Chains","ticketType":"STANDARD"}]