[{"id":"1081","name":"Mariemont 3 Theatre","address":"6906 Wooster Pike","city":"Cincinnati","state":"OH","zip":"45227","distance":"23.881515502929688","lon":"-84.374397","lat":"39.145100","theaterChainName":"Independent Chains","ticketType":"STANDARD"},{"id":"6051","name":"Carmike  Anderson Township Ovation Cinema Grill 9","address":"7490 Beechmont Ave","city":"Anderson Township","state":"OH","zip":"45230","distance":"21.602888107299805","lon":"-84.348709","lat":"39.075985","theaterChainName":"Carmike Cinemas","ticketType":"STANDARD"},{"id":"3101","name":"Rave Cinemas Milford 16","address":"500 Rivers Edge","city":"Milford","state":"OH","zip":"45150","distance":"19.201126098632812","lon":"-84.273399","lat":"39.161400","theaterChainName":"Cinemark","ticketType":"STANDARD"},{"id":"5912","name":"Eastgate Brew and View","address":"4450 Eastgate Square Dr","city":"Cincinnati","state":"OH","zip":"45245","distance":"16.917177200317383","lon":"-84.257072","lat":"39.093994","theaterChainName":"Independent Chains","ticketType":"STANDARD"},{"id":"4562","name":"Pierce Point Cinema 10","address":"1255 West Ohio Pike","city":"Amelia","state":"OH","zip":"45102","distance":"16.12054443359375","lon":"-84.248390","lat":"39.046940","theaterChainName":"GHTC Theatres","ticketType":"STANDARD"},{"id":"2854","name":"Blanchester Showplace Cinemas","address":"115 E. Main St.","city":"Blanchester","state":"OH","zip":"45107","distance":"17.263595581054688","lon":"-83.988098","lat":"39.293301","theaterChainName":"Independent Chains","ticketType":"STANDARD"},{"id":"2788","name":"Star Cinema - Hillsboro","address":"211 Harry Sauner Rd","city":"Hillsboro","state":"OH","zip":"45133","distance":"21.857450485229492","lon":"-83.614166","lat":"39.227100","theaterChainName":"Independent Chains","ticketType":"STANDARD"}]