[{"id":"4562","tribuneTheaterId":"9704","providerTheaterId":"","name":"Pierce Point Cinema 10","address":"1255 West Ohio Pike","city":"Amelia","state":"OH","zip":"45102","distance":13.336600743301,"lon":"-84.248394","lat":"39.04694","theaterChainName":"GHTC Theatres","ticketType":"STANDARD"},{"id":"5912","tribuneTheaterId":"11336","providerTheaterId":"","name":"Eastgate Brew and View","address":"4450 Eastgate Square Dr","city":"Cincinnati","state":"OH","zip":"45245","distance":16.614218068249,"lon":"-84.257069","lat":"39.093996","theaterChainName":"Independent Chains","ticketType":"STANDARD"},{"id":"6051","tribuneTheaterId":"11455","providerTheaterId":"","name":"Carmike  Anderson Township Ovation Cinema Grill 9","address":"7490 Beechmont Ave","city":"Anderson Township","state":"OH","zip":"45230","distance":17.137447680239,"lon":"-84.348709","lat":"39.075984","theaterChainName":"Carmike Cinemas","ticketType":"STANDARD"},{"id":"3129","tribuneTheaterId":"6078","providerTheaterId":"","name":"Great Escape Wilder 14","address":"103 Crossing Dr","city":"Wilder","state":"KY","zip":"41076","distance":19.049395697009,"lon":"-84.484509","lat":"39.018251","theaterChainName":"Regal Cinemas","ticketType":"STANDARD"},{"id":"3101","tribuneTheaterId":"8097","providerTheaterId":"","name":"Rave Cinemas Milford 16","address":"500 Rivers Edge","city":"Milford","state":"OH","zip":"45150","distance":21.352553350675,"lon":"-84.273399","lat":"39.1614","theaterChainName":"Cinemark","ticketType":"STANDARD"},{"id":"1081","tribuneTheaterId":"2803","providerTheaterId":"","name":"Mariemont 3 Theatre","address":"6906 Wooster Pike","city":"Cincinnati","state":"OH","zip":"45227","distance":22.014447809519,"lon":"-84.3744","lat":"39.1451","theaterChainName":"Independent Chains","ticketType":"STANDARD"},{"id":"3418","tribuneTheaterId":"6756","providerTheaterId":"665","name":"AMC Newport On The Levee  20","address":"One Levee Way Suite 4100","city":"Newport","state":"KY","zip":"41071","distance":22.925239495737,"lon":"-84.4962","lat":"39.094","theaterChainName":"AMC Theatres","ticketType":"STANDARD"},{"id":"5366","tribuneTheaterId":"10803","providerTheaterId":"","name":"Cinemark Oakley Station","address":"3025 Disney St.","city":"Cincinnati","state":"OH","zip":"45209","distance":24.41743717857,"lon":"-84.4303","lat":"39.1611","theaterChainName":"Cinemark","ticketType":"STANDARD"}]