[{"id":"4525","name":"Rave Motion Pictures Florence 14","address":"7860 Mall Rd.","city":"Florence","state":"KY","zip":"41042","distance":"14.43020248413086","lon":"-84.647293","lat":"38.993465","theaterChainName":"Cinemark","ticketType":"STANDARD"},{"id":"1082","name":"Parkland Theatre","address":"6550 Parkland Avenue","city":"Cincinnati","state":"OH","zip":"45233","distance":"11.070907592773438","lon":"-84.690437","lat":"39.112202","theaterChainName":"Independent Chains","ticketType":"STANDARD"},{"id":"5554","name":"Greendale Cinema","address":"1605 Flossie Dr.","city":"Greendale","state":"IN","zip":"47025","distance":"18.66417694091797","lon":"-84.840698","lat":"39.127899","theaterChainName":"Independent Chains","ticketType":"STANDARD"},{"id":"273","name":"Rave Motion Pictures Western Hills 14","address":"5870 Harrison Ave.","city":"Cincinnati","state":"OH","zip":"45248","distance":"7.740836143493652","lon":"-84.639816","lat":"39.176208","theaterChainName":"Cinemark","ticketType":"STANDARD"},{"id":"1080","name":"Esquire 6 Theatre","address":"320 Ludlow Avenue","city":"Cincinnati","state":"OH","zip":"45220","distance":"2.024888038635254","lon":"-84.520264","lat":"39.143696","theaterChainName":"Independent Chains","ticketType":"STANDARD"},{"id":"3129","name":"Great Escape Wilder 14","address":"103 Crossing Dr","city":"Wilder","state":"KY","zip":"41076","distance":"10.23432731628418","lon":"-84.484512","lat":"39.018250","theaterChainName":"Regal Cinemas","ticketType":"STANDARD"},{"id":"3418","name":"AMC Newport On The Levee  20","address":"One Levee Way Suite 4100","city":"Newport","state":"KY","zip":"41071","distance":"4.981807708740234","lon":"-84.496201","lat":"39.094002","theaterChainName":"AMC Theatres","ticketType":"STANDARD"},{"id":"5622","name":"Xscape 14 Northgate","address":"9471 Colerain Ave.","city":"Cincinnati","state":"OH","zip":"45251","distance":"7.538576126098633","lon":"-84.595001","lat":"39.243599","theaterChainName":"Independent Chains","ticketType":"STANDARD"},{"id":"5366","name":"Cinemark Oakley Station","address":"3025 Disney St.","city":"Cincinnati","state":"OH","zip":"45209","distance":"3.531712055206299","lon":"-84.430298","lat":"39.161098","theaterChainName":"Cinemark","ticketType":"STANDARD"},{"id":"274","name":"Springdale 18: Cinema De Lux","address":"12064 Springfield Pike","city":"Springdale","state":"OH","zip":"45246","distance":"9.203353881835938","lon":"-84.484497","lat":"39.299000","theaterChainName":"National Amusements","ticketType":"STANDARD"},{"id":"1081","name":"Mariemont 3 Theatre","address":"6906 Wooster Pike","city":"Cincinnati","state":"OH","zip":"45227","distance":"6.670098304748535","lon":"-84.374397","lat":"39.145100","theaterChainName":"Independent Chains","ticketType":"STANDARD"},{"id":"6051","name":"Carmike  Anderson Township Ovation Cinema Grill 9","address":"7490 Beechmont Ave","city":"Anderson Township","state":"OH","zip":"45230","distance":"10.051543235778809","lon":"-84.348709","lat":"39.075985","theaterChainName":"Carmike Cinemas","ticketType":"STANDARD"},{"id":"4994","name":"Kenwood Theatre","address":"7815 Kenwood Rd","city":"Cincinnati","state":"OH","zip":"45236","distance":"6.661412239074707","lon":"-84.380775","lat":"39.202579","theaterChainName":"Independent Chains","ticketType":"STANDARD"},{"id":"560","name":"AMC Showplace Hamilton 8","address":"1453 Main St.","city":"Hamilton","state":"OH","zip":"45013","distance":"18.60575294494629","lon":"-84.596260","lat":"39.423923","theaterChainName":"AMC Theatres","ticketType":"STANDARD"},{"id":"5287","name":"AMC West Chester 18","address":"9415 Civic Center Blvd.","city":"West Chester","state":"OH","zip":"45069","distance":"11.304194450378418","lon":"-84.420891","lat":"39.319035","theaterChainName":"AMC Theatres","ticketType":"STANDARD"},{"id":"5849","name":"Envision Grille","address":"4780 Cornell Road","city":"Cincinnati","state":"OH","zip":"45241","distance":"9.742563247680664","lon":"-84.373383","lat":"39.270359","theaterChainName":"Independent Chains","ticketType":"STANDARD"},{"id":"3101","name":"Rave Cinemas Milford 16","address":"500 Rivers Edge","city":"Milford","state":"OH","zip":"45150","distance":"11.924921989440918","lon":"-84.273399","lat":"39.161400","theaterChainName":"Cinemark","ticketType":"STANDARD"},{"id":"5912","name":"Eastgate Brew and View","address":"4450 Eastgate Square Dr","city":"Cincinnati","state":"OH","zip":"45245","distance":"13.736719131469727","lon":"-84.257072","lat":"39.093994","theaterChainName":"Independent Chains","ticketType":"STANDARD"},{"id":"4562","name":"Pierce Point Cinema 10","address":"1255 West Ohio Pike","city":"Amelia","state":"OH","zip":"45102","distance":"15.61780071258545","lon":"-84.248390","lat":"39.046940","theaterChainName":"GHTC Theatres","ticketType":"STANDARD"},{"id":"5783","name":" Cobb Liberty Luxury 15","address":"7514 Bales Street","city":"Liberty Township","state":"OH","zip":"45069","distance":"15.697588920593262","lon":"-84.374237","lat":"39.372833","theaterChainName":"Cobb Theatres","ticketType":"STANDARD"},{"id":"4369","name":"Regal Deerfield Town Center Stadium 16","address":"5500 Deerfield Blvd","city":"Mason","state":"OH","zip":"45040","distance":"13.667036056518555","lon":"-84.319275","lat":"39.308952","theaterChainName":"Regal Cinemas","ticketType":"STANDARD"},{"id":"2132","name":"Colony 7 Cinemas","address":"726 E. Main St.","city":"Lebanon","state":"OH","zip":"45036","distance":"24.487060546875","lon":"-84.193604","lat":"39.432301","theaterChainName":"Independent Chains","ticketType":"STANDARD"},{"id":"535","name":"Danbarry Cinemas Middletown","address":"3479 Dixie Hwy","city":"Middletown","state":"OH","zip":"45005","distance":"24.311067581176758","lon":"-84.337730","lat":"39.495979","theaterChainName":"Danbarry Cinemas","ticketType":"STANDARD"}]