[{"id":"6051","tribuneTheaterId":"11455","providerTheaterId":"","name":"Carmike  Anderson Township Ovation Cinema Grill 9","address":"7490 Beechmont Ave","city":"Anderson Township","state":"OH","zip":"45230","distance":2.9815586965967,"lon":"-84.348709","lat":"39.075984","theaterChainName":"Carmike Cinemas","ticketType":"STANDARD"},{"id":"1081","tribuneTheaterId":"2803","providerTheaterId":"","name":"Mariemont 3 Theatre","address":"6906 Wooster Pike","city":"Cincinnati","state":"OH","zip":"45227","distance":2.1908859721779,"lon":"-84.3744","lat":"39.1451","theaterChainName":"Independent Chains","ticketType":"STANDARD"},{"id":"3101","tribuneTheaterId":"8097","providerTheaterId":"","name":"Rave Cinemas Milford 16","address":"500 Rivers Edge","city":"Milford","state":"OH","zip":"45150","distance":5.0828605729311,"lon":"-84.273399","lat":"39.1614","theaterChainName":"Cinemark","ticketType":"STANDARD"},{"id":"4994","tribuneTheaterId":"10363","providerTheaterId":"","name":"Kenwood Theatre","address":"7815 Kenwood Rd","city":"Cincinnati","state":"OH","zip":"45236","distance":5.9843800918459,"lon":"-84.380777","lat":"39.202579","theaterChainName":"Independent Chains","ticketType":"STANDARD"},{"id":"5366","tribuneTheaterId":"10803","providerTheaterId":"","name":"Cinemark Oakley Station","address":"3025 Disney St.","city":"Cincinnati","state":"OH","zip":"45209","distance":5.1459071928088,"lon":"-84.4303","lat":"39.1611","theaterChainName":"Cinemark","ticketType":"STANDARD"},{"id":"5912","tribuneTheaterId":"11336","providerTheaterId":"","name":"Eastgate Brew and View","address":"4450 Eastgate Square Dr","city":"Cincinnati","state":"OH","zip":"45245","distance":5.3264067452304,"lon":"-84.257069","lat":"39.093996","theaterChainName":"Independent Chains","ticketType":"STANDARD"},{"id":"3418","tribuneTheaterId":"6756","providerTheaterId":"665","name":"AMC Newport On The Levee  20","address":"One Levee Way Suite 4100","city":"Newport","state":"KY","zip":"41071","distance":7.9756738856685,"lon":"-84.4962","lat":"39.094","theaterChainName":"AMC Theatres","ticketType":"STANDARD"},{"id":"4562","tribuneTheaterId":"9704","providerTheaterId":"","name":"Pierce Point Cinema 10","address":"1255 West Ohio Pike","city":"Amelia","state":"OH","zip":"45102","distance":7.4257071376698,"lon":"-84.248394","lat":"39.04694","theaterChainName":"GHTC Theatres","ticketType":"STANDARD"},{"id":"3129","tribuneTheaterId":"6078","providerTheaterId":"","name":"Great Escape Wilder 14","address":"103 Crossing Dr","city":"Wilder","state":"KY","zip":"41076","distance":9.9922654028718,"lon":"-84.484509","lat":"39.018251","theaterChainName":"Regal Cinemas","ticketType":"STANDARD"},{"id":"1080","tribuneTheaterId":"2980","providerTheaterId":"","name":"Esquire 6 Theatre","address":"320 Ludlow Avenue","city":"Cincinnati","state":"OH","zip":"45220","distance":9.2297858294929,"lon":"-84.520267","lat":"39.143696","theaterChainName":"Independent Chains","ticketType":"STANDARD"},{"id":"5849","tribuneTheaterId":"11261","providerTheaterId":"","name":"Envision Grille","address":"4780 Cornell Road","city":"Cincinnati","state":"OH","zip":"45241","distance":10.519399358796,"lon":"-84.37338","lat":"39.270358","theaterChainName":"Independent Chains","ticketType":"STANDARD"},{"id":"4369","tribuneTheaterId":"9400","providerTheaterId":"","name":"Regal Deerfield Town Center Stadium 16","address":"5500 Deerfield Blvd","city":"Mason","state":"OH","zip":"45040","distance":13.226924394158,"lon":"-84.319274","lat":"39.308951","theaterChainName":"Regal Cinemas","ticketType":"STANDARD"},{"id":"5287","tribuneTheaterId":"10721","providerTheaterId":"467","name":"AMC West Chester 18","address":"9415 Civic Center Blvd.","city":"West Chester","state":"OH","zip":"45069","distance":14.311748452693,"lon":"-84.420887","lat":"39.319035","theaterChainName":"AMC Theatres","ticketType":"STANDARD"},{"id":"274","tribuneTheaterId":"6939","providerTheaterId":"","name":"Springdale 18: Cinema De Lux","address":"12064 Springfield Pike","city":"Springdale","state":"OH","zip":"45246","distance":14.338100395241,"lon":"-84.484497","lat":"39.299","theaterChainName":"National Amusements","ticketType":"STANDARD"},{"id":"5622","tribuneTheaterId":"11084","providerTheaterId":"","name":"Xscape 14 Northgate","address":"9471 Colerain Ave.","city":"Cincinnati","state":"OH","zip":"45251","distance":15.6451491427,"lon":"-84.595","lat":"39.2436","theaterChainName":"Independent Chains","ticketType":"STANDARD"},{"id":"273","tribuneTheaterId":"8534","providerTheaterId":"","name":"Rave Motion Pictures Western Hills 14","address":"5870 Harrison Ave.","city":"Cincinnati","state":"OH","zip":"45248","distance":15.971044539009,"lon":"-84.63982","lat":"39.176209","theaterChainName":"Cinemark","ticketType":"STANDARD"},{"id":"1082","tribuneTheaterId":"235","providerTheaterId":"","name":"Parkland Theatre","address":"6550 Parkland Avenue","city":"Cincinnati","state":"OH","zip":"45233","distance":18.20256499113,"lon":"-84.690435","lat":"39.1122","theaterChainName":"Independent Chains","ticketType":"STANDARD"},{"id":"5783","tribuneTheaterId":"11223","providerTheaterId":"","name":" Cobb Liberty Luxury 15","address":"7514 Bales Street","city":"Liberty Township","state":"OH","zip":"45069","distance":17.575356559502,"lon":"-84.374237","lat":"39.372834","theaterChainName":"Cobb Theatres","ticketType":"STANDARD"},{"id":"4525","tribuneTheaterId":"9649","providerTheaterId":"","name":"Rave Motion Pictures Florence 14","address":"7860 Mall Rd.","city":"Florence","state":"KY","zip":"41042","distance":18.112506267812,"lon":"-84.647292","lat":"38.993465","theaterChainName":"Cinemark","ticketType":"STANDARD"},{"id":"2854","tribuneTheaterId":"1531","providerTheaterId":"","name":"Blanchester Showplace Cinemas","address":"115 E. Main St.","city":"Blanchester","state":"OH","zip":"45107","distance":22.855184878695,"lon":"-83.9881","lat":"39.2933","theaterChainName":"Independent Chains","ticketType":"STANDARD"},{"id":"2132","tribuneTheaterId":"3052","providerTheaterId":"","name":"Colony 7 Cinemas","address":"726 E. Main St.","city":"Lebanon","state":"OH","zip":"45036","distance":23.219886875766,"lon":"-84.193604","lat":"39.432301","theaterChainName":"Independent Chains","ticketType":"STANDARD"},{"id":"560","tribuneTheaterId":"7166","providerTheaterId":"6352","name":"AMC Showplace Hamilton 8","address":"1453 Main St.","city":"Hamilton","state":"OH","zip":"45013","distance":24.812927298787,"lon":"-84.596261","lat":"39.423925","theaterChainName":"AMC Theatres","ticketType":"STANDARD"}]