[{"id":"4617","tribuneTheaterId":"9791","providerTheaterId":"","name":"Cinemark at Miami Valley Centre","address":"1020 Garbry Road","city":"Piqua","state":"OH","zip":"45356","distance":11.136125274794,"lon":"-84.219741","lat":"40.146231","theaterChainName":"Cinemark","ticketType":"STANDARD"},{"id":"1993","tribuneTheaterId":"5853","providerTheaterId":"","name":"Wayne Cinemas","address":"540 South Broadway","city":"Greenville","state":"OH","zip":"45331","distance":10.832262112683,"lon":"-84.630847","lat":"40.099939","theaterChainName":"Independent Chains","ticketType":"STANDARD"},{"id":"2556","tribuneTheaterId":"7479","providerTheaterId":"","name":"Movies 5 - Troy","address":"916 N. Market St.","city":"Troy","state":"OH","zip":"45373","distance":13.516870203386,"lon":"-84.194729","lat":"40.050705","theaterChainName":"Independent Chains","ticketType":"STANDARD"},{"id":"1299","tribuneTheaterId":"2487","providerTheaterId":"","name":"Englewood Cinema","address":"320 W. National Road","city":"Englewood","state":"OH","zip":"45322","distance":18.636222385991,"lon":"-84.307569","lat":"39.875506","theaterChainName":"Independent Chains","ticketType":"STANDARD"},{"id":"3692","tribuneTheaterId":"2650","providerTheaterId":"","name":"Lock One Theatre","address":"8 West Monroe Street","city":"New Bremen","state":"OH","zip":"45869","distance":21.460204739337,"lon":"-84.380943","lat":"40.436999","theaterChainName":"Independent Chains","ticketType":"STANDARD"},{"id":"288","tribuneTheaterId":"8536","providerTheaterId":"","name":"Rave Motion Pictures Huber Heights 16","address":"7737 Wayne Town Boulevard","city":"Huber Heights","state":"OH","zip":"45424","distance":23.589866858175,"lon":"-84.142601","lat":"39.867199","theaterChainName":"Cinemark","ticketType":"STANDARD"}]