[{"id":"2035","name":"Elder Theatre","address":"106 W. Pike St.","city":"Jackson Center","state":"OH","zip":"45334","distance":"9.243497848510742","lon":"-84.040611","lat":"40.439865","theaterChainName":"Independent Chains","ticketType":"STANDARD"},{"id":"2556","name":"Movies 5 - Troy","address":"916 N. Market St.","city":"Troy","state":"OH","zip":"45373","distance":"24.501726150512695","lon":"-84.194733","lat":"40.050705","theaterChainName":"Independent Chains","ticketType":"STANDARD"},{"id":"4617","name":"Cinemark at Miami Valley Centre","address":"1020 Garbry Road","city":"Piqua","state":"OH","zip":"45356","distance":"17.894163131713867","lon":"-84.219742","lat":"40.146233","theaterChainName":"Cinemark","ticketType":"STANDARD"},{"id":"3692","name":"Lock One Theatre","address":"8 West Monroe Street","city":"New Bremen","state":"OH","zip":"45869","distance":"9.243330955505371","lon":"-84.380943","lat":"40.437000","theaterChainName":"Independent Chains","ticketType":"STANDARD"},{"id":"4175","name":"Regal American Mall Stadium 12","address":"2830 West Elm Street","city":"Lima","state":"OH","zip":"45805","distance":"23.20359992980957","lon":"-84.156616","lat":"40.738426","theaterChainName":"Regal Cinemas","ticketType":"STANDARD"},{"id":"1899","name":"Chakeres Celina 5","address":"116 North Main Street","city":"Celina","state":"OH","zip":"45822","distance":"21.41199493408203","lon":"-84.570679","lat":"40.549599","theaterChainName":"Chakeres Theatres","ticketType":"STANDARD"}]