[{"id":"1294","tribuneTheaterId":"259","providerTheaterId":"","name":"Byjo Theatre","address":"20 N Main","city":"Germantown","state":"OH","zip":"45327","distance":12.7783310312,"lon":"-84.370409","lat":"39.625355","theaterChainName":"Independent Chains","ticketType":"STANDARD"},{"id":"560","tribuneTheaterId":"7166","providerTheaterId":"6352","name":"AMC Showplace Hamilton 8","address":"1453 Main St.","city":"Hamilton","state":"OH","zip":"45013","distance":13.111918109424,"lon":"-84.596261","lat":"39.423925","theaterChainName":"AMC Theatres","ticketType":"STANDARD"},{"id":"5859","tribuneTheaterId":"11273","providerTheaterId":"","name":"The Plaza Theatre","address":"33 South Main St.","city":"Miamisburg","state":"OH","zip":"45342","distance":17.154032771738,"lon":"-84.289677","lat":"39.641168","theaterChainName":"Independent Chains","ticketType":"STANDARD"},{"id":"535","tribuneTheaterId":"3133","providerTheaterId":"","name":"Danbarry Cinemas Middletown","address":"3479 Dixie Hwy","city":"Middletown","state":"OH","zip":"45005","distance":16.619232909452,"lon":"-84.337728","lat":"39.495981","theaterChainName":"Danbarry Cinemas","ticketType":"STANDARD"},{"id":"1521","tribuneTheaterId":"5931","providerTheaterId":"6821","name":"AMC Showplace Richmond 11","address":"4713 National Road","city":"Richmond","state":"IN","zip":"47374","distance":19.18944128458,"lon":"-84.836367","lat":"39.82978","theaterChainName":"AMC Theatres","ticketType":"STANDARD"},{"id":"5783","tribuneTheaterId":"11223","providerTheaterId":"","name":" Cobb Liberty Luxury 15","address":"7514 Bales Street","city":"Liberty Township","state":"OH","zip":"45069","distance":20.839789336028,"lon":"-84.374237","lat":"39.372834","theaterChainName":"Cobb Theatres","ticketType":"STANDARD"},{"id":"3102","tribuneTheaterId":"7945","providerTheaterId":"","name":"Dayton South: Rave Digital Projection","address":"195 Mall Woods Drive","city":"West Carrollton","state":"OH","zip":"45449","distance":20.408697445295,"lon":"-84.228455","lat":"39.643267","theaterChainName":"Cinemark","ticketType":"STANDARD"},{"id":"5287","tribuneTheaterId":"10721","providerTheaterId":"467","name":"AMC West Chester 18","address":"9415 Civic Center Blvd.","city":"West Chester","state":"OH","zip":"45069","distance":22.702716072002,"lon":"-84.420887","lat":"39.319035","theaterChainName":"AMC Theatres","ticketType":"STANDARD"},{"id":"274","tribuneTheaterId":"6939","providerTheaterId":"","name":"Springdale 18: Cinema De Lux","address":"12064 Springfield Pike","city":"Springdale","state":"OH","zip":"45246","distance":22.731310503426,"lon":"-84.484497","lat":"39.299","theaterChainName":"National Amusements","ticketType":"STANDARD"},{"id":"1299","tribuneTheaterId":"2487","providerTheaterId":"","name":"Englewood Cinema","address":"320 W. National Road","city":"Englewood","state":"OH","zip":"45322","distance":24.209707342397,"lon":"-84.307569","lat":"39.875506","theaterChainName":"Independent Chains","ticketType":"STANDARD"},{"id":"1301","tribuneTheaterId":"2701","providerTheaterId":"","name":"Neon Movies","address":"130 E. 5th Street","city":"Dayton","state":"OH","zip":"45402","distance":24.538664398753,"lon":"-84.18797","lat":"39.757109","theaterChainName":"Independent Chains","ticketType":"STANDARD"}]