[{"id":"2556","tribuneTheaterId":"7479","providerTheaterId":"","name":"Movies 5 - Troy","address":"916 N. Market St.","city":"Troy","state":"OH","zip":"45373","distance":8.55300347069,"lon":"-84.194729","lat":"40.050705","theaterChainName":"Independent Chains","ticketType":"STANDARD"},{"id":"1299","tribuneTheaterId":"2487","providerTheaterId":"","name":"Englewood Cinema","address":"320 W. National Road","city":"Englewood","state":"OH","zip":"45322","distance":7.8309146506264,"lon":"-84.307569","lat":"39.875506","theaterChainName":"Independent Chains","ticketType":"STANDARD"},{"id":"288","tribuneTheaterId":"8536","providerTheaterId":"","name":"Rave Motion Pictures Huber Heights 16","address":"7737 Wayne Town Boulevard","city":"Huber Heights","state":"OH","zip":"45424","distance":13.070270169586,"lon":"-84.142601","lat":"39.867199","theaterChainName":"Cinemark","ticketType":"STANDARD"},{"id":"4617","tribuneTheaterId":"9791","providerTheaterId":"","name":"Cinemark at Miami Valley Centre","address":"1020 Garbry Road","city":"Piqua","state":"OH","zip":"45356","distance":12.530230574302,"lon":"-84.219741","lat":"40.146231","theaterChainName":"Cinemark","ticketType":"STANDARD"},{"id":"1993","tribuneTheaterId":"5853","providerTheaterId":"","name":"Wayne Cinemas","address":"540 South Broadway","city":"Greenville","state":"OH","zip":"45331","distance":17.559141672864,"lon":"-84.630847","lat":"40.099939","theaterChainName":"Independent Chains","ticketType":"STANDARD"},{"id":"1301","tribuneTheaterId":"2701","providerTheaterId":"","name":"Neon Movies","address":"130 E. 5th Street","city":"Dayton","state":"OH","zip":"45402","distance":17.663246105141,"lon":"-84.18797","lat":"39.757109","theaterChainName":"Independent Chains","ticketType":"STANDARD"},{"id":"2582","tribuneTheaterId":"8306","providerTheaterId":"","name":"Regal Hollywood Stadium 20  Fairfield Commons","address":"2651 Fairfield Commons","city":"Beavercreek","state":"OH","zip":"45431","distance":21.210409528892,"lon":"-84.058928","lat":"39.763787","theaterChainName":"Regal Cinemas","ticketType":"STANDARD"},{"id":"3102","tribuneTheaterId":"7945","providerTheaterId":"","name":"Dayton South: Rave Digital Projection","address":"195 Mall Woods Drive","city":"West Carrollton","state":"OH","zip":"45449","distance":24.40069838319,"lon":"-84.228455","lat":"39.643267","theaterChainName":"Cinemark","ticketType":"STANDARD"},{"id":"5859","tribuneTheaterId":"11273","providerTheaterId":"","name":"The Plaza Theatre","address":"33 South Main St.","city":"Miamisburg","state":"OH","zip":"45342","distance":24.013960981488,"lon":"-84.289677","lat":"39.641168","theaterChainName":"Independent Chains","ticketType":"STANDARD"},{"id":"4337","tribuneTheaterId":"9317","providerTheaterId":"","name":"The Greene: Rave Digital Projection","address":"4489 Glengarry Drive","city":"Beavercreek","state":"OH","zip":"45440","distance":23.708433057627,"lon":"-84.102097","lat":"39.693501","theaterChainName":"Cinemark","ticketType":"STANDARD"}]