[{"id":"3692","tribuneTheaterId":"2650","providerTheaterId":"","name":"Lock One Theatre","address":"8 West Monroe Street","city":"New Bremen","state":"OH","zip":"45869","distance":6.230345066328,"lon":"-84.380943","lat":"40.436999","theaterChainName":"Independent Chains","ticketType":"STANDARD"},{"id":"2035","tribuneTheaterId":"2509","providerTheaterId":"","name":"Elder Theatre","address":"106 W. Pike St.","city":"Jackson Center","state":"OH","zip":"45334","distance":11.673916712047,"lon":"-84.040609","lat":"40.439867","theaterChainName":"Independent Chains","ticketType":"STANDARD"},{"id":"1899","tribuneTheaterId":"2947","providerTheaterId":"","name":"Chakeres Celina 5","address":"116 North Main Street","city":"Celina","state":"OH","zip":"45822","distance":17.833091645402,"lon":"-84.570681","lat":"40.549597","theaterChainName":"Chakeres Theatres","ticketType":"STANDARD"},{"id":"4175","tribuneTheaterId":"4641","providerTheaterId":"","name":"Regal American Mall Stadium 12","address":"2830 West Elm Street","city":"Lima","state":"OH","zip":"45805","distance":21.269147668629,"lon":"-84.156616","lat":"40.738425","theaterChainName":"Regal Cinemas","ticketType":"STANDARD"},{"id":"4617","tribuneTheaterId":"9791","providerTheaterId":"","name":"Cinemark at Miami Valley Centre","address":"1020 Garbry Road","city":"Piqua","state":"OH","zip":"45356","distance":20.512026782338,"lon":"-84.219741","lat":"40.146231","theaterChainName":"Cinemark","ticketType":"STANDARD"}]