[{"id":"2035","tribuneTheaterId":"2509","providerTheaterId":"","name":"Elder Theatre","address":"106 W. Pike St.","city":"Jackson Center","state":"OH","zip":"45334","distance":0.38812148102672,"lon":"-84.040609","lat":"40.439867","theaterChainName":"Independent Chains","ticketType":"STANDARD"},{"id":"3692","tribuneTheaterId":"2650","providerTheaterId":"","name":"Lock One Theatre","address":"8 West Monroe Street","city":"New Bremen","state":"OH","zip":"45869","distance":17.630190156449,"lon":"-84.380943","lat":"40.436999","theaterChainName":"Independent Chains","ticketType":"STANDARD"},{"id":"1895","tribuneTheaterId":"3949","providerTheaterId":"","name":"Chakeres Bellefontaine Cinema 8","address":"888 East Sandusky St","city":"Bellefontaine","state":"OH","zip":"43311","distance":16.956011283012,"lon":"-83.737214","lat":"40.364834","theaterChainName":"Chakeres Theatres","ticketType":"STANDARD"},{"id":"4175","tribuneTheaterId":"4641","providerTheaterId":"","name":"Regal American Mall Stadium 12","address":"2830 West Elm Street","city":"Lima","state":"OH","zip":"45805","distance":21.704184325308,"lon":"-84.156616","lat":"40.738425","theaterChainName":"Regal Cinemas","ticketType":"STANDARD"},{"id":"4617","tribuneTheaterId":"9791","providerTheaterId":"","name":"Cinemark at Miami Valley Centre","address":"1020 Garbry Road","city":"Piqua","state":"OH","zip":"45356","distance":22.009605836696,"lon":"-84.219741","lat":"40.146231","theaterChainName":"Cinemark","ticketType":"STANDARD"}]