[{"id":"1993","tribuneTheaterId":"5853","providerTheaterId":"","name":"Wayne Cinemas","address":"540 South Broadway","city":"Greenville","state":"OH","zip":"45331","distance":10.913640679576,"lon":"-84.630847","lat":"40.099939","theaterChainName":"Independent Chains","ticketType":"STANDARD"},{"id":"1299","tribuneTheaterId":"2487","providerTheaterId":"","name":"Englewood Cinema","address":"320 W. National Road","city":"Englewood","state":"OH","zip":"45322","distance":12.219497189144,"lon":"-84.307569","lat":"39.875506","theaterChainName":"Independent Chains","ticketType":"STANDARD"},{"id":"2556","tribuneTheaterId":"7479","providerTheaterId":"","name":"Movies 5 - Troy","address":"916 N. Market St.","city":"Troy","state":"OH","zip":"45373","distance":16.059018252342,"lon":"-84.194729","lat":"40.050705","theaterChainName":"Independent Chains","ticketType":"STANDARD"},{"id":"4617","tribuneTheaterId":"9791","providerTheaterId":"","name":"Cinemark at Miami Valley Centre","address":"1020 Garbry Road","city":"Piqua","state":"OH","zip":"45356","distance":17.892733647595,"lon":"-84.219741","lat":"40.146231","theaterChainName":"Cinemark","ticketType":"STANDARD"},{"id":"288","tribuneTheaterId":"8536","providerTheaterId":"","name":"Rave Motion Pictures Huber Heights 16","address":"7737 Wayne Town Boulevard","city":"Huber Heights","state":"OH","zip":"45424","distance":20.018271107504,"lon":"-84.142601","lat":"39.867199","theaterChainName":"Cinemark","ticketType":"STANDARD"},{"id":"1301","tribuneTheaterId":"2701","providerTheaterId":"","name":"Neon Movies","address":"130 E. 5th Street","city":"Dayton","state":"OH","zip":"45402","distance":22.4291107489,"lon":"-84.18797","lat":"39.757109","theaterChainName":"Independent Chains","ticketType":"STANDARD"},{"id":"1521","tribuneTheaterId":"5931","providerTheaterId":"6821","name":"AMC Showplace Richmond 11","address":"4713 National Road","city":"Richmond","state":"IN","zip":"47374","distance":21.48576717147,"lon":"-84.836367","lat":"39.82978","theaterChainName":"AMC Theatres","ticketType":"STANDARD"}]