[{"id":"2556","name":"Movies 5 - Troy","address":"916 N. Market St.","city":"Troy","state":"OH","zip":"45373","distance":"13.099446296691895","lon":"-84.194733","lat":"40.050705","theaterChainName":"Independent Chains","ticketType":"STANDARD"},{"id":"4617","name":"Cinemark at Miami Valley Centre","address":"1020 Garbry Road","city":"Piqua","state":"OH","zip":"45356","distance":"16.29488754272461","lon":"-84.219742","lat":"40.146233","theaterChainName":"Cinemark","ticketType":"STANDARD"},{"id":"288","name":"Rave Motion Pictures Huber Heights 16","address":"7737 Wayne Town Boulevard","city":"Huber Heights","state":"OH","zip":"45424","distance":"15.8720121383667","lon":"-84.142601","lat":"39.867199","theaterChainName":"Cinemark","ticketType":"STANDARD"},{"id":"2582","name":"Regal Hollywood Stadium 20  Fairfield Commons","address":"2651 Fairfield Commons","city":"Beavercreek","state":"OH","zip":"45431","distance":"23.36817741394043","lon":"-84.058929","lat":"39.763786","theaterChainName":"Regal Cinemas","ticketType":"STANDARD"},{"id":"1299","name":"Englewood Cinema","address":"320 W. National Road","city":"Englewood","state":"OH","zip":"45322","distance":"8.311247825622559","lon":"-84.307571","lat":"39.875507","theaterChainName":"Independent Chains","ticketType":"STANDARD"},{"id":"1301","name":"Neon Movies","address":"130 E. 5th Street","city":"Dayton","state":"OH","zip":"45402","distance":"18.64763069152832","lon":"-84.187973","lat":"39.757111","theaterChainName":"Independent Chains","ticketType":"STANDARD"},{"id":"4337","name":"The Greene: Rave Digital Projection","address":"4489 Glengarry Drive","city":"Beavercreek","state":"OH","zip":"45440","distance":"24.95734214782715","lon":"-84.102097","lat":"39.693501","theaterChainName":"Cinemark","ticketType":"STANDARD"},{"id":"1294","name":"Byjo Theatre","address":"20 N Main","city":"Germantown","state":"OH","zip":"45327","distance":"23.482046127319336","lon":"-84.370407","lat":"39.625355","theaterChainName":"Independent Chains","ticketType":"STANDARD"},{"id":"5859","name":"The Plaza Theatre","address":"33 South Main St.","city":"Miamisburg","state":"OH","zip":"45342","distance":"23.23719024658203","lon":"-84.289680","lat":"39.641167","theaterChainName":"Independent Chains","ticketType":"STANDARD"},{"id":"3102","name":"Dayton South: Rave Digital Projection","address":"195 Mall Woods Drive","city":"West Carrollton","state":"OH","zip":"45449","distance":"24.231157302856445","lon":"-84.228455","lat":"39.643269","theaterChainName":"Cinemark","ticketType":"STANDARD"},{"id":"1521","name":"AMC Showplace Richmond 11","address":"4713 National Road","city":"Richmond","state":"IN","zip":"47374","distance":"24.197494506835938","lon":"-84.836365","lat":"39.829781","theaterChainName":"AMC Theatres","ticketType":"STANDARD"},{"id":"1993","name":"Wayne Cinemas","address":"540 South Broadway","city":"Greenville","state":"OH","zip":"45331","distance":"14.828825950622559","lon":"-84.630844","lat":"40.099937","theaterChainName":"Independent Chains","ticketType":"STANDARD"}]