[{"id":"4617","tribuneTheaterId":"9791","providerTheaterId":"","name":"Cinemark at Miami Valley Centre","address":"1020 Garbry Road","city":"Piqua","state":"OH","zip":"45356","distance":10.215367467847,"lon":"-84.219741","lat":"40.146231","theaterChainName":"Cinemark","ticketType":"STANDARD"},{"id":"2035","tribuneTheaterId":"2509","providerTheaterId":"","name":"Elder Theatre","address":"106 W. Pike St.","city":"Jackson Center","state":"OH","zip":"45334","distance":12.326812189975,"lon":"-84.040609","lat":"40.439867","theaterChainName":"Independent Chains","ticketType":"STANDARD"},{"id":"3692","tribuneTheaterId":"2650","providerTheaterId":"","name":"Lock One Theatre","address":"8 West Monroe Street","city":"New Bremen","state":"OH","zip":"45869","distance":15.474469410414,"lon":"-84.380943","lat":"40.436999","theaterChainName":"Independent Chains","ticketType":"STANDARD"},{"id":"2556","tribuneTheaterId":"7479","providerTheaterId":"","name":"Movies 5 - Troy","address":"916 N. Market St.","city":"Troy","state":"OH","zip":"45373","distance":16.443971437543,"lon":"-84.194729","lat":"40.050705","theaterChainName":"Independent Chains","ticketType":"STANDARD"},{"id":"1895","tribuneTheaterId":"3949","providerTheaterId":"","name":"Chakeres Bellefontaine Cinema 8","address":"888 East Sandusky St","city":"Bellefontaine","state":"OH","zip":"43311","distance":23.016523119787,"lon":"-83.737214","lat":"40.364834","theaterChainName":"Chakeres Theatres","ticketType":"STANDARD"}]