[{"id":"5763","name":"London State Theatre","address":"67 South Main Street","city":"London","state":"OH","zip":"43140","distance":"24.161787033081055","lon":"-83.447433","lat":"39.884888","theaterChainName":"Independent Chains","ticketType":"STANDARD"},{"id":"1906","name":"Chakeres Cinema 10","address":"3115 East National Road","city":"Springfield","state":"OH","zip":"45505","distance":"10.9380464553833","lon":"-83.759224","lat":"39.922562","theaterChainName":"Chakeres Theatres","ticketType":"STANDARD"},{"id":"1298","name":"Chakeres Upper Valley 5","address":"1475 Upper Valley Pike","city":"Springfield","state":"OH","zip":"45504","distance":"10.39369010925293","lon":"-83.853745","lat":"39.947552","theaterChainName":"Chakeres Theatres","ticketType":"STANDARD"},{"id":"1300","name":"Little Art Theatre","address":"247 Xenia Ave","city":"Yellow Springs","state":"OH","zip":"45387","distance":"0.3814578652381897","lon":"-83.889214","lat":"39.805119","theaterChainName":"Independent Chains","ticketType":"STANDARD"},{"id":"2556","name":"Movies 5 - Troy","address":"916 N. Market St.","city":"Troy","state":"OH","zip":"45373","distance":"23.734846115112305","lon":"-84.194733","lat":"40.050705","theaterChainName":"Independent Chains","ticketType":"STANDARD"},{"id":"288","name":"Rave Motion Pictures Huber Heights 16","address":"7737 Wayne Town Boulevard","city":"Huber Heights","state":"OH","zip":"45424","distance":"14.238945007324219","lon":"-84.142601","lat":"39.867199","theaterChainName":"Cinemark","ticketType":"STANDARD"},{"id":"2582","name":"Regal Hollywood Stadium 20  Fairfield Commons","address":"2651 Fairfield Commons","city":"Beavercreek","state":"OH","zip":"45431","distance":"9.351446151733398","lon":"-84.058929","lat":"39.763786","theaterChainName":"Regal Cinemas","ticketType":"STANDARD"},{"id":"1299","name":"Englewood Cinema","address":"320 W. National Road","city":"Englewood","state":"OH","zip":"45322","distance":"22.814207077026367","lon":"-84.307571","lat":"39.875507","theaterChainName":"Independent Chains","ticketType":"STANDARD"},{"id":"1301","name":"Neon Movies","address":"130 E. 5th Street","city":"Dayton","state":"OH","zip":"45402","distance":"16.140413284301758","lon":"-84.187973","lat":"39.757111","theaterChainName":"Independent Chains","ticketType":"STANDARD"},{"id":"4337","name":"The Greene: Rave Digital Projection","address":"4489 Glengarry Drive","city":"Beavercreek","state":"OH","zip":"45440","distance":"13.483283042907715","lon":"-84.102097","lat":"39.693501","theaterChainName":"Cinemark","ticketType":"STANDARD"},{"id":"5859","name":"The Plaza Theatre","address":"33 South Main St.","city":"Miamisburg","state":"OH","zip":"45342","distance":"23.939682006835938","lon":"-84.289680","lat":"39.641167","theaterChainName":"Independent Chains","ticketType":"STANDARD"},{"id":"3102","name":"Dayton South: Rave Digital Projection","address":"195 Mall Woods Drive","city":"West Carrollton","state":"OH","zip":"45449","distance":"21.023128509521484","lon":"-84.228455","lat":"39.643269","theaterChainName":"Cinemark","ticketType":"STANDARD"},{"id":"1914","name":"Chakeres Wilmington Plaza 5","address":"1276 Romback Avenue","city":"Wilmington","state":"OH","zip":"45177","distance":"24.739017486572266","lon":"-83.806480","lat":"39.447269","theaterChainName":"Republic Theaters","ticketType":"STANDARD"}]