[{"id":"2556","name":"Movies 5 - Troy","address":"916 N. Market St.","city":"Troy","state":"OH","zip":"45373","distance":"24.705310821533203","lon":"-84.194733","lat":"40.050705","theaterChainName":"Independent Chains","ticketType":"STANDARD"},{"id":"1299","name":"Englewood Cinema","address":"320 W. National Road","city":"Englewood","state":"OH","zip":"45322","distance":"16.63808250427246","lon":"-84.307571","lat":"39.875507","theaterChainName":"Independent Chains","ticketType":"STANDARD"},{"id":"1294","name":"Byjo Theatre","address":"20 N Main","city":"Germantown","state":"OH","zip":"45327","distance":"23.278528213500977","lon":"-84.370407","lat":"39.625355","theaterChainName":"Independent Chains","ticketType":"STANDARD"},{"id":"1521","name":"AMC Showplace Richmond 11","address":"4713 National Road","city":"Richmond","state":"IN","zip":"47374","distance":"12.558805465698242","lon":"-84.836365","lat":"39.829781","theaterChainName":"AMC Theatres","ticketType":"STANDARD"},{"id":"1993","name":"Wayne Cinemas","address":"540 South Broadway","city":"Greenville","state":"OH","zip":"45331","distance":"13.64903450012207","lon":"-84.630844","lat":"40.099937","theaterChainName":"Independent Chains","ticketType":"STANDARD"}]