[{"id":"1301","tribuneTheaterId":"2701","providerTheaterId":"","name":"Neon Movies","address":"130 E. 5th Street","city":"Dayton","state":"OH","zip":"45402","distance":3.8567245360759,"lon":"-84.18797","lat":"39.757109","theaterChainName":"Independent Chains","ticketType":"STANDARD"},{"id":"5859","tribuneTheaterId":"11273","providerTheaterId":"","name":"The Plaza Theatre","address":"33 South Main St.","city":"Miamisburg","state":"OH","zip":"45342","distance":7.4682641590085,"lon":"-84.289677","lat":"39.641168","theaterChainName":"Independent Chains","ticketType":"STANDARD"},{"id":"3102","tribuneTheaterId":"7945","providerTheaterId":"","name":"Dayton South: Rave Digital Projection","address":"195 Mall Woods Drive","city":"West Carrollton","state":"OH","zip":"45449","distance":7.3322550088399,"lon":"-84.228455","lat":"39.643267","theaterChainName":"Cinemark","ticketType":"STANDARD"},{"id":"4337","tribuneTheaterId":"9317","providerTheaterId":"","name":"The Greene: Rave Digital Projection","address":"4489 Glengarry Drive","city":"Beavercreek","state":"OH","zip":"45440","distance":9.1273719563122,"lon":"-84.102097","lat":"39.693501","theaterChainName":"Cinemark","ticketType":"STANDARD"},{"id":"1294","tribuneTheaterId":"259","providerTheaterId":"","name":"Byjo Theatre","address":"20 N Main","city":"Germantown","state":"OH","zip":"45327","distance":10.256486608322,"lon":"-84.370409","lat":"39.625355","theaterChainName":"Independent Chains","ticketType":"STANDARD"},{"id":"1299","tribuneTheaterId":"2487","providerTheaterId":"","name":"Englewood Cinema","address":"320 W. National Road","city":"Englewood","state":"OH","zip":"45322","distance":9.2610244811392,"lon":"-84.307569","lat":"39.875506","theaterChainName":"Independent Chains","ticketType":"STANDARD"},{"id":"2582","tribuneTheaterId":"8306","providerTheaterId":"","name":"Regal Hollywood Stadium 20  Fairfield Commons","address":"2651 Fairfield Commons","city":"Beavercreek","state":"OH","zip":"45431","distance":10.708591083984,"lon":"-84.058928","lat":"39.763787","theaterChainName":"Regal Cinemas","ticketType":"STANDARD"},{"id":"288","tribuneTheaterId":"8536","providerTheaterId":"","name":"Rave Motion Pictures Huber Heights 16","address":"7737 Wayne Town Boulevard","city":"Huber Heights","state":"OH","zip":"45424","distance":10.377095614369,"lon":"-84.142601","lat":"39.867199","theaterChainName":"Cinemark","ticketType":"STANDARD"},{"id":"535","tribuneTheaterId":"3133","providerTheaterId":"","name":"Danbarry Cinemas Middletown","address":"3479 Dixie Hwy","city":"Middletown","state":"OH","zip":"45005","distance":17.818774394318,"lon":"-84.337728","lat":"39.495981","theaterChainName":"Danbarry Cinemas","ticketType":"STANDARD"},{"id":"1300","tribuneTheaterId":"2488","providerTheaterId":"","name":"Little Art Theatre","address":"247 Xenia Ave","city":"Yellow Springs","state":"OH","zip":"45387","distance":20.062617398648,"lon":"-83.889211","lat":"39.805119","theaterChainName":"Independent Chains","ticketType":"STANDARD"},{"id":"2556","tribuneTheaterId":"7479","providerTheaterId":"","name":"Movies 5 - Troy","address":"916 N. Market St.","city":"Troy","state":"OH","zip":"45373","distance":21.281745791776,"lon":"-84.194729","lat":"40.050705","theaterChainName":"Independent Chains","ticketType":"STANDARD"},{"id":"2132","tribuneTheaterId":"3052","providerTheaterId":"","name":"Colony 7 Cinemas","address":"726 E. Main St.","city":"Lebanon","state":"OH","zip":"45036","distance":22.002700817724,"lon":"-84.193604","lat":"39.432301","theaterChainName":"Independent Chains","ticketType":"STANDARD"}]