[{"id":"5783","name":" Cobb Liberty Luxury 15","address":"7514 Bales Street","city":"Liberty Township","state":"OH","zip":"45069","distance":"21.423307418823242","lon":"-84.374237","lat":"39.372833","theaterChainName":"Cobb Theatres","ticketType":"STANDARD"},{"id":"4369","name":"Regal Deerfield Town Center Stadium 16","address":"5500 Deerfield Blvd","city":"Mason","state":"OH","zip":"45040","distance":"24.968549728393555","lon":"-84.319275","lat":"39.308952","theaterChainName":"Regal Cinemas","ticketType":"STANDARD"},{"id":"2132","name":"Colony 7 Cinemas","address":"726 E. Main St.","city":"Lebanon","state":"OH","zip":"45036","distance":"16.27550506591797","lon":"-84.193604","lat":"39.432301","theaterChainName":"Independent Chains","ticketType":"STANDARD"},{"id":"535","name":"Danbarry Cinemas Middletown","address":"3479 Dixie Hwy","city":"Middletown","state":"OH","zip":"45005","distance":"12.790377616882324","lon":"-84.337730","lat":"39.495979","theaterChainName":"Danbarry Cinemas","ticketType":"STANDARD"},{"id":"1300","name":"Little Art Theatre","address":"247 Xenia Ave","city":"Yellow Springs","state":"OH","zip":"45387","distance":"21.005481719970703","lon":"-83.889214","lat":"39.805119","theaterChainName":"Independent Chains","ticketType":"STANDARD"},{"id":"288","name":"Rave Motion Pictures Huber Heights 16","address":"7737 Wayne Town Boulevard","city":"Huber Heights","state":"OH","zip":"45424","distance":"14.893718719482422","lon":"-84.142601","lat":"39.867199","theaterChainName":"Cinemark","ticketType":"STANDARD"},{"id":"2582","name":"Regal Hollywood Stadium 20  Fairfield Commons","address":"2651 Fairfield Commons","city":"Beavercreek","state":"OH","zip":"45431","distance":"11.79940414428711","lon":"-84.058929","lat":"39.763786","theaterChainName":"Regal Cinemas","ticketType":"STANDARD"},{"id":"1299","name":"Englewood Cinema","address":"320 W. National Road","city":"Englewood","state":"OH","zip":"45322","distance":"14.973759651184082","lon":"-84.307571","lat":"39.875507","theaterChainName":"Independent Chains","ticketType":"STANDARD"},{"id":"1301","name":"Neon Movies","address":"130 E. 5th Street","city":"Dayton","state":"OH","zip":"45402","distance":"6.935194969177246","lon":"-84.187973","lat":"39.757111","theaterChainName":"Independent Chains","ticketType":"STANDARD"},{"id":"4337","name":"The Greene: Rave Digital Projection","address":"4489 Glengarry Drive","city":"Beavercreek","state":"OH","zip":"45440","distance":"7.596652507781982","lon":"-84.102097","lat":"39.693501","theaterChainName":"Cinemark","ticketType":"STANDARD"},{"id":"1294","name":"Byjo Theatre","address":"20 N Main","city":"Germantown","state":"OH","zip":"45327","distance":"7.457357883453369","lon":"-84.370407","lat":"39.625355","theaterChainName":"Independent Chains","ticketType":"STANDARD"},{"id":"5859","name":"The Plaza Theatre","address":"33 South Main St.","city":"Miamisburg","state":"OH","zip":"45342","distance":"3.1133556365966797","lon":"-84.289680","lat":"39.641167","theaterChainName":"Independent Chains","ticketType":"STANDARD"},{"id":"3102","name":"Dayton South: Rave Digital Projection","address":"195 Mall Woods Drive","city":"West Carrollton","state":"OH","zip":"45449","distance":"1.630705714225769","lon":"-84.228455","lat":"39.643269","theaterChainName":"Cinemark","ticketType":"STANDARD"}]