[{"id":"5287","name":"AMC West Chester 18","address":"9415 Civic Center Blvd.","city":"West Chester","state":"OH","zip":"45069","distance":"23.949283599853516","lon":"-84.420891","lat":"39.319035","theaterChainName":"AMC Theatres","ticketType":"STANDARD"},{"id":"5783","name":" Cobb Liberty Luxury 15","address":"7514 Bales Street","city":"Liberty Township","state":"OH","zip":"45069","distance":"19.473407745361328","lon":"-84.374237","lat":"39.372833","theaterChainName":"Cobb Theatres","ticketType":"STANDARD"},{"id":"4369","name":"Regal Deerfield Town Center Stadium 16","address":"5500 Deerfield Blvd","city":"Mason","state":"OH","zip":"45040","distance":"22.03867530822754","lon":"-84.319275","lat":"39.308952","theaterChainName":"Regal Cinemas","ticketType":"STANDARD"},{"id":"2854","name":"Blanchester Showplace Cinemas","address":"115 E. Main St.","city":"Blanchester","state":"OH","zip":"45107","distance":"23.688297271728516","lon":"-83.988098","lat":"39.293301","theaterChainName":"Independent Chains","ticketType":"STANDARD"},{"id":"2132","name":"Colony 7 Cinemas","address":"726 E. Main St.","city":"Lebanon","state":"OH","zip":"45036","distance":"12.084589004516602","lon":"-84.193604","lat":"39.432301","theaterChainName":"Independent Chains","ticketType":"STANDARD"},{"id":"535","name":"Danbarry Cinemas Middletown","address":"3479 Dixie Hwy","city":"Middletown","state":"OH","zip":"45005","distance":"11.761706352233887","lon":"-84.337730","lat":"39.495979","theaterChainName":"Danbarry Cinemas","ticketType":"STANDARD"},{"id":"1300","name":"Little Art Theatre","address":"247 Xenia Ave","city":"Yellow Springs","state":"OH","zip":"45387","distance":"20.271276473999023","lon":"-83.889214","lat":"39.805119","theaterChainName":"Independent Chains","ticketType":"STANDARD"},{"id":"288","name":"Rave Motion Pictures Huber Heights 16","address":"7737 Wayne Town Boulevard","city":"Huber Heights","state":"OH","zip":"45424","distance":"18.09087371826172","lon":"-84.142601","lat":"39.867199","theaterChainName":"Cinemark","ticketType":"STANDARD"},{"id":"2582","name":"Regal Hollywood Stadium 20  Fairfield Commons","address":"2651 Fairfield Commons","city":"Beavercreek","state":"OH","zip":"45431","distance":"12.374817848205566","lon":"-84.058929","lat":"39.763786","theaterChainName":"Regal Cinemas","ticketType":"STANDARD"},{"id":"1299","name":"Englewood Cinema","address":"320 W. National Road","city":"Englewood","state":"OH","zip":"45322","distance":"20.0022029876709","lon":"-84.307571","lat":"39.875507","theaterChainName":"Independent Chains","ticketType":"STANDARD"},{"id":"1301","name":"Neon Movies","address":"130 E. 5th Street","city":"Dayton","state":"OH","zip":"45402","distance":"10.47363567352295","lon":"-84.187973","lat":"39.757111","theaterChainName":"Independent Chains","ticketType":"STANDARD"},{"id":"4337","name":"The Greene: Rave Digital Projection","address":"4489 Glengarry Drive","city":"Beavercreek","state":"OH","zip":"45440","distance":"7.017655372619629","lon":"-84.102097","lat":"39.693501","theaterChainName":"Cinemark","ticketType":"STANDARD"},{"id":"1294","name":"Byjo Theatre","address":"20 N Main","city":"Germantown","state":"OH","zip":"45327","distance":"10.775440216064453","lon":"-84.370407","lat":"39.625355","theaterChainName":"Independent Chains","ticketType":"STANDARD"},{"id":"5859","name":"The Plaza Theatre","address":"33 South Main St.","city":"Miamisburg","state":"OH","zip":"45342","distance":"6.8372673988342285","lon":"-84.289680","lat":"39.641167","theaterChainName":"Independent Chains","ticketType":"STANDARD"},{"id":"3102","name":"Dayton South: Rave Digital Projection","address":"195 Mall Woods Drive","city":"West Carrollton","state":"OH","zip":"45449","distance":"4.050213813781738","lon":"-84.228455","lat":"39.643269","theaterChainName":"Cinemark","ticketType":"STANDARD"},{"id":"1914","name":"Chakeres Wilmington Plaza 5","address":"1276 Romback Avenue","city":"Wilmington","state":"OH","zip":"45177","distance":"22.247272491455078","lon":"-83.806480","lat":"39.447269","theaterChainName":"Republic Theaters","ticketType":"STANDARD"}]