[{"id":"3102","tribuneTheaterId":"7945","providerTheaterId":"","name":"Dayton South: Rave Digital Projection","address":"195 Mall Woods Drive","city":"West Carrollton","state":"OH","zip":"45449","distance":4.0500547720705,"lon":"-84.228455","lat":"39.643267","theaterChainName":"Cinemark","ticketType":"STANDARD"},{"id":"4337","tribuneTheaterId":"9317","providerTheaterId":"","name":"The Greene: Rave Digital Projection","address":"4489 Glengarry Drive","city":"Beavercreek","state":"OH","zip":"45440","distance":7.0172451264274,"lon":"-84.102097","lat":"39.693501","theaterChainName":"Cinemark","ticketType":"STANDARD"},{"id":"5859","tribuneTheaterId":"11273","providerTheaterId":"","name":"The Plaza Theatre","address":"33 South Main St.","city":"Miamisburg","state":"OH","zip":"45342","distance":6.8368436681656,"lon":"-84.289677","lat":"39.641168","theaterChainName":"Independent Chains","ticketType":"STANDARD"},{"id":"1294","tribuneTheaterId":"259","providerTheaterId":"","name":"Byjo Theatre","address":"20 N Main","city":"Germantown","state":"OH","zip":"45327","distance":10.77500416202,"lon":"-84.370409","lat":"39.625355","theaterChainName":"Independent Chains","ticketType":"STANDARD"},{"id":"1301","tribuneTheaterId":"2701","providerTheaterId":"","name":"Neon Movies","address":"130 E. 5th Street","city":"Dayton","state":"OH","zip":"45402","distance":10.472954064145,"lon":"-84.18797","lat":"39.757109","theaterChainName":"Independent Chains","ticketType":"STANDARD"},{"id":"2132","tribuneTheaterId":"3052","providerTheaterId":"","name":"Colony 7 Cinemas","address":"726 E. Main St.","city":"Lebanon","state":"OH","zip":"45036","distance":12.083745369537,"lon":"-84.193604","lat":"39.432301","theaterChainName":"Independent Chains","ticketType":"STANDARD"},{"id":"2582","tribuneTheaterId":"8306","providerTheaterId":"","name":"Regal Hollywood Stadium 20  Fairfield Commons","address":"2651 Fairfield Commons","city":"Beavercreek","state":"OH","zip":"45431","distance":12.374143456744,"lon":"-84.058928","lat":"39.763787","theaterChainName":"Regal Cinemas","ticketType":"STANDARD"},{"id":"535","tribuneTheaterId":"3133","providerTheaterId":"","name":"Danbarry Cinemas Middletown","address":"3479 Dixie Hwy","city":"Middletown","state":"OH","zip":"45005","distance":11.76084338166,"lon":"-84.337728","lat":"39.495981","theaterChainName":"Danbarry Cinemas","ticketType":"STANDARD"},{"id":"288","tribuneTheaterId":"8536","providerTheaterId":"","name":"Rave Motion Pictures Huber Heights 16","address":"7737 Wayne Town Boulevard","city":"Huber Heights","state":"OH","zip":"45424","distance":18.089828471303,"lon":"-84.142601","lat":"39.867199","theaterChainName":"Cinemark","ticketType":"STANDARD"},{"id":"1300","tribuneTheaterId":"2488","providerTheaterId":"","name":"Little Art Theatre","address":"247 Xenia Ave","city":"Yellow Springs","state":"OH","zip":"45387","distance":20.270108354531,"lon":"-83.889211","lat":"39.805119","theaterChainName":"Independent Chains","ticketType":"STANDARD"},{"id":"5783","tribuneTheaterId":"11223","providerTheaterId":"","name":" Cobb Liberty Luxury 15","address":"7514 Bales Street","city":"Liberty Township","state":"OH","zip":"45069","distance":19.472156875651,"lon":"-84.374237","lat":"39.372834","theaterChainName":"Cobb Theatres","ticketType":"STANDARD"},{"id":"1299","tribuneTheaterId":"2487","providerTheaterId":"","name":"Englewood Cinema","address":"320 W. National Road","city":"Englewood","state":"OH","zip":"45322","distance":20.000948391018,"lon":"-84.307569","lat":"39.875506","theaterChainName":"Independent Chains","ticketType":"STANDARD"},{"id":"1914","tribuneTheaterId":"1830","providerTheaterId":"","name":"Chakeres Wilmington Plaza 5","address":"1276 Romback Avenue","city":"Wilmington","state":"OH","zip":"45177","distance":22.245529810723,"lon":"-83.806484","lat":"39.447271","theaterChainName":"Republic Theaters","ticketType":"STANDARD"},{"id":"4369","tribuneTheaterId":"9400","providerTheaterId":"","name":"Regal Deerfield Town Center Stadium 16","address":"5500 Deerfield Blvd","city":"Mason","state":"OH","zip":"45040","distance":22.037345421489,"lon":"-84.319274","lat":"39.308951","theaterChainName":"Regal Cinemas","ticketType":"STANDARD"},{"id":"5287","tribuneTheaterId":"10721","providerTheaterId":"467","name":"AMC West Chester 18","address":"9415 Civic Center Blvd.","city":"West Chester","state":"OH","zip":"45069","distance":23.947661213958,"lon":"-84.420887","lat":"39.319035","theaterChainName":"AMC Theatres","ticketType":"STANDARD"},{"id":"2854","tribuneTheaterId":"1531","providerTheaterId":"","name":"Blanchester Showplace Cinemas","address":"115 E. Main St.","city":"Blanchester","state":"OH","zip":"45107","distance":23.686705533866,"lon":"-83.9881","lat":"39.2933","theaterChainName":"Independent Chains","ticketType":"STANDARD"}]