[{"id":"2132","name":"Colony 7 Cinemas","address":"726 E. Main St.","city":"Lebanon","state":"OH","zip":"45036","distance":"20.874502182006836","lon":"-84.193604","lat":"39.432301","theaterChainName":"Independent Chains","ticketType":"STANDARD"},{"id":"535","name":"Danbarry Cinemas Middletown","address":"3479 Dixie Hwy","city":"Middletown","state":"OH","zip":"45005","distance":"18.155302047729492","lon":"-84.337730","lat":"39.495979","theaterChainName":"Danbarry Cinemas","ticketType":"STANDARD"},{"id":"1298","name":"Chakeres Upper Valley 5","address":"1475 Upper Valley Pike","city":"Springfield","state":"OH","zip":"45504","distance":"23.314380645751953","lon":"-83.853745","lat":"39.947552","theaterChainName":"Chakeres Theatres","ticketType":"STANDARD"},{"id":"1300","name":"Little Art Theatre","address":"247 Xenia Ave","city":"Yellow Springs","state":"OH","zip":"45387","distance":"16.928781509399414","lon":"-83.889214","lat":"39.805119","theaterChainName":"Independent Chains","ticketType":"STANDARD"},{"id":"2556","name":"Movies 5 - Troy","address":"916 N. Market St.","city":"Troy","state":"OH","zip":"45373","distance":"21.855798721313477","lon":"-84.194733","lat":"40.050705","theaterChainName":"Independent Chains","ticketType":"STANDARD"},{"id":"288","name":"Rave Motion Pictures Huber Heights 16","address":"7737 Wayne Town Boulevard","city":"Huber Heights","state":"OH","zip":"45424","distance":"9.579086303710938","lon":"-84.142601","lat":"39.867199","theaterChainName":"Cinemark","ticketType":"STANDARD"},{"id":"2582","name":"Regal Hollywood Stadium 20  Fairfield Commons","address":"2651 Fairfield Commons","city":"Beavercreek","state":"OH","zip":"45431","distance":"7.477753162384033","lon":"-84.058929","lat":"39.763786","theaterChainName":"Regal Cinemas","ticketType":"STANDARD"},{"id":"1299","name":"Englewood Cinema","address":"320 W. National Road","city":"Englewood","state":"OH","zip":"45322","distance":"11.452289581298828","lon":"-84.307571","lat":"39.875507","theaterChainName":"Independent Chains","ticketType":"STANDARD"},{"id":"1301","name":"Neon Movies","address":"130 E. 5th Street","city":"Dayton","state":"OH","zip":"45402","distance":"1.605817437171936","lon":"-84.187973","lat":"39.757111","theaterChainName":"Independent Chains","ticketType":"STANDARD"},{"id":"4337","name":"The Greene: Rave Digital Projection","address":"4489 Glengarry Drive","city":"Beavercreek","state":"OH","zip":"45440","distance":"5.661839485168457","lon":"-84.102097","lat":"39.693501","theaterChainName":"Cinemark","ticketType":"STANDARD"},{"id":"1294","name":"Byjo Theatre","address":"20 N Main","city":"Germantown","state":"OH","zip":"45327","distance":"12.01603889465332","lon":"-84.370407","lat":"39.625355","theaterChainName":"Independent Chains","ticketType":"STANDARD"},{"id":"5859","name":"The Plaza Theatre","address":"33 South Main St.","city":"Miamisburg","state":"OH","zip":"45342","distance":"8.19591236114502","lon":"-84.289680","lat":"39.641167","theaterChainName":"Independent Chains","ticketType":"STANDARD"},{"id":"3102","name":"Dayton South: Rave Digital Projection","address":"195 Mall Woods Drive","city":"West Carrollton","state":"OH","zip":"45449","distance":"6.5522990226745605","lon":"-84.228455","lat":"39.643269","theaterChainName":"Cinemark","ticketType":"STANDARD"}]