[{"id":"1351","tribuneTheaterId":"4182","providerTheaterId":"","name":"Cinemark Movies 10 Ashland","address":"400 Winchester Ave.","city":"Ashland","state":"KY","zip":"41101","distance":3.0598553133527,"lon":"-82.65286","lat":"38.486215","theaterChainName":"Cinemark","ticketType":"STANDARD"},{"id":"4720","tribuneTheaterId":"9936","providerTheaterId":"","name":"KYOVA 10 Theatre","address":"10699 US Rt. 60","city":"Ashland","state":"KY","zip":"41102","distance":9.1728160151357,"lon":"-82.713318","lat":"38.402052","theaterChainName":"Independent Chains","ticketType":"STANDARD"},{"id":"3922","tribuneTheaterId":"2383","providerTheaterId":"","name":"Marquee Pullman Square 16","address":"26 Pullman Square","city":"Huntington","state":"WV","zip":"25701","distance":14.084824374078,"lon":"-82.443595","lat":"38.422613","theaterChainName":"Marquee Cinemas","ticketType":"STANDARD"},{"id":"1655","tribuneTheaterId":"1914","providerTheaterId":"","name":"Wheelersburg Cinema","address":"8805 Ohio River Rd.","city":"Wheelersburg","state":"OH","zip":"45694","distance":16.678258487506,"lon":"-82.8584","lat":"38.7179","theaterChainName":"Independent Chains","ticketType":"STANDARD"},{"id":"4039","tribuneTheaterId":"2161","providerTheaterId":"","name":"Portsmouth Cinemas","address":"1623 Chillicothe Street","city":"Portsmouth","state":"OH","zip":"45662","distance":23.204306951294,"lon":"-82.993813","lat":"38.746156","theaterChainName":"Republic Theaters","ticketType":"STANDARD"},{"id":"4749","tribuneTheaterId":"9978","providerTheaterId":"","name":"Cinemark Huntington Mall","address":"Unit 700, 500 Mall Road","city":"Barboursville","state":"WV","zip":"25504","distance":22.858634390864,"lon":"-82.266288","lat":"38.42066","theaterChainName":"Cinemark","ticketType":"STANDARD"}]