[{"id":"5195","tribuneTheaterId":"10613","providerTheaterId":"","name":"Silver Screen VII","address":"1284 Jackson Pike","city":"Gallipolis","state":"OH","zip":"45631","distance":10.167243479739,"lon":"-82.258641","lat":"38.842883","theaterChainName":"Independent Chains","ticketType":"STANDARD"},{"id":"4090","tribuneTheaterId":"1801","providerTheaterId":"","name":"Tri-City Theatre","address":"972 East Main Street","city":"Jackson","state":"OH","zip":"45640","distance":20.784696196974,"lon":"-82.6265","lat":"39.0349","theaterChainName":"Independent Chains","ticketType":"STANDARD"},{"id":"1655","tribuneTheaterId":"1914","providerTheaterId":"","name":"Wheelersburg Cinema","address":"8805 Ohio River Rd.","city":"Wheelersburg","state":"OH","zip":"45694","distance":23.576082423152,"lon":"-82.8584","lat":"38.7179","theaterChainName":"Independent Chains","ticketType":"STANDARD"},{"id":"1351","tribuneTheaterId":"4182","providerTheaterId":"","name":"Cinemark Movies 10 Ashland","address":"400 Winchester Ave.","city":"Ashland","state":"KY","zip":"41101","distance":23.486423845341,"lon":"-82.65286","lat":"38.486215","theaterChainName":"Cinemark","ticketType":"STANDARD"},{"id":"3922","tribuneTheaterId":"2383","providerTheaterId":"","name":"Marquee Pullman Square 16","address":"26 Pullman Square","city":"Huntington","state":"WV","zip":"25701","distance":24.501187153095,"lon":"-82.443595","lat":"38.422613","theaterChainName":"Marquee Cinemas","ticketType":"STANDARD"}]