[{"id":"5195","name":"Silver Screen VII","address":"1284 Jackson Pike","city":"Gallipolis","state":"OH","zip":"45631","distance":"18.05209732055664","lon":"-82.258644","lat":"38.842884","theaterChainName":"Independent Chains","ticketType":"STANDARD"},{"id":"4090","name":"Tri-City Theatre","address":"972 East Main Street","city":"Jackson","state":"OH","zip":"45640","distance":"10.112091064453125","lon":"-82.626503","lat":"39.034901","theaterChainName":"Independent Chains","ticketType":"STANDARD"},{"id":"1655","name":"Wheelersburg Cinema","address":"8805 Ohio River Rd.","city":"Wheelersburg","state":"OH","zip":"45694","distance":"18.856801986694336","lon":"-82.858398","lat":"38.717899","theaterChainName":"Independent Chains","ticketType":"STANDARD"},{"id":"4039","name":"Portsmouth Cinemas","address":"1623 Chillicothe Street","city":"Portsmouth","state":"OH","zip":"45662","distance":"24.033252716064453","lon":"-82.993813","lat":"38.746155","theaterChainName":"Republic Theaters","ticketType":"STANDARD"}]