[{"id":"1351","name":"Cinemark Movies 10 Ashland","address":"400 Winchester Ave.","city":"Ashland","state":"KY","zip":"41101","distance":"19.84192657470703","lon":"-82.652863","lat":"38.486214","theaterChainName":"Cinemark","ticketType":"STANDARD"},{"id":"4090","name":"Tri-City Theatre","address":"972 East Main Street","city":"Jackson","state":"OH","zip":"45640","distance":"22.7797794342041","lon":"-82.626503","lat":"39.034901","theaterChainName":"Independent Chains","ticketType":"STANDARD"},{"id":"4720","name":"KYOVA 10 Theatre","address":"10699 US Rt. 60","city":"Ashland","state":"KY","zip":"41102","distance":"24.177719116210938","lon":"-82.713318","lat":"38.402054","theaterChainName":"Independent Chains","ticketType":"STANDARD"},{"id":"1655","name":"Wheelersburg Cinema","address":"8805 Ohio River Rd.","city":"Wheelersburg","state":"OH","zip":"45694","distance":"2.6311795711517334","lon":"-82.858398","lat":"38.717899","theaterChainName":"Independent Chains","ticketType":"STANDARD"},{"id":"4039","name":"Portsmouth Cinemas","address":"1623 Chillicothe Street","city":"Portsmouth","state":"OH","zip":"45662","distance":"9.35070514678955","lon":"-82.993813","lat":"38.746155","theaterChainName":"Republic Theaters","ticketType":"STANDARD"}]