[{"id":"4589","tribuneTheaterId":"9753","providerTheaterId":"","name":"Athena Grand","address":"1008 East State St.","city":"Athens","state":"OH","zip":"45701","distance":14.550428590669,"lon":"-82.0662","lat":"39.3367","theaterChainName":"Independent Chains","ticketType":"STANDARD"},{"id":"669","tribuneTheaterId":"6809","providerTheaterId":"","name":"Regal Grand Central Mall 12","address":"700 Grand Central Mall","city":"Vienna","state":"WV","zip":"26105","distance":16.22743995962,"lon":"-81.5504","lat":"39.305099","theaterChainName":"Regal Cinemas","ticketType":"STANDARD"},{"id":"2905","tribuneTheaterId":"1532","providerTheaterId":"","name":"Athena Cinema","address":"20 South Court Street","city":"Athens","state":"OH","zip":"45701","distance":16.486889993117,"lon":"-82.101","lat":"39.3284","theaterChainName":"Independent Chains","ticketType":"STANDARD"},{"id":"5143","tribuneTheaterId":"10549","providerTheaterId":"","name":"Lafayette Square 7","address":"430 Pike St.","city":"Marietta","state":"OH","zip":"45750","distance":20.36561835262,"lon":"-81.434303","lat":"39.411701","theaterChainName":"Odyssey Entertainment\/CineMagic","ticketType":"STANDARD"},{"id":"1834","tribuneTheaterId":"3150","providerTheaterId":"","name":"Movies 10-Nelsonville","address":"14333 US 33 South","city":"Nelsonville","state":"OH","zip":"45764","distance":19.880622345478,"lon":"-82.188023","lat":"39.412114","theaterChainName":"Independent Chains","ticketType":"STANDARD"}]