[{"id":"5195","name":"Silver Screen VII","address":"1284 Jackson Pike","city":"Gallipolis","state":"OH","zip":"45631","distance":"15.67935848236084","lon":"-82.258644","lat":"38.842884","theaterChainName":"Independent Chains","ticketType":"STANDARD"},{"id":"2905","name":"Athena Cinema","address":"20 South Court Street","city":"Athens","state":"OH","zip":"45701","distance":"19.57326889038086","lon":"-82.100998","lat":"39.328400","theaterChainName":"Independent Chains","ticketType":"STANDARD"},{"id":"4090","name":"Tri-City Theatre","address":"972 East Main Street","city":"Jackson","state":"OH","zip":"45640","distance":"20.35069465637207","lon":"-82.626503","lat":"39.034901","theaterChainName":"Independent Chains","ticketType":"STANDARD"},{"id":"4589","name":"Athena Grand","address":"1008 East State St.","city":"Athens","state":"OH","zip":"45701","distance":"20.907459259033203","lon":"-82.066200","lat":"39.336700","theaterChainName":"Independent Chains","ticketType":"STANDARD"},{"id":"1834","name":"Movies 10-Nelsonville","address":"14333 US 33 South","city":"Nelsonville","state":"OH","zip":"45764","distance":"23.8906192779541","lon":"-82.188026","lat":"39.412113","theaterChainName":"Independent Chains","ticketType":"STANDARD"}]