[{"id":"2035","name":"Elder Theatre","address":"106 W. Pike St.","city":"Jackson Center","state":"OH","zip":"45334","distance":"16.845550537109375","lon":"-84.040611","lat":"40.439865","theaterChainName":"Independent Chains","ticketType":"STANDARD"},{"id":"3692","name":"Lock One Theatre","address":"8 West Monroe Street","city":"New Bremen","state":"OH","zip":"45869","distance":"21.267221450805664","lon":"-84.380943","lat":"40.437000","theaterChainName":"Independent Chains","ticketType":"STANDARD"},{"id":"1992","name":"Ada Theatre","address":"215 S Main St","city":"Ada","state":"OH","zip":"45810","distance":"17.055143356323242","lon":"-83.823097","lat":"40.768902","theaterChainName":"Independent Chains","ticketType":"STANDARD"},{"id":"4175","name":"Regal American Mall Stadium 12","address":"2830 West Elm Street","city":"Lima","state":"OH","zip":"45805","distance":"4.683315277099609","lon":"-84.156616","lat":"40.738426","theaterChainName":"Regal Cinemas","ticketType":"STANDARD"},{"id":"1899","name":"Chakeres Celina 5","address":"116 North Main Street","city":"Celina","state":"OH","zip":"45822","distance":"24.966276168823242","lon":"-84.570679","lat":"40.549599","theaterChainName":"Chakeres Theatres","ticketType":"STANDARD"}]