[{"id":"2035","name":"Elder Theatre","address":"106 W. Pike St.","city":"Jackson Center","state":"OH","zip":"45334","distance":"24.6745548248291","lon":"-84.040611","lat":"40.439865","theaterChainName":"Independent Chains","ticketType":"STANDARD"},{"id":"4617","name":"Cinemark at Miami Valley Centre","address":"1020 Garbry Road","city":"Piqua","state":"OH","zip":"45356","distance":"23.51496124267578","lon":"-84.219742","lat":"40.146233","theaterChainName":"Cinemark","ticketType":"STANDARD"},{"id":"3692","name":"Lock One Theatre","address":"8 West Monroe Street","city":"New Bremen","state":"OH","zip":"45869","distance":"6.994182586669922","lon":"-84.380943","lat":"40.437000","theaterChainName":"Independent Chains","ticketType":"STANDARD"},{"id":"1899","name":"Chakeres Celina 5","address":"116 North Main Street","city":"Celina","state":"OH","zip":"45822","distance":"10.448447227478027","lon":"-84.570679","lat":"40.549599","theaterChainName":"Chakeres Theatres","ticketType":"STANDARD"},{"id":"1993","name":"Wayne Cinemas","address":"540 South Broadway","city":"Greenville","state":"OH","zip":"45331","distance":"22.137588500976562","lon":"-84.630844","lat":"40.099937","theaterChainName":"Independent Chains","ticketType":"STANDARD"},{"id":"2853","name":"Ritz Theatre - Portland","address":"202 N Meridian St","city":"Portland","state":"IN","zip":"47371","distance":"24.81589126586914","lon":"-84.977882","lat":"40.434444","theaterChainName":"Independent Chains","ticketType":"STANDARD"}]