[{"id":"4184","name":"Cinemark Tiffin Mall 8","address":"870 West Market Street","city":"Tiffin","state":"OH","zip":"44883","distance":"24.902496337890625","lon":"-83.212379","lat":"41.112003","theaterChainName":"Cinemark","ticketType":"STANDARD"},{"id":"4129","name":"Carmike 12 Findlay","address":"906 Interstate Drive","city":"Findlay","state":"OH","zip":"45840","distance":"8.448014259338379","lon":"-83.667397","lat":"41.064842","theaterChainName":"Carmike Cinemas","ticketType":"STANDARD"},{"id":"1352","name":"Cinemark Woodland Mall Cinema 5","address":"1234 North Main Street","city":"Bowling Green","state":"OH","zip":"43402","distance":"14.712345123291016","lon":"-83.647118","lat":"41.398129","theaterChainName":"Cinemark","ticketType":"STANDARD"},{"id":"3906","name":"Rave Motion Pictures Levis Commons","address":"2005 Hollenbeck Drive","city":"Perrysburg","state":"OH","zip":"43551","distance":"23.68733787536621","lon":"-83.641289","lat":"41.528236","theaterChainName":"Cinemark","ticketType":"STANDARD"},{"id":"4442","name":"Rave Motion Pictures Fallen Timbers 14","address":"2300 Village Dr. West Suite 1700","city":"Maumee","state":"OH","zip":"43537","distance":"24.939668655395508","lon":"-83.704987","lat":"41.547169","theaterChainName":"Cinemark","ticketType":"STANDARD"}]