[{"id":"2494","tribuneTheaterId":"4061","providerTheaterId":"","name":"Northwood Cinema Grill","address":"6069 Stellhorn Road","city":"Fort Wayne","state":"IN","zip":"46885","distance":17.478126664286,"lon":"-85.065283","lat":"41.122048","theaterChainName":"Independent Chains","ticketType":"STANDARD"},{"id":"2343","tribuneTheaterId":"370","providerTheaterId":"","name":"Cinema Center Downtown","address":"437 E. Berry Street","city":"Fort Wayne","state":"IN","zip":"46802","distance":20.79123721926,"lon":"-85.133305","lat":"41.080356","theaterChainName":"Independent Chains","ticketType":"STANDARD"},{"id":"4083","tribuneTheaterId":"4711","providerTheaterId":"","name":"Carmike 20 Fort Wayne","address":"3930 East Dupont Rd.","city":"Fort Wayne","state":"IN","zip":"46825","distance":19.932031173709,"lon":"-85.095162","lat":"41.176911","theaterChainName":"Carmike Cinemas","ticketType":"STANDARD"},{"id":"616","tribuneTheaterId":"8652","providerTheaterId":"","name":"Regal Coldwater Crossing 8","address":"211 W Washington Center Road","city":"Fort Wayne","state":"IN","zip":"46825","distance":21.551665417177,"lon":"-85.1423","lat":"41.1326","theaterChainName":"Regal Cinemas","ticketType":"STANDARD"},{"id":"3538","tribuneTheaterId":"2403","providerTheaterId":"","name":"Carmike Jefferson Pointe 18","address":"4250 W. Jefferson Rd.","city":"Fort Wayne","state":"IN","zip":"46804","distance":24.054670794023,"lon":"-85.195702","lat":"41.069801","theaterChainName":"Carmike Cinemas","ticketType":"STANDARD"},{"id":"4578","tribuneTheaterId":"9724","providerTheaterId":"","name":"Northtowne Cinema 9","address":"1500 North Clinton","city":"Defiance","state":"OH","zip":"43512","distance":24.665310627,"lon":"-84.362799","lat":"41.302895","theaterChainName":"WPA\/Pittsburgh Theatres","ticketType":"STANDARD"}]