[{"id":"1522","tribuneTheaterId":"4935","providerTheaterId":"6664","name":"AMC Showplace Muncie 7","address":"3401 W. Community Drive","city":"Muncie","state":"IN","zip":"47304","distance":13.00026002644,"lon":"-85.42686","lat":"40.217523","theaterChainName":"AMC Theatres","ticketType":"STANDARD"},{"id":"3990","tribuneTheaterId":"4952","providerTheaterId":"6664","name":"AMC Showplace Muncie 12","address":"860 E. Princeton","city":"Muncie","state":"IN","zip":"47303","distance":15.538048093323,"lon":"-85.376251","lat":"40.225395","theaterChainName":"AMC Theatres","ticketType":"STANDARD"},{"id":"2815","tribuneTheaterId":"7301","providerTheaterId":"6581","name":"AMC Showplace Marion 12","address":"713 N. Theatre Rd.","city":"Marion","state":"IN","zip":"46952","distance":21.826759966357,"lon":"-85.682739","lat":"40.571806","theaterChainName":"AMC Theatres","ticketType":"STANDARD"},{"id":"4486","tribuneTheaterId":"9586","providerTheaterId":"","name":"Hamilton 16 IMAX","address":"13825 Norell Road","city":"Noblesville","state":"IN","zip":"46060","distance":23.116622232261,"lon":"-85.933095","lat":"39.98987","theaterChainName":"Goodrich Theatres","ticketType":"E_TICKET"},{"id":"4176","tribuneTheaterId":"7788","providerTheaterId":"","name":"Great Escape Noblesville Stadium 10","address":"10075 Town and Country Boulevard","city":"Noblesville","state":"IN","zip":"46060","distance":22.960277965933,"lon":"-85.989867","lat":"40.03265","theaterChainName":"Regal Cinemas","ticketType":"STANDARD"}]