[{"id":"4486","tribuneTheaterId":"9586","providerTheaterId":"","name":"Hamilton 16 IMAX","address":"13825 Norell Road","city":"Noblesville","state":"IN","zip":"46060","distance":13.965924649384,"lon":"-85.933095","lat":"39.98987","theaterChainName":"Goodrich Theatres","ticketType":"E_TICKET"},{"id":"4176","tribuneTheaterId":"7788","providerTheaterId":"","name":"Great Escape Noblesville Stadium 10","address":"10075 Town and Country Boulevard","city":"Noblesville","state":"IN","zip":"46060","distance":15.0905711225,"lon":"-85.989867","lat":"40.03265","theaterChainName":"Regal Cinemas","ticketType":"STANDARD"},{"id":"1522","tribuneTheaterId":"4935","providerTheaterId":"6664","name":"AMC Showplace Muncie 7","address":"3401 W. Community Drive","city":"Muncie","state":"IN","zip":"47304","distance":17.287833355193,"lon":"-85.42686","lat":"40.217523","theaterChainName":"AMC Theatres","ticketType":"STANDARD"},{"id":"3990","tribuneTheaterId":"4952","providerTheaterId":"6664","name":"AMC Showplace Muncie 12","address":"860 E. Princeton","city":"Muncie","state":"IN","zip":"47303","distance":19.95529229949,"lon":"-85.376251","lat":"40.225395","theaterChainName":"AMC Theatres","ticketType":"STANDARD"},{"id":"336","tribuneTheaterId":"8998","providerTheaterId":"","name":"United Artists Galaxy Stadium 14","address":"8105 East 96th Ave.","city":"Indianapolis","state":"IN","zip":"46256","distance":20.603115475958,"lon":"-86.026028","lat":"39.925182","theaterChainName":"United Artists","ticketType":"STANDARD"},{"id":"5728","tribuneTheaterId":"11170","providerTheaterId":"","name":"Flix Brewhouse Carmel","address":"2206 E. 116th St.","city":"Carmel","state":"IN","zip":"46032","distance":23.336079880628,"lon":"-86.11731","lat":"39.959702","theaterChainName":"Flix Brewhouse","ticketType":"STANDARD"},{"id":"1292","tribuneTheaterId":"2179","providerTheaterId":"","name":"Legacy Cinema","address":"2347 West Main Street","city":"Greenfield","state":"IN","zip":"46140","distance":23.345741961411,"lon":"-85.806204","lat":"39.782454","theaterChainName":"Independent Chains","ticketType":"STANDARD"},{"id":"610","tribuneTheaterId":"8045","providerTheaterId":"","name":"Regal Village Park Cinema Stadium 17","address":"2222 E 146th Street","city":"Carmel","state":"IN","zip":"46032","distance":22.356208764758,"lon":"-86.121102","lat":"40.000938","theaterChainName":"Regal Cinemas","ticketType":"STANDARD"},{"id":"4445","tribuneTheaterId":"9525","providerTheaterId":"849","name":"AMC Castleton Square 14","address":"6020 E 82nd St.","city":"Indianapolis","state":"IN","zip":"46250","distance":22.929853172427,"lon":"-86.064025","lat":"39.907647","theaterChainName":"AMC Theatres","ticketType":"STANDARD"}]