[{"id":"1522","tribuneTheaterId":"4935","providerTheaterId":"6664","name":"AMC Showplace Muncie 7","address":"3401 W. Community Drive","city":"Muncie","state":"IN","zip":"47304","distance":13.383198677254,"lon":"-85.42686","lat":"40.217523","theaterChainName":"AMC Theatres","ticketType":"STANDARD"},{"id":"3990","tribuneTheaterId":"4952","providerTheaterId":"6664","name":"AMC Showplace Muncie 12","address":"860 E. Princeton","city":"Muncie","state":"IN","zip":"47303","distance":16.031064916398,"lon":"-85.376251","lat":"40.225395","theaterChainName":"AMC Theatres","ticketType":"STANDARD"},{"id":"4486","tribuneTheaterId":"9586","providerTheaterId":"","name":"Hamilton 16 IMAX","address":"13825 Norell Road","city":"Noblesville","state":"IN","zip":"46060","distance":17.703190340851,"lon":"-85.933095","lat":"39.98987","theaterChainName":"Goodrich Theatres","ticketType":"E_TICKET"},{"id":"4176","tribuneTheaterId":"7788","providerTheaterId":"","name":"Great Escape Noblesville Stadium 10","address":"10075 Town and Country Boulevard","city":"Noblesville","state":"IN","zip":"46060","distance":19.028825359854,"lon":"-85.989867","lat":"40.03265","theaterChainName":"Regal Cinemas","ticketType":"STANDARD"},{"id":"336","tribuneTheaterId":"8998","providerTheaterId":"","name":"United Artists Galaxy Stadium 14","address":"8105 East 96th Ave.","city":"Indianapolis","state":"IN","zip":"46256","distance":24.295575448474,"lon":"-86.026028","lat":"39.925182","theaterChainName":"United Artists","ticketType":"STANDARD"}]