[{"id":"3990","name":"AMC Showplace Muncie 12","address":"860 E. Princeton","city":"Muncie","state":"IN","zip":"47303","distance":"17.428037643432617","lon":"-85.376251","lat":"40.225395","theaterChainName":"AMC Theatres","ticketType":"STANDARD"},{"id":"1522","name":"AMC Showplace Muncie 7","address":"3401 W. Community Drive","city":"Muncie","state":"IN","zip":"47304","distance":"14.894026756286621","lon":"-85.426857","lat":"40.217522","theaterChainName":"AMC Theatres","ticketType":"STANDARD"},{"id":"4486","name":"Hamilton 16 IMAX","address":"13825 Norell Road","city":"Noblesville","state":"IN","zip":"46060","distance":"16.237537384033203","lon":"-85.933098","lat":"39.989868","theaterChainName":"Goodrich Theatres","ticketType":"E_TICKET"},{"id":"4176","name":"Great Escape Noblesville Stadium 10","address":"10075 Town and Country Boulevard","city":"Noblesville","state":"IN","zip":"46060","distance":"18.06191062927246","lon":"-85.989868","lat":"40.032650","theaterChainName":"Regal Cinemas","ticketType":"STANDARD"},{"id":"336","name":"United Artists Galaxy Stadium 14","address":"8105 East 96th Ave.","city":"Indianapolis","state":"IN","zip":"46256","distance":"22.705678939819336","lon":"-86.026031","lat":"39.925182","theaterChainName":"United Artists","ticketType":"STANDARD"},{"id":"1292","name":"Legacy Cinema","address":"2347 West Main Street","city":"Greenfield","state":"IN","zip":"46140","distance":"22.90489387512207","lon":"-85.806206","lat":"39.782455","theaterChainName":"Independent Chains","ticketType":"STANDARD"}]