[{"id":"4486","tribuneTheaterId":"9586","providerTheaterId":"","name":"Hamilton 16 IMAX","address":"13825 Norell Road","city":"Noblesville","state":"IN","zip":"46060","distance":2.7483626911323,"lon":"-85.933095","lat":"39.98987","theaterChainName":"Goodrich Theatres","ticketType":"E_TICKET"},{"id":"336","tribuneTheaterId":"8998","providerTheaterId":"","name":"United Artists Galaxy Stadium 14","address":"8105 East 96th Ave.","city":"Indianapolis","state":"IN","zip":"46256","distance":4.0868370726927,"lon":"-86.026028","lat":"39.925182","theaterChainName":"United Artists","ticketType":"STANDARD"},{"id":"4176","tribuneTheaterId":"7788","providerTheaterId":"","name":"Great Escape Noblesville Stadium 10","address":"10075 Town and Country Boulevard","city":"Noblesville","state":"IN","zip":"46060","distance":5.5320480345837,"lon":"-85.989867","lat":"40.03265","theaterChainName":"Regal Cinemas","ticketType":"STANDARD"},{"id":"4445","tribuneTheaterId":"9525","providerTheaterId":"849","name":"AMC Castleton Square 14","address":"6020 E 82nd St.","city":"Indianapolis","state":"IN","zip":"46250","distance":6.436793471003,"lon":"-86.064025","lat":"39.907647","theaterChainName":"AMC Theatres","ticketType":"STANDARD"},{"id":"610","tribuneTheaterId":"8045","providerTheaterId":"","name":"Regal Village Park Cinema Stadium 17","address":"2222 E 146th Street","city":"Carmel","state":"IN","zip":"46032","distance":9.0745247523557,"lon":"-86.121102","lat":"40.000938","theaterChainName":"Regal Cinemas","ticketType":"STANDARD"},{"id":"5728","tribuneTheaterId":"11170","providerTheaterId":"","name":"Flix Brewhouse Carmel","address":"2206 E. 116th St.","city":"Carmel","state":"IN","zip":"46032","distance":8.330177949587,"lon":"-86.11731","lat":"39.959702","theaterChainName":"Flix Brewhouse","ticketType":"STANDARD"},{"id":"1320","tribuneTheaterId":"4181","providerTheaterId":"","name":"Cinemark Movies 8 Washington Market","address":"10455 E. Washington","city":"Indianapolis","state":"IN","zip":"46229","distance":12.578210831149,"lon":"-85.981632","lat":"39.774605","theaterChainName":"Cinemark","ticketType":"STANDARD"},{"id":"3987","tribuneTheaterId":"4951","providerTheaterId":"6383","name":"AMC Showplace Washington Square 12","address":"10280 E. Washington St.","city":"Indianapolis","state":"IN","zip":"46229","distance":12.304751214917,"lon":"-85.983538","lat":"39.778722","theaterChainName":"AMC Theatres","ticketType":"STANDARD"},{"id":"5327","tribuneTheaterId":"10764","providerTheaterId":"","name":"Studio Movie Grill College Park","address":"3535 W. 86th St.","city":"Indianapolis","state":"IN","zip":"46268","distance":14.136588098401,"lon":"-86.2206","lat":"39.9116","theaterChainName":"Studio Movie Grill","ticketType":"SELECT_SEATING"},{"id":"1292","tribuneTheaterId":"2179","providerTheaterId":"","name":"Legacy Cinema","address":"2347 West Main Street","city":"Greenfield","state":"IN","zip":"46140","distance":14.498903551203,"lon":"-85.806204","lat":"39.782454","theaterChainName":"Independent Chains","ticketType":"STANDARD"},{"id":"3985","tribuneTheaterId":"6420","providerTheaterId":"","name":"Georgetown 14 Cinemas","address":"3898-C Lafayette Road","city":"Indianapolis","state":"IN","zip":"46254","distance":17.274661247454,"lon":"-86.239414","lat":"39.827127","theaterChainName":"Independent Chains","ticketType":"STANDARD"},{"id":"130","tribuneTheaterId":"8422","providerTheaterId":"","name":"United Artists Circle Centre 9","address":"49 W. Maryland Street","city":"Indianapolis","state":"IN","zip":"46204","distance":16.889647312164,"lon":"-86.159753","lat":"39.76546","theaterChainName":"United Artists","ticketType":"STANDARD"},{"id":"3899","tribuneTheaterId":"4950","providerTheaterId":"6384","name":"AMC Showplace Traders Point 12","address":"5920 W. 86th Street","city":"Indianapolis","state":"IN","zip":"46278","distance":16.398702153794,"lon":"-86.264477","lat":"39.912773","theaterChainName":"AMC Theatres","ticketType":"STANDARD"},{"id":"2508","tribuneTheaterId":"4961","providerTheaterId":"6381","name":"AMC Showplace Indianapolis 17","address":"4325 S. Meridian St.","city":"Indianapolis","state":"IN","zip":"46217","distance":20.448131722965,"lon":"-86.1581","lat":"39.702","theaterChainName":"AMC Theatres","ticketType":"STANDARD"},{"id":"315","tribuneTheaterId":"8362","providerTheaterId":"","name":"Regal Greenwood Park 14","address":"461 South Greenwood Park Dr.","city":"Greenwood","state":"IN","zip":"46142","distance":24.035877745257,"lon":"-86.116419","lat":"39.629417","theaterChainName":"Regal Cinemas","ticketType":"STANDARD"},{"id":"607","tribuneTheaterId":"7264","providerTheaterId":"","name":"Regal Shiloh Crossing Stadium 18","address":"10400 E. US 36 Bldg #800","city":"Avon","state":"IN","zip":"46123","distance":23.876564450515,"lon":"-86.337969","lat":"39.768042","theaterChainName":"Regal Cinemas","ticketType":"STANDARD"},{"id":"4769","tribuneTheaterId":"10009","providerTheaterId":"","name":"Brownsburg 8","address":"1555 N. Green St.","city":"Brownsburg","state":"IN","zip":"46112","distance":23.599647051578,"lon":"-86.39061","lat":"39.868584","theaterChainName":"Goodrich Theatres","ticketType":"E_TICKET"},{"id":"1318","tribuneTheaterId":"4180","providerTheaterId":"","name":"Cinemark Movies 8 Indianapolis","address":"1848 E. Stop 13 Rd.","city":"Indianapolis","state":"IN","zip":"46227","distance":23.547328642781,"lon":"-86.126048","lat":"39.639843","theaterChainName":"Cinemark","ticketType":"STANDARD"}]