[{"id":"4486","name":"Hamilton 16 IMAX","address":"13825 Norell Road","city":"Noblesville","state":"IN","zip":"46060","distance":"14.168649673461914","lon":"-85.933098","lat":"39.989868","theaterChainName":"Goodrich Theatres","ticketType":"E_TICKET"},{"id":"4176","name":"Great Escape Noblesville Stadium 10","address":"10075 Town and Country Boulevard","city":"Noblesville","state":"IN","zip":"46060","distance":"10.372546195983887","lon":"-85.989868","lat":"40.032650","theaterChainName":"Regal Cinemas","ticketType":"STANDARD"},{"id":"336","name":"United Artists Galaxy Stadium 14","address":"8105 East 96th Ave.","city":"Indianapolis","state":"IN","zip":"46256","distance":"17.4592342376709","lon":"-86.026031","lat":"39.925182","theaterChainName":"United Artists","ticketType":"STANDARD"},{"id":"4166","name":"AMC Showplace Kokomo 12","address":"1530 E. Boulevard","city":"Kokomo","state":"IN","zip":"46902","distance":"20.051013946533203","lon":"-86.113197","lat":"40.462502","theaterChainName":"AMC Theatres","ticketType":"STANDARD"},{"id":"610","name":"Regal Village Park Cinema Stadium 17","address":"2222 E 146th Street","city":"Carmel","state":"IN","zip":"46032","distance":"12.922215461730957","lon":"-86.121101","lat":"40.000938","theaterChainName":"Regal Cinemas","ticketType":"STANDARD"},{"id":"4445","name":"AMC Castleton Square 14","address":"6020 E 82nd St.","city":"Indianapolis","state":"IN","zip":"46250","distance":"18.693283081054688","lon":"-86.064026","lat":"39.907646","theaterChainName":"AMC Theatres","ticketType":"STANDARD"},{"id":"5728","name":"Flix Brewhouse Carmel","address":"2206 E. 116th St.","city":"Carmel","state":"IN","zip":"46032","distance":"15.589008331298828","lon":"-86.117310","lat":"39.959702","theaterChainName":"Flix Brewhouse","ticketType":"STANDARD"},{"id":"5327","name":"Studio Movie Grill College Park","address":"3535 W. 86th St.","city":"Indianapolis","state":"IN","zip":"46268","distance":"20.69253921508789","lon":"-86.220596","lat":"39.911598","theaterChainName":"Studio Movie Grill","ticketType":"SELECT_SEATING"},{"id":"3899","name":"AMC Showplace Traders Point 12","address":"5920 W. 86th Street","city":"Indianapolis","state":"IN","zip":"46278","distance":"21.78807258605957","lon":"-86.264481","lat":"39.912773","theaterChainName":"AMC Theatres","ticketType":"STANDARD"},{"id":"3218","name":"Lebanon 7","address":"1600 N Lebanon","city":"Lebanon","state":"IN","zip":"46052","distance":"24.156875610351562","lon":"-86.471199","lat":"40.059502","theaterChainName":"Goodrich Theatres","ticketType":"E_TICKET"}]