[{"id":"4486","tribuneTheaterId":"9586","providerTheaterId":"","name":"Hamilton 16 IMAX","address":"13825 Norell Road","city":"Noblesville","state":"IN","zip":"46060","distance":18.386597370762,"lon":"-85.933095","lat":"39.98987","theaterChainName":"Goodrich Theatres","ticketType":"E_TICKET"},{"id":"4176","tribuneTheaterId":"7788","providerTheaterId":"","name":"Great Escape Noblesville Stadium 10","address":"10075 Town and Country Boulevard","city":"Noblesville","state":"IN","zip":"46060","distance":17.523799551309,"lon":"-85.989867","lat":"40.03265","theaterChainName":"Regal Cinemas","ticketType":"STANDARD"},{"id":"1522","tribuneTheaterId":"4935","providerTheaterId":"6664","name":"AMC Showplace Muncie 7","address":"3401 W. Community Drive","city":"Muncie","state":"IN","zip":"47304","distance":18.597976891182,"lon":"-85.42686","lat":"40.217523","theaterChainName":"AMC Theatres","ticketType":"STANDARD"},{"id":"3990","tribuneTheaterId":"4952","providerTheaterId":"6664","name":"AMC Showplace Muncie 12","address":"860 E. Princeton","city":"Muncie","state":"IN","zip":"47303","distance":21.252239452,"lon":"-85.376251","lat":"40.225395","theaterChainName":"AMC Theatres","ticketType":"STANDARD"},{"id":"2815","tribuneTheaterId":"7301","providerTheaterId":"6581","name":"AMC Showplace Marion 12","address":"713 N. Theatre Rd.","city":"Marion","state":"IN","zip":"46952","distance":24.255975053978,"lon":"-85.682739","lat":"40.571806","theaterChainName":"AMC Theatres","ticketType":"STANDARD"},{"id":"610","tribuneTheaterId":"8045","providerTheaterId":"","name":"Regal Village Park Cinema Stadium 17","address":"2222 E 146th Street","city":"Carmel","state":"IN","zip":"46032","distance":23.953710376782,"lon":"-86.121102","lat":"40.000938","theaterChainName":"Regal Cinemas","ticketType":"STANDARD"},{"id":"336","tribuneTheaterId":"8998","providerTheaterId":"","name":"United Artists Galaxy Stadium 14","address":"8105 East 96th Ave.","city":"Indianapolis","state":"IN","zip":"46256","distance":24.690746493336,"lon":"-86.026028","lat":"39.925182","theaterChainName":"United Artists","ticketType":"STANDARD"},{"id":"4166","tribuneTheaterId":"5935","providerTheaterId":"6483","name":"AMC Showplace Kokomo 12","address":"1530 E. Boulevard","city":"Kokomo","state":"IN","zip":"46902","distance":23.89417840417,"lon":"-86.113197","lat":"40.462502","theaterChainName":"AMC Theatres","ticketType":"STANDARD"}]