[{"id":"2815","name":"AMC Showplace Marion 12","address":"713 N. Theatre Rd.","city":"Marion","state":"IN","zip":"46952","distance":"24.300704956054688","lon":"-85.682739","lat":"40.571808","theaterChainName":"AMC Theatres","ticketType":"STANDARD"},{"id":"4486","name":"Hamilton 16 IMAX","address":"13825 Norell Road","city":"Noblesville","state":"IN","zip":"46060","distance":"20.310409545898438","lon":"-85.933098","lat":"39.989868","theaterChainName":"Goodrich Theatres","ticketType":"E_TICKET"},{"id":"4176","name":"Great Escape Noblesville Stadium 10","address":"10075 Town and Country Boulevard","city":"Noblesville","state":"IN","zip":"46060","distance":"17.483768463134766","lon":"-85.989868","lat":"40.032650","theaterChainName":"Regal Cinemas","ticketType":"STANDARD"},{"id":"4166","name":"AMC Showplace Kokomo 12","address":"1530 E. Boulevard","city":"Kokomo","state":"IN","zip":"46902","distance":"15.129171371459961","lon":"-86.113197","lat":"40.462502","theaterChainName":"AMC Theatres","ticketType":"STANDARD"},{"id":"610","name":"Regal Village Park Cinema Stadium 17","address":"2222 E 146th Street","city":"Carmel","state":"IN","zip":"46032","distance":"21.576663970947266","lon":"-86.121101","lat":"40.000938","theaterChainName":"Regal Cinemas","ticketType":"STANDARD"},{"id":"5728","name":"Flix Brewhouse Carmel","address":"2206 E. 116th St.","city":"Carmel","state":"IN","zip":"46032","distance":"24.112035751342773","lon":"-86.117310","lat":"39.959702","theaterChainName":"Flix Brewhouse","ticketType":"STANDARD"}]