[{"id":"4486","name":"Hamilton 16 IMAX","address":"13825 Norell Road","city":"Noblesville","state":"IN","zip":"46060","distance":"23.66537857055664","lon":"-85.933098","lat":"39.989868","theaterChainName":"Goodrich Theatres","ticketType":"E_TICKET"},{"id":"4176","name":"Great Escape Noblesville Stadium 10","address":"10075 Town and Country Boulevard","city":"Noblesville","state":"IN","zip":"46060","distance":"19.66424560546875","lon":"-85.989868","lat":"40.032650","theaterChainName":"Regal Cinemas","ticketType":"STANDARD"},{"id":"4166","name":"AMC Showplace Kokomo 12","address":"1530 E. Boulevard","city":"Kokomo","state":"IN","zip":"46902","distance":"12.084539413452148","lon":"-86.113197","lat":"40.462502","theaterChainName":"AMC Theatres","ticketType":"STANDARD"},{"id":"610","name":"Regal Village Park Cinema Stadium 17","address":"2222 E 146th Street","city":"Carmel","state":"IN","zip":"46032","distance":"20.01543426513672","lon":"-86.121101","lat":"40.000938","theaterChainName":"Regal Cinemas","ticketType":"STANDARD"},{"id":"5728","name":"Flix Brewhouse Carmel","address":"2206 E. 116th St.","city":"Carmel","state":"IN","zip":"46032","distance":"22.871845245361328","lon":"-86.117310","lat":"39.959702","theaterChainName":"Flix Brewhouse","ticketType":"STANDARD"},{"id":"3218","name":"Lebanon 7","address":"1600 N Lebanon","city":"Lebanon","state":"IN","zip":"46052","distance":"23.278215408325195","lon":"-86.471199","lat":"40.059502","theaterChainName":"Goodrich Theatres","ticketType":"E_TICKET"}]