[{"id":"4486","name":"Hamilton 16 IMAX","address":"13825 Norell Road","city":"Noblesville","state":"IN","zip":"46060","distance":"8.159496307373047","lon":"-85.933098","lat":"39.989868","theaterChainName":"Goodrich Theatres","ticketType":"E_TICKET"},{"id":"4176","name":"Great Escape Noblesville Stadium 10","address":"10075 Town and Country Boulevard","city":"Noblesville","state":"IN","zip":"46060","distance":"4.0099358558654785","lon":"-85.989868","lat":"40.032650","theaterChainName":"Regal Cinemas","ticketType":"STANDARD"},{"id":"336","name":"United Artists Galaxy Stadium 14","address":"8105 East 96th Ave.","city":"Indianapolis","state":"IN","zip":"46256","distance":"9.561052322387695","lon":"-86.026031","lat":"39.925182","theaterChainName":"United Artists","ticketType":"STANDARD"},{"id":"1292","name":"Legacy Cinema","address":"2347 West Main Street","city":"Greenfield","state":"IN","zip":"46140","distance":"23.38404655456543","lon":"-85.806206","lat":"39.782455","theaterChainName":"Independent Chains","ticketType":"STANDARD"},{"id":"610","name":"Regal Village Park Cinema Stadium 17","address":"2222 E 146th Street","city":"Carmel","state":"IN","zip":"46032","distance":"5.447429180145264","lon":"-86.121101","lat":"40.000938","theaterChainName":"Regal Cinemas","ticketType":"STANDARD"},{"id":"4445","name":"AMC Castleton Square 14","address":"6020 E 82nd St.","city":"Indianapolis","state":"IN","zip":"46250","distance":"10.654247283935547","lon":"-86.064026","lat":"39.907646","theaterChainName":"AMC Theatres","ticketType":"STANDARD"},{"id":"5728","name":"Flix Brewhouse Carmel","address":"2206 E. 116th St.","city":"Carmel","state":"IN","zip":"46032","distance":"7.770007610321045","lon":"-86.117310","lat":"39.959702","theaterChainName":"Flix Brewhouse","ticketType":"STANDARD"},{"id":"3987","name":"AMC Showplace Washington Square 12","address":"10280 E. Washington St.","city":"Indianapolis","state":"IN","zip":"46229","distance":"19.92149543762207","lon":"-85.983536","lat":"39.778721","theaterChainName":"AMC Theatres","ticketType":"STANDARD"},{"id":"1320","name":"Cinemark Movies 8 Washington Market","address":"10455 E. Washington","city":"Indianapolis","state":"IN","zip":"46229","distance":"20.220067977905273","lon":"-85.981628","lat":"39.774605","theaterChainName":"Cinemark","ticketType":"STANDARD"},{"id":"5327","name":"Studio Movie Grill College Park","address":"3535 W. 86th St.","city":"Indianapolis","state":"IN","zip":"46268","distance":"13.563579559326172","lon":"-86.220596","lat":"39.911598","theaterChainName":"Studio Movie Grill","ticketType":"SELECT_SEATING"},{"id":"130","name":"United Artists Circle Centre 9","address":"49 W. Maryland Street","city":"Indianapolis","state":"IN","zip":"46204","distance":"21.201967239379883","lon":"-86.159752","lat":"39.765461","theaterChainName":"United Artists","ticketType":"STANDARD"},{"id":"3899","name":"AMC Showplace Traders Point 12","address":"5920 W. 86th Street","city":"Indianapolis","state":"IN","zip":"46278","distance":"15.10973834991455","lon":"-86.264481","lat":"39.912773","theaterChainName":"AMC Theatres","ticketType":"STANDARD"},{"id":"3985","name":"Georgetown 14 Cinemas","address":"3898-C Lafayette Road","city":"Indianapolis","state":"IN","zip":"46254","distance":"18.911273956298828","lon":"-86.239410","lat":"39.827126","theaterChainName":"Independent Chains","ticketType":"STANDARD"},{"id":"4769","name":"Brownsburg 8","address":"1555 N. Green St.","city":"Brownsburg","state":"IN","zip":"46112","distance":"22.204042434692383","lon":"-86.390610","lat":"39.868584","theaterChainName":"Goodrich Theatres","ticketType":"E_TICKET"},{"id":"3218","name":"Lebanon 7","address":"1600 N Lebanon","city":"Lebanon","state":"IN","zip":"46052","distance":"21.98487091064453","lon":"-86.471199","lat":"40.059502","theaterChainName":"Goodrich Theatres","ticketType":"E_TICKET"}]