[{"id":"4166","tribuneTheaterId":"5935","providerTheaterId":"6483","name":"AMC Showplace Kokomo 12","address":"1530 E. Boulevard","city":"Kokomo","state":"IN","zip":"46902","distance":13.022769062854,"lon":"-86.113197","lat":"40.462502","theaterChainName":"AMC Theatres","ticketType":"STANDARD"},{"id":"4176","tribuneTheaterId":"7788","providerTheaterId":"","name":"Great Escape Noblesville Stadium 10","address":"10075 Town and Country Boulevard","city":"Noblesville","state":"IN","zip":"46060","distance":17.437486579748,"lon":"-85.989867","lat":"40.03265","theaterChainName":"Regal Cinemas","ticketType":"STANDARD"},{"id":"610","tribuneTheaterId":"8045","providerTheaterId":"","name":"Regal Village Park Cinema Stadium 17","address":"2222 E 146th Street","city":"Carmel","state":"IN","zip":"46032","distance":19.829260731006,"lon":"-86.121102","lat":"40.000938","theaterChainName":"Regal Cinemas","ticketType":"STANDARD"},{"id":"4486","tribuneTheaterId":"9586","providerTheaterId":"","name":"Hamilton 16 IMAX","address":"13825 Norell Road","city":"Noblesville","state":"IN","zip":"46060","distance":20.987015893179,"lon":"-85.933095","lat":"39.98987","theaterChainName":"Goodrich Theatres","ticketType":"E_TICKET"},{"id":"5728","tribuneTheaterId":"11170","providerTheaterId":"","name":"Flix Brewhouse Carmel","address":"2206 E. 116th St.","city":"Carmel","state":"IN","zip":"46032","distance":22.588928124131,"lon":"-86.11731","lat":"39.959702","theaterChainName":"Flix Brewhouse","ticketType":"STANDARD"},{"id":"336","tribuneTheaterId":"8998","providerTheaterId":"","name":"United Artists Galaxy Stadium 14","address":"8105 East 96th Ave.","city":"Indianapolis","state":"IN","zip":"46256","distance":24.649912316953,"lon":"-86.026028","lat":"39.925182","theaterChainName":"United Artists","ticketType":"STANDARD"}]