[{"id":"3276","tribuneTheaterId":"1267","providerTheaterId":"","name":"Ashley Square Cinemas","address":"2 Ashley Square","city":"Greencastle","state":"IN","zip":"46135","distance":8.6996856561694,"lon":"-86.864282","lat":"39.641886","theaterChainName":"Independent Chains","ticketType":"STANDARD"},{"id":"2724","tribuneTheaterId":"4965","providerTheaterId":"","name":"Carmike Capri Cinema 8","address":"205 Dry Branch Dr","city":"Crawfordsville","state":"IN","zip":"47933","distance":18.518904518023,"lon":"-86.901791","lat":"40.020222","theaterChainName":"Carmike Cinemas","ticketType":"STANDARD"},{"id":"2000","tribuneTheaterId":"297","providerTheaterId":"","name":"Ritz Theatre - Rockville","address":"201 W Ohio St","city":"Rockville","state":"IN","zip":"47872","distance":22.170672437395,"lon":"-87.229424","lat":"39.762517","theaterChainName":"Independent Chains","ticketType":"STANDARD"},{"id":"4142","tribuneTheaterId":"2411","providerTheaterId":"","name":"Carmike Metropolis 18","address":"2490 Futura Park Way","city":"Plainfield","state":"IN","zip":"46168","distance":24.244396140991,"lon":"-86.360385","lat":"39.711041","theaterChainName":"Carmike Cinemas","ticketType":"STANDARD"},{"id":"4769","tribuneTheaterId":"10009","providerTheaterId":"","name":"Brownsburg 8","address":"1555 N. Green St.","city":"Brownsburg","state":"IN","zip":"46112","distance":23.562513581278,"lon":"-86.39061","lat":"39.868584","theaterChainName":"Goodrich Theatres","ticketType":"E_TICKET"}]