[{"id":"4769","name":"Brownsburg 8","address":"1555 N. Green St.","city":"Brownsburg","state":"IN","zip":"46112","distance":"23.56380271911621","lon":"-86.390610","lat":"39.868584","theaterChainName":"Goodrich Theatres","ticketType":"E_TICKET"},{"id":"4142","name":"Carmike Metropolis 18","address":"2490 Futura Park Way","city":"Plainfield","state":"IN","zip":"46168","distance":"24.24587059020996","lon":"-86.360382","lat":"39.711040","theaterChainName":"Carmike Cinemas","ticketType":"STANDARD"},{"id":"2724","name":"Carmike Capri Cinema 8","address":"205 Dry Branch Dr","city":"Crawfordsville","state":"IN","zip":"47933","distance":"18.520132064819336","lon":"-86.901794","lat":"40.020222","theaterChainName":"Carmike Cinemas","ticketType":"STANDARD"},{"id":"3276","name":"Ashley Square Cinemas","address":"2 Ashley Square","city":"Greencastle","state":"IN","zip":"46135","distance":"8.700150489807129","lon":"-86.864281","lat":"39.641888","theaterChainName":"Independent Chains","ticketType":"STANDARD"},{"id":"2000","name":"Ritz Theatre - Rockville","address":"201 W Ohio St","city":"Rockville","state":"IN","zip":"47872","distance":"22.172208786010742","lon":"-87.229424","lat":"39.762516","theaterChainName":"Independent Chains","ticketType":"STANDARD"}]