[{"id":"4489","name":"Showtime Cinemas - Connersville","address":"2235 Park Road","city":"Connersville","state":"IN","zip":"47331","distance":"24.11785316467285","lon":"-85.129753","lat":"39.661728","theaterChainName":"Independent Chains","ticketType":"STANDARD"},{"id":"1292","name":"Legacy Cinema","address":"2347 West Main Street","city":"Greenfield","state":"IN","zip":"46140","distance":"15.042889595031738","lon":"-85.806206","lat":"39.782455","theaterChainName":"Independent Chains","ticketType":"STANDARD"},{"id":"3987","name":"AMC Showplace Washington Square 12","address":"10280 E. Washington St.","city":"Indianapolis","state":"IN","zip":"46229","distance":"23.114694595336914","lon":"-85.983536","lat":"39.778721","theaterChainName":"AMC Theatres","ticketType":"STANDARD"},{"id":"1320","name":"Cinemark Movies 8 Washington Market","address":"10455 E. Washington","city":"Indianapolis","state":"IN","zip":"46229","distance":"22.9124813079834","lon":"-85.981628","lat":"39.774605","theaterChainName":"Cinemark","ticketType":"STANDARD"},{"id":"3679","name":"Studio 10 Cinemas","address":"1624 East State Road 44","city":"Shelbyville","state":"IN","zip":"46176","distance":"12.6329927444458","lon":"-85.752586","lat":"39.521111","theaterChainName":"Republic Theaters","ticketType":"STANDARD"},{"id":"4078","name":"Wolf Theatres","address":"910 Ann Blvd.","city":"Greensburg","state":"IN","zip":"47240","distance":"21.168319702148438","lon":"-85.497246","lat":"39.349644","theaterChainName":"Independent Chains","ticketType":"STANDARD"}]