[{"id":"4486","name":"Hamilton 16 IMAX","address":"13825 Norell Road","city":"Noblesville","state":"IN","zip":"46060","distance":"24.999134063720703","lon":"-85.933098","lat":"39.989868","theaterChainName":"Goodrich Theatres","ticketType":"E_TICKET"},{"id":"336","name":"United Artists Galaxy Stadium 14","address":"8105 East 96th Ave.","city":"Indianapolis","state":"IN","zip":"46256","distance":"21.647462844848633","lon":"-86.026031","lat":"39.925182","theaterChainName":"United Artists","ticketType":"STANDARD"},{"id":"1292","name":"Legacy Cinema","address":"2347 West Main Street","city":"Greenfield","state":"IN","zip":"46140","distance":"11.496051788330078","lon":"-85.806206","lat":"39.782455","theaterChainName":"Independent Chains","ticketType":"STANDARD"},{"id":"4445","name":"AMC Castleton Square 14","address":"6020 E 82nd St.","city":"Indianapolis","state":"IN","zip":"46250","distance":"21.29631996154785","lon":"-86.064026","lat":"39.907646","theaterChainName":"AMC Theatres","ticketType":"STANDARD"},{"id":"3987","name":"AMC Showplace Washington Square 12","address":"10280 E. Washington St.","city":"Indianapolis","state":"IN","zip":"46229","distance":"11.417305946350098","lon":"-85.983536","lat":"39.778721","theaterChainName":"AMC Theatres","ticketType":"STANDARD"},{"id":"1320","name":"Cinemark Movies 8 Washington Market","address":"10455 E. Washington","city":"Indianapolis","state":"IN","zip":"46229","distance":"11.117018699645996","lon":"-85.981628","lat":"39.774605","theaterChainName":"Cinemark","ticketType":"STANDARD"},{"id":"130","name":"United Artists Circle Centre 9","address":"49 W. Maryland Street","city":"Indianapolis","state":"IN","zip":"46204","distance":"17.0869197845459","lon":"-86.159752","lat":"39.765461","theaterChainName":"United Artists","ticketType":"STANDARD"},{"id":"3985","name":"Georgetown 14 Cinemas","address":"3898-C Lafayette Road","city":"Indianapolis","state":"IN","zip":"46254","distance":"22.993383407592773","lon":"-86.239410","lat":"39.827126","theaterChainName":"Independent Chains","ticketType":"STANDARD"},{"id":"2508","name":"AMC Showplace Indianapolis 17","address":"4325 S. Meridian St.","city":"Indianapolis","state":"IN","zip":"46217","distance":"15.049306869506836","lon":"-86.158096","lat":"39.702000","theaterChainName":"AMC Theatres","ticketType":"STANDARD"},{"id":"1318","name":"Cinemark Movies 8 Indianapolis","address":"1848 E. Stop 13 Rd.","city":"Indianapolis","state":"IN","zip":"46227","distance":"12.5123291015625","lon":"-86.126045","lat":"39.639843","theaterChainName":"Cinemark","ticketType":"STANDARD"},{"id":"315","name":"Regal Greenwood Park 14","address":"461 South Greenwood Park Dr.","city":"Greenwood","state":"IN","zip":"46142","distance":"11.980452537536621","lon":"-86.116417","lat":"39.629417","theaterChainName":"Regal Cinemas","ticketType":"STANDARD"},{"id":"3679","name":"Studio 10 Cinemas","address":"1624 East State Road 44","city":"Shelbyville","state":"IN","zip":"46176","distance":"10.519999504089355","lon":"-85.752586","lat":"39.521111","theaterChainName":"Republic Theaters","ticketType":"STANDARD"},{"id":"3275","name":"Canary Creek Cinemas","address":"870 Mallory Pkwy.","city":"Franklin","state":"IN","zip":"46131","distance":"13.551648139953613","lon":"-86.068642","lat":"39.488895","theaterChainName":"Independent Chains","ticketType":"STANDARD"}]