[{"id":"3276","tribuneTheaterId":"1267","providerTheaterId":"","name":"Ashley Square Cinemas","address":"2 Ashley Square","city":"Greencastle","state":"IN","zip":"46135","distance":6.2571009707159,"lon":"-86.864282","lat":"39.641886","theaterChainName":"Independent Chains","ticketType":"STANDARD"},{"id":"5192","tribuneTheaterId":"10609","providerTheaterId":"","name":"Showtime Cinema - Mooresville","address":"300 Southbridge St.","city":"Mooresville","state":"IN","zip":"46158","distance":20.114604279268,"lon":"-86.373497","lat":"39.602402","theaterChainName":"Independent Chains","ticketType":"STANDARD"},{"id":"4142","tribuneTheaterId":"2411","providerTheaterId":"","name":"Carmike Metropolis 18","address":"2490 Futura Park Way","city":"Plainfield","state":"IN","zip":"46168","distance":21.017081192151,"lon":"-86.360385","lat":"39.711041","theaterChainName":"Carmike Cinemas","ticketType":"STANDARD"},{"id":"607","tribuneTheaterId":"7264","providerTheaterId":"","name":"Regal Shiloh Crossing Stadium 18","address":"10400 E. US 36 Bldg #800","city":"Avon","state":"IN","zip":"46123","distance":23.277437270133,"lon":"-86.337969","lat":"39.768042","theaterChainName":"Regal Cinemas","ticketType":"STANDARD"},{"id":"4769","tribuneTheaterId":"10009","providerTheaterId":"","name":"Brownsburg 8","address":"1555 N. Green St.","city":"Brownsburg","state":"IN","zip":"46112","distance":24.320276731004,"lon":"-86.39061","lat":"39.868584","theaterChainName":"Goodrich Theatres","ticketType":"E_TICKET"}]