[{"id":"5327","name":"Studio Movie Grill College Park","address":"3535 W. 86th St.","city":"Indianapolis","state":"IN","zip":"46268","distance":"19.564075469970703","lon":"-86.220596","lat":"39.911598","theaterChainName":"Studio Movie Grill","ticketType":"SELECT_SEATING"},{"id":"130","name":"United Artists Circle Centre 9","address":"49 W. Maryland Street","city":"Indianapolis","state":"IN","zip":"46204","distance":"19.894758224487305","lon":"-86.159752","lat":"39.765461","theaterChainName":"United Artists","ticketType":"STANDARD"},{"id":"3899","name":"AMC Showplace Traders Point 12","address":"5920 W. 86th Street","city":"Indianapolis","state":"IN","zip":"46278","distance":"17.67305564880371","lon":"-86.264481","lat":"39.912773","theaterChainName":"AMC Theatres","ticketType":"STANDARD"},{"id":"3985","name":"Georgetown 14 Cinemas","address":"3898-C Lafayette Road","city":"Indianapolis","state":"IN","zip":"46254","distance":"16.274639129638672","lon":"-86.239410","lat":"39.827126","theaterChainName":"Independent Chains","ticketType":"STANDARD"},{"id":"2508","name":"AMC Showplace Indianapolis 17","address":"4325 S. Meridian St.","city":"Indianapolis","state":"IN","zip":"46217","distance":"20.427692413330078","lon":"-86.158096","lat":"39.702000","theaterChainName":"AMC Theatres","ticketType":"STANDARD"},{"id":"1318","name":"Cinemark Movies 8 Indianapolis","address":"1848 E. Stop 13 Rd.","city":"Indianapolis","state":"IN","zip":"46227","distance":"23.30756378173828","lon":"-86.126045","lat":"39.639843","theaterChainName":"Cinemark","ticketType":"STANDARD"},{"id":"315","name":"Regal Greenwood Park 14","address":"461 South Greenwood Park Dr.","city":"Greenwood","state":"IN","zip":"46142","distance":"24.053220748901367","lon":"-86.116417","lat":"39.629417","theaterChainName":"Regal Cinemas","ticketType":"STANDARD"},{"id":"607","name":"Regal Shiloh Crossing Stadium 18","address":"10400 E. US 36 Bldg #800","city":"Avon","state":"IN","zip":"46123","distance":"10.434269905090332","lon":"-86.337967","lat":"39.768044","theaterChainName":"Regal Cinemas","ticketType":"STANDARD"},{"id":"4769","name":"Brownsburg 8","address":"1555 N. Green St.","city":"Brownsburg","state":"IN","zip":"46112","distance":"10.563638687133789","lon":"-86.390610","lat":"39.868584","theaterChainName":"Goodrich Theatres","ticketType":"E_TICKET"},{"id":"4142","name":"Carmike Metropolis 18","address":"2490 Futura Park Way","city":"Plainfield","state":"IN","zip":"46168","distance":"9.909136772155762","lon":"-86.360382","lat":"39.711040","theaterChainName":"Carmike Cinemas","ticketType":"STANDARD"},{"id":"3218","name":"Lebanon 7","address":"1600 N Lebanon","city":"Lebanon","state":"IN","zip":"46052","distance":"20.772489547729492","lon":"-86.471199","lat":"40.059502","theaterChainName":"Goodrich Theatres","ticketType":"E_TICKET"},{"id":"5192","name":"Showtime Cinema - Mooresville","address":"300 Southbridge St.","city":"Mooresville","state":"IN","zip":"46158","distance":"13.998384475708008","lon":"-86.373497","lat":"39.602402","theaterChainName":"Independent Chains","ticketType":"STANDARD"},{"id":"3276","name":"Ashley Square Cinemas","address":"2 Ashley Square","city":"Greencastle","state":"IN","zip":"46135","distance":"19.430160522460938","lon":"-86.864281","lat":"39.641888","theaterChainName":"Independent Chains","ticketType":"STANDARD"}]