[{"id":"1292","tribuneTheaterId":"2179","providerTheaterId":"","name":"Legacy Cinema","address":"2347 West Main Street","city":"Greenfield","state":"IN","zip":"46140","distance":7.5041362407778,"lon":"-85.806204","lat":"39.782454","theaterChainName":"Independent Chains","ticketType":"STANDARD"},{"id":"3679","tribuneTheaterId":"3166","providerTheaterId":"","name":"Studio 10 Cinemas","address":"1624 East State Road 44","city":"Shelbyville","state":"IN","zip":"46176","distance":10.777041504682,"lon":"-85.752583","lat":"39.52111","theaterChainName":"Republic Theaters","ticketType":"STANDARD"},{"id":"3987","tribuneTheaterId":"4951","providerTheaterId":"6383","name":"AMC Showplace Washington Square 12","address":"10280 E. Washington St.","city":"Indianapolis","state":"IN","zip":"46229","distance":12.758971064086,"lon":"-85.983538","lat":"39.778722","theaterChainName":"AMC Theatres","ticketType":"STANDARD"},{"id":"1320","tribuneTheaterId":"4181","providerTheaterId":"","name":"Cinemark Movies 8 Washington Market","address":"10455 E. Washington","city":"Indianapolis","state":"IN","zip":"46229","distance":12.517051345949,"lon":"-85.981632","lat":"39.774605","theaterChainName":"Cinemark","ticketType":"STANDARD"},{"id":"315","tribuneTheaterId":"8362","providerTheaterId":"","name":"Regal Greenwood Park 14","address":"461 South Greenwood Park Dr.","city":"Greenwood","state":"IN","zip":"46142","distance":17.921311003066,"lon":"-86.116419","lat":"39.629417","theaterChainName":"Regal Cinemas","ticketType":"STANDARD"},{"id":"1318","tribuneTheaterId":"4180","providerTheaterId":"","name":"Cinemark Movies 8 Indianapolis","address":"1848 E. Stop 13 Rd.","city":"Indianapolis","state":"IN","zip":"46227","distance":18.314756663987,"lon":"-86.126048","lat":"39.639843","theaterChainName":"Cinemark","ticketType":"STANDARD"},{"id":"3275","tribuneTheaterId":"2117","providerTheaterId":"","name":"Canary Creek Cinemas","address":"870 Mallory Pkwy.","city":"Franklin","state":"IN","zip":"46131","distance":19.848884648229,"lon":"-86.068639","lat":"39.488894","theaterChainName":"Independent Chains","ticketType":"STANDARD"},{"id":"2508","tribuneTheaterId":"4961","providerTheaterId":"6381","name":"AMC Showplace Indianapolis 17","address":"4325 S. Meridian St.","city":"Indianapolis","state":"IN","zip":"46217","distance":19.93487025414,"lon":"-86.1581","lat":"39.702","theaterChainName":"AMC Theatres","ticketType":"STANDARD"},{"id":"336","tribuneTheaterId":"8998","providerTheaterId":"","name":"United Artists Galaxy Stadium 14","address":"8105 East 96th Ave.","city":"Indianapolis","state":"IN","zip":"46256","distance":21.506608887378,"lon":"-86.026028","lat":"39.925182","theaterChainName":"United Artists","ticketType":"STANDARD"},{"id":"4445","tribuneTheaterId":"9525","providerTheaterId":"849","name":"AMC Castleton Square 14","address":"6020 E 82nd St.","city":"Indianapolis","state":"IN","zip":"46250","distance":21.861229427218,"lon":"-86.064025","lat":"39.907647","theaterChainName":"AMC Theatres","ticketType":"STANDARD"},{"id":"130","tribuneTheaterId":"8422","providerTheaterId":"","name":"United Artists Circle Centre 9","address":"49 W. Maryland Street","city":"Indianapolis","state":"IN","zip":"46204","distance":20.88190656208,"lon":"-86.159753","lat":"39.76546","theaterChainName":"United Artists","ticketType":"STANDARD"},{"id":"4486","tribuneTheaterId":"9586","providerTheaterId":"","name":"Hamilton 16 IMAX","address":"13825 Norell Road","city":"Noblesville","state":"IN","zip":"46060","distance":23.128039855241,"lon":"-85.933095","lat":"39.98987","theaterChainName":"Goodrich Theatres","ticketType":"E_TICKET"}]