[{"id":"3679","tribuneTheaterId":"3166","providerTheaterId":"","name":"Studio 10 Cinemas","address":"1624 East State Road 44","city":"Shelbyville","state":"IN","zip":"46176","distance":7.9877274978985,"lon":"-85.752583","lat":"39.52111","theaterChainName":"Republic Theaters","ticketType":"STANDARD"},{"id":"4078","tribuneTheaterId":"2010","providerTheaterId":"","name":"Wolf Theatres","address":"910 Ann Blvd.","city":"Greensburg","state":"IN","zip":"47240","distance":16.828251091777,"lon":"-85.497244","lat":"39.349642","theaterChainName":"Independent Chains","ticketType":"STANDARD"},{"id":"1292","tribuneTheaterId":"2179","providerTheaterId":"","name":"Legacy Cinema","address":"2347 West Main Street","city":"Greenfield","state":"IN","zip":"46140","distance":17.48484502849,"lon":"-85.806204","lat":"39.782454","theaterChainName":"Independent Chains","ticketType":"STANDARD"},{"id":"1320","tribuneTheaterId":"4181","providerTheaterId":"","name":"Cinemark Movies 8 Washington Market","address":"10455 E. Washington","city":"Indianapolis","state":"IN","zip":"46229","distance":23.723641655701,"lon":"-85.981632","lat":"39.774605","theaterChainName":"Cinemark","ticketType":"STANDARD"},{"id":"3987","tribuneTheaterId":"4951","providerTheaterId":"6383","name":"AMC Showplace Washington Square 12","address":"10280 E. Washington St.","city":"Indianapolis","state":"IN","zip":"46229","distance":23.972122183906,"lon":"-85.983538","lat":"39.778722","theaterChainName":"AMC Theatres","ticketType":"STANDARD"},{"id":"3275","tribuneTheaterId":"2117","providerTheaterId":"","name":"Canary Creek Cinemas","address":"870 Mallory Pkwy.","city":"Franklin","state":"IN","zip":"46131","distance":24.654758940513,"lon":"-86.068639","lat":"39.488894","theaterChainName":"Independent Chains","ticketType":"STANDARD"}]