[{"id":"5327","name":"Studio Movie Grill College Park","address":"3535 W. 86th St.","city":"Indianapolis","state":"IN","zip":"46268","distance":"22.384353637695312","lon":"-86.220596","lat":"39.911598","theaterChainName":"Studio Movie Grill","ticketType":"SELECT_SEATING"},{"id":"3899","name":"AMC Showplace Traders Point 12","address":"5920 W. 86th Street","city":"Indianapolis","state":"IN","zip":"46278","distance":"20.094745635986328","lon":"-86.264481","lat":"39.912773","theaterChainName":"AMC Theatres","ticketType":"STANDARD"},{"id":"3985","name":"Georgetown 14 Cinemas","address":"3898-C Lafayette Road","city":"Indianapolis","state":"IN","zip":"46254","distance":"21.36702537536621","lon":"-86.239410","lat":"39.827126","theaterChainName":"Independent Chains","ticketType":"STANDARD"},{"id":"607","name":"Regal Shiloh Crossing Stadium 18","address":"10400 E. US 36 Bldg #800","city":"Avon","state":"IN","zip":"46123","distance":"17.371429443359375","lon":"-86.337967","lat":"39.768044","theaterChainName":"Regal Cinemas","ticketType":"STANDARD"},{"id":"4769","name":"Brownsburg 8","address":"1555 N. Green St.","city":"Brownsburg","state":"IN","zip":"46112","distance":"13.163032531738281","lon":"-86.390610","lat":"39.868584","theaterChainName":"Goodrich Theatres","ticketType":"E_TICKET"},{"id":"4142","name":"Carmike Metropolis 18","address":"2490 Futura Park Way","city":"Plainfield","state":"IN","zip":"46168","distance":"18.297727584838867","lon":"-86.360382","lat":"39.711040","theaterChainName":"Carmike Cinemas","ticketType":"STANDARD"},{"id":"3218","name":"Lebanon 7","address":"1600 N Lebanon","city":"Lebanon","state":"IN","zip":"46052","distance":"15.985363960266113","lon":"-86.471199","lat":"40.059502","theaterChainName":"Goodrich Theatres","ticketType":"E_TICKET"},{"id":"2724","name":"Carmike Capri Cinema 8","address":"205 Dry Branch Dr","city":"Crawfordsville","state":"IN","zip":"47933","distance":"17.494251251220703","lon":"-86.901794","lat":"40.020222","theaterChainName":"Carmike Cinemas","ticketType":"STANDARD"},{"id":"5192","name":"Showtime Cinema - Mooresville","address":"300 Southbridge St.","city":"Mooresville","state":"IN","zip":"46158","distance":"23.09244155883789","lon":"-86.373497","lat":"39.602402","theaterChainName":"Independent Chains","ticketType":"STANDARD"},{"id":"3276","name":"Ashley Square Cinemas","address":"2 Ashley Square","city":"Greencastle","state":"IN","zip":"46135","distance":"19.63749885559082","lon":"-86.864281","lat":"39.641888","theaterChainName":"Independent Chains","ticketType":"STANDARD"}]