[{"id":"4489","name":"Showtime Cinemas - Connersville","address":"2235 Park Road","city":"Connersville","state":"IN","zip":"47331","distance":"16.35378646850586","lon":"-85.129753","lat":"39.661728","theaterChainName":"Independent Chains","ticketType":"STANDARD"},{"id":"1292","name":"Legacy Cinema","address":"2347 West Main Street","city":"Greenfield","state":"IN","zip":"46140","distance":"22.864959716796875","lon":"-85.806206","lat":"39.782455","theaterChainName":"Independent Chains","ticketType":"STANDARD"},{"id":"3679","name":"Studio 10 Cinemas","address":"1624 East State Road 44","city":"Shelbyville","state":"IN","zip":"46176","distance":"18.366676330566406","lon":"-85.752586","lat":"39.521111","theaterChainName":"Republic Theaters","ticketType":"STANDARD"},{"id":"4078","name":"Wolf Theatres","address":"910 Ann Blvd.","city":"Greensburg","state":"IN","zip":"47240","distance":"18.947057723999023","lon":"-85.497246","lat":"39.349644","theaterChainName":"Independent Chains","ticketType":"STANDARD"}]