[{"id":"3275","tribuneTheaterId":"2117","providerTheaterId":"","name":"Canary Creek Cinemas","address":"870 Mallory Pkwy.","city":"Franklin","state":"IN","zip":"46131","distance":10.28154049603,"lon":"-86.068639","lat":"39.488894","theaterChainName":"Independent Chains","ticketType":"STANDARD"},{"id":"1318","tribuneTheaterId":"4180","providerTheaterId":"","name":"Cinemark Movies 8 Indianapolis","address":"1848 E. Stop 13 Rd.","city":"Indianapolis","state":"IN","zip":"46227","distance":18.924105287361,"lon":"-86.126048","lat":"39.639843","theaterChainName":"Cinemark","ticketType":"STANDARD"},{"id":"4621","tribuneTheaterId":"9798","providerTheaterId":"","name":"YES Cinema","address":"280 Commons Mall","city":"Columbus","state":"IN","zip":"47201","distance":18.134815867332,"lon":"-85.922401","lat":"39.2024","theaterChainName":"Independent Chains","ticketType":"STANDARD"},{"id":"3111","tribuneTheaterId":"4947","providerTheaterId":"6163","name":"AMC Showplace Columbus 12","address":"555 Creekview Court","city":"Columbus","state":"IN","zip":"47201","distance":19.721078627319,"lon":"-85.882198","lat":"39.205352","theaterChainName":"AMC Theatres","ticketType":"STANDARD"},{"id":"5192","tribuneTheaterId":"10609","providerTheaterId":"","name":"Showtime Cinema - Mooresville","address":"300 Southbridge St.","city":"Mooresville","state":"IN","zip":"46158","distance":19.001400195443,"lon":"-86.373497","lat":"39.602402","theaterChainName":"Independent Chains","ticketType":"STANDARD"},{"id":"315","tribuneTheaterId":"8362","providerTheaterId":"","name":"Regal Greenwood Park 14","address":"461 South Greenwood Park Dr.","city":"Greenwood","state":"IN","zip":"46142","distance":18.307528783657,"lon":"-86.116419","lat":"39.629417","theaterChainName":"Regal Cinemas","ticketType":"STANDARD"},{"id":"5004","tribuneTheaterId":"10375","providerTheaterId":"","name":"Indiana University Cinema","address":"1213 E. 7th St.","city":"Bloomington","state":"IN","zip":"47405","distance":22.692129889642,"lon":"-86.5193","lat":"39.1686","theaterChainName":"Independent Chains","ticketType":"STANDARD"},{"id":"2508","tribuneTheaterId":"4961","providerTheaterId":"6381","name":"AMC Showplace Indianapolis 17","address":"4325 S. Meridian St.","city":"Indianapolis","state":"IN","zip":"46217","distance":23.007406909488,"lon":"-86.1581","lat":"39.702","theaterChainName":"AMC Theatres","ticketType":"STANDARD"},{"id":"1503","tribuneTheaterId":"5930","providerTheaterId":"6083","name":"AMC Showplace Bloomington 11","address":"1351 College Mall Rd.","city":"Bloomington","state":"IN","zip":"47401","distance":22.474059146202,"lon":"-86.495481","lat":"39.151511","theaterChainName":"AMC Theatres","ticketType":"STANDARD"}]