[{"id":"2508","name":"AMC Showplace Indianapolis 17","address":"4325 S. Meridian St.","city":"Indianapolis","state":"IN","zip":"46217","distance":"23.00893211364746","lon":"-86.158096","lat":"39.702000","theaterChainName":"AMC Theatres","ticketType":"STANDARD"},{"id":"1318","name":"Cinemark Movies 8 Indianapolis","address":"1848 E. Stop 13 Rd.","city":"Indianapolis","state":"IN","zip":"46227","distance":"18.9254093170166","lon":"-86.126045","lat":"39.639843","theaterChainName":"Cinemark","ticketType":"STANDARD"},{"id":"315","name":"Regal Greenwood Park 14","address":"461 South Greenwood Park Dr.","city":"Greenwood","state":"IN","zip":"46142","distance":"18.308820724487305","lon":"-86.116417","lat":"39.629417","theaterChainName":"Regal Cinemas","ticketType":"STANDARD"},{"id":"3275","name":"Canary Creek Cinemas","address":"870 Mallory Pkwy.","city":"Franklin","state":"IN","zip":"46131","distance":"10.282252311706543","lon":"-86.068642","lat":"39.488895","theaterChainName":"Independent Chains","ticketType":"STANDARD"},{"id":"5192","name":"Showtime Cinema - Mooresville","address":"300 Southbridge St.","city":"Mooresville","state":"IN","zip":"46158","distance":"19.00266456604004","lon":"-86.373497","lat":"39.602402","theaterChainName":"Independent Chains","ticketType":"STANDARD"},{"id":"3111","name":"AMC Showplace Columbus 12","address":"555 Creekview Court","city":"Columbus","state":"IN","zip":"47201","distance":"19.722347259521484","lon":"-85.882195","lat":"39.205353","theaterChainName":"AMC Theatres","ticketType":"STANDARD"},{"id":"4621","name":"YES Cinema","address":"280 Commons Mall","city":"Columbus","state":"IN","zip":"47201","distance":"18.135831832885742","lon":"-85.922401","lat":"39.202400","theaterChainName":"Independent Chains","ticketType":"STANDARD"},{"id":"1503","name":"AMC Showplace Bloomington 11","address":"1351 College Mall Rd.","city":"Bloomington","state":"IN","zip":"47401","distance":"22.47542953491211","lon":"-86.495483","lat":"39.151512","theaterChainName":"AMC Theatres","ticketType":"STANDARD"},{"id":"5004","name":"Indiana University Cinema","address":"1213 E. 7th St.","city":"Bloomington","state":"IN","zip":"47405","distance":"22.69365692138672","lon":"-86.519302","lat":"39.168598","theaterChainName":"Independent Chains","ticketType":"STANDARD"}]