[{"id":"3275","tribuneTheaterId":"2117","providerTheaterId":"","name":"Canary Creek Cinemas","address":"870 Mallory Pkwy.","city":"Franklin","state":"IN","zip":"46131","distance":4.9927648866588,"lon":"-86.068639","lat":"39.488894","theaterChainName":"Independent Chains","ticketType":"STANDARD"},{"id":"1318","tribuneTheaterId":"4180","providerTheaterId":"","name":"Cinemark Movies 8 Indianapolis","address":"1848 E. Stop 13 Rd.","city":"Indianapolis","state":"IN","zip":"46227","distance":6.1471755020681,"lon":"-86.126048","lat":"39.639843","theaterChainName":"Cinemark","ticketType":"STANDARD"},{"id":"315","tribuneTheaterId":"8362","providerTheaterId":"","name":"Regal Greenwood Park 14","address":"461 South Greenwood Park Dr.","city":"Greenwood","state":"IN","zip":"46142","distance":5.2724034641181,"lon":"-86.116419","lat":"39.629417","theaterChainName":"Regal Cinemas","ticketType":"STANDARD"},{"id":"2508","tribuneTheaterId":"4961","providerTheaterId":"6381","name":"AMC Showplace Indianapolis 17","address":"4325 S. Meridian St.","city":"Indianapolis","state":"IN","zip":"46217","distance":10.752693389655,"lon":"-86.1581","lat":"39.702","theaterChainName":"AMC Theatres","ticketType":"STANDARD"},{"id":"5192","tribuneTheaterId":"10609","providerTheaterId":"","name":"Showtime Cinema - Mooresville","address":"300 Southbridge St.","city":"Mooresville","state":"IN","zip":"46158","distance":16.291019492638,"lon":"-86.373497","lat":"39.602402","theaterChainName":"Independent Chains","ticketType":"STANDARD"},{"id":"1320","tribuneTheaterId":"4181","providerTheaterId":"","name":"Cinemark Movies 8 Washington Market","address":"10455 E. Washington","city":"Indianapolis","state":"IN","zip":"46229","distance":15.5199226105,"lon":"-85.981632","lat":"39.774605","theaterChainName":"Cinemark","ticketType":"STANDARD"},{"id":"130","tribuneTheaterId":"8422","providerTheaterId":"","name":"United Artists Circle Centre 9","address":"49 W. Maryland Street","city":"Indianapolis","state":"IN","zip":"46204","distance":14.866344991954,"lon":"-86.159753","lat":"39.76546","theaterChainName":"United Artists","ticketType":"STANDARD"},{"id":"3987","tribuneTheaterId":"4951","providerTheaterId":"6383","name":"AMC Showplace Washington Square 12","address":"10280 E. Washington St.","city":"Indianapolis","state":"IN","zip":"46229","distance":15.759844344451,"lon":"-85.983538","lat":"39.778722","theaterChainName":"AMC Theatres","ticketType":"STANDARD"},{"id":"3679","tribuneTheaterId":"3166","providerTheaterId":"","name":"Studio 10 Cinemas","address":"1624 East State Road 44","city":"Shelbyville","state":"IN","zip":"46176","distance":17.257947090718,"lon":"-85.752583","lat":"39.52111","theaterChainName":"Republic Theaters","ticketType":"STANDARD"},{"id":"4142","tribuneTheaterId":"2411","providerTheaterId":"","name":"Carmike Metropolis 18","address":"2490 Futura Park Way","city":"Plainfield","state":"IN","zip":"46168","distance":18.501400469309,"lon":"-86.360385","lat":"39.711041","theaterChainName":"Carmike Cinemas","ticketType":"STANDARD"},{"id":"607","tribuneTheaterId":"7264","providerTheaterId":"","name":"Regal Shiloh Crossing Stadium 18","address":"10400 E. US 36 Bldg #800","city":"Avon","state":"IN","zip":"46123","distance":20.102395586674,"lon":"-86.337969","lat":"39.768042","theaterChainName":"Regal Cinemas","ticketType":"STANDARD"},{"id":"1292","tribuneTheaterId":"2179","providerTheaterId":"","name":"Legacy Cinema","address":"2347 West Main Street","city":"Greenfield","state":"IN","zip":"46140","distance":20.836843931483,"lon":"-85.806204","lat":"39.782454","theaterChainName":"Independent Chains","ticketType":"STANDARD"},{"id":"3985","tribuneTheaterId":"6420","providerTheaterId":"","name":"Georgetown 14 Cinemas","address":"3898-C Lafayette Road","city":"Indianapolis","state":"IN","zip":"46254","distance":20.415316832521,"lon":"-86.239414","lat":"39.827127","theaterChainName":"Independent Chains","ticketType":"STANDARD"},{"id":"4445","tribuneTheaterId":"9525","providerTheaterId":"849","name":"AMC Castleton Square 14","address":"6020 E 82nd St.","city":"Indianapolis","state":"IN","zip":"46250","distance":23.948113340982,"lon":"-86.064025","lat":"39.907647","theaterChainName":"AMC Theatres","ticketType":"STANDARD"}]