[{"id":"336","name":"United Artists Galaxy Stadium 14","address":"8105 East 96th Ave.","city":"Indianapolis","state":"IN","zip":"46256","distance":"21.211780548095703","lon":"-86.026031","lat":"39.925182","theaterChainName":"United Artists","ticketType":"STANDARD"},{"id":"610","name":"Regal Village Park Cinema Stadium 17","address":"2222 E 146th Street","city":"Carmel","state":"IN","zip":"46032","distance":"22.683616638183594","lon":"-86.121101","lat":"40.000938","theaterChainName":"Regal Cinemas","ticketType":"STANDARD"},{"id":"4445","name":"AMC Castleton Square 14","address":"6020 E 82nd St.","city":"Indianapolis","state":"IN","zip":"46250","distance":"18.951993942260742","lon":"-86.064026","lat":"39.907646","theaterChainName":"AMC Theatres","ticketType":"STANDARD"},{"id":"5728","name":"Flix Brewhouse Carmel","address":"2206 E. 116th St.","city":"Carmel","state":"IN","zip":"46032","distance":"20.23956298828125","lon":"-86.117310","lat":"39.959702","theaterChainName":"Flix Brewhouse","ticketType":"STANDARD"},{"id":"3987","name":"AMC Showplace Washington Square 12","address":"10280 E. Washington St.","city":"Indianapolis","state":"IN","zip":"46229","distance":"17.740638732910156","lon":"-85.983536","lat":"39.778721","theaterChainName":"AMC Theatres","ticketType":"STANDARD"},{"id":"1320","name":"Cinemark Movies 8 Washington Market","address":"10455 E. Washington","city":"Indianapolis","state":"IN","zip":"46229","distance":"17.757627487182617","lon":"-85.981628","lat":"39.774605","theaterChainName":"Cinemark","ticketType":"STANDARD"},{"id":"5327","name":"Studio Movie Grill College Park","address":"3535 W. 86th St.","city":"Indianapolis","state":"IN","zip":"46268","distance":"15.00828742980957","lon":"-86.220596","lat":"39.911598","theaterChainName":"Studio Movie Grill","ticketType":"SELECT_SEATING"},{"id":"130","name":"United Artists Circle Centre 9","address":"49 W. Maryland Street","city":"Indianapolis","state":"IN","zip":"46204","distance":"8.718528747558594","lon":"-86.159752","lat":"39.765461","theaterChainName":"United Artists","ticketType":"STANDARD"},{"id":"3899","name":"AMC Showplace Traders Point 12","address":"5920 W. 86th Street","city":"Indianapolis","state":"IN","zip":"46278","distance":"14.582836151123047","lon":"-86.264481","lat":"39.912773","theaterChainName":"AMC Theatres","ticketType":"STANDARD"},{"id":"3985","name":"Georgetown 14 Cinemas","address":"3898-C Lafayette Road","city":"Indianapolis","state":"IN","zip":"46254","distance":"9.164484024047852","lon":"-86.239410","lat":"39.827126","theaterChainName":"Independent Chains","ticketType":"STANDARD"},{"id":"2508","name":"AMC Showplace Indianapolis 17","address":"4325 S. Meridian St.","city":"Indianapolis","state":"IN","zip":"46217","distance":"7.699091911315918","lon":"-86.158096","lat":"39.702000","theaterChainName":"AMC Theatres","ticketType":"STANDARD"},{"id":"1318","name":"Cinemark Movies 8 Indianapolis","address":"1848 E. Stop 13 Rd.","city":"Indianapolis","state":"IN","zip":"46227","distance":"10.392626762390137","lon":"-86.126045","lat":"39.639843","theaterChainName":"Cinemark","ticketType":"STANDARD"},{"id":"315","name":"Regal Greenwood Park 14","address":"461 South Greenwood Park Dr.","city":"Greenwood","state":"IN","zip":"46142","distance":"11.17154312133789","lon":"-86.116417","lat":"39.629417","theaterChainName":"Regal Cinemas","ticketType":"STANDARD"},{"id":"3275","name":"Canary Creek Cinemas","address":"870 Mallory Pkwy.","city":"Franklin","state":"IN","zip":"46131","distance":"19.392669677734375","lon":"-86.068642","lat":"39.488895","theaterChainName":"Independent Chains","ticketType":"STANDARD"},{"id":"607","name":"Regal Shiloh Crossing Stadium 18","address":"10400 E. US 36 Bldg #800","city":"Avon","state":"IN","zip":"46123","distance":"4.81422233581543","lon":"-86.337967","lat":"39.768044","theaterChainName":"Regal Cinemas","ticketType":"STANDARD"},{"id":"4769","name":"Brownsburg 8","address":"1555 N. Green St.","city":"Brownsburg","state":"IN","zip":"46112","distance":"12.30170726776123","lon":"-86.390610","lat":"39.868584","theaterChainName":"Goodrich Theatres","ticketType":"E_TICKET"},{"id":"4142","name":"Carmike Metropolis 18","address":"2490 Futura Park Way","city":"Plainfield","state":"IN","zip":"46168","distance":"3.096196174621582","lon":"-86.360382","lat":"39.711040","theaterChainName":"Carmike Cinemas","ticketType":"STANDARD"},{"id":"5192","name":"Showtime Cinema - Mooresville","address":"300 Southbridge St.","city":"Mooresville","state":"IN","zip":"46158","distance":"7.9494781494140625","lon":"-86.373497","lat":"39.602402","theaterChainName":"Independent Chains","ticketType":"STANDARD"}]