[{"id":"3810","name":"AMC Showplace Schererville 12","address":"1400 Eagle Ridge Drive","city":"Schererville","state":"IN","zip":"46375","distance":"7.970849990844727","lon":"-87.475357","lat":"41.496071","theaterChainName":"AMC Theatres","ticketType":"STANDARD"},{"id":"1395","name":"AMC Showplace Schererville 16","address":"875 Deercreek Drive","city":"Schererville","state":"IN","zip":"46375","distance":"8.13153076171875","lon":"-87.475914","lat":"41.499226","theaterChainName":"AMC Theatres","ticketType":"STANDARD"},{"id":"4163","name":"AMC Showplace Hobart 12","address":"2590 Southlake Mall Drive","city":"Merrillville","state":"IN","zip":"46410","distance":"4.035961151123047","lon":"-87.305290","lat":"41.468204","theaterChainName":"AMC Theatres","ticketType":"STANDARD"},{"id":"2918","name":"Art Theatre","address":"230 Main St.","city":"Hobart","state":"IN","zip":"46342","distance":"9.134648323059082","lon":"-87.255188","lat":"41.532307","theaterChainName":"Independent Chains","ticketType":"STANDARD"},{"id":"55","name":"Lansing Cinema 8","address":"16621 Torrence Ave.","city":"Lansing","state":"IL","zip":"60438","distance":"15.64431095123291","lon":"-87.555588","lat":"41.593399","theaterChainName":"Independent Chains","ticketType":"STANDARD"},{"id":"744","name":"Marcus Chicago Heights","address":"1301 Hilltop Ave.","city":"Chicago Heights","state":"IL","zip":"60411","distance":"17.21259117126465","lon":"-87.668358","lat":"41.508015","theaterChainName":"Marcus Theaters","ticketType":"STANDARD"},{"id":"2420","name":"Hoosier Theatre","address":"1335 119th St.","city":"Whiting","state":"IN","zip":"46394","distance":"19.113113403320312","lon":"-87.496246","lat":"41.679401","theaterChainName":"Independent Chains","ticketType":"STANDARD"},{"id":"4314","name":"Portage 16 IMAX","address":"6550 US Highway 6","city":"Portage","state":"IN","zip":"46368","distance":"13.522255897521973","lon":"-87.160110","lat":"41.553421","theaterChainName":"Goodrich Theatres","ticketType":"E_TICKET"},{"id":"5962","name":"Marcus Country Club Hills Cinema","address":"4201 W. 167th Street","city":"Country Club Hills","state":"IL","zip":"60478","distance":"21.84833335876465","lon":"-87.717781","lat":"41.586109","theaterChainName":"Marcus Theaters","ticketType":"STANDARD"},{"id":"3212","name":"AMC Loews Country Club Hills 16","address":"4201 W. 167th St.","city":"Country Club Hills","state":"IL","zip":"60478","distance":"21.950620651245117","lon":"-87.721764","lat":"41.583969","theaterChainName":"AMC Theatres","ticketType":"STANDARD"},{"id":"4483","name":"Cinemark at Valparaiso","address":"700 Porter's Vale Blvd.","city":"Valparaiso","state":"IN","zip":"46383","distance":"17.939620971679688","lon":"-87.015900","lat":"41.474346","theaterChainName":"Cinemark","ticketType":"STANDARD"}]