[{"id":"4163","tribuneTheaterId":"4953","providerTheaterId":"6375","name":"AMC Showplace Hobart 12","address":"2590 Southlake Mall Drive","city":"Merrillville","state":"IN","zip":"46410","distance":4.0356759256254,"lon":"-87.305294","lat":"41.468206","theaterChainName":"AMC Theatres","ticketType":"STANDARD"},{"id":"3810","tribuneTheaterId":"4949","providerTheaterId":"6872","name":"AMC Showplace Schererville 12","address":"1400 Eagle Ridge Drive","city":"Schererville","state":"IN","zip":"46375","distance":7.9701435006092,"lon":"-87.475354","lat":"41.496071","theaterChainName":"AMC Theatres","ticketType":"STANDARD"},{"id":"1395","tribuneTheaterId":"4959","providerTheaterId":"6871","name":"AMC Showplace Schererville 16","address":"875 Deercreek Drive","city":"Schererville","state":"IN","zip":"46375","distance":8.1309089761069,"lon":"-87.475913","lat":"41.499226","theaterChainName":"AMC Theatres","ticketType":"STANDARD"},{"id":"2918","tribuneTheaterId":"489","providerTheaterId":"","name":"Art Theatre","address":"230 Main St.","city":"Hobart","state":"IN","zip":"46342","distance":9.1341892543685,"lon":"-87.255187","lat":"41.532308","theaterChainName":"Independent Chains","ticketType":"STANDARD"},{"id":"4314","tribuneTheaterId":"2398","providerTheaterId":"","name":"Portage 16 IMAX","address":"6550 US Highway 6","city":"Portage","state":"IN","zip":"46368","distance":13.521544751858,"lon":"-87.160109","lat":"41.553422","theaterChainName":"Goodrich Theatres","ticketType":"E_TICKET"},{"id":"55","tribuneTheaterId":"2079","providerTheaterId":"","name":"Lansing Cinema 8","address":"16621 Torrence Ave.","city":"Lansing","state":"IL","zip":"60438","distance":15.643323347452,"lon":"-87.55559","lat":"41.593399","theaterChainName":"Independent Chains","ticketType":"STANDARD"},{"id":"4483","tribuneTheaterId":"9581","providerTheaterId":"","name":"Cinemark at Valparaiso","address":"700 Porter's Vale Blvd.","city":"Valparaiso","state":"IN","zip":"46383","distance":17.93850813242,"lon":"-87.015901","lat":"41.474346","theaterChainName":"Cinemark","ticketType":"STANDARD"},{"id":"744","tribuneTheaterId":"7597","providerTheaterId":"","name":"Marcus Chicago Heights","address":"1301 Hilltop Ave.","city":"Chicago Heights","state":"IL","zip":"60411","distance":17.211371197436,"lon":"-87.668356","lat":"41.508016","theaterChainName":"Marcus Theaters","ticketType":"STANDARD"},{"id":"2420","tribuneTheaterId":"407","providerTheaterId":"","name":"Hoosier Theatre","address":"1335 119th St.","city":"Whiting","state":"IN","zip":"46394","distance":19.111818659637,"lon":"-87.496246","lat":"41.679401","theaterChainName":"Independent Chains","ticketType":"STANDARD"},{"id":"3212","tribuneTheaterId":"8818","providerTheaterId":"","name":"AMC Loews Country Club Hills 16","address":"4201 W. 167th St.","city":"Country Club Hills","state":"IL","zip":"60478","distance":21.949178279175,"lon":"-87.721764","lat":"41.583969","theaterChainName":"AMC Theatres","ticketType":"STANDARD"},{"id":"5962","tribuneTheaterId":"11393","providerTheaterId":"","name":"Marcus Country Club Hills Cinema","address":"4201 W. 167th Street","city":"Country Club Hills","state":"IL","zip":"60478","distance":21.846829616963,"lon":"-87.71778","lat":"41.586109","theaterChainName":"Marcus Theaters","ticketType":"STANDARD"}]