[{"id":"4314","name":"Portage 16 IMAX","address":"6550 US Highway 6","city":"Portage","state":"IN","zip":"46368","distance":"23.887359619140625","lon":"-87.160110","lat":"41.553421","theaterChainName":"Goodrich Theatres","ticketType":"E_TICKET"},{"id":"4483","name":"Cinemark at Valparaiso","address":"700 Porter's Vale Blvd.","city":"Valparaiso","state":"IN","zip":"46383","distance":"16.748369216918945","lon":"-87.015900","lat":"41.474346","theaterChainName":"Cinemark","ticketType":"STANDARD"},{"id":"3989","name":"AMC Showplace Michigan City 14","address":"100 Meijer Dr.","city":"Michigan City","state":"IN","zip":"46360","distance":"14.250576972961426","lon":"-86.890305","lat":"41.675060","theaterChainName":"AMC Theatres","ticketType":"STANDARD"},{"id":"2700","name":"Showland Theatre","address":"2475 N Oak Road","city":"Plymouth","state":"IN","zip":"46563","distance":"22.07878303527832","lon":"-86.329636","lat":"41.367397","theaterChainName":"Independent Chains","ticketType":"STANDARD"},{"id":"1520","name":"AMC Showplace South Bend 16","address":"450 W. Chippewa","city":"South Bend","state":"IN","zip":"46614","distance":"24.123722076416016","lon":"-86.255623","lat":"41.633438","theaterChainName":"AMC Theatres","ticketType":"STANDARD"}]