[{"id":"3810","name":"AMC Showplace Schererville 12","address":"1400 Eagle Ridge Drive","city":"Schererville","state":"IN","zip":"46375","distance":"22.83466148376465","lon":"-87.475357","lat":"41.496071","theaterChainName":"AMC Theatres","ticketType":"STANDARD"},{"id":"1395","name":"AMC Showplace Schererville 16","address":"875 Deercreek Drive","city":"Schererville","state":"IN","zip":"46375","distance":"23.05440330505371","lon":"-87.475914","lat":"41.499226","theaterChainName":"AMC Theatres","ticketType":"STANDARD"},{"id":"4163","name":"AMC Showplace Hobart 12","address":"2590 Southlake Mall Drive","city":"Merrillville","state":"IN","zip":"46410","distance":"21.84370994567871","lon":"-87.305290","lat":"41.468204","theaterChainName":"AMC Theatres","ticketType":"STANDARD"},{"id":"1372","name":"Cinemark Movies 10 Bourbonnais","address":"1600 N State Route 50","city":"Bourbonnais","state":"IL","zip":"60914","distance":"21.73039436340332","lon":"-87.851196","lat":"41.173599","theaterChainName":"Cinemark","ticketType":"STANDARD"},{"id":"796","name":"CC Paramount","address":"213 N. Schuyler Ave.","city":"Kankakee","state":"IL","zip":"60901","distance":"22.61307716369629","lon":"-87.863960","lat":"41.122116","theaterChainName":"Classic Cinemas","ticketType":"STANDARD"},{"id":"794","name":"CC Meadowview Theatre","address":"55 Meadowview Center","city":"Kankakee","state":"IL","zip":"60901","distance":"22.903308868408203","lon":"-87.871597","lat":"41.134701","theaterChainName":"Classic Cinemas","ticketType":"STANDARD"},{"id":"5033","name":"Fountain Stone Theater","address":"1376 Saint Gaspar Drive","city":"Rensselaer","state":"IN","zip":"47978","distance":"22.240446090698242","lon":"-87.151733","lat":"40.925350","theaterChainName":"Independent Chains","ticketType":"STANDARD"}]