[{"id":"1372","tribuneTheaterId":"6489","providerTheaterId":"","name":"Cinemark Movies 10 Bourbonnais","address":"1600 N State Route 50","city":"Bourbonnais","state":"IL","zip":"60914","distance":21.729354627629,"lon":"-87.8512","lat":"41.1736","theaterChainName":"Cinemark","ticketType":"STANDARD"},{"id":"796","tribuneTheaterId":"6466","providerTheaterId":"","name":"CC Paramount","address":"213 N. Schuyler Ave.","city":"Kankakee","state":"IL","zip":"60901","distance":22.611949590262,"lon":"-87.863963","lat":"41.122115","theaterChainName":"Classic Cinemas","ticketType":"STANDARD"},{"id":"794","tribuneTheaterId":"6250","providerTheaterId":"","name":"CC Meadowview Theatre","address":"55 Meadowview Center","city":"Kankakee","state":"IL","zip":"60901","distance":22.902155858067,"lon":"-87.8716","lat":"41.1347","theaterChainName":"Classic Cinemas","ticketType":"STANDARD"},{"id":"5033","tribuneTheaterId":"10408","providerTheaterId":"","name":"Fountain Stone Theater","address":"1376 Saint Gaspar Drive","city":"Rensselaer","state":"IN","zip":"47978","distance":22.239170167676,"lon":"-87.15173","lat":"40.92535","theaterChainName":"Independent Chains","ticketType":"STANDARD"},{"id":"1395","tribuneTheaterId":"4959","providerTheaterId":"6871","name":"AMC Showplace Schererville 16","address":"875 Deercreek Drive","city":"Schererville","state":"IN","zip":"46375","distance":23.052937953474,"lon":"-87.475913","lat":"41.499226","theaterChainName":"AMC Theatres","ticketType":"STANDARD"},{"id":"3810","tribuneTheaterId":"4949","providerTheaterId":"6872","name":"AMC Showplace Schererville 12","address":"1400 Eagle Ridge Drive","city":"Schererville","state":"IN","zip":"46375","distance":22.833182137478,"lon":"-87.475354","lat":"41.496071","theaterChainName":"AMC Theatres","ticketType":"STANDARD"},{"id":"4163","tribuneTheaterId":"4953","providerTheaterId":"6375","name":"AMC Showplace Hobart 12","address":"2590 Southlake Mall Drive","city":"Merrillville","state":"IN","zip":"46410","distance":21.842294577842,"lon":"-87.305294","lat":"41.468206","theaterChainName":"AMC Theatres","ticketType":"STANDARD"}]