[{"id":"4163","tribuneTheaterId":"4953","providerTheaterId":"6375","name":"AMC Showplace Hobart 12","address":"2590 Southlake Mall Drive","city":"Merrillville","state":"IN","zip":"46410","distance":19.188412436789,"lon":"-87.305294","lat":"41.468206","theaterChainName":"AMC Theatres","ticketType":"STANDARD"},{"id":"5033","tribuneTheaterId":"10408","providerTheaterId":"","name":"Fountain Stone Theater","address":"1376 Saint Gaspar Drive","city":"Rensselaer","state":"IN","zip":"47978","distance":20.848882612674,"lon":"-87.15173","lat":"40.92535","theaterChainName":"Independent Chains","ticketType":"STANDARD"},{"id":"1395","tribuneTheaterId":"4959","providerTheaterId":"6871","name":"AMC Showplace Schererville 16","address":"875 Deercreek Drive","city":"Schererville","state":"IN","zip":"46375","distance":22.390284887585,"lon":"-87.475913","lat":"41.499226","theaterChainName":"AMC Theatres","ticketType":"STANDARD"},{"id":"3810","tribuneTheaterId":"4949","providerTheaterId":"6872","name":"AMC Showplace Schererville 12","address":"1400 Eagle Ridge Drive","city":"Schererville","state":"IN","zip":"46375","distance":22.174366092524,"lon":"-87.475354","lat":"41.496071","theaterChainName":"AMC Theatres","ticketType":"STANDARD"},{"id":"2918","tribuneTheaterId":"489","providerTheaterId":"","name":"Art Theatre","address":"230 Main St.","city":"Hobart","state":"IN","zip":"46342","distance":23.939290214629,"lon":"-87.255187","lat":"41.532308","theaterChainName":"Independent Chains","ticketType":"STANDARD"}]