[{"id":"4314","tribuneTheaterId":"2398","providerTheaterId":"","name":"Portage 16 IMAX","address":"6550 US Highway 6","city":"Portage","state":"IN","zip":"46368","distance":3.0536708485025,"lon":"-87.160109","lat":"41.553422","theaterChainName":"Goodrich Theatres","ticketType":"E_TICKET"},{"id":"2918","tribuneTheaterId":"489","providerTheaterId":"","name":"Art Theatre","address":"230 Main St.","city":"Hobart","state":"IN","zip":"46342","distance":4.1831274684053,"lon":"-87.255187","lat":"41.532308","theaterChainName":"Independent Chains","ticketType":"STANDARD"},{"id":"4163","tribuneTheaterId":"4953","providerTheaterId":"6375","name":"AMC Showplace Hobart 12","address":"2590 Southlake Mall Drive","city":"Merrillville","state":"IN","zip":"46410","distance":7.18188521625,"lon":"-87.305294","lat":"41.468206","theaterChainName":"AMC Theatres","ticketType":"STANDARD"},{"id":"4483","tribuneTheaterId":"9581","providerTheaterId":"","name":"Cinemark at Valparaiso","address":"700 Porter's Vale Blvd.","city":"Valparaiso","state":"IN","zip":"46383","distance":8.8345725078925,"lon":"-87.015901","lat":"41.474346","theaterChainName":"Cinemark","ticketType":"STANDARD"},{"id":"1395","tribuneTheaterId":"4959","providerTheaterId":"6871","name":"AMC Showplace Schererville 16","address":"875 Deercreek Drive","city":"Schererville","state":"IN","zip":"46375","distance":15.376747810858,"lon":"-87.475913","lat":"41.499226","theaterChainName":"AMC Theatres","ticketType":"STANDARD"},{"id":"3810","tribuneTheaterId":"4949","providerTheaterId":"6872","name":"AMC Showplace Schererville 12","address":"1400 Eagle Ridge Drive","city":"Schererville","state":"IN","zip":"46375","distance":15.361925618072,"lon":"-87.475354","lat":"41.496071","theaterChainName":"AMC Theatres","ticketType":"STANDARD"},{"id":"3989","tribuneTheaterId":"4957","providerTheaterId":"6623","name":"AMC Showplace Michigan City 14","address":"100 Meijer Dr.","city":"Michigan City","state":"IN","zip":"46360","distance":18.719202908023,"lon":"-86.890301","lat":"41.67506","theaterChainName":"AMC Theatres","ticketType":"STANDARD"},{"id":"2420","tribuneTheaterId":"407","providerTheaterId":"","name":"Hoosier Theatre","address":"1335 119th St.","city":"Whiting","state":"IN","zip":"46394","distance":20.069763863283,"lon":"-87.496246","lat":"41.679401","theaterChainName":"Independent Chains","ticketType":"STANDARD"},{"id":"55","tribuneTheaterId":"2079","providerTheaterId":"","name":"Lansing Cinema 8","address":"16621 Torrence Ave.","city":"Lansing","state":"IL","zip":"60438","distance":20.265590432725,"lon":"-87.55559","lat":"41.593399","theaterChainName":"Independent Chains","ticketType":"STANDARD"}]