[{"id":"3810","name":"AMC Showplace Schererville 12","address":"1400 Eagle Ridge Drive","city":"Schererville","state":"IN","zip":"46375","distance":"7.277794361114502","lon":"-87.475357","lat":"41.496071","theaterChainName":"AMC Theatres","ticketType":"STANDARD"},{"id":"1395","name":"AMC Showplace Schererville 16","address":"875 Deercreek Drive","city":"Schererville","state":"IN","zip":"46375","distance":"7.103293418884277","lon":"-87.475914","lat":"41.499226","theaterChainName":"AMC Theatres","ticketType":"STANDARD"},{"id":"4163","name":"AMC Showplace Hobart 12","address":"2590 Southlake Mall Drive","city":"Merrillville","state":"IN","zip":"46410","distance":"9.774171829223633","lon":"-87.305290","lat":"41.468204","theaterChainName":"AMC Theatres","ticketType":"STANDARD"},{"id":"2918","name":"Art Theatre","address":"230 Main St.","city":"Hobart","state":"IN","zip":"46342","distance":"8.698341369628906","lon":"-87.255188","lat":"41.532307","theaterChainName":"Independent Chains","ticketType":"STANDARD"},{"id":"55","name":"Lansing Cinema 8","address":"16621 Torrence Ave.","city":"Lansing","state":"IL","zip":"60438","distance":"7.730011940002441","lon":"-87.555588","lat":"41.593399","theaterChainName":"Independent Chains","ticketType":"STANDARD"},{"id":"744","name":"Marcus Chicago Heights","address":"1301 Hilltop Ave.","city":"Chicago Heights","state":"IL","zip":"60411","distance":"14.635101318359375","lon":"-87.668358","lat":"41.508015","theaterChainName":"Marcus Theaters","ticketType":"STANDARD"},{"id":"2420","name":"Hoosier Theatre","address":"1335 119th St.","city":"Whiting","state":"IN","zip":"46394","distance":"7.854302883148193","lon":"-87.496246","lat":"41.679401","theaterChainName":"Independent Chains","ticketType":"STANDARD"},{"id":"4314","name":"Portage 16 IMAX","address":"6550 US Highway 6","city":"Portage","state":"IN","zip":"46368","distance":"12.941192626953125","lon":"-87.160110","lat":"41.553421","theaterChainName":"Goodrich Theatres","ticketType":"E_TICKET"},{"id":"5962","name":"Marcus Country Club Hills Cinema","address":"4201 W. 167th Street","city":"Country Club Hills","state":"IL","zip":"60478","distance":"16.10356330871582","lon":"-87.717781","lat":"41.586109","theaterChainName":"Marcus Theaters","ticketType":"STANDARD"},{"id":"3212","name":"AMC Loews Country Club Hills 16","address":"4201 W. 167th St.","city":"Country Club Hills","state":"IL","zip":"60478","distance":"16.31138038635254","lon":"-87.721764","lat":"41.583969","theaterChainName":"AMC Theatres","ticketType":"STANDARD"},{"id":"5471","name":"Studio Movie Grill Chatham","address":"210 W 87th St.","city":"Chicago","state":"IL","zip":"60620","distance":"15.597282409667969","lon":"-87.630547","lat":"41.739002","theaterChainName":"Studio Movie Grill","ticketType":"SELECT_SEATING"},{"id":"53","name":"AMC Loews Crestwood 18","address":"13221 Rivercrest Drive","city":"Crestwood","state":"IL","zip":"60445","distance":"18.010679244995117","lon":"-87.744263","lat":"41.651596","theaterChainName":"AMC Theatres","ticketType":"STANDARD"},{"id":"4483","name":"Cinemark at Valparaiso","address":"700 Porter's Vale Blvd.","city":"Valparaiso","state":"IN","zip":"46383","distance":"21.657155990600586","lon":"-87.015900","lat":"41.474346","theaterChainName":"Cinemark","ticketType":"STANDARD"},{"id":"6042","name":"Emagine Frankfort 10","address":"19965 South La Grange Rd","city":"Frankfort","state":"IL","zip":"60423","distance":"23.207338333129883","lon":"-87.847633","lat":"41.527046","theaterChainName":"Emagine Entertainment","ticketType":"STANDARD"},{"id":"3622","name":"Crest Theatre","address":"106 E.5th Street","city":"Superior","state":"NE","zip":"68978","distance":"16.936382293701172","lon":"-87.595535","lat":"41.788013","theaterChainName":"Independent Chains","ticketType":"STANDARD"},{"id":"3647","name":"Doc Films","address":"1212 E. 59th St.","city":"Chicago","state":"IL","zip":"60637","distance":"16.936382293701172","lon":"-87.595535","lat":"41.788013","theaterChainName":"Independent Chains","ticketType":"STANDARD"},{"id":"5296","name":"Harper Theater","address":"5238 S. Harper Ave.","city":"Chicago","state":"IL","zip":"60615","distance":"17.425527572631836","lon":"-87.589104","lat":"41.799801","theaterChainName":"Independent Chains","ticketType":"STANDARD"},{"id":"2514","name":"Marcus Orland Park Cinemas","address":"16350 S. La Grange Road","city":"Orland Park","state":"IL","zip":"60467","distance":"23.128610610961914","lon":"-87.853706","lat":"41.591850","theaterChainName":"Marcus Theaters","ticketType":"STANDARD"},{"id":"211","name":"AMC Ford City 14","address":"7601 S. Cicero Ave.","city":"Chicago","state":"IL","zip":"60652","distance":"20.38655662536621","lon":"-87.733215","lat":"41.753262","theaterChainName":"AMC Theatres","ticketType":"STANDARD"},{"id":"30","name":"AMC Loews Chicago Ridge 6","address":"500 Chicago Ridge Mall","city":"Chicago Ridge","state":"IL","zip":"60415","distance":"21.381732940673828","lon":"-87.783684","lat":"41.715069","theaterChainName":"AMC Theatres","ticketType":"STANDARD"},{"id":"3569","name":"AMC River East 21","address":"322 E. Illinois St.","city":"Chicago","state":"IL","zip":"60611","distance":"23.677074432373047","lon":"-87.619019","lat":"41.891441","theaterChainName":"AMC Theatres","ticketType":"STANDARD"},{"id":"1397","name":"Gene Siskel Film Center","address":"164 State St.","city":"Chicago","state":"IL","zip":"60601","distance":"23.505077362060547","lon":"-87.628311","lat":"41.884861","theaterChainName":"Independent Chains","ticketType":"STANDARD"},{"id":"215","name":"AMC Loews 600 North Michigan 9","address":"600 N. Michigan Ave.","city":"Chicago","state":"IL","zip":"60611","distance":"23.88121223449707","lon":"-87.625153","lat":"41.892361","theaterChainName":"AMC Theatres","ticketType":"STANDARD"}]