[{"id":"3810","name":"AMC Showplace Schererville 12","address":"1400 Eagle Ridge Drive","city":"Schererville","state":"IN","zip":"46375","distance":"5.8217315673828125","lon":"-87.475357","lat":"41.496071","theaterChainName":"AMC Theatres","ticketType":"STANDARD"},{"id":"1395","name":"AMC Showplace Schererville 16","address":"875 Deercreek Drive","city":"Schererville","state":"IN","zip":"46375","distance":"5.940298557281494","lon":"-87.475914","lat":"41.499226","theaterChainName":"AMC Theatres","ticketType":"STANDARD"},{"id":"4163","name":"AMC Showplace Hobart 12","address":"2590 Southlake Mall Drive","city":"Merrillville","state":"IN","zip":"46410","distance":"3.5263164043426514","lon":"-87.305290","lat":"41.468204","theaterChainName":"AMC Theatres","ticketType":"STANDARD"},{"id":"2918","name":"Art Theatre","address":"230 Main St.","city":"Hobart","state":"IN","zip":"46342","distance":"7.8095879554748535","lon":"-87.255188","lat":"41.532307","theaterChainName":"Independent Chains","ticketType":"STANDARD"},{"id":"55","name":"Lansing Cinema 8","address":"16621 Torrence Ave.","city":"Lansing","state":"IL","zip":"60438","distance":"13.132709503173828","lon":"-87.555588","lat":"41.593399","theaterChainName":"Independent Chains","ticketType":"STANDARD"},{"id":"744","name":"Marcus Chicago Heights","address":"1301 Hilltop Ave.","city":"Chicago Heights","state":"IL","zip":"60411","distance":"15.63286304473877","lon":"-87.668358","lat":"41.508015","theaterChainName":"Marcus Theaters","ticketType":"STANDARD"},{"id":"2420","name":"Hoosier Theatre","address":"1335 119th St.","city":"Whiting","state":"IN","zip":"46394","distance":"16.353055953979492","lon":"-87.496246","lat":"41.679401","theaterChainName":"Independent Chains","ticketType":"STANDARD"},{"id":"4314","name":"Portage 16 IMAX","address":"6550 US Highway 6","city":"Portage","state":"IN","zip":"46368","distance":"12.707096099853516","lon":"-87.160110","lat":"41.553421","theaterChainName":"Goodrich Theatres","ticketType":"E_TICKET"},{"id":"5962","name":"Marcus Country Club Hills Cinema","address":"4201 W. 167th Street","city":"Country Club Hills","state":"IL","zip":"60478","distance":"19.81492805480957","lon":"-87.717781","lat":"41.586109","theaterChainName":"Marcus Theaters","ticketType":"STANDARD"},{"id":"3212","name":"AMC Loews Country Club Hills 16","address":"4201 W. 167th St.","city":"Country Club Hills","state":"IL","zip":"60478","distance":"19.937744140625","lon":"-87.721764","lat":"41.583969","theaterChainName":"AMC Theatres","ticketType":"STANDARD"},{"id":"5471","name":"Studio Movie Grill Chatham","address":"210 W 87th St.","city":"Chicago","state":"IL","zip":"60620","distance":"23.34606170654297","lon":"-87.630547","lat":"41.739002","theaterChainName":"Studio Movie Grill","ticketType":"SELECT_SEATING"},{"id":"53","name":"AMC Loews Crestwood 18","address":"13221 Rivercrest Drive","city":"Crestwood","state":"IL","zip":"60445","distance":"23.26863670349121","lon":"-87.744263","lat":"41.651596","theaterChainName":"AMC Theatres","ticketType":"STANDARD"},{"id":"4483","name":"Cinemark at Valparaiso","address":"700 Porter's Vale Blvd.","city":"Valparaiso","state":"IN","zip":"46383","distance":"18.500547409057617","lon":"-87.015900","lat":"41.474346","theaterChainName":"Cinemark","ticketType":"STANDARD"},{"id":"6042","name":"Emagine Frankfort 10","address":"19965 South La Grange Rd","city":"Frankfort","state":"IL","zip":"60423","distance":"24.988994598388672","lon":"-87.847633","lat":"41.527046","theaterChainName":"Emagine Entertainment","ticketType":"STANDARD"}]