[{"id":"4163","tribuneTheaterId":"4953","providerTheaterId":"6375","name":"AMC Showplace Hobart 12","address":"2590 Southlake Mall Drive","city":"Merrillville","state":"IN","zip":"46410","distance":3.5257613516118,"lon":"-87.305294","lat":"41.468206","theaterChainName":"AMC Theatres","ticketType":"STANDARD"},{"id":"1395","tribuneTheaterId":"4959","providerTheaterId":"6871","name":"AMC Showplace Schererville 16","address":"875 Deercreek Drive","city":"Schererville","state":"IN","zip":"46375","distance":5.9399697130456,"lon":"-87.475913","lat":"41.499226","theaterChainName":"AMC Theatres","ticketType":"STANDARD"},{"id":"3810","tribuneTheaterId":"4949","providerTheaterId":"6872","name":"AMC Showplace Schererville 12","address":"1400 Eagle Ridge Drive","city":"Schererville","state":"IN","zip":"46375","distance":5.8213101610748,"lon":"-87.475354","lat":"41.496071","theaterChainName":"AMC Theatres","ticketType":"STANDARD"},{"id":"2918","tribuneTheaterId":"489","providerTheaterId":"","name":"Art Theatre","address":"230 Main St.","city":"Hobart","state":"IN","zip":"46342","distance":7.8090158432847,"lon":"-87.255187","lat":"41.532308","theaterChainName":"Independent Chains","ticketType":"STANDARD"},{"id":"4314","tribuneTheaterId":"2398","providerTheaterId":"","name":"Portage 16 IMAX","address":"6550 US Highway 6","city":"Portage","state":"IN","zip":"46368","distance":12.706225823857,"lon":"-87.160109","lat":"41.553422","theaterChainName":"Goodrich Theatres","ticketType":"E_TICKET"},{"id":"55","tribuneTheaterId":"2079","providerTheaterId":"","name":"Lansing Cinema 8","address":"16621 Torrence Ave.","city":"Lansing","state":"IL","zip":"60438","distance":13.131995187924,"lon":"-87.55559","lat":"41.593399","theaterChainName":"Independent Chains","ticketType":"STANDARD"},{"id":"744","tribuneTheaterId":"7597","providerTheaterId":"","name":"Marcus Chicago Heights","address":"1301 Hilltop Ave.","city":"Chicago Heights","state":"IL","zip":"60411","distance":15.631933016282,"lon":"-87.668356","lat":"41.508016","theaterChainName":"Marcus Theaters","ticketType":"STANDARD"},{"id":"2420","tribuneTheaterId":"407","providerTheaterId":"","name":"Hoosier Theatre","address":"1335 119th St.","city":"Whiting","state":"IN","zip":"46394","distance":16.351955190195,"lon":"-87.496246","lat":"41.679401","theaterChainName":"Independent Chains","ticketType":"STANDARD"},{"id":"4483","tribuneTheaterId":"9581","providerTheaterId":"","name":"Cinemark at Valparaiso","address":"700 Porter's Vale Blvd.","city":"Valparaiso","state":"IN","zip":"46383","distance":18.499183149586,"lon":"-87.015901","lat":"41.474346","theaterChainName":"Cinemark","ticketType":"STANDARD"},{"id":"5962","tribuneTheaterId":"11393","providerTheaterId":"","name":"Marcus Country Club Hills Cinema","address":"4201 W. 167th Street","city":"Country Club Hills","state":"IL","zip":"60478","distance":19.813720517173,"lon":"-87.71778","lat":"41.586109","theaterChainName":"Marcus Theaters","ticketType":"STANDARD"},{"id":"3212","tribuneTheaterId":"8818","providerTheaterId":"","name":"AMC Loews Country Club Hills 16","address":"4201 W. 167th St.","city":"Country Club Hills","state":"IL","zip":"60478","distance":19.936599691183,"lon":"-87.721764","lat":"41.583969","theaterChainName":"AMC Theatres","ticketType":"STANDARD"},{"id":"53","tribuneTheaterId":"9198","providerTheaterId":"2520","name":"AMC Loews Crestwood 18","address":"13221 Rivercrest Drive","city":"Crestwood","state":"IL","zip":"60445","distance":23.267211235051,"lon":"-87.744262","lat":"41.651596","theaterChainName":"AMC Theatres","ticketType":"STANDARD"},{"id":"5471","tribuneTheaterId":"10912","providerTheaterId":"","name":"Studio Movie Grill Chatham","address":"210 W 87th St.","city":"Chicago","state":"IL","zip":"60620","distance":23.344685174761,"lon":"-87.63055","lat":"41.739002","theaterChainName":"Studio Movie Grill","ticketType":"SELECT_SEATING"},{"id":"6042","tribuneTheaterId":"11446","providerTheaterId":"","name":"Emagine Frankfort 10","address":"19965 South La Grange Rd","city":"Frankfort","state":"IL","zip":"60423","distance":24.987414163064,"lon":"-87.84763","lat":"41.527048","theaterChainName":"Emagine Entertainment","ticketType":"STANDARD"}]