[{"id":"2700","tribuneTheaterId":"1524","providerTheaterId":"","name":"Showland Theatre","address":"2475 N Oak Road","city":"Plymouth","state":"IN","zip":"46563","distance":8.9450906227447,"lon":"-86.329638","lat":"41.367397","theaterChainName":"Independent Chains","ticketType":"STANDARD"},{"id":"1520","tribuneTheaterId":"4960","providerTheaterId":"6881","name":"AMC Showplace South Bend 16","address":"450 W. Chippewa","city":"South Bend","state":"IN","zip":"46614","distance":13.300171451371,"lon":"-86.255625","lat":"41.633439","theaterChainName":"AMC Theatres","ticketType":"STANDARD"},{"id":"1357","tribuneTheaterId":"5223","providerTheaterId":"","name":"Cinemark Movies 14 Mishawaka","address":"910 West Edison","city":"Mishawaka","state":"IN","zip":"46545","distance":17.279207035278,"lon":"-86.194577","lat":"41.696783","theaterChainName":"Cinemark","ticketType":"STANDARD"},{"id":"707","tribuneTheaterId":"7059","providerTheaterId":"","name":"Cinemark University Park 6","address":"6424 Grape Road","city":"Mishawaka","state":"IN","zip":"46545","distance":18.78876808952,"lon":"-86.187599","lat":"41.718601","theaterChainName":"Cinemark","ticketType":"STANDARD"},{"id":"5465","tribuneTheaterId":"10906","providerTheaterId":"","name":"Goshen Art House Cinema","address":"211 S. Main St. Floor 2","city":"Goshen","state":"IN","zip":"46528","distance":20.838838761941,"lon":"-85.834944","lat":"41.584561","theaterChainName":"Independent Chains","ticketType":"STANDARD"},{"id":"1756","tribuneTheaterId":"2182","providerTheaterId":"","name":"Linway Plaza Cinema 14","address":"514 West Lincoln Avenue","city":"Goshen","state":"IN","zip":"46526","distance":20.458772247324,"lon":"-85.843622","lat":"41.585128","theaterChainName":"Independent Chains","ticketType":"STANDARD"},{"id":"2221","tribuneTheaterId":"4974","providerTheaterId":"","name":"Carmike Encore Park 14","address":"2701 Cassopolis St.","city":"Elkhart","state":"IN","zip":"46514","distance":22.131503623735,"lon":"-85.973833","lat":"41.721796","theaterChainName":"Carmike Cinemas","ticketType":"STANDARD"},{"id":"1758","tribuneTheaterId":"1919","providerTheaterId":"","name":"North Pointe Cinemas","address":"1060 Mariner Dr.","city":"Warsaw","state":"IN","zip":"46582","distance":23.386763311733,"lon":"-85.824155","lat":"41.25223","theaterChainName":"Independent Chains","ticketType":"STANDARD"}]