[{"id":"2700","tribuneTheaterId":"1524","providerTheaterId":"","name":"Showland Theatre","address":"2475 N Oak Road","city":"Plymouth","state":"IN","zip":"46563","distance":6.4702147233984,"lon":"-86.329638","lat":"41.367397","theaterChainName":"Independent Chains","ticketType":"STANDARD"},{"id":"1520","tribuneTheaterId":"4960","providerTheaterId":"6881","name":"AMC Showplace South Bend 16","address":"450 W. Chippewa","city":"South Bend","state":"IN","zip":"46614","distance":12.318015752879,"lon":"-86.255625","lat":"41.633439","theaterChainName":"AMC Theatres","ticketType":"STANDARD"},{"id":"1357","tribuneTheaterId":"5223","providerTheaterId":"","name":"Cinemark Movies 14 Mishawaka","address":"910 West Edison","city":"Mishawaka","state":"IN","zip":"46545","distance":17.423890929136,"lon":"-86.194577","lat":"41.696783","theaterChainName":"Cinemark","ticketType":"STANDARD"},{"id":"707","tribuneTheaterId":"7059","providerTheaterId":"","name":"Cinemark University Park 6","address":"6424 Grape Road","city":"Mishawaka","state":"IN","zip":"46545","distance":18.964107420693,"lon":"-86.187599","lat":"41.718601","theaterChainName":"Cinemark","ticketType":"STANDARD"}]