[{"id":"5465","tribuneTheaterId":"10906","providerTheaterId":"","name":"Goshen Art House Cinema","address":"211 S. Main St. Floor 2","city":"Goshen","state":"IN","zip":"46528","distance":7.4876746141216,"lon":"-85.834944","lat":"41.584561","theaterChainName":"Independent Chains","ticketType":"STANDARD"},{"id":"1756","tribuneTheaterId":"2182","providerTheaterId":"","name":"Linway Plaza Cinema 14","address":"514 West Lincoln Avenue","city":"Goshen","state":"IN","zip":"46526","distance":7.9038191673177,"lon":"-85.843622","lat":"41.585128","theaterChainName":"Independent Chains","ticketType":"STANDARD"},{"id":"2221","tribuneTheaterId":"4974","providerTheaterId":"","name":"Carmike Encore Park 14","address":"2701 Cassopolis St.","city":"Elkhart","state":"IN","zip":"46514","distance":18.944244535834,"lon":"-85.973833","lat":"41.721796","theaterChainName":"Carmike Cinemas","ticketType":"STANDARD"},{"id":"1758","tribuneTheaterId":"1919","providerTheaterId":"","name":"North Pointe Cinemas","address":"1060 Mariner Dr.","city":"Warsaw","state":"IN","zip":"46582","distance":20.357432654735,"lon":"-85.824155","lat":"41.25223","theaterChainName":"Independent Chains","ticketType":"STANDARD"}]