[{"id":"1520","tribuneTheaterId":"4960","providerTheaterId":"6881","name":"AMC Showplace South Bend 16","address":"450 W. Chippewa","city":"South Bend","state":"IN","zip":"46614","distance":10.28947958003,"lon":"-86.255625","lat":"41.633439","theaterChainName":"AMC Theatres","ticketType":"STANDARD"},{"id":"2700","tribuneTheaterId":"1524","providerTheaterId":"","name":"Showland Theatre","address":"2475 N Oak Road","city":"Plymouth","state":"IN","zip":"46563","distance":12.850737491595,"lon":"-86.329638","lat":"41.367397","theaterChainName":"Independent Chains","ticketType":"STANDARD"},{"id":"1357","tribuneTheaterId":"5223","providerTheaterId":"","name":"Cinemark Movies 14 Mishawaka","address":"910 West Edison","city":"Mishawaka","state":"IN","zip":"46545","distance":15.532778969204,"lon":"-86.194577","lat":"41.696783","theaterChainName":"Cinemark","ticketType":"STANDARD"},{"id":"707","tribuneTheaterId":"7059","providerTheaterId":"","name":"Cinemark University Park 6","address":"6424 Grape Road","city":"Mishawaka","state":"IN","zip":"46545","distance":16.849528241011,"lon":"-86.187599","lat":"41.718601","theaterChainName":"Cinemark","ticketType":"STANDARD"},{"id":"1228","tribuneTheaterId":"1662","providerTheaterId":"","name":"Wonderland Cinema","address":"402 N. Front Street","city":"Niles","state":"MI","zip":"49120","distance":21.543285868719,"lon":"-86.259048","lat":"41.832241","theaterChainName":"Independent Chains","ticketType":"STANDARD"}]