[{"id":"2700","name":"Showland Theatre","address":"2475 N Oak Road","city":"Plymouth","state":"IN","zip":"46563","distance":"12.851517677307129","lon":"-86.329636","lat":"41.367397","theaterChainName":"Independent Chains","ticketType":"STANDARD"},{"id":"1520","name":"AMC Showplace South Bend 16","address":"450 W. Chippewa","city":"South Bend","state":"IN","zip":"46614","distance":"10.290168762207031","lon":"-86.255623","lat":"41.633438","theaterChainName":"AMC Theatres","ticketType":"STANDARD"},{"id":"1228","name":"Wonderland Cinema","address":"402 N. Front Street","city":"Niles","state":"MI","zip":"49120","distance":"21.54463768005371","lon":"-86.259048","lat":"41.832241","theaterChainName":"Independent Chains","ticketType":"STANDARD"},{"id":"1357","name":"Cinemark Movies 14 Mishawaka","address":"910 West Edison","city":"Mishawaka","state":"IN","zip":"46545","distance":"15.533543586730957","lon":"-86.194580","lat":"41.696781","theaterChainName":"Cinemark","ticketType":"STANDARD"},{"id":"707","name":"Cinemark University Park 6","address":"6424 Grape Road","city":"Mishawaka","state":"IN","zip":"46545","distance":"16.850584030151367","lon":"-86.187599","lat":"41.718601","theaterChainName":"Cinemark","ticketType":"STANDARD"}]