[{"id":"1758","tribuneTheaterId":"1919","providerTheaterId":"","name":"North Pointe Cinemas","address":"1060 Mariner Dr.","city":"Warsaw","state":"IN","zip":"46582","distance":6.7232980115191,"lon":"-85.824155","lat":"41.25223","theaterChainName":"Independent Chains","ticketType":"STANDARD"},{"id":"6123","tribuneTheaterId":"11539","providerTheaterId":"","name":"Bones Theatre","address":"655 N Opportunity Drive","city":"Columbia City","state":"IN","zip":"46725","distance":10.687715641774,"lon":"-85.507302","lat":"41.173045","theaterChainName":"Independent Chains","ticketType":"STANDARD"},{"id":"6116","tribuneTheaterId":"11531","providerTheaterId":"","name":"Parkway Theatre","address":"5 W North Avenue","city":"Baltimore","state":"MD","zip":"21201","distance":10.687715641774,"lon":"-85.507302","lat":"41.173045","theaterChainName":"Independent Chains","ticketType":"STANDARD"},{"id":"6109","tribuneTheaterId":"5919","providerTheaterId":"","name":"Plaza 3 Cinema","address":"300 Main St., Suite 460","city":"Keokuk","state":"IA","zip":"52632","distance":10.687715641774,"lon":"-85.507302","lat":"41.173045","theaterChainName":"Eisentraut Theatres","ticketType":"STANDARD"},{"id":"2346","tribuneTheaterId":"4879","providerTheaterId":"","name":"Goodrich Huntington Theatre","address":"350 Hauenstein Rd","city":"Huntington","state":"IN","zip":"46750","distance":23.901528757855,"lon":"-85.520781","lat":"40.895952","theaterChainName":"Goodrich Theatres","ticketType":"E_TICKET"}]