[{"id":"2700","name":"Showland Theatre","address":"2475 N Oak Road","city":"Plymouth","state":"IN","zip":"46563","distance":"22.48394775390625","lon":"-86.329636","lat":"41.367397","theaterChainName":"Independent Chains","ticketType":"STANDARD"},{"id":"1520","name":"AMC Showplace South Bend 16","address":"450 W. Chippewa","city":"South Bend","state":"IN","zip":"46614","distance":"3.717085123062134","lon":"-86.255623","lat":"41.633438","theaterChainName":"AMC Theatres","ticketType":"STANDARD"},{"id":"1228","name":"Wonderland Cinema","address":"402 N. Front Street","city":"Niles","state":"MI","zip":"49120","distance":"10.248518943786621","lon":"-86.259048","lat":"41.832241","theaterChainName":"Independent Chains","ticketType":"STANDARD"},{"id":"1357","name":"Cinemark Movies 14 Mishawaka","address":"910 West Edison","city":"Mishawaka","state":"IN","zip":"46545","distance":"2.243598461151123","lon":"-86.194580","lat":"41.696781","theaterChainName":"Cinemark","ticketType":"STANDARD"},{"id":"707","name":"Cinemark University Park 6","address":"6424 Grape Road","city":"Mishawaka","state":"IN","zip":"46545","distance":"3.3756842613220215","lon":"-86.187599","lat":"41.718601","theaterChainName":"Cinemark","ticketType":"STANDARD"},{"id":"2221","name":"Carmike Encore Park 14","address":"2701 Cassopolis St.","city":"Elkhart","state":"IN","zip":"46514","distance":"13.716032028198242","lon":"-85.973831","lat":"41.721794","theaterChainName":"Carmike Cinemas","ticketType":"STANDARD"},{"id":"1756","name":"Linway Plaza Cinema 14","address":"514 West Lincoln Avenue","city":"Goshen","state":"IN","zip":"46526","distance":"21.36248207092285","lon":"-85.843620","lat":"41.585129","theaterChainName":"Independent Chains","ticketType":"STANDARD"},{"id":"5465","name":"Goshen Art House Cinema","address":"211 S. Main St. Floor 2","city":"Goshen","state":"IN","zip":"46528","distance":"21.799484252929688","lon":"-85.834946","lat":"41.584560","theaterChainName":"Independent Chains","ticketType":"STANDARD"}]