[{"id":"5877","name":"Brokaw Movie House","address":"200 N Public Square","city":"Angola","state":"IN","zip":"46703","distance":"19.247526168823242","lon":"-84.999908","lat":"41.635334","theaterChainName":"Independent Chains","ticketType":"STANDARD"},{"id":"4127","name":"NCG Auburn Cinemas","address":"1111 Smaltz Way","city":"Auburn","state":"IN","zip":"46706","distance":"2.0836806297302246","lon":"-85.086967","lat":"41.359589","theaterChainName":"NCG Cinemas","ticketType":"STANDARD"},{"id":"4083","name":"Carmike 20 Fort Wayne","address":"3930 East Dupont Rd.","city":"Fort Wayne","state":"IN","zip":"46825","distance":"12.83029556274414","lon":"-85.095161","lat":"41.176910","theaterChainName":"Carmike Cinemas","ticketType":"STANDARD"},{"id":"2494","name":"Northwood Cinema Grill","address":"6069 Stellhorn Road","city":"Fort Wayne","state":"IN","zip":"46885","distance":"16.401079177856445","lon":"-85.065285","lat":"41.122047","theaterChainName":"Independent Chains","ticketType":"STANDARD"},{"id":"616","name":"Regal Coldwater Crossing 8","address":"211 W Washington Center Road","city":"Fort Wayne","state":"IN","zip":"46825","distance":"16.411874771118164","lon":"-85.142303","lat":"41.132599","theaterChainName":"Regal Cinemas","ticketType":"STANDARD"},{"id":"2343","name":"Cinema Center Downtown","address":"437 E. Berry Street","city":"Fort Wayne","state":"IN","zip":"46802","distance":"19.77170181274414","lon":"-85.133308","lat":"41.080357","theaterChainName":"Independent Chains","ticketType":"STANDARD"},{"id":"3538","name":"Carmike Jefferson Pointe 18","address":"4250 W. Jefferson Rd.","city":"Fort Wayne","state":"IN","zip":"46804","distance":"21.42951774597168","lon":"-85.195702","lat":"41.069801","theaterChainName":"Carmike Cinemas","ticketType":"STANDARD"},{"id":"617","name":"Coventry 13","address":"5495 Coventry Lane","city":"Fort Wayne","state":"IN","zip":"46804","distance":"24.78308868408203","lon":"-85.255051","lat":"41.036373","theaterChainName":"Apollo Cinemas","ticketType":"STANDARD"}]