[{"id":"2815","name":"AMC Showplace Marion 12","address":"713 N. Theatre Rd.","city":"Marion","state":"IN","zip":"46952","distance":"20.42975616455078","lon":"-85.682739","lat":"40.571808","theaterChainName":"AMC Theatres","ticketType":"STANDARD"},{"id":"6109","name":"Plaza 3 Cinema","address":"300 Main St., Suite 460","city":"Keokuk","state":"IA","zip":"52632","distance":"22.121767044067383","lon":"-85.507301","lat":"41.173046","theaterChainName":"Eisentraut Theatres","ticketType":"STANDARD"},{"id":"6116","name":"Parkway Theatre","address":"5 W North Avenue","city":"Baltimore","state":"MD","zip":"21201","distance":"22.121767044067383","lon":"-85.507301","lat":"41.173046","theaterChainName":"Independent Chains","ticketType":"STANDARD"},{"id":"6123","name":"Bones Theatre","address":"655 N Opportunity Drive","city":"Columbia City","state":"IN","zip":"46725","distance":"22.121767044067383","lon":"-85.507301","lat":"41.173046","theaterChainName":"Independent Chains","ticketType":"STANDARD"},{"id":"2346","name":"Goodrich Huntington Theatre","address":"350 Hauenstein Rd","city":"Huntington","state":"IN","zip":"46750","distance":"5.070987701416016","lon":"-85.520782","lat":"40.895950","theaterChainName":"Goodrich Theatres","ticketType":"E_TICKET"},{"id":"617","name":"Coventry 13","address":"5495 Coventry Lane","city":"Fort Wayne","state":"IN","zip":"46804","distance":"21.961322784423828","lon":"-85.255051","lat":"41.036373","theaterChainName":"Apollo Cinemas","ticketType":"STANDARD"}]