[{"id":"2343","name":"Cinema Center Downtown","address":"437 E. Berry Street","city":"Fort Wayne","state":"IN","zip":"46802","distance":"23.78675079345703","lon":"-85.133308","lat":"41.080357","theaterChainName":"Independent Chains","ticketType":"STANDARD"},{"id":"3538","name":"Carmike Jefferson Pointe 18","address":"4250 W. Jefferson Rd.","city":"Fort Wayne","state":"IN","zip":"46804","distance":"23.075927734375","lon":"-85.195702","lat":"41.069801","theaterChainName":"Carmike Cinemas","ticketType":"STANDARD"},{"id":"2853","name":"Ritz Theatre - Portland","address":"202 N Meridian St","city":"Portland","state":"IN","zip":"47371","distance":"23.022382736206055","lon":"-84.977882","lat":"40.434444","theaterChainName":"Independent Chains","ticketType":"STANDARD"},{"id":"2346","name":"Goodrich Huntington Theatre","address":"350 Hauenstein Rd","city":"Huntington","state":"IN","zip":"46750","distance":"21.73818588256836","lon":"-85.520782","lat":"40.895950","theaterChainName":"Goodrich Theatres","ticketType":"E_TICKET"},{"id":"617","name":"Coventry 13","address":"5495 Coventry Lane","city":"Fort Wayne","state":"IN","zip":"46804","distance":"21.260360717773438","lon":"-85.255051","lat":"41.036373","theaterChainName":"Apollo Cinemas","ticketType":"STANDARD"}]