[{"id":"4083","name":"Carmike 20 Fort Wayne","address":"3930 East Dupont Rd.","city":"Fort Wayne","state":"IN","zip":"46825","distance":"16.171382904052734","lon":"-85.095161","lat":"41.176910","theaterChainName":"Carmike Cinemas","ticketType":"STANDARD"},{"id":"2494","name":"Northwood Cinema Grill","address":"6069 Stellhorn Road","city":"Fort Wayne","state":"IN","zip":"46885","distance":"12.10291862487793","lon":"-85.065285","lat":"41.122047","theaterChainName":"Independent Chains","ticketType":"STANDARD"},{"id":"616","name":"Regal Coldwater Crossing 8","address":"211 W Washington Center Road","city":"Fort Wayne","state":"IN","zip":"46825","distance":"14.296479225158691","lon":"-85.142303","lat":"41.132599","theaterChainName":"Regal Cinemas","ticketType":"STANDARD"},{"id":"2343","name":"Cinema Center Downtown","address":"437 E. Berry Street","city":"Fort Wayne","state":"IN","zip":"46802","distance":"11.008801460266113","lon":"-85.133308","lat":"41.080357","theaterChainName":"Independent Chains","ticketType":"STANDARD"},{"id":"3538","name":"Carmike Jefferson Pointe 18","address":"4250 W. Jefferson Rd.","city":"Fort Wayne","state":"IN","zip":"46804","distance":"12.731767654418945","lon":"-85.195702","lat":"41.069801","theaterChainName":"Carmike Cinemas","ticketType":"STANDARD"},{"id":"617","name":"Coventry 13","address":"5495 Coventry Lane","city":"Fort Wayne","state":"IN","zip":"46804","distance":"14.154460906982422","lon":"-85.255051","lat":"41.036373","theaterChainName":"Apollo Cinemas","ticketType":"STANDARD"}]