[{"id":"4127","tribuneTheaterId":"2167","providerTheaterId":"","name":"NCG Auburn Cinemas","address":"1111 Smaltz Way","city":"Auburn","state":"IN","zip":"46706","distance":10.896403718052,"lon":"-85.086971","lat":"41.35959","theaterChainName":"NCG Cinemas","ticketType":"STANDARD"},{"id":"5877","tribuneTheaterId":"11293","providerTheaterId":"","name":"Brokaw Movie House","address":"200 N Public Square","city":"Angola","state":"IN","zip":"46703","distance":18.690781318015,"lon":"-84.999908","lat":"41.635333","theaterChainName":"Independent Chains","ticketType":"STANDARD"},{"id":"4083","tribuneTheaterId":"4711","providerTheaterId":"","name":"Carmike 20 Fort Wayne","address":"3930 East Dupont Rd.","city":"Fort Wayne","state":"IN","zip":"46825","distance":20.6235282417,"lon":"-85.095162","lat":"41.176911","theaterChainName":"Carmike Cinemas","ticketType":"STANDARD"},{"id":"6116","tribuneTheaterId":"11531","providerTheaterId":"","name":"Parkway Theatre","address":"5 W North Avenue","city":"Baltimore","state":"MD","zip":"21201","distance":22.91208169992,"lon":"-85.507302","lat":"41.173045","theaterChainName":"Independent Chains","ticketType":"STANDARD"},{"id":"6109","tribuneTheaterId":"5919","providerTheaterId":"","name":"Plaza 3 Cinema","address":"300 Main St., Suite 460","city":"Keokuk","state":"IA","zip":"52632","distance":22.91208169992,"lon":"-85.507302","lat":"41.173045","theaterChainName":"Eisentraut Theatres","ticketType":"STANDARD"},{"id":"616","tribuneTheaterId":"8652","providerTheaterId":"","name":"Regal Coldwater Crossing 8","address":"211 W Washington Center Road","city":"Fort Wayne","state":"IN","zip":"46825","distance":22.658434804184,"lon":"-85.1423","lat":"41.1326","theaterChainName":"Regal Cinemas","ticketType":"STANDARD"},{"id":"6123","tribuneTheaterId":"11539","providerTheaterId":"","name":"Bones Theatre","address":"655 N Opportunity Drive","city":"Columbia City","state":"IN","zip":"46725","distance":22.91208169992,"lon":"-85.507302","lat":"41.173045","theaterChainName":"Independent Chains","ticketType":"STANDARD"},{"id":"2494","tribuneTheaterId":"4061","providerTheaterId":"","name":"Northwood Cinema Grill","address":"6069 Stellhorn Road","city":"Fort Wayne","state":"IN","zip":"46885","distance":24.717836124965,"lon":"-85.065283","lat":"41.122048","theaterChainName":"Independent Chains","ticketType":"STANDARD"}]