[{"id":"6123","tribuneTheaterId":"11539","providerTheaterId":"","name":"Bones Theatre","address":"655 N Opportunity Drive","city":"Columbia City","state":"IN","zip":"46725","distance":15.503157928292,"lon":"-85.507302","lat":"41.173045","theaterChainName":"Independent Chains","ticketType":"STANDARD"},{"id":"6109","tribuneTheaterId":"5919","providerTheaterId":"","name":"Plaza 3 Cinema","address":"300 Main St., Suite 460","city":"Keokuk","state":"IA","zip":"52632","distance":15.503157928292,"lon":"-85.507302","lat":"41.173045","theaterChainName":"Eisentraut Theatres","ticketType":"STANDARD"},{"id":"6116","tribuneTheaterId":"11531","providerTheaterId":"","name":"Parkway Theatre","address":"5 W North Avenue","city":"Baltimore","state":"MD","zip":"21201","distance":15.503157928292,"lon":"-85.507302","lat":"41.173045","theaterChainName":"Independent Chains","ticketType":"STANDARD"},{"id":"1758","tribuneTheaterId":"1919","providerTheaterId":"","name":"North Pointe Cinemas","address":"1060 Mariner Dr.","city":"Warsaw","state":"IN","zip":"46582","distance":17.395330526064,"lon":"-85.824155","lat":"41.25223","theaterChainName":"Independent Chains","ticketType":"STANDARD"},{"id":"5465","tribuneTheaterId":"10906","providerTheaterId":"","name":"Goshen Art House Cinema","address":"211 S. Main St. Floor 2","city":"Goshen","state":"IN","zip":"46528","distance":19.776013400986,"lon":"-85.834944","lat":"41.584561","theaterChainName":"Independent Chains","ticketType":"STANDARD"},{"id":"1756","tribuneTheaterId":"2182","providerTheaterId":"","name":"Linway Plaza Cinema 14","address":"514 West Lincoln Avenue","city":"Goshen","state":"IN","zip":"46526","distance":20.140575848934,"lon":"-85.843622","lat":"41.585128","theaterChainName":"Independent Chains","ticketType":"STANDARD"},{"id":"4127","tribuneTheaterId":"2167","providerTheaterId":"","name":"NCG Auburn Cinemas","address":"1111 Smaltz Way","city":"Auburn","state":"IN","zip":"46706","distance":24.044790498358,"lon":"-85.086971","lat":"41.35959","theaterChainName":"NCG Cinemas","ticketType":"STANDARD"}]