[{"id":"5877","tribuneTheaterId":"11293","providerTheaterId":"","name":"Brokaw Movie House","address":"200 N Public Square","city":"Angola","state":"IN","zip":"46703","distance":20.896163562678,"lon":"-84.999908","lat":"41.635333","theaterChainName":"Independent Chains","ticketType":"STANDARD"},{"id":"4939","tribuneTheaterId":"10290","providerTheaterId":"","name":"Riviera Theatre - Three Rivers","address":"50 North Main St.","city":"Three Rivers","state":"MI","zip":"49093","distance":23.489051878484,"lon":"-85.634394","lat":"41.945383","theaterChainName":"Independent Chains","ticketType":"STANDARD"},{"id":"5465","tribuneTheaterId":"10906","providerTheaterId":"","name":"Goshen Art House Cinema","address":"211 S. Main St. Floor 2","city":"Goshen","state":"IN","zip":"46528","distance":22.742074225738,"lon":"-85.834944","lat":"41.584561","theaterChainName":"Independent Chains","ticketType":"STANDARD"},{"id":"1756","tribuneTheaterId":"2182","providerTheaterId":"","name":"Linway Plaza Cinema 14","address":"514 West Lincoln Avenue","city":"Goshen","state":"IN","zip":"46526","distance":23.17305110622,"lon":"-85.843622","lat":"41.585128","theaterChainName":"Independent Chains","ticketType":"STANDARD"},{"id":"1008","tribuneTheaterId":"4874","providerTheaterId":"","name":"Goodrich Three Rivers 6","address":"120 Enterprise Drive","city":"Three Rivers","state":"MI","zip":"49093","distance":24.866095639426,"lon":"-85.633597","lat":"41.968601","theaterChainName":"Goodrich Theatres","ticketType":"E_TICKET"}]