[{"id":"2494","name":"Northwood Cinema Grill","address":"6069 Stellhorn Road","city":"Fort Wayne","state":"IN","zip":"46885","distance":"23.954133987426758","lon":"-85.065285","lat":"41.122047","theaterChainName":"Independent Chains","ticketType":"STANDARD"},{"id":"616","name":"Regal Coldwater Crossing 8","address":"211 W Washington Center Road","city":"Fort Wayne","state":"IN","zip":"46825","distance":"22.654375076293945","lon":"-85.142303","lat":"41.132599","theaterChainName":"Regal Cinemas","ticketType":"STANDARD"},{"id":"2343","name":"Cinema Center Downtown","address":"437 E. Berry Street","city":"Fort Wayne","state":"IN","zip":"46802","distance":"19.64146614074707","lon":"-85.133308","lat":"41.080357","theaterChainName":"Independent Chains","ticketType":"STANDARD"},{"id":"3538","name":"Carmike Jefferson Pointe 18","address":"4250 W. Jefferson Rd.","city":"Fort Wayne","state":"IN","zip":"46804","distance":"17.575756072998047","lon":"-85.195702","lat":"41.069801","theaterChainName":"Carmike Cinemas","ticketType":"STANDARD"},{"id":"2346","name":"Goodrich Huntington Theatre","address":"350 Hauenstein Rd","city":"Huntington","state":"IN","zip":"46750","distance":"11.403582572937012","lon":"-85.520782","lat":"40.895950","theaterChainName":"Goodrich Theatres","ticketType":"E_TICKET"},{"id":"617","name":"Coventry 13","address":"5495 Coventry Lane","city":"Fort Wayne","state":"IN","zip":"46804","distance":"14.436962127685547","lon":"-85.255051","lat":"41.036373","theaterChainName":"Apollo Cinemas","ticketType":"STANDARD"}]