[{"id":"2494","tribuneTheaterId":"4061","providerTheaterId":"","name":"Northwood Cinema Grill","address":"6069 Stellhorn Road","city":"Fort Wayne","state":"IN","zip":"46885","distance":4.5570222491726,"lon":"-85.065283","lat":"41.122048","theaterChainName":"Independent Chains","ticketType":"STANDARD"},{"id":"2343","tribuneTheaterId":"370","providerTheaterId":"","name":"Cinema Center Downtown","address":"437 E. Berry Street","city":"Fort Wayne","state":"IN","zip":"46802","distance":6.374972061423,"lon":"-85.133305","lat":"41.080356","theaterChainName":"Independent Chains","ticketType":"STANDARD"},{"id":"616","tribuneTheaterId":"8652","providerTheaterId":"","name":"Regal Coldwater Crossing 8","address":"211 W Washington Center Road","city":"Fort Wayne","state":"IN","zip":"46825","distance":8.0624818307015,"lon":"-85.1423","lat":"41.1326","theaterChainName":"Regal Cinemas","ticketType":"STANDARD"},{"id":"4083","tribuneTheaterId":"4711","providerTheaterId":"","name":"Carmike 20 Fort Wayne","address":"3930 East Dupont Rd.","city":"Fort Wayne","state":"IN","zip":"46825","distance":8.5754153571914,"lon":"-85.095162","lat":"41.176911","theaterChainName":"Carmike Cinemas","ticketType":"STANDARD"},{"id":"3538","tribuneTheaterId":"2403","providerTheaterId":"","name":"Carmike Jefferson Pointe 18","address":"4250 W. Jefferson Rd.","city":"Fort Wayne","state":"IN","zip":"46804","distance":9.5846789919691,"lon":"-85.195702","lat":"41.069801","theaterChainName":"Carmike Cinemas","ticketType":"STANDARD"},{"id":"617","tribuneTheaterId":"4916","providerTheaterId":"","name":"Coventry 13","address":"5495 Coventry Lane","city":"Fort Wayne","state":"IN","zip":"46804","distance":12.889158451339,"lon":"-85.255049","lat":"41.036373","theaterChainName":"Apollo Cinemas","ticketType":"STANDARD"},{"id":"4127","tribuneTheaterId":"2167","providerTheaterId":"","name":"NCG Auburn Cinemas","address":"1111 Smaltz Way","city":"Auburn","state":"IN","zip":"46706","distance":20.394390133924,"lon":"-85.086971","lat":"41.35959","theaterChainName":"NCG Cinemas","ticketType":"STANDARD"}]