[{"id":"4127","name":"NCG Auburn Cinemas","address":"1111 Smaltz Way","city":"Auburn","state":"IN","zip":"46706","distance":"24.724895477294922","lon":"-85.086967","lat":"41.359589","theaterChainName":"NCG Cinemas","ticketType":"STANDARD"},{"id":"4083","name":"Carmike 20 Fort Wayne","address":"3930 East Dupont Rd.","city":"Fort Wayne","state":"IN","zip":"46825","distance":"12.237359046936035","lon":"-85.095161","lat":"41.176910","theaterChainName":"Carmike Cinemas","ticketType":"STANDARD"},{"id":"2494","name":"Northwood Cinema Grill","address":"6069 Stellhorn Road","city":"Fort Wayne","state":"IN","zip":"46885","distance":"9.269829750061035","lon":"-85.065285","lat":"41.122047","theaterChainName":"Independent Chains","ticketType":"STANDARD"},{"id":"616","name":"Regal Coldwater Crossing 8","address":"211 W Washington Center Road","city":"Fort Wayne","state":"IN","zip":"46825","distance":"8.819645881652832","lon":"-85.142303","lat":"41.132599","theaterChainName":"Regal Cinemas","ticketType":"STANDARD"},{"id":"2343","name":"Cinema Center Downtown","address":"437 E. Berry Street","city":"Fort Wayne","state":"IN","zip":"46802","distance":"5.290617942810059","lon":"-85.133308","lat":"41.080357","theaterChainName":"Independent Chains","ticketType":"STANDARD"},{"id":"3538","name":"Carmike Jefferson Pointe 18","address":"4250 W. Jefferson Rd.","city":"Fort Wayne","state":"IN","zip":"46804","distance":"4.994821548461914","lon":"-85.195702","lat":"41.069801","theaterChainName":"Carmike Cinemas","ticketType":"STANDARD"},{"id":"6109","name":"Plaza 3 Cinema","address":"300 Main St., Suite 460","city":"Keokuk","state":"IA","zip":"52632","distance":"21.80667495727539","lon":"-85.507301","lat":"41.173046","theaterChainName":"Eisentraut Theatres","ticketType":"STANDARD"},{"id":"6116","name":"Parkway Theatre","address":"5 W North Avenue","city":"Baltimore","state":"MD","zip":"21201","distance":"21.80667495727539","lon":"-85.507301","lat":"41.173046","theaterChainName":"Independent Chains","ticketType":"STANDARD"},{"id":"6123","name":"Bones Theatre","address":"655 N Opportunity Drive","city":"Columbia City","state":"IN","zip":"46725","distance":"21.80667495727539","lon":"-85.507301","lat":"41.173046","theaterChainName":"Independent Chains","ticketType":"STANDARD"},{"id":"2346","name":"Goodrich Huntington Theatre","address":"350 Hauenstein Rd","city":"Huntington","state":"IN","zip":"46750","distance":"20.63927459716797","lon":"-85.520782","lat":"40.895950","theaterChainName":"Goodrich Theatres","ticketType":"E_TICKET"},{"id":"617","name":"Coventry 13","address":"5495 Coventry Lane","city":"Fort Wayne","state":"IN","zip":"46804","distance":"5.754031658172607","lon":"-85.255051","lat":"41.036373","theaterChainName":"Apollo Cinemas","ticketType":"STANDARD"}]