[{"id":"5436","tribuneTheaterId":"10876","providerTheaterId":"","name":"Mary Max Cinemas Logansport 5","address":"3910 Lexington Road","city":"Logansport","state":"IN","zip":"46947","distance":3.7157724833856,"lon":"-86.311628","lat":"40.7626","theaterChainName":"Independent Chains","ticketType":"STANDARD"},{"id":"5189","tribuneTheaterId":"10604","providerTheaterId":"","name":"Roxy Theater Peru","address":"100 Roxy Lane","city":"Peru","state":"IN","zip":"46970","distance":15.649405478206,"lon":"-86.077703","lat":"40.769638","theaterChainName":"Independent Chains","ticketType":"STANDARD"},{"id":"1997","tribuneTheaterId":"1136","providerTheaterId":"","name":"Twin Lake Cinema 1 & 2","address":"107 S Main Street","city":"Monticello","state":"IN","zip":"47960","distance":20.347962640333,"lon":"-86.761925","lat":"40.744663","theaterChainName":"Independent Chains","ticketType":"STANDARD"},{"id":"4166","tribuneTheaterId":"5935","providerTheaterId":"6483","name":"AMC Showplace Kokomo 12","address":"1530 E. Boulevard","city":"Kokomo","state":"IN","zip":"46902","distance":23.317143586127,"lon":"-86.113197","lat":"40.462502","theaterChainName":"AMC Theatres","ticketType":"STANDARD"}]