[{"id":"2700","tribuneTheaterId":"1524","providerTheaterId":"","name":"Showland Theatre","address":"2475 N Oak Road","city":"Plymouth","state":"IN","zip":"46563","distance":21.479807271313,"lon":"-86.329638","lat":"41.367397","theaterChainName":"Independent Chains","ticketType":"STANDARD"},{"id":"5189","tribuneTheaterId":"10604","providerTheaterId":"","name":"Roxy Theater Peru","address":"100 Roxy Lane","city":"Peru","state":"IN","zip":"46970","distance":21.953081416586,"lon":"-86.077703","lat":"40.769638","theaterChainName":"Independent Chains","ticketType":"STANDARD"},{"id":"5436","tribuneTheaterId":"10876","providerTheaterId":"","name":"Mary Max Cinemas Logansport 5","address":"3910 Lexington Road","city":"Logansport","state":"IN","zip":"46947","distance":21.347577333544,"lon":"-86.311628","lat":"40.7626","theaterChainName":"Independent Chains","ticketType":"STANDARD"},{"id":"1758","tribuneTheaterId":"1919","providerTheaterId":"","name":"North Pointe Cinemas","address":"1060 Mariner Dr.","city":"Warsaw","state":"IN","zip":"46582","distance":24.786357722227,"lon":"-85.824155","lat":"41.25223","theaterChainName":"Independent Chains","ticketType":"STANDARD"}]