[{"id":"2293","name":"Goodrich Lafayette 7","address":"3525 McCarty Lane","city":"Lafayette","state":"IN","zip":"47904","distance":"22.066173553466797","lon":"-86.852081","lat":"40.401798","theaterChainName":"Goodrich Theatres","ticketType":"E_TICKET"},{"id":"1531","name":"Goodrich Eastside 9 Theatres","address":"300 N Farabee Drive","city":"Lafayette","state":"IN","zip":"47905","distance":"21.175722122192383","lon":"-86.851997","lat":"40.419201","theaterChainName":"Goodrich Theatres","ticketType":"E_TICKET"},{"id":"3026","name":"Goodrich Wabash Landing 9","address":"300 E. State St.","city":"West Lafayette","state":"IN","zip":"47906","distance":"22.909896850585938","lon":"-86.900597","lat":"40.421387","theaterChainName":"Goodrich Theatres","ticketType":"E_TICKET"},{"id":"5436","name":"Mary Max Cinemas Logansport 5","address":"3910 Lexington Road","city":"Logansport","state":"IN","zip":"46947","distance":"16.100574493408203","lon":"-86.311630","lat":"40.762600","theaterChainName":"Independent Chains","ticketType":"STANDARD"},{"id":"1997","name":"Twin Lake Cinema 1 & 2","address":"107 S Main Street","city":"Monticello","state":"IN","zip":"47960","distance":"12.175610542297363","lon":"-86.761925","lat":"40.744663","theaterChainName":"Independent Chains","ticketType":"STANDARD"}]