[{"id":"2815","tribuneTheaterId":"7301","providerTheaterId":"6581","name":"AMC Showplace Marion 12","address":"713 N. Theatre Rd.","city":"Marion","state":"IN","zip":"46952","distance":10.296941372156,"lon":"-85.682739","lat":"40.571806","theaterChainName":"AMC Theatres","ticketType":"STANDARD"},{"id":"5189","tribuneTheaterId":"10604","providerTheaterId":"","name":"Roxy Theater Peru","address":"100 Roxy Lane","city":"Peru","state":"IN","zip":"46970","distance":14.6954690602,"lon":"-86.077703","lat":"40.769638","theaterChainName":"Independent Chains","ticketType":"STANDARD"},{"id":"4166","tribuneTheaterId":"5935","providerTheaterId":"6483","name":"AMC Showplace Kokomo 12","address":"1530 E. Boulevard","city":"Kokomo","state":"IN","zip":"46902","distance":20.763884738598,"lon":"-86.113197","lat":"40.462502","theaterChainName":"AMC Theatres","ticketType":"STANDARD"},{"id":"2346","tribuneTheaterId":"4879","providerTheaterId":"","name":"Goodrich Huntington Theatre","address":"350 Hauenstein Rd","city":"Huntington","state":"IN","zip":"46750","distance":22.36935310387,"lon":"-85.520781","lat":"40.895952","theaterChainName":"Goodrich Theatres","ticketType":"E_TICKET"}]