[{"id":"2346","tribuneTheaterId":"4879","providerTheaterId":"","name":"Goodrich Huntington Theatre","address":"350 Hauenstein Rd","city":"Huntington","state":"IN","zip":"46750","distance":11.894483920678,"lon":"-85.520781","lat":"40.895952","theaterChainName":"Goodrich Theatres","ticketType":"E_TICKET"},{"id":"5189","tribuneTheaterId":"10604","providerTheaterId":"","name":"Roxy Theater Peru","address":"100 Roxy Lane","city":"Peru","state":"IN","zip":"46970","distance":19.382617608038,"lon":"-86.077703","lat":"40.769638","theaterChainName":"Independent Chains","ticketType":"STANDARD"},{"id":"6123","tribuneTheaterId":"11539","providerTheaterId":"","name":"Bones Theatre","address":"655 N Opportunity Drive","city":"Columbia City","state":"IN","zip":"46725","distance":22.744757185666,"lon":"-85.507302","lat":"41.173045","theaterChainName":"Independent Chains","ticketType":"STANDARD"},{"id":"6116","tribuneTheaterId":"11531","providerTheaterId":"","name":"Parkway Theatre","address":"5 W North Avenue","city":"Baltimore","state":"MD","zip":"21201","distance":22.744757185666,"lon":"-85.507302","lat":"41.173045","theaterChainName":"Independent Chains","ticketType":"STANDARD"},{"id":"6109","tribuneTheaterId":"5919","providerTheaterId":"","name":"Plaza 3 Cinema","address":"300 Main St., Suite 460","city":"Keokuk","state":"IA","zip":"52632","distance":22.744757185666,"lon":"-85.507302","lat":"41.173045","theaterChainName":"Eisentraut Theatres","ticketType":"STANDARD"},{"id":"2815","tribuneTheaterId":"7301","providerTheaterId":"6581","name":"AMC Showplace Marion 12","address":"713 N. Theatre Rd.","city":"Marion","state":"IN","zip":"46952","distance":22.847079648256,"lon":"-85.682739","lat":"40.571806","theaterChainName":"AMC Theatres","ticketType":"STANDARD"},{"id":"1758","tribuneTheaterId":"1919","providerTheaterId":"","name":"North Pointe Cinemas","address":"1060 Mariner Dr.","city":"Warsaw","state":"IN","zip":"46582","distance":24.742358095015,"lon":"-85.824155","lat":"41.25223","theaterChainName":"Independent Chains","ticketType":"STANDARD"}]