[{"id":"2815","name":"AMC Showplace Marion 12","address":"713 N. Theatre Rd.","city":"Marion","state":"IN","zip":"46952","distance":"22.848392486572266","lon":"-85.682739","lat":"40.571808","theaterChainName":"AMC Theatres","ticketType":"STANDARD"},{"id":"5189","name":"Roxy Theater Peru","address":"100 Roxy Lane","city":"Peru","state":"IN","zip":"46970","distance":"19.38408851623535","lon":"-86.077705","lat":"40.769638","theaterChainName":"Independent Chains","ticketType":"STANDARD"},{"id":"1758","name":"North Pointe Cinemas","address":"1060 Mariner Dr.","city":"Warsaw","state":"IN","zip":"46582","distance":"24.743999481201172","lon":"-85.824158","lat":"41.252232","theaterChainName":"Independent Chains","ticketType":"STANDARD"},{"id":"6109","name":"Plaza 3 Cinema","address":"300 Main St., Suite 460","city":"Keokuk","state":"IA","zip":"52632","distance":"22.746122360229492","lon":"-85.507301","lat":"41.173046","theaterChainName":"Eisentraut Theatres","ticketType":"STANDARD"},{"id":"6116","name":"Parkway Theatre","address":"5 W North Avenue","city":"Baltimore","state":"MD","zip":"21201","distance":"22.746122360229492","lon":"-85.507301","lat":"41.173046","theaterChainName":"Independent Chains","ticketType":"STANDARD"},{"id":"6123","name":"Bones Theatre","address":"655 N Opportunity Drive","city":"Columbia City","state":"IN","zip":"46725","distance":"22.746122360229492","lon":"-85.507301","lat":"41.173046","theaterChainName":"Independent Chains","ticketType":"STANDARD"},{"id":"2346","name":"Goodrich Huntington Theatre","address":"350 Hauenstein Rd","city":"Huntington","state":"IN","zip":"46750","distance":"11.894990921020508","lon":"-85.520782","lat":"40.895950","theaterChainName":"Goodrich Theatres","ticketType":"E_TICKET"}]