[{"id":"5831","tribuneTheaterId":"11240","providerTheaterId":"","name":"Damm Theatre","address":"117 N Buckeye","city":"Osgood","state":"IN","zip":"47037","distance":13.194437583786,"lon":"-85.291936","lat":"39.129644","theaterChainName":"Independent Chains","ticketType":"STANDARD"},{"id":"6052","tribuneTheaterId":"6052","providerTheaterId":"","name":"Madison 6 Theater","address":"744 Jefferson Court","city":"Madison","state":"IN","zip":"47250","distance":15.703471316843,"lon":"-85.403","lat":"38.777","theaterChainName":"Independent Chains","ticketType":"STANDARD"},{"id":"2038","tribuneTheaterId":"2719","providerTheaterId":"","name":"Ohio Theatre","address":"105 E. Main St.","city":"Madison","state":"IN","zip":"47250","distance":17.238760505427,"lon":"-85.379869","lat":"38.736407","theaterChainName":"Independent Chains","ticketType":"STANDARD"},{"id":"5554","tribuneTheaterId":"10999","providerTheaterId":"","name":"Greendale Cinema","address":"1605 Flossie Dr.","city":"Greendale","state":"IN","zip":"47025","distance":23.457923399172,"lon":"-84.8407","lat":"39.1279","theaterChainName":"Independent Chains","ticketType":"STANDARD"}]