[{"id":"5831","name":"Damm Theatre","address":"117 N Buckeye","city":"Osgood","state":"IN","zip":"47037","distance":"18.464384078979492","lon":"-85.291939","lat":"39.129642","theaterChainName":"Independent Chains","ticketType":"STANDARD"},{"id":"4525","name":"Rave Motion Pictures Florence 14","address":"7860 Mall Rd.","city":"Florence","state":"KY","zip":"41042","distance":"22.350034713745117","lon":"-84.647293","lat":"38.993465","theaterChainName":"Cinemark","ticketType":"STANDARD"},{"id":"1082","name":"Parkland Theatre","address":"6550 Parkland Avenue","city":"Cincinnati","state":"OH","zip":"45233","distance":"15.905660629272461","lon":"-84.690437","lat":"39.112202","theaterChainName":"Independent Chains","ticketType":"STANDARD"},{"id":"5554","name":"Greendale Cinema","address":"1605 Flossie Dr.","city":"Greendale","state":"IN","zip":"47025","distance":"8.426090240478516","lon":"-84.840698","lat":"39.127899","theaterChainName":"Independent Chains","ticketType":"STANDARD"},{"id":"273","name":"Rave Motion Pictures Western Hills 14","address":"5870 Harrison Ave.","city":"Cincinnati","state":"OH","zip":"45248","distance":"17.354419708251953","lon":"-84.639816","lat":"39.176208","theaterChainName":"Cinemark","ticketType":"STANDARD"},{"id":"1080","name":"Esquire 6 Theatre","address":"320 Ludlow Avenue","city":"Cincinnati","state":"OH","zip":"45220","distance":"24.0281925201416","lon":"-84.520264","lat":"39.143696","theaterChainName":"Independent Chains","ticketType":"STANDARD"},{"id":"5622","name":"Xscape 14 Northgate","address":"9471 Colerain Ave.","city":"Cincinnati","state":"OH","zip":"45251","distance":"19.79547882080078","lon":"-84.595001","lat":"39.243599","theaterChainName":"Independent Chains","ticketType":"STANDARD"},{"id":"560","name":"AMC Showplace Hamilton 8","address":"1453 Main St.","city":"Hamilton","state":"OH","zip":"45013","distance":"24.665874481201172","lon":"-84.596260","lat":"39.423923","theaterChainName":"AMC Theatres","ticketType":"STANDARD"}]