[{"id":"4525","tribuneTheaterId":"9649","providerTheaterId":"","name":"Rave Motion Pictures Florence 14","address":"7860 Mall Rd.","city":"Florence","state":"KY","zip":"41042","distance":14.620068015159,"lon":"-84.647292","lat":"38.993465","theaterChainName":"Cinemark","ticketType":"STANDARD"},{"id":"1082","tribuneTheaterId":"235","providerTheaterId":"","name":"Parkland Theatre","address":"6550 Parkland Avenue","city":"Cincinnati","state":"OH","zip":"45233","distance":19.845239675718,"lon":"-84.690435","lat":"39.1122","theaterChainName":"Independent Chains","ticketType":"STANDARD"},{"id":"5554","tribuneTheaterId":"10999","providerTheaterId":"","name":"Greendale Cinema","address":"1605 Flossie Dr.","city":"Greendale","state":"IN","zip":"47025","distance":18.954259263471,"lon":"-84.8407","lat":"39.1279","theaterChainName":"Independent Chains","ticketType":"STANDARD"},{"id":"3129","tribuneTheaterId":"6078","providerTheaterId":"","name":"Great Escape Wilder 14","address":"103 Crossing Dr","city":"Wilder","state":"KY","zip":"41076","distance":22.765813437552,"lon":"-84.484509","lat":"39.018251","theaterChainName":"Regal Cinemas","ticketType":"STANDARD"}]