[{"id":"5831","tribuneTheaterId":"11240","providerTheaterId":"","name":"Damm Theatre","address":"117 N Buckeye","city":"Osgood","state":"IN","zip":"47037","distance":12.907428502948,"lon":"-85.291936","lat":"39.129644","theaterChainName":"Independent Chains","ticketType":"STANDARD"},{"id":"5554","tribuneTheaterId":"10999","providerTheaterId":"","name":"Greendale Cinema","address":"1605 Flossie Dr.","city":"Greendale","state":"IN","zip":"47025","distance":15.552360367559,"lon":"-84.8407","lat":"39.1279","theaterChainName":"Independent Chains","ticketType":"STANDARD"},{"id":"4078","tribuneTheaterId":"2010","providerTheaterId":"","name":"Wolf Theatres","address":"910 Ann Blvd.","city":"Greensburg","state":"IN","zip":"47240","distance":22.888733232531,"lon":"-85.497244","lat":"39.349642","theaterChainName":"Independent Chains","ticketType":"STANDARD"},{"id":"1082","tribuneTheaterId":"235","providerTheaterId":"","name":"Parkland Theatre","address":"6550 Parkland Avenue","city":"Cincinnati","state":"OH","zip":"45233","distance":23.307284116862,"lon":"-84.690435","lat":"39.1122","theaterChainName":"Independent Chains","ticketType":"STANDARD"},{"id":"273","tribuneTheaterId":"8534","providerTheaterId":"","name":"Rave Motion Pictures Western Hills 14","address":"5870 Harrison Ave.","city":"Cincinnati","state":"OH","zip":"45248","distance":24.713090772564,"lon":"-84.63982","lat":"39.176209","theaterChainName":"Cinemark","ticketType":"STANDARD"}]