[{"id":"4268","name":"Great Escape River Falls Stadium 12","address":"951 Lewis ","city":"Clarksville","state":"IN","zip":"47129","distance":"16.560922622680664","lon":"-85.761726","lat":"38.322842","theaterChainName":"Regal Cinemas","ticketType":"STANDARD"},{"id":"4868","name":"KentuckyShow!","address":"501 W. Main St.","city":"Louisville","state":"KY","zip":"40202","distance":"17.919757843017578","lon":"-85.762665","lat":"38.257660","theaterChainName":"Independent Chains","ticketType":"STANDARD"},{"id":"3649","name":"Great Escape 16","address":"300 Professional Ct,  Suite 100","city":"New Albany","state":"IN","zip":"47150","distance":"14.663559913635254","lon":"-85.792084","lat":"38.351257","theaterChainName":"Regal Cinemas","ticketType":"STANDARD"},{"id":"5149","name":"Floyd Theater","address":"2100 S Floyd St.","city":"Louisville","state":"KY","zip":"40208","distance":"19.591184616088867","lon":"-85.755249","lat":"38.217918","theaterChainName":"Independent Chains","ticketType":"STANDARD"},{"id":"3002","name":"Corydon Cinemas","address":"2025 Edsel Lane NW","city":"Corydon","state":"IN","zip":"47112","distance":"10.288512229919434","lon":"-86.135002","lat":"38.230400","theaterChainName":"Independent Chains","ticketType":"STANDARD"}]