[{"id":"3002","tribuneTheaterId":"2911","providerTheaterId":"","name":"Corydon Cinemas","address":"2025 Edsel Lane NW","city":"Corydon","state":"IN","zip":"47112","distance":9.4371526925251,"lon":"-86.135","lat":"38.2304","theaterChainName":"Independent Chains","ticketType":"STANDARD"},{"id":"3284","tribuneTheaterId":"1549","providerTheaterId":"","name":"Showtime Cinemas - Radcliff","address":"Radcliff Plaza","city":"Radcliff","state":"KY","zip":"40160","distance":20.40122778722,"lon":"-85.954062","lat":"37.857018","theaterChainName":"Republic Theaters","ticketType":"STANDARD"},{"id":"5149","tribuneTheaterId":"10555","providerTheaterId":"","name":"Floyd Theater","address":"2100 S Floyd St.","city":"Louisville","state":"KY","zip":"40208","distance":24.149114187186,"lon":"-85.755251","lat":"38.217918","theaterChainName":"Independent Chains","ticketType":"STANDARD"},{"id":"4868","tribuneTheaterId":"10166","providerTheaterId":"","name":"KentuckyShow!","address":"501 W. Main St.","city":"Louisville","state":"KY","zip":"40202","distance":24.864445511529,"lon":"-85.762665","lat":"38.25766","theaterChainName":"Independent Chains","ticketType":"STANDARD"}]