[{"id":"4868","name":"KentuckyShow!","address":"501 W. Main St.","city":"Louisville","state":"KY","zip":"40202","distance":"22.49786949157715","lon":"-85.762665","lat":"38.257660","theaterChainName":"Independent Chains","ticketType":"STANDARD"},{"id":"5149","name":"Floyd Theater","address":"2100 S Floyd St.","city":"Louisville","state":"KY","zip":"40208","distance":"21.221189498901367","lon":"-85.755249","lat":"38.217918","theaterChainName":"Independent Chains","ticketType":"STANDARD"},{"id":"3695","name":"Preston Crossings 16","address":"9700 Preston Crossing Blvd.","city":"Okolona","state":"KY","zip":"40229","distance":"22.778207778930664","lon":"-85.671593","lat":"38.108265","theaterChainName":"Cinemark","ticketType":"STANDARD"},{"id":"3284","name":"Showtime Cinemas - Radcliff","address":"Radcliff Plaza","city":"Radcliff","state":"KY","zip":"40160","distance":"15.272390365600586","lon":"-85.954063","lat":"37.857018","theaterChainName":"Republic Theaters","ticketType":"STANDARD"},{"id":"3002","name":"Corydon Cinemas","address":"2025 Edsel Lane NW","city":"Corydon","state":"IN","zip":"47112","distance":"12.58285903930664","lon":"-86.135002","lat":"38.230400","theaterChainName":"Independent Chains","ticketType":"STANDARD"}]