[{"id":"3002","tribuneTheaterId":"2911","providerTheaterId":"","name":"Corydon Cinemas","address":"2025 Edsel Lane NW","city":"Corydon","state":"IN","zip":"47112","distance":12.582007797862,"lon":"-86.135","lat":"38.2304","theaterChainName":"Independent Chains","ticketType":"STANDARD"},{"id":"3284","tribuneTheaterId":"1549","providerTheaterId":"","name":"Showtime Cinemas - Radcliff","address":"Radcliff Plaza","city":"Radcliff","state":"KY","zip":"40160","distance":15.271539306199,"lon":"-85.954062","lat":"37.857018","theaterChainName":"Republic Theaters","ticketType":"STANDARD"},{"id":"5149","tribuneTheaterId":"10555","providerTheaterId":"","name":"Floyd Theater","address":"2100 S Floyd St.","city":"Louisville","state":"KY","zip":"40208","distance":21.21993750305,"lon":"-85.755251","lat":"38.217918","theaterChainName":"Independent Chains","ticketType":"STANDARD"},{"id":"3695","tribuneTheaterId":"6011","providerTheaterId":"","name":"Preston Crossings 16","address":"9700 Preston Crossing Blvd.","city":"Okolona","state":"KY","zip":"40229","distance":22.77681591489,"lon":"-85.671596","lat":"38.108265","theaterChainName":"Cinemark","ticketType":"STANDARD"},{"id":"4868","tribuneTheaterId":"10166","providerTheaterId":"","name":"KentuckyShow!","address":"501 W. Main St.","city":"Louisville","state":"KY","zip":"40202","distance":22.496626335543,"lon":"-85.762665","lat":"38.25766","theaterChainName":"Independent Chains","ticketType":"STANDARD"}]