[{"id":"3649","tribuneTheaterId":"2378","providerTheaterId":"","name":"Great Escape 16","address":"300 Professional Ct,  Suite 100","city":"New Albany","state":"IN","zip":"47150","distance":7.8434624380936,"lon":"-85.792086","lat":"38.351257","theaterChainName":"Regal Cinemas","ticketType":"STANDARD"},{"id":"4268","tribuneTheaterId":"9220","providerTheaterId":"","name":"Great Escape River Falls Stadium 12","address":"951 Lewis ","city":"Clarksville","state":"IN","zip":"47129","distance":9.8043211833215,"lon":"-85.761724","lat":"38.32284","theaterChainName":"Regal Cinemas","ticketType":"STANDARD"},{"id":"4868","tribuneTheaterId":"10166","providerTheaterId":"","name":"KentuckyShow!","address":"501 W. Main St.","city":"Louisville","state":"KY","zip":"40202","distance":14.2931455714,"lon":"-85.762665","lat":"38.25766","theaterChainName":"Independent Chains","ticketType":"STANDARD"},{"id":"1377","tribuneTheaterId":"5225","providerTheaterId":"","name":"Tinseltown Louisville","address":"4400 Towne Center Drive","city":"Louisville","state":"KY","zip":"40241","distance":15.698597305665,"lon":"-85.5652","lat":"38.3095","theaterChainName":"Cinemark","ticketType":"STANDARD"},{"id":"5149","tribuneTheaterId":"10555","providerTheaterId":"","name":"Floyd Theater","address":"2100 S Floyd St.","city":"Louisville","state":"KY","zip":"40208","distance":17.059099474981,"lon":"-85.755251","lat":"38.217918","theaterChainName":"Independent Chains","ticketType":"STANDARD"},{"id":"1287","tribuneTheaterId":"3081","providerTheaterId":"","name":"Apex Village 8","address":"4014 Dutchman Lane","city":"Louisville","state":"KY","zip":"40207","distance":17.790510297868,"lon":"-85.633231","lat":"38.232905","theaterChainName":"Independent Chains","ticketType":"STANDARD"},{"id":"5325","tribuneTheaterId":"10762","providerTheaterId":"","name":"Cinemark Mall St. Matthews","address":"5000 Shelbyville Road","city":"Louisville","state":"KY","zip":"40207","distance":16.970427234905,"lon":"-85.624","lat":"38.2501","theaterChainName":"Cinemark","ticketType":"STANDARD"},{"id":"5388","tribuneTheaterId":"10825","providerTheaterId":"","name":"Carmike Stonybrook 20","address":"2745 S. Hurstborne Parkway","city":"Louisville","state":"KY","zip":"40220","distance":20.039446738713,"lon":"-85.5967","lat":"38.2112","theaterChainName":"Carmike Cinemas","ticketType":"STANDARD"},{"id":"5768","tribuneTheaterId":"11213","providerTheaterId":"","name":"Xscape Theatres Blankenbaker 14","address":"12450 Sycamore Station Place","city":"Louisville","state":"KY","zip":"40299","distance":21.507007608547,"lon":"-85.5282","lat":"38.222","theaterChainName":"Independent Chains","ticketType":"STANDARD"}]