[{"id":"2038","name":"Ohio Theatre","address":"105 E. Main St.","city":"Madison","state":"IN","zip":"47250","distance":"22.252887725830078","lon":"-85.379868","lat":"38.736408","theaterChainName":"Independent Chains","ticketType":"STANDARD"},{"id":"6052","name":"Madison 6 Theater","address":"744 Jefferson Court","city":"Madison","state":"IN","zip":"47250","distance":"19.239076614379883","lon":"-85.403000","lat":"38.777000","theaterChainName":"Independent Chains","ticketType":"STANDARD"},{"id":"5831","name":"Damm Theatre","address":"117 N Buckeye","city":"Osgood","state":"IN","zip":"47037","distance":"11.467744827270508","lon":"-85.291939","lat":"39.129642","theaterChainName":"Independent Chains","ticketType":"STANDARD"},{"id":"2758","name":"REGAL SEYMOUR STADIUM 8","address":"357 Tanger Blvd Ste 401","city":"Seymour","state":"IN","zip":"47274","distance":"20.304039001464844","lon":"-85.840530","lat":"38.963223","theaterChainName":"Regal Cinemas","ticketType":"STANDARD"},{"id":"4078","name":"Wolf Theatres","address":"910 Ann Blvd.","city":"Greensburg","state":"IN","zip":"47240","distance":"20.790145874023438","lon":"-85.497246","lat":"39.349644","theaterChainName":"Independent Chains","ticketType":"STANDARD"},{"id":"3111","name":"AMC Showplace Columbus 12","address":"555 Creekview Court","city":"Columbus","state":"IN","zip":"47201","distance":"24.163829803466797","lon":"-85.882195","lat":"39.205353","theaterChainName":"AMC Theatres","ticketType":"STANDARD"}]