[{"id":"5831","tribuneTheaterId":"11240","providerTheaterId":"","name":"Damm Theatre","address":"117 N Buckeye","city":"Osgood","state":"IN","zip":"47037","distance":11.467317079862,"lon":"-85.291936","lat":"39.129644","theaterChainName":"Independent Chains","ticketType":"STANDARD"},{"id":"6052","tribuneTheaterId":"6052","providerTheaterId":"","name":"Madison 6 Theater","address":"744 Jefferson Court","city":"Madison","state":"IN","zip":"47250","distance":19.238014185089,"lon":"-85.403","lat":"38.777","theaterChainName":"Independent Chains","ticketType":"STANDARD"},{"id":"4078","tribuneTheaterId":"2010","providerTheaterId":"","name":"Wolf Theatres","address":"910 Ann Blvd.","city":"Greensburg","state":"IN","zip":"47240","distance":20.788655653033,"lon":"-85.497244","lat":"39.349642","theaterChainName":"Independent Chains","ticketType":"STANDARD"},{"id":"2758","tribuneTheaterId":"3099","providerTheaterId":"","name":"REGAL SEYMOUR STADIUM 8","address":"357 Tanger Blvd Ste 401","city":"Seymour","state":"IN","zip":"47274","distance":20.30275600397,"lon":"-85.840533","lat":"38.963224","theaterChainName":"Regal Cinemas","ticketType":"STANDARD"},{"id":"2038","tribuneTheaterId":"2719","providerTheaterId":"","name":"Ohio Theatre","address":"105 E. Main St.","city":"Madison","state":"IN","zip":"47250","distance":22.251679791215,"lon":"-85.379869","lat":"38.736407","theaterChainName":"Independent Chains","ticketType":"STANDARD"},{"id":"3111","tribuneTheaterId":"4947","providerTheaterId":"6163","name":"AMC Showplace Columbus 12","address":"555 Creekview Court","city":"Columbus","state":"IN","zip":"47201","distance":24.162303268144,"lon":"-85.882198","lat":"39.205352","theaterChainName":"AMC Theatres","ticketType":"STANDARD"}]