[{"id":"2758","name":"REGAL SEYMOUR STADIUM 8","address":"357 Tanger Blvd Ste 401","city":"Seymour","state":"IN","zip":"47274","distance":"15.396211624145508","lon":"-85.840530","lat":"38.963223","theaterChainName":"Regal Cinemas","ticketType":"STANDARD"},{"id":"3111","name":"AMC Showplace Columbus 12","address":"555 Creekview Court","city":"Columbus","state":"IN","zip":"47201","distance":"19.44525718688965","lon":"-85.882195","lat":"39.205353","theaterChainName":"AMC Theatres","ticketType":"STANDARD"},{"id":"4621","name":"YES Cinema","address":"280 Commons Mall","city":"Columbus","state":"IN","zip":"47201","distance":"17.915603637695312","lon":"-85.922401","lat":"39.202400","theaterChainName":"Independent Chains","ticketType":"STANDARD"},{"id":"1503","name":"AMC Showplace Bloomington 11","address":"1351 College Mall Rd.","city":"Bloomington","state":"IN","zip":"47401","distance":"22.64510726928711","lon":"-86.495483","lat":"39.151512","theaterChainName":"AMC Theatres","ticketType":"STANDARD"},{"id":"5004","name":"Indiana University Cinema","address":"1213 E. 7th St.","city":"Bloomington","state":"IN","zip":"47405","distance":"24.332059860229492","lon":"-86.519302","lat":"39.168598","theaterChainName":"Independent Chains","ticketType":"STANDARD"},{"id":"2828","name":"Great Escape","address":"2929 Great Escape Dr.","city":"Bedford","state":"IN","zip":"47421","distance":"23.314496994018555","lon":"-86.511299","lat":"38.843727","theaterChainName":"Regal Cinemas","ticketType":"STANDARD"},{"id":"3592","name":"UEC Premiere Theatre Bedford","address":"2933 Brock Ln.","city":"Bedford","state":"IN","zip":"47421","distance":"23.417972564697266","lon":"-86.514336","lat":"38.845097","theaterChainName":"UEC Theatres","ticketType":"STANDARD"}]