[{"id":"2758","tribuneTheaterId":"3099","providerTheaterId":"","name":"REGAL SEYMOUR STADIUM 8","address":"357 Tanger Blvd Ste 401","city":"Seymour","state":"IN","zip":"47274","distance":15.395109737028,"lon":"-85.840533","lat":"38.963224","theaterChainName":"Regal Cinemas","ticketType":"STANDARD"},{"id":"4621","tribuneTheaterId":"9798","providerTheaterId":"","name":"YES Cinema","address":"280 Commons Mall","city":"Columbus","state":"IN","zip":"47201","distance":17.914550159642,"lon":"-85.922401","lat":"39.2024","theaterChainName":"Independent Chains","ticketType":"STANDARD"},{"id":"3111","tribuneTheaterId":"4947","providerTheaterId":"6163","name":"AMC Showplace Columbus 12","address":"555 Creekview Court","city":"Columbus","state":"IN","zip":"47201","distance":19.443939467166,"lon":"-85.882198","lat":"39.205352","theaterChainName":"AMC Theatres","ticketType":"STANDARD"},{"id":"3592","tribuneTheaterId":"2051","providerTheaterId":"","name":"UEC Premiere Theatre Bedford","address":"2933 Brock Ln.","city":"Bedford","state":"IN","zip":"47421","distance":23.416471064571,"lon":"-86.514335","lat":"38.845096","theaterChainName":"UEC Theatres","ticketType":"STANDARD"},{"id":"2828","tribuneTheaterId":"3059","providerTheaterId":"","name":"Great Escape","address":"2929 Great Escape Dr.","city":"Bedford","state":"IN","zip":"47421","distance":23.31308933557,"lon":"-86.5113","lat":"38.843726","theaterChainName":"Regal Cinemas","ticketType":"STANDARD"},{"id":"1503","tribuneTheaterId":"5930","providerTheaterId":"6083","name":"AMC Showplace Bloomington 11","address":"1351 College Mall Rd.","city":"Bloomington","state":"IN","zip":"47401","distance":22.643568642618,"lon":"-86.495481","lat":"39.151511","theaterChainName":"AMC Theatres","ticketType":"STANDARD"},{"id":"5004","tribuneTheaterId":"10375","providerTheaterId":"","name":"Indiana University Cinema","address":"1213 E. 7th St.","city":"Bloomington","state":"IN","zip":"47405","distance":24.330517891501,"lon":"-86.5193","lat":"39.1686","theaterChainName":"Independent Chains","ticketType":"STANDARD"}]