[{"id":"3111","tribuneTheaterId":"4947","providerTheaterId":"6163","name":"AMC Showplace Columbus 12","address":"555 Creekview Court","city":"Columbus","state":"IN","zip":"47201","distance":10.754892955254,"lon":"-85.882198","lat":"39.205352","theaterChainName":"AMC Theatres","ticketType":"STANDARD"},{"id":"4621","tribuneTheaterId":"9798","providerTheaterId":"","name":"YES Cinema","address":"280 Commons Mall","city":"Columbus","state":"IN","zip":"47201","distance":12.826349367335,"lon":"-85.922401","lat":"39.2024","theaterChainName":"Independent Chains","ticketType":"STANDARD"},{"id":"4078","tribuneTheaterId":"2010","providerTheaterId":"","name":"Wolf Theatres","address":"910 Ann Blvd.","city":"Greensburg","state":"IN","zip":"47240","distance":12.137531739703,"lon":"-85.497244","lat":"39.349642","theaterChainName":"Independent Chains","ticketType":"STANDARD"},{"id":"3679","tribuneTheaterId":"3166","providerTheaterId":"","name":"Studio 10 Cinemas","address":"1624 East State Road 44","city":"Shelbyville","state":"IN","zip":"46176","distance":17.756655215502,"lon":"-85.752583","lat":"39.52111","theaterChainName":"Republic Theaters","ticketType":"STANDARD"},{"id":"2758","tribuneTheaterId":"3099","providerTheaterId":"","name":"REGAL SEYMOUR STADIUM 8","address":"357 Tanger Blvd Ste 401","city":"Seymour","state":"IN","zip":"47274","distance":22.375391690945,"lon":"-85.840533","lat":"38.963224","theaterChainName":"Regal Cinemas","ticketType":"STANDARD"},{"id":"5831","tribuneTheaterId":"11240","providerTheaterId":"","name":"Damm Theatre","address":"117 N Buckeye","city":"Osgood","state":"IN","zip":"47037","distance":23.740069230831,"lon":"-85.291936","lat":"39.129644","theaterChainName":"Independent Chains","ticketType":"STANDARD"}]