[{"id":"5831","name":"Damm Theatre","address":"117 N Buckeye","city":"Osgood","state":"IN","zip":"47037","distance":"23.741378784179688","lon":"-85.291939","lat":"39.129642","theaterChainName":"Independent Chains","ticketType":"STANDARD"},{"id":"2758","name":"REGAL SEYMOUR STADIUM 8","address":"357 Tanger Blvd Ste 401","city":"Seymour","state":"IN","zip":"47274","distance":"22.376930236816406","lon":"-85.840530","lat":"38.963223","theaterChainName":"Regal Cinemas","ticketType":"STANDARD"},{"id":"3679","name":"Studio 10 Cinemas","address":"1624 East State Road 44","city":"Shelbyville","state":"IN","zip":"46176","distance":"17.757770538330078","lon":"-85.752586","lat":"39.521111","theaterChainName":"Republic Theaters","ticketType":"STANDARD"},{"id":"4078","name":"Wolf Theatres","address":"910 Ann Blvd.","city":"Greensburg","state":"IN","zip":"47240","distance":"12.138129234313965","lon":"-85.497246","lat":"39.349644","theaterChainName":"Independent Chains","ticketType":"STANDARD"},{"id":"3111","name":"AMC Showplace Columbus 12","address":"555 Creekview Court","city":"Columbus","state":"IN","zip":"47201","distance":"10.755491256713867","lon":"-85.882195","lat":"39.205353","theaterChainName":"AMC Theatres","ticketType":"STANDARD"},{"id":"4621","name":"YES Cinema","address":"280 Commons Mall","city":"Columbus","state":"IN","zip":"47201","distance":"12.827282905578613","lon":"-85.922401","lat":"39.202400","theaterChainName":"Independent Chains","ticketType":"STANDARD"}]