[{"id":"2758","name":"REGAL SEYMOUR STADIUM 8","address":"357 Tanger Blvd Ste 401","city":"Seymour","state":"IN","zip":"47274","distance":"23.356014251708984","lon":"-85.840530","lat":"38.963223","theaterChainName":"Regal Cinemas","ticketType":"STANDARD"},{"id":"1503","name":"AMC Showplace Bloomington 11","address":"1351 College Mall Rd.","city":"Bloomington","state":"IN","zip":"47401","distance":"18.13504981994629","lon":"-86.495483","lat":"39.151512","theaterChainName":"AMC Theatres","ticketType":"STANDARD"},{"id":"5004","name":"Indiana University Cinema","address":"1213 E. 7th St.","city":"Bloomington","state":"IN","zip":"47405","distance":"19.86357307434082","lon":"-86.519302","lat":"39.168598","theaterChainName":"Independent Chains","ticketType":"STANDARD"},{"id":"3004","name":"AMC Showplace Bloomington 12","address":"2929 West Third","city":"Bloomington","state":"IN","zip":"47404","distance":"21.522890090942383","lon":"-86.571854","lat":"39.162094","theaterChainName":"AMC Theatres","ticketType":"STANDARD"},{"id":"2828","name":"Great Escape","address":"2929 Great Escape Dr.","city":"Bedford","state":"IN","zip":"47421","distance":"14.766980171203613","lon":"-86.511299","lat":"38.843727","theaterChainName":"Regal Cinemas","ticketType":"STANDARD"},{"id":"3592","name":"UEC Premiere Theatre Bedford","address":"2933 Brock Ln.","city":"Bedford","state":"IN","zip":"47421","distance":"14.860092163085938","lon":"-86.514336","lat":"38.845097","theaterChainName":"UEC Theatres","ticketType":"STANDARD"}]