[{"id":"5831","name":"Damm Theatre","address":"117 N Buckeye","city":"Osgood","state":"IN","zip":"47037","distance":"15.503179550170898","lon":"-85.291939","lat":"39.129642","theaterChainName":"Independent Chains","ticketType":"STANDARD"},{"id":"3679","name":"Studio 10 Cinemas","address":"1624 East State Road 44","city":"Shelbyville","state":"IN","zip":"46176","distance":"21.082584381103516","lon":"-85.752586","lat":"39.521111","theaterChainName":"Republic Theaters","ticketType":"STANDARD"},{"id":"4078","name":"Wolf Theatres","address":"910 Ann Blvd.","city":"Greensburg","state":"IN","zip":"47240","distance":"3.993683338165283","lon":"-85.497246","lat":"39.349644","theaterChainName":"Independent Chains","ticketType":"STANDARD"},{"id":"3111","name":"AMC Showplace Columbus 12","address":"555 Creekview Court","city":"Columbus","state":"IN","zip":"47201","distance":"21.730974197387695","lon":"-85.882195","lat":"39.205353","theaterChainName":"AMC Theatres","ticketType":"STANDARD"},{"id":"4621","name":"YES Cinema","address":"280 Commons Mall","city":"Columbus","state":"IN","zip":"47201","distance":"23.859134674072266","lon":"-85.922401","lat":"39.202400","theaterChainName":"Independent Chains","ticketType":"STANDARD"}]