[{"id":"3004","tribuneTheaterId":"4945","providerTheaterId":"6081","name":"AMC Showplace Bloomington 12","address":"2929 West Third","city":"Bloomington","state":"IN","zip":"47404","distance":2.4879378476159,"lon":"-86.571853","lat":"39.162095","theaterChainName":"AMC Theatres","ticketType":"STANDARD"},{"id":"5004","tribuneTheaterId":"10375","providerTheaterId":"","name":"Indiana University Cinema","address":"1213 E. 7th St.","city":"Bloomington","state":"IN","zip":"47405","distance":4.2506220308296,"lon":"-86.5193","lat":"39.1686","theaterChainName":"Independent Chains","ticketType":"STANDARD"},{"id":"1503","tribuneTheaterId":"5930","providerTheaterId":"6083","name":"AMC Showplace Bloomington 11","address":"1351 College Mall Rd.","city":"Bloomington","state":"IN","zip":"47401","distance":4.6981015679009,"lon":"-86.495481","lat":"39.151511","theaterChainName":"AMC Theatres","ticketType":"STANDARD"},{"id":"3592","tribuneTheaterId":"2051","providerTheaterId":"","name":"UEC Premiere Theatre Bedford","address":"2933 Brock Ln.","city":"Bedford","state":"IN","zip":"47421","distance":19.717725560731,"lon":"-86.514335","lat":"38.845096","theaterChainName":"UEC Theatres","ticketType":"STANDARD"},{"id":"2828","tribuneTheaterId":"3059","providerTheaterId":"","name":"Great Escape","address":"2929 Great Escape Dr.","city":"Bedford","state":"IN","zip":"47421","distance":19.839307848312,"lon":"-86.5113","lat":"38.843726","theaterChainName":"Regal Cinemas","ticketType":"STANDARD"}]