[{"id":"5192","name":"Showtime Cinema - Mooresville","address":"300 Southbridge St.","city":"Mooresville","state":"IN","zip":"46158","distance":"23.390012741088867","lon":"-86.373497","lat":"39.602402","theaterChainName":"Independent Chains","ticketType":"STANDARD"},{"id":"3276","name":"Ashley Square Cinemas","address":"2 Ashley Square","city":"Greencastle","state":"IN","zip":"46135","distance":"23.269315719604492","lon":"-86.864281","lat":"39.641888","theaterChainName":"Independent Chains","ticketType":"STANDARD"},{"id":"1503","name":"AMC Showplace Bloomington 11","address":"1351 College Mall Rd.","city":"Bloomington","state":"IN","zip":"47401","distance":"15.957859992980957","lon":"-86.495483","lat":"39.151512","theaterChainName":"AMC Theatres","ticketType":"STANDARD"},{"id":"5004","name":"Indiana University Cinema","address":"1213 E. 7th St.","city":"Bloomington","state":"IN","zip":"47405","distance":"14.278684616088867","lon":"-86.519302","lat":"39.168598","theaterChainName":"Independent Chains","ticketType":"STANDARD"},{"id":"3004","name":"AMC Showplace Bloomington 12","address":"2929 West Third","city":"Bloomington","state":"IN","zip":"47404","distance":"13.458288192749023","lon":"-86.571854","lat":"39.162094","theaterChainName":"AMC Theatres","ticketType":"STANDARD"}]