[{"id":"4142","name":"Carmike Metropolis 18","address":"2490 Futura Park Way","city":"Plainfield","state":"IN","zip":"46168","distance":"24.788850784301758","lon":"-86.360382","lat":"39.711040","theaterChainName":"Carmike Cinemas","ticketType":"STANDARD"},{"id":"5192","name":"Showtime Cinema - Mooresville","address":"300 Southbridge St.","city":"Mooresville","state":"IN","zip":"46158","distance":"19.24958610534668","lon":"-86.373497","lat":"39.602402","theaterChainName":"Independent Chains","ticketType":"STANDARD"},{"id":"3276","name":"Ashley Square Cinemas","address":"2 Ashley Square","city":"Greencastle","state":"IN","zip":"46135","distance":"17.223697662353516","lon":"-86.864281","lat":"39.641888","theaterChainName":"Independent Chains","ticketType":"STANDARD"},{"id":"1503","name":"AMC Showplace Bloomington 11","address":"1351 College Mall Rd.","city":"Bloomington","state":"IN","zip":"47401","distance":"22.182788848876953","lon":"-86.495483","lat":"39.151512","theaterChainName":"AMC Theatres","ticketType":"STANDARD"},{"id":"5004","name":"Indiana University Cinema","address":"1213 E. 7th St.","city":"Bloomington","state":"IN","zip":"47405","distance":"20.58684730529785","lon":"-86.519302","lat":"39.168598","theaterChainName":"Independent Chains","ticketType":"STANDARD"},{"id":"3004","name":"AMC Showplace Bloomington 12","address":"2929 West Third","city":"Bloomington","state":"IN","zip":"47404","distance":"20.094688415527344","lon":"-86.571854","lat":"39.162094","theaterChainName":"AMC Theatres","ticketType":"STANDARD"}]