[{"id":"1503","name":"AMC Showplace Bloomington 11","address":"1351 College Mall Rd.","city":"Bloomington","state":"IN","zip":"47401","distance":"15.261429786682129","lon":"-86.495483","lat":"39.151512","theaterChainName":"AMC Theatres","ticketType":"STANDARD"},{"id":"5004","name":"Indiana University Cinema","address":"1213 E. 7th St.","city":"Bloomington","state":"IN","zip":"47405","distance":"15.88876724243164","lon":"-86.519302","lat":"39.168598","theaterChainName":"Independent Chains","ticketType":"STANDARD"},{"id":"3004","name":"AMC Showplace Bloomington 12","address":"2929 West Third","city":"Bloomington","state":"IN","zip":"47404","distance":"14.780092239379883","lon":"-86.571854","lat":"39.162094","theaterChainName":"AMC Theatres","ticketType":"STANDARD"},{"id":"2828","name":"Great Escape","address":"2929 Great Escape Dr.","city":"Bedford","state":"IN","zip":"47421","distance":"9.223718643188477","lon":"-86.511299","lat":"38.843727","theaterChainName":"Regal Cinemas","ticketType":"STANDARD"},{"id":"3592","name":"UEC Premiere Theatre Bedford","address":"2933 Brock Ln.","city":"Bedford","state":"IN","zip":"47421","distance":"9.050481796264648","lon":"-86.514336","lat":"38.845097","theaterChainName":"UEC Theatres","ticketType":"STANDARD"}]