[{"id":"3277","tribuneTheaterId":"1733","providerTheaterId":"","name":"Tell City Twin","address":"120 Hwy 66 East","city":"Tell City","state":"IN","zip":"47586","distance":12.941874121634,"lon":"-86.755699","lat":"37.9347","theaterChainName":"Independent Chains","ticketType":"STANDARD"},{"id":"1999","tribuneTheaterId":"6201","providerTheaterId":"","name":"Jasper 8","address":"256 Brucke Strasse","city":"Jasper","state":"IN","zip":"47546","distance":23.68644305395,"lon":"-86.92951","lat":"38.385351","theaterChainName":"Independent Chains","ticketType":"STANDARD"},{"id":"1473","tribuneTheaterId":"7631","providerTheaterId":"","name":"Malco Cinema 16","address":"5333 Frederica St.","city":"Owensboro","state":"KY","zip":"42303","distance":24.607268458178,"lon":"-87.123427","lat":"37.714211","theaterChainName":"Malco Theatre","ticketType":"STANDARD"},{"id":"1731","tribuneTheaterId":"3123","providerTheaterId":"","name":"Showplace Newburgh 7","address":"8099 Bell Oaks Dr.","city":"Newburgh","state":"IN","zip":"47630","distance":24.841711461983,"lon":"-87.397676","lat":"37.974476","theaterChainName":"Independent Chains","ticketType":"STANDARD"}]