[{"id":"1731","name":"Showplace Newburgh 7","address":"8099 Bell Oaks Dr.","city":"Newburgh","state":"IN","zip":"47630","distance":"16.327999114990234","lon":"-87.397675","lat":"37.974476","theaterChainName":"Independent Chains","ticketType":"STANDARD"},{"id":"2037","name":"Showplace Cinema South","address":"950 South Hebron Ave.","city":"Evansville","state":"IN","zip":"47714","distance":"19.406661987304688","lon":"-87.494614","lat":"37.964104","theaterChainName":"Independent Chains","ticketType":"STANDARD"},{"id":"1912","name":"Showplace Cinema East","address":"1801 Morgan Center Drive","city":"Evansville","state":"IN","zip":"47715","distance":"17.867469787597656","lon":"-87.495903","lat":"37.992401","theaterChainName":"Independent Chains","ticketType":"STANDARD"},{"id":"1913","name":"Showplace Cinema North","address":"4200 North Third Ave.","city":"Evansville","state":"IN","zip":"47710","distance":"19.85643196105957","lon":"-87.578468","lat":"38.016373","theaterChainName":"Independent Chains","ticketType":"STANDARD"},{"id":"2509","name":"AMC Evansville 16","address":"5600 Pearl Dr.","city":"Evansville","state":"IN","zip":"47712","distance":"24.48249053955078","lon":"-87.643166","lat":"37.972950","theaterChainName":"AMC Theatres","ticketType":"STANDARD"},{"id":"1999","name":"Jasper 8","address":"256 Brucke Strasse","city":"Jasper","state":"IN","zip":"47546","distance":"23.678722381591797","lon":"-86.929512","lat":"38.385349","theaterChainName":"Independent Chains","ticketType":"STANDARD"},{"id":"5049","name":"Showplace Cinemas - Princeton","address":"2691 W. Broadway St.","city":"Princeton","state":"IN","zip":"47670","distance":"20.10758399963379","lon":"-87.604446","lat":"38.354515","theaterChainName":"Independent Chains","ticketType":"STANDARD"}]