[{"id":"1731","tribuneTheaterId":"3123","providerTheaterId":"","name":"Showplace Newburgh 7","address":"8099 Bell Oaks Dr.","city":"Newburgh","state":"IN","zip":"47630","distance":0.77390349982981,"lon":"-87.397676","lat":"37.974476","theaterChainName":"Independent Chains","ticketType":"STANDARD"},{"id":"2037","tribuneTheaterId":"3050","providerTheaterId":"","name":"Showplace Cinema South","address":"950 South Hebron Ave.","city":"Evansville","state":"IN","zip":"47714","distance":5.4914993503648,"lon":"-87.49461","lat":"37.964104","theaterChainName":"Independent Chains","ticketType":"STANDARD"},{"id":"1912","tribuneTheaterId":"3238","providerTheaterId":"","name":"Showplace Cinema East","address":"1801 Morgan Center Drive","city":"Evansville","state":"IN","zip":"47715","distance":5.9036235002963,"lon":"-87.4959","lat":"37.9924","theaterChainName":"Independent Chains","ticketType":"STANDARD"},{"id":"1913","tribuneTheaterId":"3127","providerTheaterId":"","name":"Showplace Cinema North","address":"4200 North Third Ave.","city":"Evansville","state":"IN","zip":"47710","distance":10.694232608884,"lon":"-87.57847","lat":"38.016372","theaterChainName":"Independent Chains","ticketType":"STANDARD"},{"id":"4997","tribuneTheaterId":"10366","providerTheaterId":"","name":"Showplace Henderson","address":"406 Walker Drive","city":"Henderson","state":"KY","zip":"42420","distance":11.580540128104,"lon":"-87.568674","lat":"37.86852","theaterChainName":"Independent Chains","ticketType":"STANDARD"},{"id":"2509","tribuneTheaterId":"5938","providerTheaterId":"6261","name":"AMC Evansville 16","address":"5600 Pearl Dr.","city":"Evansville","state":"IN","zip":"47712","distance":13.59776681009,"lon":"-87.643163","lat":"37.972949","theaterChainName":"AMC Theatres","ticketType":"STANDARD"},{"id":"1473","tribuneTheaterId":"7631","providerTheaterId":"","name":"Malco Cinema 16","address":"5333 Frederica St.","city":"Owensboro","state":"KY","zip":"42303","distance":22.68923143749,"lon":"-87.123427","lat":"37.714211","theaterChainName":"Malco Theatre","ticketType":"STANDARD"}]