[{"id":"3277","name":"Tell City Twin","address":"120 Hwy 66 East","city":"Tell City","state":"IN","zip":"47586","distance":"17.839204788208008","lon":"-86.755699","lat":"37.934700","theaterChainName":"Independent Chains","ticketType":"STANDARD"},{"id":"1473","name":"Malco Cinema 16","address":"5333 Frederica St.","city":"Owensboro","state":"KY","zip":"42303","distance":"12.124288558959961","lon":"-87.123428","lat":"37.714211","theaterChainName":"Malco Theatre","ticketType":"STANDARD"},{"id":"1731","name":"Showplace Newburgh 7","address":"8099 Bell Oaks Dr.","city":"Newburgh","state":"IN","zip":"47630","distance":"18.520009994506836","lon":"-87.397675","lat":"37.974476","theaterChainName":"Independent Chains","ticketType":"STANDARD"},{"id":"2037","name":"Showplace Cinema South","address":"950 South Hebron Ave.","city":"Evansville","state":"IN","zip":"47714","distance":"23.396183013916016","lon":"-87.494614","lat":"37.964104","theaterChainName":"Independent Chains","ticketType":"STANDARD"},{"id":"1912","name":"Showplace Cinema East","address":"1801 Morgan Center Drive","city":"Evansville","state":"IN","zip":"47715","distance":"23.986799240112305","lon":"-87.495903","lat":"37.992401","theaterChainName":"Independent Chains","ticketType":"STANDARD"}]