[{"id":"2037","name":"Showplace Cinema South","address":"950 South Hebron Ave.","city":"Evansville","state":"IN","zip":"47714","distance":"22.073408126831055","lon":"-87.494614","lat":"37.964104","theaterChainName":"Independent Chains","ticketType":"STANDARD"},{"id":"1912","name":"Showplace Cinema East","address":"1801 Morgan Center Drive","city":"Evansville","state":"IN","zip":"47715","distance":"20.794923782348633","lon":"-87.495903","lat":"37.992401","theaterChainName":"Independent Chains","ticketType":"STANDARD"},{"id":"4997","name":"Showplace Henderson","address":"406 Walker Drive","city":"Henderson","state":"KY","zip":"42420","distance":"24.53603172302246","lon":"-87.568672","lat":"37.868519","theaterChainName":"Independent Chains","ticketType":"STANDARD"},{"id":"1913","name":"Showplace Cinema North","address":"4200 North Third Ave.","city":"Evansville","state":"IN","zip":"47710","distance":"16.257856369018555","lon":"-87.578468","lat":"38.016373","theaterChainName":"Independent Chains","ticketType":"STANDARD"},{"id":"2509","name":"AMC Evansville 16","address":"5600 Pearl Dr.","city":"Evansville","state":"IN","zip":"47712","distance":"16.262676239013672","lon":"-87.643166","lat":"37.972950","theaterChainName":"AMC Theatres","ticketType":"STANDARD"},{"id":"5049","name":"Showplace Cinemas - Princeton","address":"2691 W. Broadway St.","city":"Princeton","state":"IN","zip":"47670","distance":"16.57500648498535","lon":"-87.604446","lat":"38.354515","theaterChainName":"Independent Chains","ticketType":"STANDARD"}]