[{"id":"1731","tribuneTheaterId":"3123","providerTheaterId":"","name":"Showplace Newburgh 7","address":"8099 Bell Oaks Dr.","city":"Newburgh","state":"IN","zip":"47630","distance":17.435363511515,"lon":"-87.397676","lat":"37.974476","theaterChainName":"Independent Chains","ticketType":"STANDARD"},{"id":"1999","tribuneTheaterId":"6201","providerTheaterId":"","name":"Jasper 8","address":"256 Brucke Strasse","city":"Jasper","state":"IN","zip":"47546","distance":21.378063713402,"lon":"-86.92951","lat":"38.385351","theaterChainName":"Independent Chains","ticketType":"STANDARD"},{"id":"1912","tribuneTheaterId":"3238","providerTheaterId":"","name":"Showplace Cinema East","address":"1801 Morgan Center Drive","city":"Evansville","state":"IN","zip":"47715","distance":21.426588189534,"lon":"-87.4959","lat":"37.9924","theaterChainName":"Independent Chains","ticketType":"STANDARD"},{"id":"2037","tribuneTheaterId":"3050","providerTheaterId":"","name":"Showplace Cinema South","address":"950 South Hebron Ave.","city":"Evansville","state":"IN","zip":"47714","distance":22.263896860582,"lon":"-87.49461","lat":"37.964104","theaterChainName":"Independent Chains","ticketType":"STANDARD"},{"id":"3277","tribuneTheaterId":"1733","providerTheaterId":"","name":"Tell City Twin","address":"120 Hwy 66 East","city":"Tell City","state":"IN","zip":"47586","distance":24.58363725073,"lon":"-86.755699","lat":"37.9347","theaterChainName":"Independent Chains","ticketType":"STANDARD"}]