[{"id":"5049","tribuneTheaterId":"10428","providerTheaterId":"","name":"Showplace Cinemas - Princeton","address":"2691 W. Broadway St.","city":"Princeton","state":"IN","zip":"47670","distance":8.3083155589284,"lon":"-87.604444","lat":"38.354515","theaterChainName":"Independent Chains","ticketType":"STANDARD"},{"id":"3632","tribuneTheaterId":"4942","providerTheaterId":"6963","name":"AMC Showplace Vincennes 8","address":"1495 S. Hart Street","city":"Vincennes","state":"IN","zip":"47591","distance":22.368850423789,"lon":"-87.500954","lat":"38.65462","theaterChainName":"AMC Theatres","ticketType":"STANDARD"},{"id":"1913","tribuneTheaterId":"3127","providerTheaterId":"","name":"Showplace Cinema North","address":"4200 North Third Ave.","city":"Evansville","state":"IN","zip":"47710","distance":22.904132977804,"lon":"-87.57847","lat":"38.016372","theaterChainName":"Independent Chains","ticketType":"STANDARD"},{"id":"1912","tribuneTheaterId":"3238","providerTheaterId":"","name":"Showplace Cinema East","address":"1801 Morgan Center Drive","city":"Evansville","state":"IN","zip":"47715","distance":23.645106842165,"lon":"-87.4959","lat":"37.9924","theaterChainName":"Independent Chains","ticketType":"STANDARD"},{"id":"1731","tribuneTheaterId":"3123","providerTheaterId":"","name":"Showplace Newburgh 7","address":"8099 Bell Oaks Dr.","city":"Newburgh","state":"IN","zip":"47630","distance":24.957256926375,"lon":"-87.397676","lat":"37.974476","theaterChainName":"Independent Chains","ticketType":"STANDARD"}]