[{"id":"1731","name":"Showplace Newburgh 7","address":"8099 Bell Oaks Dr.","city":"Newburgh","state":"IN","zip":"47630","distance":"11.066344261169434","lon":"-87.397675","lat":"37.974476","theaterChainName":"Independent Chains","ticketType":"STANDARD"},{"id":"2037","name":"Showplace Cinema South","address":"950 South Hebron Ave.","city":"Evansville","state":"IN","zip":"47714","distance":"5.863232135772705","lon":"-87.494614","lat":"37.964104","theaterChainName":"Independent Chains","ticketType":"STANDARD"},{"id":"1912","name":"Showplace Cinema East","address":"1801 Morgan Center Drive","city":"Evansville","state":"IN","zip":"47715","distance":"5.798741340637207","lon":"-87.495903","lat":"37.992401","theaterChainName":"Independent Chains","ticketType":"STANDARD"},{"id":"4997","name":"Showplace Henderson","address":"406 Walker Drive","city":"Henderson","state":"KY","zip":"42420","distance":"7.764965057373047","lon":"-87.568672","lat":"37.868519","theaterChainName":"Independent Chains","ticketType":"STANDARD"},{"id":"1913","name":"Showplace Cinema North","address":"4200 North Third Ave.","city":"Evansville","state":"IN","zip":"47710","distance":"2.916949987411499","lon":"-87.578468","lat":"38.016373","theaterChainName":"Independent Chains","ticketType":"STANDARD"},{"id":"2509","name":"AMC Evansville 16","address":"5600 Pearl Dr.","city":"Evansville","state":"IN","zip":"47712","distance":"2.3338265419006348","lon":"-87.643166","lat":"37.972950","theaterChainName":"AMC Theatres","ticketType":"STANDARD"}]