[{"id":"2957","tribuneTheaterId":"1535","providerTheaterId":"","name":"Linton Cinema 3","address":"1600 A St. NE","city":"Linton","state":"IN","zip":"47441","distance":14.852727300121,"lon":"-87.144834","lat":"39.03964","theaterChainName":"Independent Chains","ticketType":"STANDARD"},{"id":"6112","tribuneTheaterId":"11527","providerTheaterId":"","name":"Eagle Theater","address":"1802 W Main St","city":"Robinson","state":"IL","zip":"62454","distance":20.041032326143,"lon":"-87.763488","lat":"39.006834","theaterChainName":"Independent Chains","ticketType":"STANDARD"},{"id":"3030","tribuneTheaterId":"4946","providerTheaterId":"6942","name":"AMC Showplace Terre Haute 12","address":"3153 S. 3rd Place","city":"Terre Haute","state":"IN","zip":"47802","distance":22.535519151571,"lon":"-87.424865","lat":"39.426963","theaterChainName":"AMC Theatres","ticketType":"STANDARD"},{"id":"1519","tribuneTheaterId":"4941","providerTheaterId":"6941","name":"AMC Honey Creek 8","address":"3131 S. 3rd Place","city":"Terre Haute","state":"IN","zip":"47802","distance":22.5349461334,"lon":"-87.424554","lat":"39.426963","theaterChainName":"AMC Theatres","ticketType":"STANDARD"}]