[{"id":"1997","tribuneTheaterId":"1136","providerTheaterId":"","name":"Twin Lake Cinema 1 & 2","address":"107 S Main Street","city":"Monticello","state":"IN","zip":"47960","distance":7.4106841583534,"lon":"-86.761925","lat":"40.744663","theaterChainName":"Independent Chains","ticketType":"STANDARD"},{"id":"3026","tribuneTheaterId":"5838","providerTheaterId":"","name":"Goodrich Wabash Landing 9","address":"300 E. State St.","city":"West Lafayette","state":"IN","zip":"47906","distance":17.244928249229,"lon":"-86.9006","lat":"40.421387","theaterChainName":"Goodrich Theatres","ticketType":"E_TICKET"},{"id":"1531","tribuneTheaterId":"5836","providerTheaterId":"","name":"Goodrich Eastside 9 Theatres","address":"300 N Farabee Drive","city":"Lafayette","state":"IN","zip":"47905","distance":17.289194997643,"lon":"-86.852","lat":"40.4192","theaterChainName":"Goodrich Theatres","ticketType":"E_TICKET"},{"id":"2293","tribuneTheaterId":"4878","providerTheaterId":"","name":"Goodrich Lafayette 7","address":"3525 McCarty Lane","city":"Lafayette","state":"IN","zip":"47904","distance":18.490843963603,"lon":"-86.852084","lat":"40.401798","theaterChainName":"Goodrich Theatres","ticketType":"E_TICKET"},{"id":"5033","tribuneTheaterId":"10408","providerTheaterId":"","name":"Fountain Stone Theater","address":"1376 Saint Gaspar Drive","city":"Rensselaer","state":"IN","zip":"47978","distance":23.27421318407,"lon":"-87.15173","lat":"40.92535","theaterChainName":"Independent Chains","ticketType":"STANDARD"}]