[{"id":"3218","name":"Lebanon 7","address":"1600 N Lebanon","city":"Lebanon","state":"IN","zip":"46052","distance":"18.641773223876953","lon":"-86.471199","lat":"40.059502","theaterChainName":"Goodrich Theatres","ticketType":"E_TICKET"},{"id":"2293","name":"Goodrich Lafayette 7","address":"3525 McCarty Lane","city":"Lafayette","state":"IN","zip":"47904","distance":"12.618412017822266","lon":"-86.852081","lat":"40.401798","theaterChainName":"Goodrich Theatres","ticketType":"E_TICKET"},{"id":"1531","name":"Goodrich Eastside 9 Theatres","address":"300 N Farabee Drive","city":"Lafayette","state":"IN","zip":"47905","distance":"13.650025367736816","lon":"-86.851997","lat":"40.419201","theaterChainName":"Goodrich Theatres","ticketType":"E_TICKET"},{"id":"3026","name":"Goodrich Wabash Landing 9","address":"300 E. State St.","city":"West Lafayette","state":"IN","zip":"47906","distance":"15.190055847167969","lon":"-86.900597","lat":"40.421387","theaterChainName":"Goodrich Theatres","ticketType":"E_TICKET"},{"id":"2724","name":"Carmike Capri Cinema 8","address":"205 Dry Branch Dr","city":"Crawfordsville","state":"IN","zip":"47933","distance":"18.242219924926758","lon":"-86.901794","lat":"40.020222","theaterChainName":"Carmike Cinemas","ticketType":"STANDARD"}]