[{"id":"2724","tribuneTheaterId":"4965","providerTheaterId":"","name":"Carmike Capri Cinema 8","address":"205 Dry Branch Dr","city":"Crawfordsville","state":"IN","zip":"47933","distance":8.1880350569324,"lon":"-86.901791","lat":"40.020222","theaterChainName":"Carmike Cinemas","ticketType":"STANDARD"},{"id":"3218","tribuneTheaterId":"2115","providerTheaterId":"","name":"Lebanon 7","address":"1600 N Lebanon","city":"Lebanon","state":"IN","zip":"46052","distance":15.690587034803,"lon":"-86.4712","lat":"40.0595","theaterChainName":"Goodrich Theatres","ticketType":"E_TICKET"},{"id":"4769","tribuneTheaterId":"10009","providerTheaterId":"","name":"Brownsburg 8","address":"1555 N. Green St.","city":"Brownsburg","state":"IN","zip":"46112","distance":20.896990354036,"lon":"-86.39061","lat":"39.868584","theaterChainName":"Goodrich Theatres","ticketType":"E_TICKET"},{"id":"3276","tribuneTheaterId":"1267","providerTheaterId":"","name":"Ashley Square Cinemas","address":"2 Ashley Square","city":"Greencastle","state":"IN","zip":"46135","distance":24.655299578572,"lon":"-86.864282","lat":"39.641886","theaterChainName":"Independent Chains","ticketType":"STANDARD"}]