[{"id":"1213","name":"Romeo Theatre","address":"66120 Van Dyke","city":"Washington","state":"MI","zip":"48095","distance":"23.806507110595703","lon":"-83.012390","lat":"42.780972","theaterChainName":"Independent Chains","ticketType":"STANDARD"},{"id":"785","name":"MJR Chesterfield Crossing Digital Cinema 16","address":"50675 Gratiot Ave.","city":"Chesterfield","state":"MI","zip":"48051","distance":"12.986565589904785","lon":"-82.837311","lat":"42.673115","theaterChainName":"MJR Theatres","ticketType":"E_TICKET"},{"id":"5618","name":"Emagine Macomb","address":"15251 23 Mile Road","city":"Macomb","state":"MI","zip":"48042","distance":"19.85883903503418","lon":"-82.974213","lat":"42.673264","theaterChainName":"Emagine Entertainment","ticketType":"STANDARD"},{"id":"4450","name":"MJR Partridge Creek Digital Cinema 14","address":"17400 Hall Road","city":"Clinton Township","state":"MI","zip":"48038","distance":"18.286359786987305","lon":"-82.945938","lat":"42.624763","theaterChainName":"MJR Theatres","ticketType":"E_TICKET"},{"id":"2741","name":"AMC Forum 30","address":"44681 Mound Rd.","city":"Sterling Heights","state":"MI","zip":"48314","distance":"24.094587326049805","lon":"-83.060127","lat":"42.622059","theaterChainName":"AMC Theatres","ticketType":"STANDARD"},{"id":"333","name":"AMC Star Gratiot 21","address":"35705 Gratiot Avenue","city":"Clinton Township","state":"MI","zip":"48035","distance":"16.672407150268555","lon":"-82.897202","lat":"42.559601","theaterChainName":"AMC Theatres","ticketType":"STANDARD"},{"id":"4160","name":"MJR Marketplace Digital Cinema 20","address":"35400 Van Dyke","city":"Sterling Heights","state":"MI","zip":"48312","distance":"23.005876541137695","lon":"-83.024780","lat":"42.554203","theaterChainName":"MJR Theatres","ticketType":"E_TICKET"},{"id":"1553","name":"Riverside Cinemas 3","address":"6746 S River Road","city":"Marine City","state":"MI","zip":"48039","distance":"5.620315074920654","lon":"-82.506897","lat":"42.693100","theaterChainName":"Independent Chains","ticketType":"STANDARD"}]