[{"id":"1553","tribuneTheaterId":"1468","providerTheaterId":"","name":"Riverside Cinemas 3","address":"6746 S River Road","city":"Marine City","state":"MI","zip":"48039","distance":5.6199051621102,"lon":"-82.506897","lat":"42.6931","theaterChainName":"Independent Chains","ticketType":"STANDARD"},{"id":"785","tribuneTheaterId":"7771","providerTheaterId":"","name":"MJR Chesterfield Crossing Digital Cinema 16","address":"50675 Gratiot Ave.","city":"Chesterfield","state":"MI","zip":"48051","distance":12.985819590176,"lon":"-82.837311","lat":"42.673114","theaterChainName":"MJR Theatres","ticketType":"E_TICKET"},{"id":"333","tribuneTheaterId":"7639","providerTheaterId":"2905","name":"AMC Star Gratiot 21","address":"35705 Gratiot Avenue","city":"Clinton Township","state":"MI","zip":"48035","distance":16.671385989523,"lon":"-82.8972","lat":"42.5596","theaterChainName":"AMC Theatres","ticketType":"STANDARD"},{"id":"4450","tribuneTheaterId":"9534","providerTheaterId":"","name":"MJR Partridge Creek Digital Cinema 14","address":"17400 Hall Road","city":"Clinton Township","state":"MI","zip":"48038","distance":18.285182584875,"lon":"-82.945936","lat":"42.624764","theaterChainName":"MJR Theatres","ticketType":"E_TICKET"},{"id":"5618","tribuneTheaterId":"11079","providerTheaterId":"","name":"Emagine Macomb","address":"15251 23 Mile Road","city":"Macomb","state":"MI","zip":"48042","distance":19.857740964247,"lon":"-82.974214","lat":"42.673264","theaterChainName":"Emagine Entertainment","ticketType":"STANDARD"},{"id":"1213","tribuneTheaterId":"6732","providerTheaterId":"","name":"Romeo Theatre","address":"66120 Van Dyke","city":"Washington","state":"MI","zip":"48095","distance":23.805208357045,"lon":"-83.012392","lat":"42.780973","theaterChainName":"Independent Chains","ticketType":"STANDARD"},{"id":"4160","tribuneTheaterId":"5860","providerTheaterId":"","name":"MJR Marketplace Digital Cinema 20","address":"35400 Van Dyke","city":"Sterling Heights","state":"MI","zip":"48312","distance":23.004456536065,"lon":"-83.024779","lat":"42.554203","theaterChainName":"MJR Theatres","ticketType":"E_TICKET"},{"id":"2741","tribuneTheaterId":"7070","providerTheaterId":"540","name":"AMC Forum 30","address":"44681 Mound Rd.","city":"Sterling Heights","state":"MI","zip":"48314","distance":24.093354213293,"lon":"-83.060131","lat":"42.622057","theaterChainName":"AMC Theatres","ticketType":"STANDARD"}]