[{"id":"1213","tribuneTheaterId":"6732","providerTheaterId":"","name":"Romeo Theatre","address":"66120 Van Dyke","city":"Washington","state":"MI","zip":"48095","distance":10.0926978493,"lon":"-83.012392","lat":"42.780973","theaterChainName":"Independent Chains","ticketType":"STANDARD"},{"id":"1888","tribuneTheaterId":"4877","providerTheaterId":"","name":"Goodrich Oxford 7 Theatre","address":"48 S. Washington Rd.","city":"Oxford","state":"MI","zip":"48371","distance":13.516013995453,"lon":"-83.263675","lat":"42.823642","theaterChainName":"Goodrich Theatres","ticketType":"E_TICKET"},{"id":"1836","tribuneTheaterId":"1926","providerTheaterId":"","name":"Lapeer Cinemas","address":"1650 DeMille Road","city":"Lapeer","state":"MI","zip":"48446","distance":16.703798536351,"lon":"-83.324647","lat":"43.043992","theaterChainName":"NCG Cinemas","ticketType":"STANDARD"},{"id":"5618","tribuneTheaterId":"11079","providerTheaterId":"","name":"Emagine Macomb","address":"15251 23 Mile Road","city":"Macomb","state":"MI","zip":"48042","distance":17.742861188474,"lon":"-82.974214","lat":"42.673264","theaterChainName":"Emagine Entertainment","ticketType":"STANDARD"},{"id":"2323","tribuneTheaterId":"7491","providerTheaterId":"2911","name":"AMC Loews Great Lakes 25","address":"4300 Baldwin Rd","city":"Auburn Hills","state":"MI","zip":"48326","distance":20.248070593161,"lon":"-83.295255","lat":"42.702911","theaterChainName":"AMC Theatres","ticketType":"STANDARD"},{"id":"2741","tribuneTheaterId":"7070","providerTheaterId":"540","name":"AMC Forum 30","address":"44681 Mound Rd.","city":"Sterling Heights","state":"MI","zip":"48314","distance":21.035469141915,"lon":"-83.060131","lat":"42.622057","theaterChainName":"AMC Theatres","ticketType":"STANDARD"},{"id":"330","tribuneTheaterId":"7637","providerTheaterId":"","name":"Emagine Rochester Hills","address":"200 Barclay Circle","city":"Rochester Hills","state":"MI","zip":"48307","distance":20.176417841484,"lon":"-83.127467","lat":"42.641769","theaterChainName":"Emagine Entertainment","ticketType":"STANDARD"},{"id":"785","tribuneTheaterId":"7771","providerTheaterId":"","name":"MJR Chesterfield Crossing Digital Cinema 16","address":"50675 Gratiot Ave.","city":"Chesterfield","state":"MI","zip":"48051","distance":20.173268368061,"lon":"-82.837311","lat":"42.673114","theaterChainName":"MJR Theatres","ticketType":"E_TICKET"},{"id":"4450","tribuneTheaterId":"9534","providerTheaterId":"","name":"MJR Partridge Creek Digital Cinema 14","address":"17400 Hall Road","city":"Clinton Township","state":"MI","zip":"48038","distance":21.310878489476,"lon":"-82.945936","lat":"42.624764","theaterChainName":"MJR Theatres","ticketType":"E_TICKET"}]