[{"id":"1213","tribuneTheaterId":"6732","providerTheaterId":"","name":"Romeo Theatre","address":"66120 Van Dyke","city":"Washington","state":"MI","zip":"48095","distance":17.458251902267,"lon":"-83.012392","lat":"42.780973","theaterChainName":"Independent Chains","ticketType":"STANDARD"},{"id":"1836","tribuneTheaterId":"1926","providerTheaterId":"","name":"Lapeer Cinemas","address":"1650 DeMille Road","city":"Lapeer","state":"MI","zip":"48446","distance":19.97826425535,"lon":"-83.324647","lat":"43.043992","theaterChainName":"NCG Cinemas","ticketType":"STANDARD"},{"id":"1888","tribuneTheaterId":"4877","providerTheaterId":"","name":"Goodrich Oxford 7 Theatre","address":"48 S. Washington Rd.","city":"Oxford","state":"MI","zip":"48371","distance":21.940772715952,"lon":"-83.263675","lat":"42.823642","theaterChainName":"Goodrich Theatres","ticketType":"E_TICKET"},{"id":"5618","tribuneTheaterId":"11079","providerTheaterId":"","name":"Emagine Macomb","address":"15251 23 Mile Road","city":"Macomb","state":"MI","zip":"48042","distance":24.495955104956,"lon":"-82.974214","lat":"42.673264","theaterChainName":"Emagine Entertainment","ticketType":"STANDARD"},{"id":"1893","tribuneTheaterId":"4882","providerTheaterId":"","name":"Goodrich Krafft 8","address":"2725 Krafft Road","city":"Port Huron","state":"MI","zip":"48060","distance":24.143365856681,"lon":"-82.451824","lat":"43.024236","theaterChainName":"Goodrich Theatres","ticketType":"SELECT_SEATING"},{"id":"1552","tribuneTheaterId":"4971","providerTheaterId":"","name":"Carmike Birchwood Cinemas 10","address":"4350 24th Ave","city":"Fort Gratiot","state":"MI","zip":"48059","distance":23.917840481365,"lon":"-82.456398","lat":"43.035301","theaterChainName":"Carmike Cinemas","ticketType":"STANDARD"},{"id":"785","tribuneTheaterId":"7771","providerTheaterId":"","name":"MJR Chesterfield Crossing Digital Cinema 16","address":"50675 Gratiot Ave.","city":"Chesterfield","state":"MI","zip":"48051","distance":24.848447558832,"lon":"-82.837311","lat":"42.673114","theaterChainName":"MJR Theatres","ticketType":"E_TICKET"}]