[{"id":"1213","name":"Romeo Theatre","address":"66120 Van Dyke","city":"Washington","state":"MI","zip":"48095","distance":"17.459287643432617","lon":"-83.012390","lat":"42.780972","theaterChainName":"Independent Chains","ticketType":"STANDARD"},{"id":"785","name":"MJR Chesterfield Crossing Digital Cinema 16","address":"50675 Gratiot Ave.","city":"Chesterfield","state":"MI","zip":"48051","distance":"24.849855422973633","lon":"-82.837311","lat":"42.673115","theaterChainName":"MJR Theatres","ticketType":"E_TICKET"},{"id":"5618","name":"Emagine Macomb","address":"15251 23 Mile Road","city":"Macomb","state":"MI","zip":"48042","distance":"24.497386932373047","lon":"-82.974213","lat":"42.673264","theaterChainName":"Emagine Entertainment","ticketType":"STANDARD"},{"id":"1888","name":"Goodrich Oxford 7 Theatre","address":"48 S. Washington Rd.","city":"Oxford","state":"MI","zip":"48371","distance":"21.941837310791016","lon":"-83.263672","lat":"42.823643","theaterChainName":"Goodrich Theatres","ticketType":"E_TICKET"},{"id":"1552","name":"Carmike Birchwood Cinemas 10","address":"4350 24th Ave","city":"Fort Gratiot","state":"MI","zip":"48059","distance":"23.919424057006836","lon":"-82.456398","lat":"43.035301","theaterChainName":"Carmike Cinemas","ticketType":"STANDARD"},{"id":"1893","name":"Goodrich Krafft 8","address":"2725 Krafft Road","city":"Port Huron","state":"MI","zip":"48060","distance":"24.145143508911133","lon":"-82.451820","lat":"43.024235","theaterChainName":"Goodrich Theatres","ticketType":"SELECT_SEATING"},{"id":"1836","name":"Lapeer Cinemas","address":"1650 DeMille Road","city":"Lapeer","state":"MI","zip":"48446","distance":"19.97935676574707","lon":"-83.324646","lat":"43.043991","theaterChainName":"NCG Cinemas","ticketType":"STANDARD"}]