[{"id":"1553","tribuneTheaterId":"1468","providerTheaterId":"","name":"Riverside Cinemas 3","address":"6746 S River Road","city":"Marine City","state":"MI","zip":"48039","distance":8.4823944704338,"lon":"-82.506897","lat":"42.6931","theaterChainName":"Independent Chains","ticketType":"STANDARD"},{"id":"785","tribuneTheaterId":"7771","providerTheaterId":"","name":"MJR Chesterfield Crossing Digital Cinema 16","address":"50675 Gratiot Ave.","city":"Chesterfield","state":"MI","zip":"48051","distance":14.152013484624,"lon":"-82.837311","lat":"42.673114","theaterChainName":"MJR Theatres","ticketType":"E_TICKET"},{"id":"333","tribuneTheaterId":"7639","providerTheaterId":"2905","name":"AMC Star Gratiot 21","address":"35705 Gratiot Avenue","city":"Clinton Township","state":"MI","zip":"48035","distance":15.931420583047,"lon":"-82.8972","lat":"42.5596","theaterChainName":"AMC Theatres","ticketType":"STANDARD"},{"id":"4450","tribuneTheaterId":"9534","providerTheaterId":"","name":"MJR Partridge Creek Digital Cinema 14","address":"17400 Hall Road","city":"Clinton Township","state":"MI","zip":"48038","distance":18.509710006537,"lon":"-82.945936","lat":"42.624764","theaterChainName":"MJR Theatres","ticketType":"E_TICKET"},{"id":"5618","tribuneTheaterId":"11079","providerTheaterId":"","name":"Emagine Macomb","address":"15251 23 Mile Road","city":"Macomb","state":"MI","zip":"48042","distance":20.655844002347,"lon":"-82.974214","lat":"42.673264","theaterChainName":"Emagine Entertainment","ticketType":"STANDARD"},{"id":"4160","tribuneTheaterId":"5860","providerTheaterId":"","name":"MJR Marketplace Digital Cinema 20","address":"35400 Van Dyke","city":"Sterling Heights","state":"MI","zip":"48312","distance":22.428054731195,"lon":"-83.024779","lat":"42.554203","theaterChainName":"MJR Theatres","ticketType":"E_TICKET"},{"id":"2741","tribuneTheaterId":"7070","providerTheaterId":"540","name":"AMC Forum 30","address":"44681 Mound Rd.","city":"Sterling Heights","state":"MI","zip":"48314","distance":24.248165692598,"lon":"-83.060131","lat":"42.622057","theaterChainName":"AMC Theatres","ticketType":"STANDARD"},{"id":"4980","tribuneTheaterId":"10345","providerTheaterId":"","name":"Bel Air 10 Theater","address":"10100 E. 8 Mile Road","city":"Detroit","state":"MI","zip":"48234","distance":23.933246312098,"lon":"-83.015966","lat":"42.445202","theaterChainName":"Independent Chains","ticketType":"STANDARD"}]