[{"id":"1553","tribuneTheaterId":"1468","providerTheaterId":"","name":"Riverside Cinemas 3","address":"6746 S River Road","city":"Marine City","state":"MI","zip":"48039","distance":2.239903244616,"lon":"-82.506897","lat":"42.6931","theaterChainName":"Independent Chains","ticketType":"STANDARD"},{"id":"785","tribuneTheaterId":"7771","providerTheaterId":"","name":"MJR Chesterfield Crossing Digital Cinema 16","address":"50675 Gratiot Ave.","city":"Chesterfield","state":"MI","zip":"48051","distance":14.625576641372,"lon":"-82.837311","lat":"42.673114","theaterChainName":"MJR Theatres","ticketType":"E_TICKET"},{"id":"4450","tribuneTheaterId":"9534","providerTheaterId":"","name":"MJR Partridge Creek Digital Cinema 14","address":"17400 Hall Road","city":"Clinton Township","state":"MI","zip":"48038","distance":20.562768110741,"lon":"-82.945936","lat":"42.624764","theaterChainName":"MJR Theatres","ticketType":"E_TICKET"},{"id":"333","tribuneTheaterId":"7639","providerTheaterId":"2905","name":"AMC Star Gratiot 21","address":"35705 Gratiot Avenue","city":"Clinton Township","state":"MI","zip":"48035","distance":19.695702614096,"lon":"-82.8972","lat":"42.5596","theaterChainName":"AMC Theatres","ticketType":"STANDARD"},{"id":"5618","tribuneTheaterId":"11079","providerTheaterId":"","name":"Emagine Macomb","address":"15251 23 Mile Road","city":"Macomb","state":"MI","zip":"48042","distance":21.570415883866,"lon":"-82.974214","lat":"42.673264","theaterChainName":"Emagine Entertainment","ticketType":"STANDARD"},{"id":"1213","tribuneTheaterId":"6732","providerTheaterId":"","name":"Romeo Theatre","address":"66120 Van Dyke","city":"Washington","state":"MI","zip":"48095","distance":24.37346107131,"lon":"-83.012392","lat":"42.780973","theaterChainName":"Independent Chains","ticketType":"STANDARD"},{"id":"1552","tribuneTheaterId":"4971","providerTheaterId":"","name":"Carmike Birchwood Cinemas 10","address":"4350 24th Ave","city":"Fort Gratiot","state":"MI","zip":"48059","distance":24.601335863632,"lon":"-82.456398","lat":"43.035301","theaterChainName":"Carmike Cinemas","ticketType":"STANDARD"},{"id":"1893","tribuneTheaterId":"4882","providerTheaterId":"","name":"Goodrich Krafft 8","address":"2725 Krafft Road","city":"Port Huron","state":"MI","zip":"48060","distance":23.898733566316,"lon":"-82.451824","lat":"43.024236","theaterChainName":"Goodrich Theatres","ticketType":"SELECT_SEATING"}]