[{"id":"1552","tribuneTheaterId":"4971","providerTheaterId":"","name":"Carmike Birchwood Cinemas 10","address":"4350 24th Ave","city":"Fort Gratiot","state":"MI","zip":"48059","distance":10.616274864728,"lon":"-82.456398","lat":"43.035301","theaterChainName":"Carmike Cinemas","ticketType":"STANDARD"},{"id":"1893","tribuneTheaterId":"4882","providerTheaterId":"","name":"Goodrich Krafft 8","address":"2725 Krafft Road","city":"Port Huron","state":"MI","zip":"48060","distance":10.109466972823,"lon":"-82.451824","lat":"43.024236","theaterChainName":"Goodrich Theatres","ticketType":"SELECT_SEATING"},{"id":"1553","tribuneTheaterId":"1468","providerTheaterId":"","name":"Riverside Cinemas 3","address":"6746 S River Road","city":"Marine City","state":"MI","zip":"48039","distance":14.970700049095,"lon":"-82.506897","lat":"42.6931","theaterChainName":"Independent Chains","ticketType":"STANDARD"},{"id":"785","tribuneTheaterId":"7771","providerTheaterId":"","name":"MJR Chesterfield Crossing Digital Cinema 16","address":"50675 Gratiot Ave.","city":"Chesterfield","state":"MI","zip":"48051","distance":21.060019892108,"lon":"-82.837311","lat":"42.673114","theaterChainName":"MJR Theatres","ticketType":"E_TICKET"},{"id":"1213","tribuneTheaterId":"6732","providerTheaterId":"","name":"Romeo Theatre","address":"66120 Van Dyke","city":"Washington","state":"MI","zip":"48095","distance":24.096087180969,"lon":"-83.012392","lat":"42.780973","theaterChainName":"Independent Chains","ticketType":"STANDARD"}]