[{"id":"5067","tribuneTheaterId":"10450","providerTheaterId":"","name":"Emagine Royal Oak","address":"200 N. Main St.","city":"Royal Oak","state":"MI","zip":"48067","distance":3.1865456719125,"lon":"-83.144138","lat":"42.490365","theaterChainName":"Emagine Entertainment","ticketType":"STANDARD"},{"id":"5789","tribuneTheaterId":"11229","providerTheaterId":"","name":"Emagine Palladium","address":"209 Hamilton Row","city":"Birmingham","state":"MI","zip":"48009","distance":3.4531628471711,"lon":"-83.214397","lat":"42.547675","theaterChainName":"Emagine Entertainment","ticketType":"STANDARD"},{"id":"447","tribuneTheaterId":"7648","providerTheaterId":"","name":"Main Art Theatre","address":"118 N. Main St.","city":"Royal Oak","state":"MI","zip":"48067","distance":3.205733067105,"lon":"-83.143788","lat":"42.490227","theaterChainName":"Landmark Theatres","ticketType":"STANDARD"},{"id":"3287","tribuneTheaterId":"2119","providerTheaterId":"","name":"Birmingham 8","address":"211 S. Woodward Rd.","city":"Birmingham","state":"MI","zip":"48009","distance":3.328178544438,"lon":"-83.212428","lat":"42.546021","theaterChainName":"Uptown Entertainment","ticketType":"STANDARD"},{"id":"331","tribuneTheaterId":"7638","providerTheaterId":"2904","name":"AMC Star John R 15","address":"32289 John R Road","city":"Madison Heights","state":"MI","zip":"48071","distance":5.3527099684704,"lon":"-83.110735","lat":"42.531138","theaterChainName":"AMC Theatres","ticketType":"STANDARD"},{"id":"5541","tribuneTheaterId":"10977","providerTheaterId":"","name":"MJR Troy Grand Digital Cinema 16","address":"100 E. Maple Road","city":"Troy","state":"MI","zip":"48083","distance":4.5599578174732,"lon":"-83.145223","lat":"42.546704","theaterChainName":"MJR Theatres","ticketType":"E_TICKET"},{"id":"433","tribuneTheaterId":"7321","providerTheaterId":"2909","name":"AMC Star Southfield 20","address":"25333 West 12 Mile Rd","city":"Southfield","state":"MI","zip":"48034","distance":4.5238486064379,"lon":"-83.294585","lat":"42.499456","theaterChainName":"AMC Theatres","ticketType":"STANDARD"},{"id":"1310","tribuneTheaterId":"5229","providerTheaterId":"","name":"Cinemark Movies 16 Warren","address":"28600 Dequindre Rd #1050","city":"Warren","state":"MI","zip":"48092","distance":6.1503795068688,"lon":"-83.085228","lat":"42.502743","theaterChainName":"Cinemark","ticketType":"STANDARD"},{"id":"5244","tribuneTheaterId":"7331","providerTheaterId":"","name":"The Maple Theater","address":"4135 W. Maple Rd.","city":"Bloomfield Hills","state":"MI","zip":"48301","distance":5.2413514225614,"lon":"-83.287444","lat":"42.544292","theaterChainName":"Independent Chains","ticketType":"STANDARD"},{"id":"804","tribuneTheaterId":"2178","providerTheaterId":"","name":"The Riviera Cinema","address":"30170 Grand River NE","city":"Farmington Hills","state":"MI","zip":"48336","distance":7.7874714937584,"lon":"-83.345","lat":"42.4516","theaterChainName":"Independent Chains","ticketType":"STANDARD"},{"id":"4980","tribuneTheaterId":"10345","providerTheaterId":"","name":"Bel Air 10 Theater","address":"10100 E. 8 Mile Road","city":"Detroit","state":"MI","zip":"48234","distance":10.342054512905,"lon":"-83.015966","lat":"42.445202","theaterChainName":"Independent Chains","ticketType":"STANDARD"},{"id":"330","tribuneTheaterId":"7637","providerTheaterId":"","name":"Emagine Rochester Hills","address":"200 Barclay Circle","city":"Rochester Hills","state":"MI","zip":"48307","distance":10.696915060467,"lon":"-83.127467","lat":"42.641769","theaterChainName":"Emagine Entertainment","ticketType":"STANDARD"},{"id":"4160","tribuneTheaterId":"5860","providerTheaterId":"","name":"MJR Marketplace Digital Cinema 20","address":"35400 Van Dyke","city":"Sterling Heights","state":"MI","zip":"48312","distance":9.9994318355521,"lon":"-83.024779","lat":"42.554203","theaterChainName":"MJR Theatres","ticketType":"E_TICKET"},{"id":"4878","tribuneTheaterId":"10185","providerTheaterId":"","name":"Phoenix Theatres at Laurel Park Place","address":"17310 Laurel Park Place Mall","city":"Livonia","state":"MI","zip":"48152","distance":12.238688309116,"lon":"-83.41729","lat":"42.414262","theaterChainName":"Phoenix Theatres - Michigan","ticketType":"STANDARD"},{"id":"3518","tribuneTheaterId":"643","providerTheaterId":"","name":"Detroit Institute of Arts","address":"5200 Woodward Ave.","city":"Detroit","state":"MI","zip":"48202","distance":11.975716158023,"lon":"-83.065553","lat":"42.359082","theaterChainName":"Independent Chains","ticketType":"STANDARD"},{"id":"2741","tribuneTheaterId":"7070","providerTheaterId":"540","name":"AMC Forum 30","address":"44681 Mound Rd.","city":"Sterling Heights","state":"MI","zip":"48314","distance":11.327420673072,"lon":"-83.060131","lat":"42.622057","theaterChainName":"AMC Theatres","ticketType":"STANDARD"},{"id":"849","tribuneTheaterId":"8057","providerTheaterId":"","name":"United Artists Commerce Stadium 14","address":"3033 Springvale Drive","city":"Walled Lake","state":"MI","zip":"48390","distance":12.362442694862,"lon":"-83.444124","lat":"42.532076","theaterChainName":"United Artists","ticketType":"STANDARD"},{"id":"3024","tribuneTheaterId":"4161","providerTheaterId":"2912","name":"AMC Star Fairlane 21","address":"18900 Michigan Avenue","city":"Dearborn","state":"MI","zip":"48126","distance":12.506384749811,"lon":"-83.224247","lat":"42.317606","theaterChainName":"AMC Theatres","ticketType":"STANDARD"},{"id":"5121","tribuneTheaterId":"10524","providerTheaterId":"","name":"Cinema Detroit","address":"3420 Cass Ave","city":"Detroit","state":"MI","zip":"48201","distance":12.51618161102,"lon":"-83.067192","lat":"42.348614","theaterChainName":"Independent Chains","ticketType":"STANDARD"},{"id":"1462","tribuneTheaterId":"7502","providerTheaterId":"538","name":"AMC Livonia 20","address":"19500 Haggerty Rd","city":"Livonia","state":"MI","zip":"48152","distance":12.443107601576,"lon":"-83.430894","lat":"42.428394","theaterChainName":"AMC Theatres","ticketType":"STANDARD"},{"id":"5108","tribuneTheaterId":"10506","providerTheaterId":"","name":"MJR Westland Grand Digital Cinema 16","address":"6800 N. Wayne Rd.","city":"Westland","state":"MI","zip":"48185","distance":14.50744873741,"lon":"-83.384298","lat":"42.334633","theaterChainName":"MJR Theatres","ticketType":"E_TICKET"},{"id":"3571","tribuneTheaterId":"7316","providerTheaterId":"","name":"Emagine Entertainment Novi","address":"44425 West 12 Mile Road","city":"Novi","state":"MI","zip":"48377","distance":14.21265376828,"lon":"-83.484732","lat":"42.494078","theaterChainName":"Emagine Entertainment","ticketType":"STANDARD"},{"id":"4190","tribuneTheaterId":"3242","providerTheaterId":"","name":"Emagine Canton","address":"39535 Ford Rd","city":"Canton","state":"MI","zip":"48187","distance":16.72987849996,"lon":"-83.429511","lat":"42.321051","theaterChainName":"Emagine Entertainment","ticketType":"STANDARD"},{"id":"4450","tribuneTheaterId":"9534","providerTheaterId":"","name":"MJR Partridge Creek Digital Cinema 14","address":"17400 Hall Road","city":"Clinton Township","state":"MI","zip":"48038","distance":15.858227713104,"lon":"-82.945936","lat":"42.624764","theaterChainName":"MJR Theatres","ticketType":"E_TICKET"},{"id":"2323","tribuneTheaterId":"7491","providerTheaterId":"2911","name":"AMC Loews Great Lakes 25","address":"4300 Baldwin Rd","city":"Auburn Hills","state":"MI","zip":"48326","distance":14.864434614714,"lon":"-83.295255","lat":"42.702911","theaterChainName":"AMC Theatres","ticketType":"STANDARD"},{"id":"5618","tribuneTheaterId":"11079","providerTheaterId":"","name":"Emagine Macomb","address":"15251 23 Mile Road","city":"Macomb","state":"MI","zip":"48042","distance":16.889833455571,"lon":"-82.974214","lat":"42.673264","theaterChainName":"Emagine Entertainment","ticketType":"STANDARD"},{"id":"333","tribuneTheaterId":"7639","providerTheaterId":"2905","name":"AMC Star Gratiot 21","address":"35705 Gratiot Avenue","city":"Clinton Township","state":"MI","zip":"48035","distance":16.277519335404,"lon":"-82.8972","lat":"42.5596","theaterChainName":"AMC Theatres","ticketType":"STANDARD"},{"id":"786","tribuneTheaterId":"9109","providerTheaterId":"","name":"MJR Waterford Digital Cinema 16","address":"7501 Highland Rd.","city":"Waterford","state":"MI","zip":"48327","distance":16.167822756118,"lon":"-83.434252","lat":"42.660761","theaterChainName":"MJR Theatres","ticketType":"E_TICKET"},{"id":"752","tribuneTheaterId":"7295","providerTheaterId":"","name":"Goodrich Canton Cinemas 1-6","address":"43555 Ford Road","city":"Canton","state":"MI","zip":"48187","distance":18.192720650165,"lon":"-83.47039","lat":"42.321561","theaterChainName":"Goodrich Theatres","ticketType":"E_TICKET"},{"id":"1214","tribuneTheaterId":"5858","providerTheaterId":"","name":"State Wayne Theatre","address":"35310 Michigan Ave","city":"Wayne","state":"MI","zip":"48184","distance":17.476648595682,"lon":"-83.386708","lat":"42.283326","theaterChainName":"Phoenix Theatres - Michigan","ticketType":"STANDARD"},{"id":"5900","tribuneTheaterId":"11322","providerTheaterId":"","name":"Cinemark Southland Mall and XD","address":"23000 Eureka Blvd.","city":"Taylor","state":"MI","zip":"48180","distance":20.715339461429,"lon":"-83.257016","lat":"42.200682","theaterChainName":"Cinemark","ticketType":"STANDARD"},{"id":"5364","tribuneTheaterId":"267","providerTheaterId":"","name":"The Lyon Theatre","address":"126 E. Lake St.","city":"South Lyon","state":"MI","zip":"48178","distance":22.82918685886,"lon":"-83.650883","lat":"42.460442","theaterChainName":"Independent Chains","ticketType":"STANDARD"},{"id":"3453","tribuneTheaterId":"3021","providerTheaterId":"","name":"Ridgmar Movie Tavern","address":"6801 Ridgmar Meadow Road","city":"Fort Worth","state":"TX","zip":"76116","distance":22.82918685886,"lon":"-83.650883","lat":"42.460442","theaterChainName":"Movie Tavern","ticketType":"STANDARD"},{"id":"1213","tribuneTheaterId":"6732","providerTheaterId":"","name":"Romeo Theatre","address":"66120 Van Dyke","city":"Washington","state":"MI","zip":"48095","distance":21.877566810163,"lon":"-83.012392","lat":"42.780973","theaterChainName":"Independent Chains","ticketType":"STANDARD"},{"id":"1602","tribuneTheaterId":"9059","providerTheaterId":"","name":"MJR Southgate Digital Cinema 20","address":"15651 Trenton Road","city":"Southgate","state":"MI","zip":"48195","distance":20.909847607492,"lon":"-83.190259","lat":"42.195686","theaterChainName":"MJR Theatres","ticketType":"E_TICKET"},{"id":"1888","tribuneTheaterId":"4877","providerTheaterId":"","name":"Goodrich Oxford 7 Theatre","address":"48 S. Washington Rd.","city":"Oxford","state":"MI","zip":"48371","distance":22.684177109965,"lon":"-83.263675","lat":"42.823642","theaterChainName":"Goodrich Theatres","ticketType":"E_TICKET"},{"id":"785","tribuneTheaterId":"7771","providerTheaterId":"","name":"MJR Chesterfield Crossing Digital Cinema 16","address":"50675 Gratiot Ave.","city":"Chesterfield","state":"MI","zip":"48051","distance":22.307263120315,"lon":"-82.837311","lat":"42.673114","theaterChainName":"MJR Theatres","ticketType":"E_TICKET"}]