[{"id":"5078","name":"Russellville ","address":"3800 West Main","city":"Russellville","state":"AR","zip":"72801","distance":"23.87672996520996","lon":"-84.006142","lat":"41.931667","theaterChainName":"UEC Theatres","ticketType":"STANDARD"},{"id":"783","name":"MJR Adrian Digital Cinema 10","address":"3150 N. Adrian Hwy.","city":"Adrian","state":"MI","zip":"49221","distance":"23.87672996520996","lon":"-84.006142","lat":"41.931667","theaterChainName":"MJR Theatres","ticketType":"E_TICKET"},{"id":"4878","name":"Phoenix Theatres at Laurel Park Place","address":"17310 Laurel Park Place Mall","city":"Livonia","state":"MI","zip":"48152","distance":"24.127206802368164","lon":"-83.417290","lat":"42.414261","theaterChainName":"Phoenix Theatres - Michigan","ticketType":"STANDARD"},{"id":"1462","name":"AMC Livonia 20","address":"19500 Haggerty Rd","city":"Livonia","state":"MI","zip":"48152","distance":"23.98736572265625","lon":"-83.430893","lat":"42.428394","theaterChainName":"AMC Theatres","ticketType":"STANDARD"},{"id":"5108","name":"MJR Westland Grand Digital Cinema 16","address":"6800 N. Wayne Rd.","city":"Westland","state":"MI","zip":"48185","distance":"23.78776741027832","lon":"-83.384300","lat":"42.334633","theaterChainName":"MJR Theatres","ticketType":"E_TICKET"},{"id":"3571","name":"Emagine Entertainment Novi","address":"44425 West 12 Mile Road","city":"Novi","state":"MI","zip":"48377","distance":"24.473587036132812","lon":"-83.484734","lat":"42.494080","theaterChainName":"Emagine Entertainment","ticketType":"STANDARD"},{"id":"4190","name":"Emagine Canton","address":"39535 Ford Rd","city":"Canton","state":"MI","zip":"48187","distance":"21.326231002807617","lon":"-83.429512","lat":"42.321053","theaterChainName":"Emagine Entertainment","ticketType":"STANDARD"},{"id":"1214","name":"State Wayne Theatre","address":"35310 Michigan Ave","city":"Wayne","state":"MI","zip":"48184","distance":"23.09602928161621","lon":"-83.386711","lat":"42.283325","theaterChainName":"Phoenix Theatres - Michigan","ticketType":"STANDARD"},{"id":"752","name":"Goodrich Canton Cinemas 1-6","address":"43555 Ford Road","city":"Canton","state":"MI","zip":"48187","distance":"19.30118179321289","lon":"-83.470390","lat":"42.321560","theaterChainName":"Goodrich Theatres","ticketType":"E_TICKET"},{"id":"5364","name":"The Lyon Theatre","address":"126 E. Lake St.","city":"South Lyon","state":"MI","zip":"48178","distance":"17.1575984954834","lon":"-83.650887","lat":"42.460442","theaterChainName":"Independent Chains","ticketType":"STANDARD"},{"id":"3453","name":"Ridgmar Movie Tavern","address":"6801 Ridgmar Meadow Road","city":"Fort Worth","state":"TX","zip":"76116","distance":"17.1575984954834","lon":"-83.650887","lat":"42.460442","theaterChainName":"Movie Tavern","ticketType":"STANDARD"},{"id":"324","name":"Ann Arbor 20","address":"4100 Carpenter Road","city":"Ypsilanti","state":"MI","zip":"48197","distance":"8.115408897399902","lon":"-83.681854","lat":"42.227631","theaterChainName":"Cinemark","ticketType":"STANDARD"},{"id":"784","name":"MJR Brighton Town Square Digital Cinema 20","address":"8200 Murphy Dr.","city":"Brighton","state":"MI","zip":"48116","distance":"20.455135345458984","lon":"-83.798561","lat":"42.548199","theaterChainName":"MJR Theatres","ticketType":"STANDARD"},{"id":"1556","name":"State Theater","address":"233 S State Street","city":"Ann Arbor","state":"MI","zip":"48104","distance":"5.224976062774658","lon":"-83.740608","lat":"42.279419","theaterChainName":"Independent Chains","ticketType":"STANDARD"},{"id":"1398","name":"Michigan Theater","address":"603 E. Liberty Street","city":"Ann Arbor","state":"MI","zip":"48104","distance":"5.164122104644775","lon":"-83.742020","lat":"42.279705","theaterChainName":"Independent Chains","ticketType":"STANDARD"},{"id":"2224","name":"Goodrich Quality 16 Ann Arbor","address":"3686 Jackson Rd","city":"Ann Arbor","state":"MI","zip":"48103","distance":"2.816291570663452","lon":"-83.804184","lat":"42.286453","theaterChainName":"Goodrich Theatres","ticketType":"E_TICKET"}]