[{"id":"1556","tribuneTheaterId":"2711","providerTheaterId":"","name":"State Theater","address":"233 S State Street","city":"Ann Arbor","state":"MI","zip":"48104","distance":0.93912726006047,"lon":"-83.740612","lat":"42.27942","theaterChainName":"Independent Chains","ticketType":"STANDARD"},{"id":"1398","tribuneTheaterId":"2703","providerTheaterId":"","name":"Michigan Theater","address":"603 E. Liberty Street","city":"Ann Arbor","state":"MI","zip":"48104","distance":1.0029837579602,"lon":"-83.742019","lat":"42.279704","theaterChainName":"Independent Chains","ticketType":"STANDARD"},{"id":"2224","tribuneTheaterId":"5844","providerTheaterId":"","name":"Goodrich Quality 16 Ann Arbor","address":"3686 Jackson Rd","city":"Ann Arbor","state":"MI","zip":"48103","distance":4.0591702642232,"lon":"-83.804183","lat":"42.286455","theaterChainName":"Goodrich Theatres","ticketType":"E_TICKET"},{"id":"324","tribuneTheaterId":"7779","providerTheaterId":"","name":"Ann Arbor 20","address":"4100 Carpenter Road","city":"Ypsilanti","state":"MI","zip":"48197","distance":3.7345972850732,"lon":"-83.681855","lat":"42.227631","theaterChainName":"Cinemark","ticketType":"STANDARD"},{"id":"752","tribuneTheaterId":"7295","providerTheaterId":"","name":"Goodrich Canton Cinemas 1-6","address":"43555 Ford Road","city":"Canton","state":"MI","zip":"48187","distance":13.659949070764,"lon":"-83.47039","lat":"42.321561","theaterChainName":"Goodrich Theatres","ticketType":"E_TICKET"},{"id":"5364","tribuneTheaterId":"267","providerTheaterId":"","name":"The Lyon Theatre","address":"126 E. Lake St.","city":"South Lyon","state":"MI","zip":"48178","distance":13.777235060565,"lon":"-83.650883","lat":"42.460442","theaterChainName":"Independent Chains","ticketType":"STANDARD"},{"id":"3453","tribuneTheaterId":"3021","providerTheaterId":"","name":"Ridgmar Movie Tavern","address":"6801 Ridgmar Meadow Road","city":"Fort Worth","state":"TX","zip":"76116","distance":13.777235060565,"lon":"-83.650883","lat":"42.460442","theaterChainName":"Movie Tavern","ticketType":"STANDARD"},{"id":"4190","tribuneTheaterId":"3242","providerTheaterId":"","name":"Emagine Canton","address":"39535 Ford Rd","city":"Canton","state":"MI","zip":"48187","distance":15.676822314672,"lon":"-83.429511","lat":"42.321051","theaterChainName":"Emagine Entertainment","ticketType":"STANDARD"},{"id":"4878","tribuneTheaterId":"10185","providerTheaterId":"","name":"Phoenix Theatres at Laurel Park Place","address":"17310 Laurel Park Place Mall","city":"Livonia","state":"MI","zip":"48152","distance":18.769432148695,"lon":"-83.41729","lat":"42.414262","theaterChainName":"Phoenix Theatres - Michigan","ticketType":"STANDARD"},{"id":"1462","tribuneTheaterId":"7502","providerTheaterId":"538","name":"AMC Livonia 20","address":"19500 Haggerty Rd","city":"Livonia","state":"MI","zip":"48152","distance":18.739247019851,"lon":"-83.430894","lat":"42.428394","theaterChainName":"AMC Theatres","ticketType":"STANDARD"},{"id":"5108","tribuneTheaterId":"10506","providerTheaterId":"","name":"MJR Westland Grand Digital Cinema 16","address":"6800 N. Wayne Rd.","city":"Westland","state":"MI","zip":"48185","distance":18.142802694564,"lon":"-83.384298","lat":"42.334633","theaterChainName":"MJR Theatres","ticketType":"E_TICKET"},{"id":"1214","tribuneTheaterId":"5858","providerTheaterId":"","name":"State Wayne Theatre","address":"35310 Michigan Ave","city":"Wayne","state":"MI","zip":"48184","distance":17.484488391517,"lon":"-83.386708","lat":"42.283326","theaterChainName":"Phoenix Theatres - Michigan","ticketType":"STANDARD"},{"id":"784","tribuneTheaterId":"7164","providerTheaterId":"","name":"MJR Brighton Town Square Digital Cinema 20","address":"8200 Murphy Dr.","city":"Brighton","state":"MI","zip":"48116","distance":19.594582005049,"lon":"-83.798561","lat":"42.548197","theaterChainName":"MJR Theatres","ticketType":"STANDARD"},{"id":"3571","tribuneTheaterId":"7316","providerTheaterId":"","name":"Emagine Entertainment Novi","address":"44425 West 12 Mile Road","city":"Novi","state":"MI","zip":"48377","distance":19.884397455619,"lon":"-83.484732","lat":"42.494078","theaterChainName":"Emagine Entertainment","ticketType":"STANDARD"},{"id":"804","tribuneTheaterId":"2178","providerTheaterId":"","name":"The Riviera Cinema","address":"30170 Grand River NE","city":"Farmington Hills","state":"MI","zip":"48336","distance":23.26431573113,"lon":"-83.345","lat":"42.4516","theaterChainName":"Independent Chains","ticketType":"STANDARD"},{"id":"849","tribuneTheaterId":"8057","providerTheaterId":"","name":"United Artists Commerce Stadium 14","address":"3033 Springvale Drive","city":"Walled Lake","state":"MI","zip":"48390","distance":23.226442001908,"lon":"-83.444124","lat":"42.532076","theaterChainName":"United Artists","ticketType":"STANDARD"},{"id":"5900","tribuneTheaterId":"11322","providerTheaterId":"","name":"Cinemark Southland Mall and XD","address":"23000 Eureka Blvd.","city":"Taylor","state":"MI","zip":"48180","distance":24.567138579076,"lon":"-83.257016","lat":"42.200682","theaterChainName":"Cinemark","ticketType":"STANDARD"}]