[{"id":"324","tribuneTheaterId":"7779","providerTheaterId":"","name":"Ann Arbor 20","address":"4100 Carpenter Road","city":"Ypsilanti","state":"MI","zip":"48197","distance":15.187884790707,"lon":"-83.681855","lat":"42.227631","theaterChainName":"Cinemark","ticketType":"STANDARD"},{"id":"4427","tribuneTheaterId":"9498","providerTheaterId":"","name":"Phoenix Theatres at Mall of Monroe","address":"2121 N. Monroe St.","city":"Monroe","state":"MI","zip":"48162","distance":14.776209915773,"lon":"-83.388215","lat":"41.948104","theaterChainName":"Phoenix Theatres - Michigan","ticketType":"STANDARD"},{"id":"1398","tribuneTheaterId":"2703","providerTheaterId":"","name":"Michigan Theater","address":"603 E. Liberty Street","city":"Ann Arbor","state":"MI","zip":"48104","distance":19.176984521407,"lon":"-83.742019","lat":"42.279704","theaterChainName":"Independent Chains","ticketType":"STANDARD"},{"id":"1556","tribuneTheaterId":"2711","providerTheaterId":"","name":"State Theater","address":"233 S State Street","city":"Ann Arbor","state":"MI","zip":"48104","distance":19.142941331537,"lon":"-83.740612","lat":"42.27942","theaterChainName":"Independent Chains","ticketType":"STANDARD"},{"id":"783","tribuneTheaterId":"7770","providerTheaterId":"","name":"MJR Adrian Digital Cinema 10","address":"3150 N. Adrian Hwy.","city":"Adrian","state":"MI","zip":"49221","distance":18.339521965804,"lon":"-84.006143","lat":"41.931668","theaterChainName":"MJR Theatres","ticketType":"E_TICKET"},{"id":"5078","tribuneTheaterId":"10466","providerTheaterId":"","name":"Russellville ","address":"3800 West Main","city":"Russellville","state":"AR","zip":"72801","distance":18.339521965804,"lon":"-84.006143","lat":"41.931668","theaterChainName":"UEC Theatres","ticketType":"STANDARD"},{"id":"2224","tribuneTheaterId":"5844","providerTheaterId":"","name":"Goodrich Quality 16 Ann Arbor","address":"3686 Jackson Rd","city":"Ann Arbor","state":"MI","zip":"48103","distance":20.517571462231,"lon":"-83.804183","lat":"42.286455","theaterChainName":"Goodrich Theatres","ticketType":"E_TICKET"},{"id":"4015","tribuneTheaterId":"5145","providerTheaterId":"","name":"Rave Motion Pictures Franklin Park 16","address":"5001 Monroe Street","city":"Toledo","state":"OH","zip":"43623","distance":21.586063944858,"lon":"-83.64177","lat":"41.696232","theaterChainName":"Cinemark","ticketType":"STANDARD"},{"id":"1214","tribuneTheaterId":"5858","providerTheaterId":"","name":"State Wayne Theatre","address":"35310 Michigan Ave","city":"Wayne","state":"MI","zip":"48184","distance":23.739857908485,"lon":"-83.386708","lat":"42.283326","theaterChainName":"Phoenix Theatres - Michigan","ticketType":"STANDARD"},{"id":"4190","tribuneTheaterId":"3242","providerTheaterId":"","name":"Emagine Canton","address":"39535 Ford Rd","city":"Canton","state":"MI","zip":"48187","distance":24.735204335943,"lon":"-83.429511","lat":"42.321051","theaterChainName":"Emagine Entertainment","ticketType":"STANDARD"},{"id":"752","tribuneTheaterId":"7295","providerTheaterId":"","name":"Goodrich Canton Cinemas 1-6","address":"43555 Ford Road","city":"Canton","state":"MI","zip":"48187","distance":23.819962086958,"lon":"-83.47039","lat":"42.321561","theaterChainName":"Goodrich Theatres","ticketType":"E_TICKET"},{"id":"5900","tribuneTheaterId":"11322","providerTheaterId":"","name":"Cinemark Southland Mall and XD","address":"23000 Eureka Blvd.","city":"Taylor","state":"MI","zip":"48180","distance":24.754097811877,"lon":"-83.257016","lat":"42.200682","theaterChainName":"Cinemark","ticketType":"STANDARD"}]