[{"id":"4427","name":"Phoenix Theatres at Mall of Monroe","address":"2121 N. Monroe St.","city":"Monroe","state":"MI","zip":"48162","distance":"7.270336627960205","lon":"-83.388214","lat":"41.948105","theaterChainName":"Phoenix Theatres - Michigan","ticketType":"STANDARD"},{"id":"3024","name":"AMC Star Fairlane 21","address":"18900 Michigan Avenue","city":"Dearborn","state":"MI","zip":"48126","distance":"19.86261749267578","lon":"-83.224251","lat":"42.317608","theaterChainName":"AMC Theatres","ticketType":"STANDARD"},{"id":"5108","name":"MJR Westland Grand Digital Cinema 16","address":"6800 N. Wayne Rd.","city":"Westland","state":"MI","zip":"48185","distance":"19.472379684448242","lon":"-83.384300","lat":"42.334633","theaterChainName":"MJR Theatres","ticketType":"E_TICKET"},{"id":"4190","name":"Emagine Canton","address":"39535 Ford Rd","city":"Canton","state":"MI","zip":"48187","distance":"18.73399543762207","lon":"-83.429512","lat":"42.321053","theaterChainName":"Emagine Entertainment","ticketType":"STANDARD"},{"id":"1214","name":"State Wayne Theatre","address":"35310 Michigan Ave","city":"Wayne","state":"MI","zip":"48184","distance":"15.932276725769043","lon":"-83.386711","lat":"42.283325","theaterChainName":"Phoenix Theatres - Michigan","ticketType":"STANDARD"},{"id":"752","name":"Goodrich Canton Cinemas 1-6","address":"43555 Ford Road","city":"Canton","state":"MI","zip":"48187","distance":"19.18898582458496","lon":"-83.470390","lat":"42.321560","theaterChainName":"Goodrich Theatres","ticketType":"E_TICKET"},{"id":"5900","name":"Cinemark Southland Mall and XD","address":"23000 Eureka Blvd.","city":"Taylor","state":"MI","zip":"48180","distance":"11.880474090576172","lon":"-83.257019","lat":"42.200684","theaterChainName":"Cinemark","ticketType":"STANDARD"},{"id":"1602","name":"MJR Southgate Digital Cinema 20","address":"15651 Trenton Road","city":"Southgate","state":"MI","zip":"48195","distance":"13.691956520080566","lon":"-83.190262","lat":"42.195686","theaterChainName":"MJR Theatres","ticketType":"E_TICKET"},{"id":"324","name":"Ann Arbor 20","address":"4100 Carpenter Road","city":"Ypsilanti","state":"MI","zip":"48197","distance":"19.80257797241211","lon":"-83.681854","lat":"42.227631","theaterChainName":"Cinemark","ticketType":"STANDARD"},{"id":"1556","name":"State Theater","address":"233 S State Street","city":"Ann Arbor","state":"MI","zip":"48104","distance":"24.385099411010742","lon":"-83.740608","lat":"42.279419","theaterChainName":"Independent Chains","ticketType":"STANDARD"},{"id":"1398","name":"Michigan Theater","address":"603 E. Liberty Street","city":"Ann Arbor","state":"MI","zip":"48104","distance":"24.45320701599121","lon":"-83.742020","lat":"42.279705","theaterChainName":"Independent Chains","ticketType":"STANDARD"}]