[{"id":"5364","name":"The Lyon Theatre","address":"126 E. Lake St.","city":"South Lyon","state":"MI","zip":"48178","distance":"22.244077682495117","lon":"-83.650887","lat":"42.460442","theaterChainName":"Independent Chains","ticketType":"STANDARD"},{"id":"3453","name":"Ridgmar Movie Tavern","address":"6801 Ridgmar Meadow Road","city":"Fort Worth","state":"TX","zip":"76116","distance":"22.244077682495117","lon":"-83.650887","lat":"42.460442","theaterChainName":"Movie Tavern","ticketType":"STANDARD"},{"id":"784","name":"MJR Brighton Town Square Digital Cinema 20","address":"8200 Murphy Dr.","city":"Brighton","state":"MI","zip":"48116","distance":"15.011763572692871","lon":"-83.798561","lat":"42.548199","theaterChainName":"MJR Theatres","ticketType":"STANDARD"},{"id":"1556","name":"State Theater","address":"233 S State Street","city":"Ann Arbor","state":"MI","zip":"48104","distance":"23.072505950927734","lon":"-83.740608","lat":"42.279419","theaterChainName":"Independent Chains","ticketType":"STANDARD"},{"id":"1398","name":"Michigan Theater","address":"603 E. Liberty Street","city":"Ann Arbor","state":"MI","zip":"48104","distance":"23.00484848022461","lon":"-83.742020","lat":"42.279705","theaterChainName":"Independent Chains","ticketType":"STANDARD"},{"id":"2224","name":"Goodrich Quality 16 Ann Arbor","address":"3686 Jackson Rd","city":"Ann Arbor","state":"MI","zip":"48103","distance":"20.361167907714844","lon":"-83.804184","lat":"42.286453","theaterChainName":"Goodrich Theatres","ticketType":"E_TICKET"},{"id":"2537","name":"Goodrich Jackson 10","address":"1501 N Wisner","city":"Jackson","state":"MI","zip":"49202","distance":"23.626293182373047","lon":"-84.428078","lat":"42.266697","theaterChainName":"Goodrich Theatres","ticketType":"E_TICKET"},{"id":"2222","name":"Carmike Plaza Cinemas 8","address":"1700 N Wisner St","city":"Jackson","state":"MI","zip":"49202","distance":"23.68048667907715","lon":"-84.430298","lat":"42.267345","theaterChainName":"Carmike Cinemas","ticketType":"STANDARD"},{"id":"2884","name":"Sun Theatre - Williamston","address":"150 West Grand River Ave","city":"Williamston","state":"MI","zip":"48895","distance":"16.771780014038086","lon":"-84.284340","lat":"42.689171","theaterChainName":"Independent Chains","ticketType":"STANDARD"},{"id":"5363","name":"Studio C! Meridian Mall","address":"1999 Central Park Drive","city":"Okemos","state":"MI","zip":"48864","distance":"23.46798324584961","lon":"-84.422501","lat":"42.727402","theaterChainName":"Independent Chains","ticketType":"STANDARD"}]