[{"id":"5364","tribuneTheaterId":"267","providerTheaterId":"","name":"The Lyon Theatre","address":"126 E. Lake St.","city":"South Lyon","state":"MI","zip":"48178","distance":3.3673641696983,"lon":"-83.650883","lat":"42.460442","theaterChainName":"Independent Chains","ticketType":"STANDARD"},{"id":"3453","tribuneTheaterId":"3021","providerTheaterId":"","name":"Ridgmar Movie Tavern","address":"6801 Ridgmar Meadow Road","city":"Fort Worth","state":"TX","zip":"76116","distance":3.3673641696983,"lon":"-83.650883","lat":"42.460442","theaterChainName":"Movie Tavern","ticketType":"STANDARD"},{"id":"3571","tribuneTheaterId":"7316","providerTheaterId":"","name":"Emagine Entertainment Novi","address":"44425 West 12 Mile Road","city":"Novi","state":"MI","zip":"48377","distance":7.6710421015961,"lon":"-83.484732","lat":"42.494078","theaterChainName":"Emagine Entertainment","ticketType":"STANDARD"},{"id":"784","tribuneTheaterId":"7164","providerTheaterId":"","name":"MJR Brighton Town Square Digital Cinema 20","address":"8200 Murphy Dr.","city":"Brighton","state":"MI","zip":"48116","distance":8.8265201384874,"lon":"-83.798561","lat":"42.548197","theaterChainName":"MJR Theatres","ticketType":"STANDARD"},{"id":"849","tribuneTheaterId":"8057","providerTheaterId":"","name":"United Artists Commerce Stadium 14","address":"3033 Springvale Drive","city":"Walled Lake","state":"MI","zip":"48390","distance":9.8261914833584,"lon":"-83.444124","lat":"42.532076","theaterChainName":"United Artists","ticketType":"STANDARD"},{"id":"1462","tribuneTheaterId":"7502","providerTheaterId":"538","name":"AMC Livonia 20","address":"19500 Haggerty Rd","city":"Livonia","state":"MI","zip":"48152","distance":11.718282915265,"lon":"-83.430894","lat":"42.428394","theaterChainName":"AMC Theatres","ticketType":"STANDARD"},{"id":"4878","tribuneTheaterId":"10185","providerTheaterId":"","name":"Phoenix Theatres at Laurel Park Place","address":"17310 Laurel Park Place Mall","city":"Livonia","state":"MI","zip":"48152","distance":12.799842986849,"lon":"-83.41729","lat":"42.414262","theaterChainName":"Phoenix Theatres - Michigan","ticketType":"STANDARD"},{"id":"752","tribuneTheaterId":"7295","providerTheaterId":"","name":"Goodrich Canton Cinemas 1-6","address":"43555 Ford Road","city":"Canton","state":"MI","zip":"48187","distance":15.331323093324,"lon":"-83.47039","lat":"42.321561","theaterChainName":"Goodrich Theatres","ticketType":"E_TICKET"},{"id":"804","tribuneTheaterId":"2178","providerTheaterId":"","name":"The Riviera Cinema","address":"30170 Grand River NE","city":"Farmington Hills","state":"MI","zip":"48336","distance":15.236386806779,"lon":"-83.345","lat":"42.4516","theaterChainName":"Independent Chains","ticketType":"STANDARD"},{"id":"786","tribuneTheaterId":"9109","providerTheaterId":"","name":"MJR Waterford Digital Cinema 16","address":"7501 Highland Rd.","city":"Waterford","state":"MI","zip":"48327","distance":14.678306472175,"lon":"-83.434252","lat":"42.660761","theaterChainName":"MJR Theatres","ticketType":"E_TICKET"},{"id":"4190","tribuneTheaterId":"3242","providerTheaterId":"","name":"Emagine Canton","address":"39535 Ford Rd","city":"Canton","state":"MI","zip":"48187","distance":16.587782728902,"lon":"-83.429511","lat":"42.321051","theaterChainName":"Emagine Entertainment","ticketType":"STANDARD"},{"id":"1556","tribuneTheaterId":"2711","providerTheaterId":"","name":"State Theater","address":"233 S State Street","city":"Ann Arbor","state":"MI","zip":"48104","distance":16.674585648513,"lon":"-83.740612","lat":"42.27942","theaterChainName":"Independent Chains","ticketType":"STANDARD"},{"id":"433","tribuneTheaterId":"7321","providerTheaterId":"2909","name":"AMC Star Southfield 20","address":"25333 West 12 Mile Rd","city":"Southfield","state":"MI","zip":"48034","distance":17.308463886828,"lon":"-83.294585","lat":"42.499456","theaterChainName":"AMC Theatres","ticketType":"STANDARD"},{"id":"1398","tribuneTheaterId":"2703","providerTheaterId":"","name":"Michigan Theater","address":"603 E. Liberty Street","city":"Ann Arbor","state":"MI","zip":"48104","distance":16.679573610666,"lon":"-83.742019","lat":"42.279704","theaterChainName":"Independent Chains","ticketType":"STANDARD"},{"id":"2224","tribuneTheaterId":"5844","providerTheaterId":"","name":"Goodrich Quality 16 Ann Arbor","address":"3686 Jackson Rd","city":"Ann Arbor","state":"MI","zip":"48103","distance":17.569683662319,"lon":"-83.804183","lat":"42.286455","theaterChainName":"Goodrich Theatres","ticketType":"E_TICKET"},{"id":"5108","tribuneTheaterId":"10506","providerTheaterId":"","name":"MJR Westland Grand Digital Cinema 16","address":"6800 N. Wayne Rd.","city":"Westland","state":"MI","zip":"48185","distance":17.4725608374,"lon":"-83.384298","lat":"42.334633","theaterChainName":"MJR Theatres","ticketType":"E_TICKET"},{"id":"5244","tribuneTheaterId":"7331","providerTheaterId":"","name":"The Maple Theater","address":"4135 W. Maple Rd.","city":"Bloomfield Hills","state":"MI","zip":"48301","distance":17.837799686223,"lon":"-83.287444","lat":"42.544292","theaterChainName":"Independent Chains","ticketType":"STANDARD"},{"id":"324","tribuneTheaterId":"7779","providerTheaterId":"","name":"Ann Arbor 20","address":"4100 Carpenter Road","city":"Ypsilanti","state":"MI","zip":"48197","distance":19.496352841749,"lon":"-83.681855","lat":"42.227631","theaterChainName":"Cinemark","ticketType":"STANDARD"},{"id":"1214","tribuneTheaterId":"5858","providerTheaterId":"","name":"State Wayne Theatre","address":"35310 Michigan Ave","city":"Wayne","state":"MI","zip":"48184","distance":19.989990009902,"lon":"-83.386708","lat":"42.283326","theaterChainName":"Phoenix Theatres - Michigan","ticketType":"STANDARD"},{"id":"3287","tribuneTheaterId":"2119","providerTheaterId":"","name":"Birmingham 8","address":"211 S. Woodward Rd.","city":"Birmingham","state":"MI","zip":"48009","distance":21.639663009237,"lon":"-83.212428","lat":"42.546021","theaterChainName":"Uptown Entertainment","ticketType":"STANDARD"},{"id":"5789","tribuneTheaterId":"11229","providerTheaterId":"","name":"Emagine Palladium","address":"209 Hamilton Row","city":"Birmingham","state":"MI","zip":"48009","distance":21.554266050242,"lon":"-83.214397","lat":"42.547675","theaterChainName":"Emagine Entertainment","ticketType":"STANDARD"},{"id":"2323","tribuneTheaterId":"7491","providerTheaterId":"2911","name":"AMC Loews Great Lakes 25","address":"4300 Baldwin Rd","city":"Auburn Hills","state":"MI","zip":"48326","distance":21.891137260175,"lon":"-83.295255","lat":"42.702911","theaterChainName":"AMC Theatres","ticketType":"STANDARD"},{"id":"3024","tribuneTheaterId":"4161","providerTheaterId":"2912","name":"AMC Star Fairlane 21","address":"18900 Michigan Avenue","city":"Dearborn","state":"MI","zip":"48126","distance":24.691271186353,"lon":"-83.224247","lat":"42.317606","theaterChainName":"AMC Theatres","ticketType":"STANDARD"},{"id":"5067","tribuneTheaterId":"10450","providerTheaterId":"","name":"Emagine Royal Oak","address":"200 N. Main St.","city":"Royal Oak","state":"MI","zip":"48067","distance":24.992968664293,"lon":"-83.144138","lat":"42.490365","theaterChainName":"Emagine Entertainment","ticketType":"STANDARD"}]