[{"id":"4427","name":"Phoenix Theatres at Mall of Monroe","address":"2121 N. Monroe St.","city":"Monroe","state":"MI","zip":"48162","distance":"5.878854274749756","lon":"-83.388214","lat":"41.948105","theaterChainName":"Phoenix Theatres - Michigan","ticketType":"STANDARD"},{"id":"3024","name":"AMC Star Fairlane 21","address":"18900 Michigan Avenue","city":"Dearborn","state":"MI","zip":"48126","distance":"23.737730026245117","lon":"-83.224251","lat":"42.317608","theaterChainName":"AMC Theatres","ticketType":"STANDARD"},{"id":"4190","name":"Emagine Canton","address":"39535 Ford Rd","city":"Canton","state":"MI","zip":"48187","distance":"24.996549606323242","lon":"-83.429512","lat":"42.321053","theaterChainName":"Emagine Entertainment","ticketType":"STANDARD"},{"id":"1214","name":"State Wayne Theatre","address":"35310 Michigan Ave","city":"Wayne","state":"MI","zip":"48184","distance":"21.882862091064453","lon":"-83.386711","lat":"42.283325","theaterChainName":"Phoenix Theatres - Michigan","ticketType":"STANDARD"},{"id":"5900","name":"Cinemark Southland Mall and XD","address":"23000 Eureka Blvd.","city":"Taylor","state":"MI","zip":"48180","distance":"15.529951095581055","lon":"-83.257019","lat":"42.200684","theaterChainName":"Cinemark","ticketType":"STANDARD"},{"id":"1602","name":"MJR Southgate Digital Cinema 20","address":"15651 Trenton Road","city":"Southgate","state":"MI","zip":"48195","distance":"15.828289985656738","lon":"-83.190262","lat":"42.195686","theaterChainName":"MJR Theatres","ticketType":"E_TICKET"}]