[{"id":"5555","name":"Eastwood Theater","address":"817 E Broadway Street","city":"Toledo","state":"OH","zip":"43605","distance":"20.602659225463867","lon":"-83.515312","lat":"41.635803","theaterChainName":"Independent Chains","ticketType":"STANDARD"},{"id":"4015","name":"Rave Motion Pictures Franklin Park 16","address":"5001 Monroe Street","city":"Toledo","state":"OH","zip":"43623","distance":"19.032819747924805","lon":"-83.641769","lat":"41.696232","theaterChainName":"Cinemark","ticketType":"STANDARD"},{"id":"4427","name":"Phoenix Theatres at Mall of Monroe","address":"2121 N. Monroe St.","city":"Monroe","state":"MI","zip":"48162","distance":"3.185617446899414","lon":"-83.388214","lat":"41.948105","theaterChainName":"Phoenix Theatres - Michigan","ticketType":"STANDARD"},{"id":"1214","name":"State Wayne Theatre","address":"35310 Michigan Ave","city":"Wayne","state":"MI","zip":"48184","distance":"24.642986297607422","lon":"-83.386711","lat":"42.283325","theaterChainName":"Phoenix Theatres - Michigan","ticketType":"STANDARD"},{"id":"5900","name":"Cinemark Southland Mall and XD","address":"23000 Eureka Blvd.","city":"Taylor","state":"MI","zip":"48180","distance":"21.081451416015625","lon":"-83.257019","lat":"42.200684","theaterChainName":"Cinemark","ticketType":"STANDARD"},{"id":"1602","name":"MJR Southgate Digital Cinema 20","address":"15651 Trenton Road","city":"Southgate","state":"MI","zip":"48195","distance":"22.567888259887695","lon":"-83.190262","lat":"42.195686","theaterChainName":"MJR Theatres","ticketType":"E_TICKET"},{"id":"324","name":"Ann Arbor 20","address":"4100 Carpenter Road","city":"Ypsilanti","state":"MI","zip":"48197","distance":"23.932044982910156","lon":"-83.681854","lat":"42.227631","theaterChainName":"Cinemark","ticketType":"STANDARD"}]