[{"id":"4427","tribuneTheaterId":"9498","providerTheaterId":"","name":"Phoenix Theatres at Mall of Monroe","address":"2121 N. Monroe St.","city":"Monroe","state":"MI","zip":"48162","distance":3.1852467044503,"lon":"-83.388215","lat":"41.948104","theaterChainName":"Phoenix Theatres - Michigan","ticketType":"STANDARD"},{"id":"4015","tribuneTheaterId":"5145","providerTheaterId":"","name":"Rave Motion Pictures Franklin Park 16","address":"5001 Monroe Street","city":"Toledo","state":"OH","zip":"43623","distance":19.031777782512,"lon":"-83.64177","lat":"41.696232","theaterChainName":"Cinemark","ticketType":"STANDARD"},{"id":"5900","tribuneTheaterId":"11322","providerTheaterId":"","name":"Cinemark Southland Mall and XD","address":"23000 Eureka Blvd.","city":"Taylor","state":"MI","zip":"48180","distance":21.079988776474,"lon":"-83.257016","lat":"42.200682","theaterChainName":"Cinemark","ticketType":"STANDARD"},{"id":"5555","tribuneTheaterId":"11000","providerTheaterId":"","name":"Eastwood Theater","address":"817 E Broadway Street","city":"Toledo","state":"OH","zip":"43605","distance":20.601506667442,"lon":"-83.515311","lat":"41.635803","theaterChainName":"Independent Chains","ticketType":"STANDARD"},{"id":"1602","tribuneTheaterId":"9059","providerTheaterId":"","name":"MJR Southgate Digital Cinema 20","address":"15651 Trenton Road","city":"Southgate","state":"MI","zip":"48195","distance":22.566425097862,"lon":"-83.190259","lat":"42.195686","theaterChainName":"MJR Theatres","ticketType":"E_TICKET"},{"id":"324","tribuneTheaterId":"7779","providerTheaterId":"","name":"Ann Arbor 20","address":"4100 Carpenter Road","city":"Ypsilanti","state":"MI","zip":"48197","distance":23.930543574147,"lon":"-83.681855","lat":"42.227631","theaterChainName":"Cinemark","ticketType":"STANDARD"},{"id":"1214","tribuneTheaterId":"5858","providerTheaterId":"","name":"State Wayne Theatre","address":"35310 Michigan Ave","city":"Wayne","state":"MI","zip":"48184","distance":24.641414697465,"lon":"-83.386708","lat":"42.283326","theaterChainName":"Phoenix Theatres - Michigan","ticketType":"STANDARD"}]