[{"id":"4427","name":"Phoenix Theatres at Mall of Monroe","address":"2121 N. Monroe St.","city":"Monroe","state":"MI","zip":"48162","distance":"17.85242462158203","lon":"-83.388214","lat":"41.948105","theaterChainName":"Phoenix Theatres - Michigan","ticketType":"STANDARD"},{"id":"5078","name":"Russellville ","address":"3800 West Main","city":"Russellville","state":"AR","zip":"72801","distance":"20.157676696777344","lon":"-84.006142","lat":"41.931667","theaterChainName":"UEC Theatres","ticketType":"STANDARD"},{"id":"783","name":"MJR Adrian Digital Cinema 10","address":"3150 N. Adrian Hwy.","city":"Adrian","state":"MI","zip":"49221","distance":"20.157676696777344","lon":"-84.006142","lat":"41.931667","theaterChainName":"MJR Theatres","ticketType":"E_TICKET"},{"id":"5108","name":"MJR Westland Grand Digital Cinema 16","address":"6800 N. Wayne Rd.","city":"Westland","state":"MI","zip":"48185","distance":"22.533771514892578","lon":"-83.384300","lat":"42.334633","theaterChainName":"MJR Theatres","ticketType":"E_TICKET"},{"id":"4190","name":"Emagine Canton","address":"39535 Ford Rd","city":"Canton","state":"MI","zip":"48187","distance":"20.323314666748047","lon":"-83.429512","lat":"42.321053","theaterChainName":"Emagine Entertainment","ticketType":"STANDARD"},{"id":"1214","name":"State Wayne Theatre","address":"35310 Michigan Ave","city":"Wayne","state":"MI","zip":"48184","distance":"19.94149398803711","lon":"-83.386711","lat":"42.283325","theaterChainName":"Phoenix Theatres - Michigan","ticketType":"STANDARD"},{"id":"752","name":"Goodrich Canton Cinemas 1-6","address":"43555 Ford Road","city":"Canton","state":"MI","zip":"48187","distance":"19.115283966064453","lon":"-83.470390","lat":"42.321560","theaterChainName":"Goodrich Theatres","ticketType":"E_TICKET"},{"id":"5900","name":"Cinemark Southland Mall and XD","address":"23000 Eureka Blvd.","city":"Taylor","state":"MI","zip":"48180","distance":"22.83168601989746","lon":"-83.257019","lat":"42.200684","theaterChainName":"Cinemark","ticketType":"STANDARD"},{"id":"324","name":"Ann Arbor 20","address":"4100 Carpenter Road","city":"Ypsilanti","state":"MI","zip":"48197","distance":"9.415721893310547","lon":"-83.681854","lat":"42.227631","theaterChainName":"Cinemark","ticketType":"STANDARD"},{"id":"1556","name":"State Theater","address":"233 S State Street","city":"Ann Arbor","state":"MI","zip":"48104","distance":"13.386218070983887","lon":"-83.740608","lat":"42.279419","theaterChainName":"Independent Chains","ticketType":"STANDARD"},{"id":"1398","name":"Michigan Theater","address":"603 E. Liberty Street","city":"Ann Arbor","state":"MI","zip":"48104","distance":"13.422978401184082","lon":"-83.742020","lat":"42.279705","theaterChainName":"Independent Chains","ticketType":"STANDARD"},{"id":"2224","name":"Goodrich Quality 16 Ann Arbor","address":"3686 Jackson Rd","city":"Ann Arbor","state":"MI","zip":"48103","distance":"14.954916000366211","lon":"-83.804184","lat":"42.286453","theaterChainName":"Goodrich Theatres","ticketType":"E_TICKET"}]