[{"id":"4427","tribuneTheaterId":"9498","providerTheaterId":"","name":"Phoenix Theatres at Mall of Monroe","address":"2121 N. Monroe St.","city":"Monroe","state":"MI","zip":"48162","distance":5.8786897769569,"lon":"-83.388215","lat":"41.948104","theaterChainName":"Phoenix Theatres - Michigan","ticketType":"STANDARD"},{"id":"5900","tribuneTheaterId":"11322","providerTheaterId":"","name":"Cinemark Southland Mall and XD","address":"23000 Eureka Blvd.","city":"Taylor","state":"MI","zip":"48180","distance":15.528922977876,"lon":"-83.257016","lat":"42.200682","theaterChainName":"Cinemark","ticketType":"STANDARD"},{"id":"1602","tribuneTheaterId":"9059","providerTheaterId":"","name":"MJR Southgate Digital Cinema 20","address":"15651 Trenton Road","city":"Southgate","state":"MI","zip":"48195","distance":15.827324669192,"lon":"-83.190259","lat":"42.195686","theaterChainName":"MJR Theatres","ticketType":"E_TICKET"},{"id":"1214","tribuneTheaterId":"5858","providerTheaterId":"","name":"State Wayne Theatre","address":"35310 Michigan Ave","city":"Wayne","state":"MI","zip":"48184","distance":21.88160361543,"lon":"-83.386708","lat":"42.283326","theaterChainName":"Phoenix Theatres - Michigan","ticketType":"STANDARD"},{"id":"3024","tribuneTheaterId":"4161","providerTheaterId":"2912","name":"AMC Star Fairlane 21","address":"18900 Michigan Avenue","city":"Dearborn","state":"MI","zip":"48126","distance":23.736179136516,"lon":"-83.224247","lat":"42.317606","theaterChainName":"AMC Theatres","ticketType":"STANDARD"},{"id":"4190","tribuneTheaterId":"3242","providerTheaterId":"","name":"Emagine Canton","address":"39535 Ford Rd","city":"Canton","state":"MI","zip":"48187","distance":24.994973971102,"lon":"-83.429511","lat":"42.321051","theaterChainName":"Emagine Entertainment","ticketType":"STANDARD"}]