[{"id":"3287","name":"Birmingham 8","address":"211 S. Woodward Rd.","city":"Birmingham","state":"MI","zip":"48009","distance":"23.571977615356445","lon":"-83.212425","lat":"42.546021","theaterChainName":"Uptown Entertainment","ticketType":"STANDARD"},{"id":"5789","name":"Emagine Palladium","address":"209 Hamilton Row","city":"Birmingham","state":"MI","zip":"48009","distance":"23.505260467529297","lon":"-83.214394","lat":"42.547676","theaterChainName":"Emagine Entertainment","ticketType":"STANDARD"},{"id":"5244","name":"The Maple Theater","address":"4135 W. Maple Rd.","city":"Bloomfield Hills","state":"MI","zip":"48301","distance":"19.87230110168457","lon":"-83.287445","lat":"42.544292","theaterChainName":"Independent Chains","ticketType":"STANDARD"},{"id":"786","name":"MJR Waterford Digital Cinema 16","address":"7501 Highland Rd.","city":"Waterford","state":"MI","zip":"48327","distance":"18.1566162109375","lon":"-83.434250","lat":"42.660763","theaterChainName":"MJR Theatres","ticketType":"E_TICKET"},{"id":"433","name":"AMC Star Southfield 20","address":"25333 West 12 Mile Rd","city":"Southfield","state":"MI","zip":"48034","distance":"18.8045597076416","lon":"-83.294586","lat":"42.499454","theaterChainName":"AMC Theatres","ticketType":"STANDARD"},{"id":"804","name":"The Riviera Cinema","address":"30170 Grand River NE","city":"Farmington Hills","state":"MI","zip":"48336","distance":"16.01180076599121","lon":"-83.345001","lat":"42.451599","theaterChainName":"Independent Chains","ticketType":"STANDARD"},{"id":"3024","name":"AMC Star Fairlane 21","address":"18900 Michigan Avenue","city":"Dearborn","state":"MI","zip":"48126","distance":"24.17972755432129","lon":"-83.224251","lat":"42.317608","theaterChainName":"AMC Theatres","ticketType":"STANDARD"},{"id":"849","name":"United Artists Commerce Stadium 14","address":"3033 Springvale Drive","city":"Walled Lake","state":"MI","zip":"48390","distance":"12.123405456542969","lon":"-83.444122","lat":"42.532078","theaterChainName":"United Artists","ticketType":"STANDARD"},{"id":"4878","name":"Phoenix Theatres at Laurel Park Place","address":"17310 Laurel Park Place Mall","city":"Livonia","state":"MI","zip":"48152","distance":"12.670233726501465","lon":"-83.417290","lat":"42.414261","theaterChainName":"Phoenix Theatres - Michigan","ticketType":"STANDARD"},{"id":"1462","name":"AMC Livonia 20","address":"19500 Haggerty Rd","city":"Livonia","state":"MI","zip":"48152","distance":"11.794488906860352","lon":"-83.430893","lat":"42.428394","theaterChainName":"AMC Theatres","ticketType":"STANDARD"},{"id":"5108","name":"MJR Westland Grand Digital Cinema 16","address":"6800 N. Wayne Rd.","city":"Westland","state":"MI","zip":"48185","distance":"16.359405517578125","lon":"-83.384300","lat":"42.334633","theaterChainName":"MJR Theatres","ticketType":"E_TICKET"},{"id":"3571","name":"Emagine Entertainment Novi","address":"44425 West 12 Mile Road","city":"Novi","state":"MI","zip":"48377","distance":"9.249123573303223","lon":"-83.484734","lat":"42.494080","theaterChainName":"Emagine Entertainment","ticketType":"STANDARD"},{"id":"4190","name":"Emagine Canton","address":"39535 Ford Rd","city":"Canton","state":"MI","zip":"48187","distance":"15.000425338745117","lon":"-83.429512","lat":"42.321053","theaterChainName":"Emagine Entertainment","ticketType":"STANDARD"},{"id":"1214","name":"State Wayne Theatre","address":"35310 Michigan Ave","city":"Wayne","state":"MI","zip":"48184","distance":"18.350126266479492","lon":"-83.386711","lat":"42.283325","theaterChainName":"Phoenix Theatres - Michigan","ticketType":"STANDARD"},{"id":"752","name":"Goodrich Canton Cinemas 1-6","address":"43555 Ford Road","city":"Canton","state":"MI","zip":"48187","distance":"13.410544395446777","lon":"-83.470390","lat":"42.321560","theaterChainName":"Goodrich Theatres","ticketType":"E_TICKET"},{"id":"5364","name":"The Lyon Theatre","address":"126 E. Lake St.","city":"South Lyon","state":"MI","zip":"48178","distance":"0.4876362979412079","lon":"-83.650887","lat":"42.460442","theaterChainName":"Independent Chains","ticketType":"STANDARD"},{"id":"3453","name":"Ridgmar Movie Tavern","address":"6801 Ridgmar Meadow Road","city":"Fort Worth","state":"TX","zip":"76116","distance":"0.4876362979412079","lon":"-83.650887","lat":"42.460442","theaterChainName":"Movie Tavern","ticketType":"STANDARD"},{"id":"324","name":"Ann Arbor 20","address":"4100 Carpenter Road","city":"Ypsilanti","state":"MI","zip":"48197","distance":"15.871089935302734","lon":"-83.681854","lat":"42.227631","theaterChainName":"Cinemark","ticketType":"STANDARD"},{"id":"784","name":"MJR Brighton Town Square Digital Cinema 20","address":"8200 Murphy Dr.","city":"Brighton","state":"MI","zip":"48116","distance":"9.514222145080566","lon":"-83.798561","lat":"42.548199","theaterChainName":"MJR Theatres","ticketType":"STANDARD"},{"id":"1556","name":"State Theater","address":"233 S State Street","city":"Ann Arbor","state":"MI","zip":"48104","distance":"12.93880558013916","lon":"-83.740608","lat":"42.279419","theaterChainName":"Independent Chains","ticketType":"STANDARD"},{"id":"1398","name":"Michigan Theater","address":"603 E. Liberty Street","city":"Ann Arbor","state":"MI","zip":"48104","distance":"12.943503379821777","lon":"-83.742020","lat":"42.279705","theaterChainName":"Independent Chains","ticketType":"STANDARD"},{"id":"2224","name":"Goodrich Quality 16 Ann Arbor","address":"3686 Jackson Rd","city":"Ann Arbor","state":"MI","zip":"48103","distance":"13.903740882873535","lon":"-83.804184","lat":"42.286453","theaterChainName":"Goodrich Theatres","ticketType":"E_TICKET"}]