[{"id":"4427","name":"Phoenix Theatres at Mall of Monroe","address":"2121 N. Monroe St.","city":"Monroe","state":"MI","zip":"48162","distance":"17.49070167541504","lon":"-83.388214","lat":"41.948105","theaterChainName":"Phoenix Theatres - Michigan","ticketType":"STANDARD"},{"id":"1310","name":"Cinemark Movies 16 Warren","address":"28600 Dequindre Rd #1050","city":"Warren","state":"MI","zip":"48092","distance":"23.88296127319336","lon":"-83.085228","lat":"42.502743","theaterChainName":"Cinemark","ticketType":"STANDARD"},{"id":"4980","name":"Bel Air 10 Theater","address":"10100 E. 8 Mile Road","city":"Detroit","state":"MI","zip":"48234","distance":"21.878068923950195","lon":"-83.015968","lat":"42.445202","theaterChainName":"Independent Chains","ticketType":"STANDARD"},{"id":"447","name":"Main Art Theatre","address":"118 N. Main St.","city":"Royal Oak","state":"MI","zip":"48067","distance":"22.184606552124023","lon":"-83.143791","lat":"42.490227","theaterChainName":"Landmark Theatres","ticketType":"STANDARD"},{"id":"5067","name":"Emagine Royal Oak","address":"200 N. Main St.","city":"Royal Oak","state":"MI","zip":"48067","distance":"22.18970489501953","lon":"-83.144135","lat":"42.490364","theaterChainName":"Emagine Entertainment","ticketType":"STANDARD"},{"id":"433","name":"AMC Star Southfield 20","address":"25333 West 12 Mile Rd","city":"Southfield","state":"MI","zip":"48034","distance":"22.335628509521484","lon":"-83.294586","lat":"42.499454","theaterChainName":"AMC Theatres","ticketType":"STANDARD"},{"id":"804","name":"The Riviera Cinema","address":"30170 Grand River NE","city":"Farmington Hills","state":"MI","zip":"48336","distance":"19.55540657043457","lon":"-83.345001","lat":"42.451599","theaterChainName":"Independent Chains","ticketType":"STANDARD"},{"id":"3024","name":"AMC Star Fairlane 21","address":"18900 Michigan Avenue","city":"Dearborn","state":"MI","zip":"48126","distance":"9.697383880615234","lon":"-83.224251","lat":"42.317608","theaterChainName":"AMC Theatres","ticketType":"STANDARD"},{"id":"3518","name":"Detroit Institute of Arts","address":"5200 Woodward Ave.","city":"Detroit","state":"MI","zip":"48202","distance":"15.538322448730469","lon":"-83.065552","lat":"42.359081","theaterChainName":"Independent Chains","ticketType":"STANDARD"},{"id":"5121","name":"Cinema Detroit","address":"3420 Cass Ave","city":"Detroit","state":"MI","zip":"48201","distance":"14.911576271057129","lon":"-83.067192","lat":"42.348614","theaterChainName":"Independent Chains","ticketType":"STANDARD"},{"id":"4878","name":"Phoenix Theatres at Laurel Park Place","address":"17310 Laurel Park Place Mall","city":"Livonia","state":"MI","zip":"48152","distance":"18.509687423706055","lon":"-83.417290","lat":"42.414261","theaterChainName":"Phoenix Theatres - Michigan","ticketType":"STANDARD"},{"id":"1462","name":"AMC Livonia 20","address":"19500 Haggerty Rd","city":"Livonia","state":"MI","zip":"48152","distance":"19.698993682861328","lon":"-83.430893","lat":"42.428394","theaterChainName":"AMC Theatres","ticketType":"STANDARD"},{"id":"5108","name":"MJR Westland Grand Digital Cinema 16","address":"6800 N. Wayne Rd.","city":"Westland","state":"MI","zip":"48185","distance":"12.914761543273926","lon":"-83.384300","lat":"42.334633","theaterChainName":"MJR Theatres","ticketType":"E_TICKET"},{"id":"3571","name":"Emagine Entertainment Novi","address":"44425 West 12 Mile Road","city":"Novi","state":"MI","zip":"48377","distance":"24.99921417236328","lon":"-83.484734","lat":"42.494080","theaterChainName":"Emagine Entertainment","ticketType":"STANDARD"},{"id":"4190","name":"Emagine Canton","address":"39535 Ford Rd","city":"Canton","state":"MI","zip":"48187","distance":"13.617471694946289","lon":"-83.429512","lat":"42.321053","theaterChainName":"Emagine Entertainment","ticketType":"STANDARD"},{"id":"1214","name":"State Wayne Theatre","address":"35310 Michigan Ave","city":"Wayne","state":"MI","zip":"48184","distance":"10.223404884338379","lon":"-83.386711","lat":"42.283325","theaterChainName":"Phoenix Theatres - Michigan","ticketType":"STANDARD"},{"id":"752","name":"Goodrich Canton Cinemas 1-6","address":"43555 Ford Road","city":"Canton","state":"MI","zip":"48187","distance":"15.156759262084961","lon":"-83.470390","lat":"42.321560","theaterChainName":"Goodrich Theatres","ticketType":"E_TICKET"},{"id":"5900","name":"Cinemark Southland Mall and XD","address":"23000 Eureka Blvd.","city":"Taylor","state":"MI","zip":"48180","distance":"1.6510674953460693","lon":"-83.257019","lat":"42.200684","theaterChainName":"Cinemark","ticketType":"STANDARD"},{"id":"1602","name":"MJR Southgate Digital Cinema 20","address":"15651 Trenton Road","city":"Southgate","state":"MI","zip":"48195","distance":"3.1037421226501465","lon":"-83.190262","lat":"42.195686","theaterChainName":"MJR Theatres","ticketType":"E_TICKET"},{"id":"324","name":"Ann Arbor 20","address":"4100 Carpenter Road","city":"Ypsilanti","state":"MI","zip":"48197","distance":"22.564184188842773","lon":"-83.681854","lat":"42.227631","theaterChainName":"Cinemark","ticketType":"STANDARD"}]