[{"id":"785","name":"MJR Chesterfield Crossing Digital Cinema 16","address":"50675 Gratiot Ave.","city":"Chesterfield","state":"MI","zip":"48051","distance":"23.343364715576172","lon":"-82.837311","lat":"42.673115","theaterChainName":"MJR Theatres","ticketType":"E_TICKET"},{"id":"5618","name":"Emagine Macomb","address":"15251 23 Mile Road","city":"Macomb","state":"MI","zip":"48042","distance":"19.286848068237305","lon":"-82.974213","lat":"42.673264","theaterChainName":"Emagine Entertainment","ticketType":"STANDARD"},{"id":"4450","name":"MJR Partridge Creek Digital Cinema 14","address":"17400 Hall Road","city":"Clinton Township","state":"MI","zip":"48038","distance":"17.222436904907227","lon":"-82.945938","lat":"42.624763","theaterChainName":"MJR Theatres","ticketType":"E_TICKET"},{"id":"2741","name":"AMC Forum 30","address":"44681 Mound Rd.","city":"Sterling Heights","state":"MI","zip":"48314","distance":"14.29951000213623","lon":"-83.060127","lat":"42.622059","theaterChainName":"AMC Theatres","ticketType":"STANDARD"},{"id":"333","name":"AMC Star Gratiot 21","address":"35705 Gratiot Avenue","city":"Clinton Township","state":"MI","zip":"48035","distance":"15.84676456451416","lon":"-82.897202","lat":"42.559601","theaterChainName":"AMC Theatres","ticketType":"STANDARD"},{"id":"330","name":"Emagine Rochester Hills","address":"200 Barclay Circle","city":"Rochester Hills","state":"MI","zip":"48307","distance":"14.953330993652344","lon":"-83.127464","lat":"42.641769","theaterChainName":"Emagine Entertainment","ticketType":"STANDARD"},{"id":"4160","name":"MJR Marketplace Digital Cinema 20","address":"35400 Van Dyke","city":"Sterling Heights","state":"MI","zip":"48312","distance":"10.917098045349121","lon":"-83.024780","lat":"42.554203","theaterChainName":"MJR Theatres","ticketType":"E_TICKET"},{"id":"331","name":"AMC Star John R 15","address":"32289 John R Road","city":"Madison Heights","state":"MI","zip":"48071","distance":"7.535547733306885","lon":"-83.110733","lat":"42.531139","theaterChainName":"AMC Theatres","ticketType":"STANDARD"},{"id":"5541","name":"MJR Troy Grand Digital Cinema 16","address":"100 E. Maple Road","city":"Troy","state":"MI","zip":"48083","distance":"8.343949317932129","lon":"-83.145226","lat":"42.546703","theaterChainName":"MJR Theatres","ticketType":"E_TICKET"},{"id":"1310","name":"Cinemark Movies 16 Warren","address":"28600 Dequindre Rd #1050","city":"Warren","state":"MI","zip":"48092","distance":"6.246702194213867","lon":"-83.085228","lat":"42.502743","theaterChainName":"Cinemark","ticketType":"STANDARD"},{"id":"2323","name":"AMC Loews Great Lakes 25","address":"4300 Baldwin Rd","city":"Auburn Hills","state":"MI","zip":"48326","distance":"20.5123291015625","lon":"-83.295258","lat":"42.702911","theaterChainName":"AMC Theatres","ticketType":"STANDARD"},{"id":"4980","name":"Bel Air 10 Theater","address":"10100 E. 8 Mile Road","city":"Detroit","state":"MI","zip":"48234","distance":"6.962827205657959","lon":"-83.015968","lat":"42.445202","theaterChainName":"Independent Chains","ticketType":"STANDARD"},{"id":"3287","name":"Birmingham 8","address":"211 S. Woodward Rd.","city":"Birmingham","state":"MI","zip":"48009","distance":"8.882292747497559","lon":"-83.212425","lat":"42.546021","theaterChainName":"Uptown Entertainment","ticketType":"STANDARD"},{"id":"5789","name":"Emagine Palladium","address":"209 Hamilton Row","city":"Birmingham","state":"MI","zip":"48009","distance":"9.025158882141113","lon":"-83.214394","lat":"42.547676","theaterChainName":"Emagine Entertainment","ticketType":"STANDARD"},{"id":"447","name":"Main Art Theatre","address":"118 N. Main St.","city":"Royal Oak","state":"MI","zip":"48067","distance":"4.449281692504883","lon":"-83.143791","lat":"42.490227","theaterChainName":"Landmark Theatres","ticketType":"STANDARD"},{"id":"5067","name":"Emagine Royal Oak","address":"200 N. Main St.","city":"Royal Oak","state":"MI","zip":"48067","distance":"4.45753812789917","lon":"-83.144135","lat":"42.490364","theaterChainName":"Emagine Entertainment","ticketType":"STANDARD"},{"id":"5244","name":"The Maple Theater","address":"4135 W. Maple Rd.","city":"Bloomfield Hills","state":"MI","zip":"48301","distance":"10.763899803161621","lon":"-83.287445","lat":"42.544292","theaterChainName":"Independent Chains","ticketType":"STANDARD"},{"id":"786","name":"MJR Waterford Digital Cinema 16","address":"7501 Highland Rd.","city":"Waterford","state":"MI","zip":"48327","distance":"21.73802947998047","lon":"-83.434250","lat":"42.660763","theaterChainName":"MJR Theatres","ticketType":"E_TICKET"},{"id":"433","name":"AMC Star Southfield 20","address":"25333 West 12 Mile Rd","city":"Southfield","state":"MI","zip":"48034","distance":"8.948774337768555","lon":"-83.294586","lat":"42.499454","theaterChainName":"AMC Theatres","ticketType":"STANDARD"},{"id":"804","name":"The Riviera Cinema","address":"30170 Grand River NE","city":"Farmington Hills","state":"MI","zip":"48336","distance":"10.099909782409668","lon":"-83.345001","lat":"42.451599","theaterChainName":"Independent Chains","ticketType":"STANDARD"},{"id":"3024","name":"AMC Star Fairlane 21","address":"18900 Michigan Avenue","city":"Dearborn","state":"MI","zip":"48126","distance":"8.394025802612305","lon":"-83.224251","lat":"42.317608","theaterChainName":"AMC Theatres","ticketType":"STANDARD"},{"id":"3518","name":"Detroit Institute of Arts","address":"5200 Woodward Ave.","city":"Detroit","state":"MI","zip":"48202","distance":"6.320797920227051","lon":"-83.065552","lat":"42.359081","theaterChainName":"Independent Chains","ticketType":"STANDARD"},{"id":"849","name":"United Artists Commerce Stadium 14","address":"3033 Springvale Drive","city":"Walled Lake","state":"MI","zip":"48390","distance":"16.684959411621094","lon":"-83.444122","lat":"42.532078","theaterChainName":"United Artists","ticketType":"STANDARD"},{"id":"5121","name":"Cinema Detroit","address":"3420 Cass Ave","city":"Detroit","state":"MI","zip":"48201","distance":"6.815626621246338","lon":"-83.067192","lat":"42.348614","theaterChainName":"Independent Chains","ticketType":"STANDARD"},{"id":"4878","name":"Phoenix Theatres at Laurel Park Place","address":"17310 Laurel Park Place Mall","city":"Livonia","state":"MI","zip":"48152","distance":"13.65822982788086","lon":"-83.417290","lat":"42.414261","theaterChainName":"Phoenix Theatres - Michigan","ticketType":"STANDARD"},{"id":"1462","name":"AMC Livonia 20","address":"19500 Haggerty Rd","city":"Livonia","state":"MI","zip":"48152","distance":"14.32735538482666","lon":"-83.430893","lat":"42.428394","theaterChainName":"AMC Theatres","ticketType":"STANDARD"},{"id":"5108","name":"MJR Westland Grand Digital Cinema 16","address":"6800 N. Wayne Rd.","city":"Westland","state":"MI","zip":"48185","distance":"13.523029327392578","lon":"-83.384300","lat":"42.334633","theaterChainName":"MJR Theatres","ticketType":"E_TICKET"},{"id":"3571","name":"Emagine Entertainment Novi","address":"44425 West 12 Mile Road","city":"Novi","state":"MI","zip":"48377","distance":"17.700075149536133","lon":"-83.484734","lat":"42.494080","theaterChainName":"Emagine Entertainment","ticketType":"STANDARD"},{"id":"4190","name":"Emagine Canton","address":"39535 Ford Rd","city":"Canton","state":"MI","zip":"48187","distance":"16.005155563354492","lon":"-83.429512","lat":"42.321053","theaterChainName":"Emagine Entertainment","ticketType":"STANDARD"},{"id":"1214","name":"State Wayne Theatre","address":"35310 Michigan Ave","city":"Wayne","state":"MI","zip":"48184","distance":"15.597493171691895","lon":"-83.386711","lat":"42.283325","theaterChainName":"Phoenix Theatres - Michigan","ticketType":"STANDARD"},{"id":"752","name":"Goodrich Canton Cinemas 1-6","address":"43555 Ford Road","city":"Canton","state":"MI","zip":"48187","distance":"17.876157760620117","lon":"-83.470390","lat":"42.321560","theaterChainName":"Goodrich Theatres","ticketType":"E_TICKET"},{"id":"5900","name":"Cinemark Southland Mall and XD","address":"23000 Eureka Blvd.","city":"Taylor","state":"MI","zip":"48180","distance":"16.501087188720703","lon":"-83.257019","lat":"42.200684","theaterChainName":"Cinemark","ticketType":"STANDARD"},{"id":"1602","name":"MJR Southgate Digital Cinema 20","address":"15651 Trenton Road","city":"Southgate","state":"MI","zip":"48195","distance":"16.046443939208984","lon":"-83.190262","lat":"42.195686","theaterChainName":"MJR Theatres","ticketType":"E_TICKET"}]