[{"id":"1213","name":"Romeo Theatre","address":"66120 Van Dyke","city":"Washington","state":"MI","zip":"48095","distance":"22.19110107421875","lon":"-83.012390","lat":"42.780972","theaterChainName":"Independent Chains","ticketType":"STANDARD"},{"id":"5618","name":"Emagine Macomb","address":"15251 23 Mile Road","city":"Macomb","state":"MI","zip":"48042","distance":"22.116365432739258","lon":"-82.974213","lat":"42.673264","theaterChainName":"Emagine Entertainment","ticketType":"STANDARD"},{"id":"4450","name":"MJR Partridge Creek Digital Cinema 14","address":"17400 Hall Road","city":"Clinton Township","state":"MI","zip":"48038","distance":"23.505189895629883","lon":"-82.945938","lat":"42.624763","theaterChainName":"MJR Theatres","ticketType":"E_TICKET"},{"id":"2741","name":"AMC Forum 30","address":"44681 Mound Rd.","city":"Sterling Heights","state":"MI","zip":"48314","distance":"17.727766036987305","lon":"-83.060127","lat":"42.622059","theaterChainName":"AMC Theatres","ticketType":"STANDARD"},{"id":"330","name":"Emagine Rochester Hills","address":"200 Barclay Circle","city":"Rochester Hills","state":"MI","zip":"48307","distance":"14.239327430725098","lon":"-83.127464","lat":"42.641769","theaterChainName":"Emagine Entertainment","ticketType":"STANDARD"},{"id":"4160","name":"MJR Marketplace Digital Cinema 20","address":"35400 Van Dyke","city":"Sterling Heights","state":"MI","zip":"48312","distance":"20.431974411010742","lon":"-83.024780","lat":"42.554203","theaterChainName":"MJR Theatres","ticketType":"E_TICKET"},{"id":"1888","name":"Goodrich Oxford 7 Theatre","address":"48 S. Washington Rd.","city":"Oxford","state":"MI","zip":"48371","distance":"14.414761543273926","lon":"-83.263672","lat":"42.823643","theaterChainName":"Goodrich Theatres","ticketType":"E_TICKET"},{"id":"331","name":"AMC Star John R 15","address":"32289 John R Road","city":"Madison Heights","state":"MI","zip":"48071","distance":"16.990652084350586","lon":"-83.110733","lat":"42.531139","theaterChainName":"AMC Theatres","ticketType":"STANDARD"},{"id":"5541","name":"MJR Troy Grand Digital Cinema 16","address":"100 E. Maple Road","city":"Troy","state":"MI","zip":"48083","distance":"14.937495231628418","lon":"-83.145226","lat":"42.546703","theaterChainName":"MJR Theatres","ticketType":"E_TICKET"},{"id":"1310","name":"Cinemark Movies 16 Warren","address":"28600 Dequindre Rd #1050","city":"Warren","state":"MI","zip":"48092","distance":"19.080821990966797","lon":"-83.085228","lat":"42.502743","theaterChainName":"Cinemark","ticketType":"STANDARD"},{"id":"2323","name":"AMC Loews Great Lakes 25","address":"4300 Baldwin Rd","city":"Auburn Hills","state":"MI","zip":"48326","distance":"7.018317699432373","lon":"-83.295258","lat":"42.702911","theaterChainName":"AMC Theatres","ticketType":"STANDARD"},{"id":"4980","name":"Bel Air 10 Theater","address":"10100 E. 8 Mile Road","city":"Detroit","state":"MI","zip":"48234","distance":"24.203224182128906","lon":"-83.015968","lat":"42.445202","theaterChainName":"Independent Chains","ticketType":"STANDARD"},{"id":"3287","name":"Birmingham 8","address":"211 S. Woodward Rd.","city":"Birmingham","state":"MI","zip":"48009","distance":"12.008755683898926","lon":"-83.212425","lat":"42.546021","theaterChainName":"Uptown Entertainment","ticketType":"STANDARD"},{"id":"5789","name":"Emagine Palladium","address":"209 Hamilton Row","city":"Birmingham","state":"MI","zip":"48009","distance":"11.861573219299316","lon":"-83.214394","lat":"42.547676","theaterChainName":"Emagine Entertainment","ticketType":"STANDARD"},{"id":"447","name":"Main Art Theatre","address":"118 N. Main St.","city":"Royal Oak","state":"MI","zip":"48067","distance":"17.112451553344727","lon":"-83.143791","lat":"42.490227","theaterChainName":"Landmark Theatres","ticketType":"STANDARD"},{"id":"5067","name":"Emagine Royal Oak","address":"200 N. Main St.","city":"Royal Oak","state":"MI","zip":"48067","distance":"17.092849731445312","lon":"-83.144135","lat":"42.490364","theaterChainName":"Emagine Entertainment","ticketType":"STANDARD"},{"id":"5244","name":"The Maple Theater","address":"4135 W. Maple Rd.","city":"Bloomfield Hills","state":"MI","zip":"48301","distance":"9.199506759643555","lon":"-83.287445","lat":"42.544292","theaterChainName":"Independent Chains","ticketType":"STANDARD"},{"id":"786","name":"MJR Waterford Digital Cinema 16","address":"7501 Highland Rd.","city":"Waterford","state":"MI","zip":"48327","distance":"1.7911356687545776","lon":"-83.434250","lat":"42.660763","theaterChainName":"MJR Theatres","ticketType":"E_TICKET"},{"id":"433","name":"AMC Star Southfield 20","address":"25333 West 12 Mile Rd","city":"Southfield","state":"MI","zip":"48034","distance":"11.513005256652832","lon":"-83.294586","lat":"42.499454","theaterChainName":"AMC Theatres","ticketType":"STANDARD"},{"id":"804","name":"The Riviera Cinema","address":"30170 Grand River NE","city":"Farmington Hills","state":"MI","zip":"48336","distance":"13.65749454498291","lon":"-83.345001","lat":"42.451599","theaterChainName":"Independent Chains","ticketType":"STANDARD"},{"id":"3024","name":"AMC Star Fairlane 21","address":"18900 Michigan Avenue","city":"Dearborn","state":"MI","zip":"48126","distance":"24.398897171020508","lon":"-83.224251","lat":"42.317608","theaterChainName":"AMC Theatres","ticketType":"STANDARD"},{"id":"849","name":"United Artists Commerce Stadium 14","address":"3033 Springvale Drive","city":"Walled Lake","state":"MI","zip":"48390","distance":"7.940091609954834","lon":"-83.444122","lat":"42.532078","theaterChainName":"United Artists","ticketType":"STANDARD"},{"id":"4878","name":"Phoenix Theatres at Laurel Park Place","address":"17310 Laurel Park Place Mall","city":"Livonia","state":"MI","zip":"48152","distance":"15.86819076538086","lon":"-83.417290","lat":"42.414261","theaterChainName":"Phoenix Theatres - Michigan","ticketType":"STANDARD"},{"id":"1462","name":"AMC Livonia 20","address":"19500 Haggerty Rd","city":"Livonia","state":"MI","zip":"48152","distance":"14.931103706359863","lon":"-83.430893","lat":"42.428394","theaterChainName":"AMC Theatres","ticketType":"STANDARD"},{"id":"5108","name":"MJR Westland Grand Digital Cinema 16","address":"6800 N. Wayne Rd.","city":"Westland","state":"MI","zip":"48185","distance":"21.395584106445312","lon":"-83.384300","lat":"42.334633","theaterChainName":"MJR Theatres","ticketType":"E_TICKET"},{"id":"3571","name":"Emagine Entertainment Novi","address":"44425 West 12 Mile Road","city":"Novi","state":"MI","zip":"48377","distance":"11.064839363098145","lon":"-83.484734","lat":"42.494080","theaterChainName":"Emagine Entertainment","ticketType":"STANDARD"},{"id":"4190","name":"Emagine Canton","address":"39535 Ford Rd","city":"Canton","state":"MI","zip":"48187","distance":"22.32892417907715","lon":"-83.429512","lat":"42.321053","theaterChainName":"Emagine Entertainment","ticketType":"STANDARD"},{"id":"1214","name":"State Wayne Theatre","address":"35310 Michigan Ave","city":"Wayne","state":"MI","zip":"48184","distance":"24.930606842041016","lon":"-83.386711","lat":"42.283325","theaterChainName":"Phoenix Theatres - Michigan","ticketType":"STANDARD"},{"id":"752","name":"Goodrich Canton Cinemas 1-6","address":"43555 Ford Road","city":"Canton","state":"MI","zip":"48187","distance":"22.494653701782227","lon":"-83.470390","lat":"42.321560","theaterChainName":"Goodrich Theatres","ticketType":"E_TICKET"},{"id":"5364","name":"The Lyon Theatre","address":"126 E. Lake St.","city":"South Lyon","state":"MI","zip":"48178","distance":"17.716421127319336","lon":"-83.650887","lat":"42.460442","theaterChainName":"Independent Chains","ticketType":"STANDARD"},{"id":"3453","name":"Ridgmar Movie Tavern","address":"6801 Ridgmar Meadow Road","city":"Fort Worth","state":"TX","zip":"76116","distance":"17.716421127319336","lon":"-83.650887","lat":"42.460442","theaterChainName":"Movie Tavern","ticketType":"STANDARD"},{"id":"4309","name":"NCG Trillium Cinema and IMAX","address":"8220 Trillium Circle Ave","city":"Grand Blanc","state":"MI","zip":"48439","distance":"21.612510681152344","lon":"-83.627205","lat":"42.911850","theaterChainName":"NCG Cinemas","ticketType":"STANDARD"},{"id":"784","name":"MJR Brighton Town Square Digital Cinema 20","address":"8200 Murphy Dr.","city":"Brighton","state":"MI","zip":"48116","distance":"20.95492172241211","lon":"-83.798561","lat":"42.548199","theaterChainName":"MJR Theatres","ticketType":"STANDARD"}]