[{"id":"1213","name":"Romeo Theatre","address":"66120 Van Dyke","city":"Washington","state":"MI","zip":"48095","distance":"14.003907203674316","lon":"-83.012390","lat":"42.780972","theaterChainName":"Independent Chains","ticketType":"STANDARD"},{"id":"785","name":"MJR Chesterfield Crossing Digital Cinema 16","address":"50675 Gratiot Ave.","city":"Chesterfield","state":"MI","zip":"48051","distance":"22.589014053344727","lon":"-82.837311","lat":"42.673115","theaterChainName":"MJR Theatres","ticketType":"E_TICKET"},{"id":"5618","name":"Emagine Macomb","address":"15251 23 Mile Road","city":"Macomb","state":"MI","zip":"48042","distance":"15.752203941345215","lon":"-82.974213","lat":"42.673264","theaterChainName":"Emagine Entertainment","ticketType":"STANDARD"},{"id":"4450","name":"MJR Partridge Creek Digital Cinema 14","address":"17400 Hall Road","city":"Clinton Township","state":"MI","zip":"48038","distance":"18.13466453552246","lon":"-82.945938","lat":"42.624763","theaterChainName":"MJR Theatres","ticketType":"E_TICKET"},{"id":"2741","name":"AMC Forum 30","address":"44681 Mound Rd.","city":"Sterling Heights","state":"MI","zip":"48314","distance":"13.039362907409668","lon":"-83.060127","lat":"42.622059","theaterChainName":"AMC Theatres","ticketType":"STANDARD"},{"id":"333","name":"AMC Star Gratiot 21","address":"35705 Gratiot Avenue","city":"Clinton Township","state":"MI","zip":"48035","distance":"22.36302375793457","lon":"-82.897202","lat":"42.559601","theaterChainName":"AMC Theatres","ticketType":"STANDARD"},{"id":"330","name":"Emagine Rochester Hills","address":"200 Barclay Circle","city":"Rochester Hills","state":"MI","zip":"48307","distance":"9.44451904296875","lon":"-83.127464","lat":"42.641769","theaterChainName":"Emagine Entertainment","ticketType":"STANDARD"},{"id":"4160","name":"MJR Marketplace Digital Cinema 20","address":"35400 Van Dyke","city":"Sterling Heights","state":"MI","zip":"48312","distance":"17.33301544189453","lon":"-83.024780","lat":"42.554203","theaterChainName":"MJR Theatres","ticketType":"E_TICKET"},{"id":"1888","name":"Goodrich Oxford 7 Theatre","address":"48 S. Washington Rd.","city":"Oxford","state":"MI","zip":"48371","distance":"6.979674816131592","lon":"-83.263672","lat":"42.823643","theaterChainName":"Goodrich Theatres","ticketType":"E_TICKET"},{"id":"331","name":"AMC Star John R 15","address":"32289 John R Road","city":"Madison Heights","state":"MI","zip":"48071","distance":"15.725813865661621","lon":"-83.110733","lat":"42.531139","theaterChainName":"AMC Theatres","ticketType":"STANDARD"},{"id":"5541","name":"MJR Troy Grand Digital Cinema 16","address":"100 E. Maple Road","city":"Troy","state":"MI","zip":"48083","distance":"13.90552806854248","lon":"-83.145226","lat":"42.546703","theaterChainName":"MJR Theatres","ticketType":"E_TICKET"},{"id":"1836","name":"Lapeer Cinemas","address":"1650 DeMille Road","city":"Lapeer","state":"MI","zip":"48446","distance":"22.30426597595215","lon":"-83.324646","lat":"43.043991","theaterChainName":"NCG Cinemas","ticketType":"STANDARD"},{"id":"1310","name":"Cinemark Movies 16 Warren","address":"28600 Dequindre Rd #1050","city":"Warren","state":"MI","zip":"48092","distance":"18.07860565185547","lon":"-83.085228","lat":"42.502743","theaterChainName":"Cinemark","ticketType":"STANDARD"},{"id":"2323","name":"AMC Loews Great Lakes 25","address":"4300 Baldwin Rd","city":"Auburn Hills","state":"MI","zip":"48326","distance":"1.677582025527954","lon":"-83.295258","lat":"42.702911","theaterChainName":"AMC Theatres","ticketType":"STANDARD"},{"id":"4980","name":"Bel Air 10 Theater","address":"10100 E. 8 Mile Road","city":"Detroit","state":"MI","zip":"48234","distance":"23.344022750854492","lon":"-83.015968","lat":"42.445202","theaterChainName":"Independent Chains","ticketType":"STANDARD"},{"id":"3287","name":"Birmingham 8","address":"211 S. Woodward Rd.","city":"Birmingham","state":"MI","zip":"48009","distance":"12.667060852050781","lon":"-83.212425","lat":"42.546021","theaterChainName":"Uptown Entertainment","ticketType":"STANDARD"},{"id":"5789","name":"Emagine Palladium","address":"209 Hamilton Row","city":"Birmingham","state":"MI","zip":"48009","distance":"12.530838012695312","lon":"-83.214394","lat":"42.547676","theaterChainName":"Emagine Entertainment","ticketType":"STANDARD"},{"id":"447","name":"Main Art Theatre","address":"118 N. Main St.","city":"Royal Oak","state":"MI","zip":"48067","distance":"17.45691680908203","lon":"-83.143791","lat":"42.490227","theaterChainName":"Landmark Theatres","ticketType":"STANDARD"},{"id":"5067","name":"Emagine Royal Oak","address":"200 N. Main St.","city":"Royal Oak","state":"MI","zip":"48067","distance":"17.441402435302734","lon":"-83.144135","lat":"42.490364","theaterChainName":"Emagine Entertainment","ticketType":"STANDARD"},{"id":"5244","name":"The Maple Theater","address":"4135 W. Maple Rd.","city":"Bloomfield Hills","state":"MI","zip":"48301","distance":"12.366704940795898","lon":"-83.287445","lat":"42.544292","theaterChainName":"Independent Chains","ticketType":"STANDARD"},{"id":"786","name":"MJR Waterford Digital Cinema 16","address":"7501 Highland Rd.","city":"Waterford","state":"MI","zip":"48327","distance":"9.078208923339844","lon":"-83.434250","lat":"42.660763","theaterChainName":"MJR Theatres","ticketType":"E_TICKET"},{"id":"433","name":"AMC Star Southfield 20","address":"25333 West 12 Mile Rd","city":"Southfield","state":"MI","zip":"48034","distance":"15.479425430297852","lon":"-83.294586","lat":"42.499454","theaterChainName":"AMC Theatres","ticketType":"STANDARD"},{"id":"804","name":"The Riviera Cinema","address":"30170 Grand River NE","city":"Farmington Hills","state":"MI","zip":"48336","distance":"19.077177047729492","lon":"-83.345001","lat":"42.451599","theaterChainName":"Independent Chains","ticketType":"STANDARD"},{"id":"849","name":"United Artists Commerce Stadium 14","address":"3033 Springvale Drive","city":"Walled Lake","state":"MI","zip":"48390","distance":"15.700047492980957","lon":"-83.444122","lat":"42.532078","theaterChainName":"United Artists","ticketType":"STANDARD"},{"id":"4878","name":"Phoenix Theatres at Laurel Park Place","address":"17310 Laurel Park Place Mall","city":"Livonia","state":"MI","zip":"48152","distance":"22.5040283203125","lon":"-83.417290","lat":"42.414261","theaterChainName":"Phoenix Theatres - Michigan","ticketType":"STANDARD"},{"id":"1462","name":"AMC Livonia 20","address":"19500 Haggerty Rd","city":"Livonia","state":"MI","zip":"48152","distance":"21.818811416625977","lon":"-83.430893","lat":"42.428394","theaterChainName":"AMC Theatres","ticketType":"STANDARD"},{"id":"3571","name":"Emagine Entertainment Novi","address":"44425 West 12 Mile Road","city":"Novi","state":"MI","zip":"48377","distance":"19.029773712158203","lon":"-83.484734","lat":"42.494080","theaterChainName":"Emagine Entertainment","ticketType":"STANDARD"},{"id":"4309","name":"NCG Trillium Cinema and IMAX","address":"8220 Trillium Circle Ave","city":"Grand Blanc","state":"MI","zip":"48439","distance":"22.030420303344727","lon":"-83.627205","lat":"42.911850","theaterChainName":"NCG Cinemas","ticketType":"STANDARD"}]