[{"id":"1888","tribuneTheaterId":"4877","providerTheaterId":"","name":"Goodrich Oxford 7 Theatre","address":"48 S. Washington Rd.","city":"Oxford","state":"MI","zip":"48371","distance":3.2074946284769,"lon":"-83.263675","lat":"42.823642","theaterChainName":"Goodrich Theatres","ticketType":"E_TICKET"},{"id":"2323","tribuneTheaterId":"7491","providerTheaterId":"2911","name":"AMC Loews Great Lakes 25","address":"4300 Baldwin Rd","city":"Auburn Hills","state":"MI","zip":"48326","distance":9.7989344481273,"lon":"-83.295255","lat":"42.702911","theaterChainName":"AMC Theatres","ticketType":"STANDARD"},{"id":"1213","tribuneTheaterId":"6732","providerTheaterId":"","name":"Romeo Theatre","address":"66120 Van Dyke","city":"Washington","state":"MI","zip":"48095","distance":10.041147412905,"lon":"-83.012392","lat":"42.780973","theaterChainName":"Independent Chains","ticketType":"STANDARD"},{"id":"330","tribuneTheaterId":"7637","providerTheaterId":"","name":"Emagine Rochester Hills","address":"200 Barclay Circle","city":"Rochester Hills","state":"MI","zip":"48307","distance":13.290929407354,"lon":"-83.127467","lat":"42.641769","theaterChainName":"Emagine Entertainment","ticketType":"STANDARD"},{"id":"786","tribuneTheaterId":"9109","providerTheaterId":"","name":"MJR Waterford Digital Cinema 16","address":"7501 Highland Rd.","city":"Waterford","state":"MI","zip":"48327","distance":16.486953610777,"lon":"-83.434252","lat":"42.660761","theaterChainName":"MJR Theatres","ticketType":"E_TICKET"},{"id":"1836","tribuneTheaterId":"1926","providerTheaterId":"","name":"Lapeer Cinemas","address":"1650 DeMille Road","city":"Lapeer","state":"MI","zip":"48446","distance":16.286671604171,"lon":"-83.324647","lat":"43.043992","theaterChainName":"NCG Cinemas","ticketType":"STANDARD"},{"id":"2741","tribuneTheaterId":"7070","providerTheaterId":"540","name":"AMC Forum 30","address":"44681 Mound Rd.","city":"Sterling Heights","state":"MI","zip":"48314","distance":15.820767330114,"lon":"-83.060131","lat":"42.622057","theaterChainName":"AMC Theatres","ticketType":"STANDARD"},{"id":"5618","tribuneTheaterId":"11079","providerTheaterId":"","name":"Emagine Macomb","address":"15251 23 Mile Road","city":"Macomb","state":"MI","zip":"48042","distance":15.617645329643,"lon":"-82.974214","lat":"42.673264","theaterChainName":"Emagine Entertainment","ticketType":"STANDARD"},{"id":"3287","tribuneTheaterId":"2119","providerTheaterId":"","name":"Birmingham 8","address":"211 S. Woodward Rd.","city":"Birmingham","state":"MI","zip":"48009","distance":19.388687144377,"lon":"-83.212428","lat":"42.546021","theaterChainName":"Uptown Entertainment","ticketType":"STANDARD"},{"id":"5541","tribuneTheaterId":"10977","providerTheaterId":"","name":"MJR Troy Grand Digital Cinema 16","address":"100 E. Maple Road","city":"Troy","state":"MI","zip":"48083","distance":19.534816491688,"lon":"-83.145223","lat":"42.546704","theaterChainName":"MJR Theatres","ticketType":"E_TICKET"},{"id":"5789","tribuneTheaterId":"11229","providerTheaterId":"","name":"Emagine Palladium","address":"209 Hamilton Row","city":"Birmingham","state":"MI","zip":"48009","distance":19.277864888521,"lon":"-83.214397","lat":"42.547675","theaterChainName":"Emagine Entertainment","ticketType":"STANDARD"},{"id":"5244","tribuneTheaterId":"7331","providerTheaterId":"","name":"The Maple Theater","address":"4135 W. Maple Rd.","city":"Bloomfield Hills","state":"MI","zip":"48301","distance":19.992454637762,"lon":"-83.287444","lat":"42.544292","theaterChainName":"Independent Chains","ticketType":"STANDARD"},{"id":"4450","tribuneTheaterId":"9534","providerTheaterId":"","name":"MJR Partridge Creek Digital Cinema 14","address":"17400 Hall Road","city":"Clinton Township","state":"MI","zip":"48038","distance":19.006101314101,"lon":"-82.945936","lat":"42.624764","theaterChainName":"MJR Theatres","ticketType":"E_TICKET"},{"id":"785","tribuneTheaterId":"7771","providerTheaterId":"","name":"MJR Chesterfield Crossing Digital Cinema 16","address":"50675 Gratiot Ave.","city":"Chesterfield","state":"MI","zip":"48051","distance":21.257303764667,"lon":"-82.837311","lat":"42.673114","theaterChainName":"MJR Theatres","ticketType":"E_TICKET"},{"id":"331","tribuneTheaterId":"7638","providerTheaterId":"2904","name":"AMC Star John R 15","address":"32289 John R Road","city":"Madison Heights","state":"MI","zip":"48071","distance":20.910701375375,"lon":"-83.110735","lat":"42.531138","theaterChainName":"AMC Theatres","ticketType":"STANDARD"},{"id":"4160","tribuneTheaterId":"5860","providerTheaterId":"","name":"MJR Marketplace Digital Cinema 20","address":"35400 Van Dyke","city":"Sterling Heights","state":"MI","zip":"48312","distance":20.823103232834,"lon":"-83.024779","lat":"42.554203","theaterChainName":"MJR Theatres","ticketType":"E_TICKET"},{"id":"433","tribuneTheaterId":"7321","providerTheaterId":"2909","name":"AMC Star Southfield 20","address":"25333 West 12 Mile Rd","city":"Southfield","state":"MI","zip":"48034","distance":23.096640240509,"lon":"-83.294585","lat":"42.499456","theaterChainName":"AMC Theatres","ticketType":"STANDARD"},{"id":"4309","tribuneTheaterId":"2362","providerTheaterId":"","name":"NCG Trillium Cinema and IMAX","address":"8220 Trillium Circle Ave","city":"Grand Blanc","state":"MI","zip":"48439","distance":22.398083884021,"lon":"-83.627203","lat":"42.91185","theaterChainName":"NCG Cinemas","ticketType":"STANDARD"},{"id":"849","tribuneTheaterId":"8057","providerTheaterId":"","name":"United Artists Commerce Stadium 14","address":"3033 Springvale Drive","city":"Walled Lake","state":"MI","zip":"48390","distance":23.81093364775,"lon":"-83.444124","lat":"42.532076","theaterChainName":"United Artists","ticketType":"STANDARD"},{"id":"447","tribuneTheaterId":"7648","providerTheaterId":"","name":"Main Art Theatre","address":"118 N. Main St.","city":"Royal Oak","state":"MI","zip":"48067","distance":23.412226412524,"lon":"-83.143788","lat":"42.490227","theaterChainName":"Landmark Theatres","ticketType":"STANDARD"},{"id":"333","tribuneTheaterId":"7639","providerTheaterId":"2905","name":"AMC Star Gratiot 21","address":"35705 Gratiot Avenue","city":"Clinton Township","state":"MI","zip":"48035","distance":24.027248441924,"lon":"-82.8972","lat":"42.5596","theaterChainName":"AMC Theatres","ticketType":"STANDARD"},{"id":"1310","tribuneTheaterId":"5229","providerTheaterId":"","name":"Cinemark Movies 16 Warren","address":"28600 Dequindre Rd #1050","city":"Warren","state":"MI","zip":"48092","distance":23.123387410519,"lon":"-83.085228","lat":"42.502743","theaterChainName":"Cinemark","ticketType":"STANDARD"},{"id":"5067","tribuneTheaterId":"10450","providerTheaterId":"","name":"Emagine Royal Oak","address":"200 N. Main St.","city":"Royal Oak","state":"MI","zip":"48067","distance":23.400580559263,"lon":"-83.144138","lat":"42.490365","theaterChainName":"Emagine Entertainment","ticketType":"STANDARD"},{"id":"5046","tribuneTheaterId":"10424","providerTheaterId":"","name":"NCG Courtland Cinema","address":"4190 E. Court St.","city":"Burton","state":"MI","zip":"48509","distance":24.769757873438,"lon":"-83.604797","lat":"43.028702","theaterChainName":"NCG Cinemas","ticketType":"STANDARD"}]