[{"id":"1836","tribuneTheaterId":"1926","providerTheaterId":"","name":"Lapeer Cinemas","address":"1650 DeMille Road","city":"Lapeer","state":"MI","zip":"48446","distance":8.0041250130609,"lon":"-83.324647","lat":"43.043992","theaterChainName":"NCG Cinemas","ticketType":"STANDARD"},{"id":"1888","tribuneTheaterId":"4877","providerTheaterId":"","name":"Goodrich Oxford 7 Theatre","address":"48 S. Washington Rd.","city":"Oxford","state":"MI","zip":"48371","distance":16.69964111671,"lon":"-83.263675","lat":"42.823642","theaterChainName":"Goodrich Theatres","ticketType":"E_TICKET"},{"id":"1213","tribuneTheaterId":"6732","providerTheaterId":"","name":"Romeo Theatre","address":"66120 Van Dyke","city":"Washington","state":"MI","zip":"48095","distance":20.462930709117,"lon":"-83.012392","lat":"42.780973","theaterChainName":"Independent Chains","ticketType":"STANDARD"},{"id":"5046","tribuneTheaterId":"10424","providerTheaterId":"","name":"NCG Courtland Cinema","address":"4190 E. Court St.","city":"Burton","state":"MI","zip":"48509","distance":22.190477716191,"lon":"-83.604797","lat":"43.028702","theaterChainName":"NCG Cinemas","ticketType":"STANDARD"}]