[{"id":"1840","tribuneTheaterId":"3047","providerTheaterId":"","name":"Owosso Cinemas","address":"314 E.Comstock St.","city":"Owosso","state":"MI","zip":"48867","distance":8.2515162621353,"lon":"-84.167649","lat":"42.996373","theaterChainName":"NCG Cinemas","ticketType":"STANDARD"},{"id":"2884","tribuneTheaterId":"482","providerTheaterId":"","name":"Sun Theatre - Williamston","address":"150 West Grand River Ave","city":"Williamston","state":"MI","zip":"48895","distance":15.695996702054,"lon":"-84.28434","lat":"42.689169","theaterChainName":"Independent Chains","ticketType":"STANDARD"},{"id":"5363","tribuneTheaterId":"10802","providerTheaterId":"","name":"Studio C! Meridian Mall","address":"1999 Central Park Drive","city":"Okemos","state":"MI","zip":"48864","distance":18.658912249628,"lon":"-84.4225","lat":"42.7274","theaterChainName":"Independent Chains","ticketType":"STANDARD"},{"id":"325","tribuneTheaterId":"8234","providerTheaterId":"","name":"Flint West 14","address":"1591 S Graham Rd","city":"Flint","state":"MI","zip":"48532","distance":20.504731633102,"lon":"-83.751386","lat":"43.004407","theaterChainName":"Cinemark","ticketType":"STANDARD"},{"id":"3576","tribuneTheaterId":"6083","providerTheaterId":"","name":"NCG Eastwood Cinema","address":"2500 Showtime Drive","city":"Lansing","state":"MI","zip":"48912","distance":21.576613520953,"lon":"-84.515446","lat":"42.764976","theaterChainName":"NCG Cinemas","ticketType":"STANDARD"}]