[{"id":"4309","name":"NCG Trillium Cinema and IMAX","address":"8220 Trillium Circle Ave","city":"Grand Blanc","state":"MI","zip":"48439","distance":"18.243736267089844","lon":"-83.627205","lat":"42.911850","theaterChainName":"NCG Cinemas","ticketType":"STANDARD"},{"id":"5046","name":"NCG Courtland Cinema","address":"4190 E. Court St.","city":"Burton","state":"MI","zip":"48509","distance":"20.979557037353516","lon":"-83.604797","lat":"43.028702","theaterChainName":"NCG Cinemas","ticketType":"STANDARD"},{"id":"2884","name":"Sun Theatre - Williamston","address":"150 West Grand River Ave","city":"Williamston","state":"MI","zip":"48895","distance":"21.508275985717773","lon":"-84.284340","lat":"42.689171","theaterChainName":"Independent Chains","ticketType":"STANDARD"},{"id":"325","name":"Flint West 14","address":"1591 S Graham Rd","city":"Flint","state":"MI","zip":"48532","distance":"13.558723449707031","lon":"-83.751389","lat":"43.004406","theaterChainName":"Cinemark","ticketType":"STANDARD"},{"id":"2455","name":"Clio Cinema","address":"2151 West Vienna Rd.","city":"Clio","state":"MI","zip":"48420","distance":"22.792964935302734","lon":"-83.720398","lat":"43.177502","theaterChainName":"Emagine Entertainment","ticketType":"STANDARD"},{"id":"1840","name":"Owosso Cinemas","address":"314 E.Comstock St.","city":"Owosso","state":"MI","zip":"48867","distance":"10.818772315979004","lon":"-84.167648","lat":"42.996372","theaterChainName":"NCG Cinemas","ticketType":"STANDARD"}]