[{"id":"1888","tribuneTheaterId":"4877","providerTheaterId":"","name":"Goodrich Oxford 7 Theatre","address":"48 S. Washington Rd.","city":"Oxford","state":"MI","zip":"48371","distance":8.2374836216497,"lon":"-83.263675","lat":"42.823642","theaterChainName":"Goodrich Theatres","ticketType":"E_TICKET"},{"id":"1836","tribuneTheaterId":"1926","providerTheaterId":"","name":"Lapeer Cinemas","address":"1650 DeMille Road","city":"Lapeer","state":"MI","zip":"48446","distance":7.3125215672109,"lon":"-83.324647","lat":"43.043992","theaterChainName":"NCG Cinemas","ticketType":"STANDARD"},{"id":"5046","tribuneTheaterId":"10424","providerTheaterId":"","name":"NCG Courtland Cinema","address":"4190 E. Court St.","city":"Burton","state":"MI","zip":"48509","distance":17.058617636519,"lon":"-83.604797","lat":"43.028702","theaterChainName":"NCG Cinemas","ticketType":"STANDARD"},{"id":"4309","tribuneTheaterId":"2362","providerTheaterId":"","name":"NCG Trillium Cinema and IMAX","address":"8220 Trillium Circle Ave","city":"Grand Blanc","state":"MI","zip":"48439","distance":17.226696192009,"lon":"-83.627203","lat":"42.91185","theaterChainName":"NCG Cinemas","ticketType":"STANDARD"},{"id":"2323","tribuneTheaterId":"7491","providerTheaterId":"2911","name":"AMC Loews Great Lakes 25","address":"4300 Baldwin Rd","city":"Auburn Hills","state":"MI","zip":"48326","distance":16.480944665736,"lon":"-83.295255","lat":"42.702911","theaterChainName":"AMC Theatres","ticketType":"STANDARD"},{"id":"1213","tribuneTheaterId":"6732","providerTheaterId":"","name":"Romeo Theatre","address":"66120 Van Dyke","city":"Washington","state":"MI","zip":"48095","distance":17.86778731198,"lon":"-83.012392","lat":"42.780973","theaterChainName":"Independent Chains","ticketType":"STANDARD"},{"id":"786","tribuneTheaterId":"9109","providerTheaterId":"","name":"MJR Waterford Digital Cinema 16","address":"7501 Highland Rd.","city":"Waterford","state":"MI","zip":"48327","distance":20.739563082849,"lon":"-83.434252","lat":"42.660761","theaterChainName":"MJR Theatres","ticketType":"E_TICKET"},{"id":"330","tribuneTheaterId":"7637","providerTheaterId":"","name":"Emagine Rochester Hills","address":"200 Barclay Circle","city":"Rochester Hills","state":"MI","zip":"48307","distance":22.265546776677,"lon":"-83.127467","lat":"42.641769","theaterChainName":"Emagine Entertainment","ticketType":"STANDARD"},{"id":"325","tribuneTheaterId":"8234","providerTheaterId":"","name":"Flint West 14","address":"1591 S Graham Rd","city":"Flint","state":"MI","zip":"48532","distance":23.772345148716,"lon":"-83.751386","lat":"43.004407","theaterChainName":"Cinemark","ticketType":"STANDARD"},{"id":"2741","tribuneTheaterId":"7070","providerTheaterId":"540","name":"AMC Forum 30","address":"44681 Mound Rd.","city":"Sterling Heights","state":"MI","zip":"48314","distance":24.933092624126,"lon":"-83.060131","lat":"42.622057","theaterChainName":"AMC Theatres","ticketType":"STANDARD"},{"id":"5618","tribuneTheaterId":"11079","providerTheaterId":"","name":"Emagine Macomb","address":"15251 23 Mile Road","city":"Macomb","state":"MI","zip":"48042","distance":24.453946004387,"lon":"-82.974214","lat":"42.673264","theaterChainName":"Emagine Entertainment","ticketType":"STANDARD"}]