[{"id":"1836","tribuneTheaterId":"1926","providerTheaterId":"","name":"Lapeer Cinemas","address":"1650 DeMille Road","city":"Lapeer","state":"MI","zip":"48446","distance":12.291902942488,"lon":"-83.324647","lat":"43.043992","theaterChainName":"NCG Cinemas","ticketType":"STANDARD"},{"id":"5707","tribuneTheaterId":"11147","providerTheaterId":"","name":"Vassar Theatre","address":"140 E. Huron Avenue","city":"Vassar","state":"MI","zip":"48768","distance":21.21404338323,"lon":"-83.582738","lat":"43.37154","theaterChainName":"Independent Chains","ticketType":"STANDARD"},{"id":"2677","tribuneTheaterId":"449","providerTheaterId":"","name":"Strand Theatre - Caro","address":"101 South State Street","city":"Caro","state":"MI","zip":"48723","distance":21.281008572725,"lon":"-83.396665","lat":"43.489017","theaterChainName":"Independent Chains","ticketType":"STANDARD"},{"id":"5046","tribuneTheaterId":"10424","providerTheaterId":"","name":"NCG Courtland Cinema","address":"4190 E. Court St.","city":"Burton","state":"MI","zip":"48509","distance":22.698564176221,"lon":"-83.604797","lat":"43.028702","theaterChainName":"NCG Cinemas","ticketType":"STANDARD"},{"id":"2455","tribuneTheaterId":"1703","providerTheaterId":"","name":"Clio Cinema","address":"2151 West Vienna Rd.","city":"Clio","state":"MI","zip":"48420","distance":24.951966481063,"lon":"-83.720398","lat":"43.177502","theaterChainName":"Emagine Entertainment","ticketType":"STANDARD"}]