[{"id":"1836","name":"Lapeer Cinemas","address":"1650 DeMille Road","city":"Lapeer","state":"MI","zip":"48446","distance":"12.292803764343262","lon":"-83.324646","lat":"43.043991","theaterChainName":"NCG Cinemas","ticketType":"STANDARD"},{"id":"5046","name":"NCG Courtland Cinema","address":"4190 E. Court St.","city":"Burton","state":"MI","zip":"48509","distance":"22.70005989074707","lon":"-83.604797","lat":"43.028702","theaterChainName":"NCG Cinemas","ticketType":"STANDARD"},{"id":"2455","name":"Clio Cinema","address":"2151 West Vienna Rd.","city":"Clio","state":"MI","zip":"48420","distance":"24.953529357910156","lon":"-83.720398","lat":"43.177502","theaterChainName":"Emagine Entertainment","ticketType":"STANDARD"},{"id":"2677","name":"Strand Theatre - Caro","address":"101 South State Street","city":"Caro","state":"MI","zip":"48723","distance":"21.28231430053711","lon":"-83.396667","lat":"43.489017","theaterChainName":"Independent Chains","ticketType":"STANDARD"},{"id":"5707","name":"Vassar Theatre","address":"140 E. Huron Avenue","city":"Vassar","state":"MI","zip":"48768","distance":"21.215429306030273","lon":"-83.582741","lat":"43.371540","theaterChainName":"Independent Chains","ticketType":"STANDARD"}]