[{"id":"1840","tribuneTheaterId":"3047","providerTheaterId":"","name":"Owosso Cinemas","address":"314 E.Comstock St.","city":"Owosso","state":"MI","zip":"48867","distance":7.8313412583613,"lon":"-84.167649","lat":"42.996373","theaterChainName":"NCG Cinemas","ticketType":"STANDARD"},{"id":"325","tribuneTheaterId":"8234","providerTheaterId":"","name":"Flint West 14","address":"1591 S Graham Rd","city":"Flint","state":"MI","zip":"48532","distance":14.894094835485,"lon":"-83.751386","lat":"43.004407","theaterChainName":"Cinemark","ticketType":"STANDARD"},{"id":"2884","tribuneTheaterId":"482","providerTheaterId":"","name":"Sun Theatre - Williamston","address":"150 West Grand River Ave","city":"Williamston","state":"MI","zip":"48895","distance":21.54827504975,"lon":"-84.28434","lat":"42.689169","theaterChainName":"Independent Chains","ticketType":"STANDARD"},{"id":"4309","tribuneTheaterId":"2362","providerTheaterId":"","name":"NCG Trillium Cinema and IMAX","address":"8220 Trillium Circle Ave","city":"Grand Blanc","state":"MI","zip":"48439","distance":20.61597797024,"lon":"-83.627203","lat":"42.91185","theaterChainName":"NCG Cinemas","ticketType":"STANDARD"},{"id":"5046","tribuneTheaterId":"10424","providerTheaterId":"","name":"NCG Courtland Cinema","address":"4190 E. Court St.","city":"Burton","state":"MI","zip":"48509","distance":22.47318943735,"lon":"-83.604797","lat":"43.028702","theaterChainName":"NCG Cinemas","ticketType":"STANDARD"},{"id":"2455","tribuneTheaterId":"1703","providerTheaterId":"","name":"Clio Cinema","address":"2151 West Vienna Rd.","city":"Clio","state":"MI","zip":"48420","distance":22.729840939537,"lon":"-83.720398","lat":"43.177502","theaterChainName":"Emagine Entertainment","ticketType":"STANDARD"},{"id":"2002","tribuneTheaterId":"6469","providerTheaterId":"","name":"Cinema Hollywood","address":"12280 Dixie Highway","city":"Birch Run","state":"MI","zip":"48415","distance":24.925090284719,"lon":"-83.769836","lat":"43.24599","theaterChainName":"Emagine Entertainment","ticketType":"STANDARD"},{"id":"5363","tribuneTheaterId":"10802","providerTheaterId":"","name":"Studio C! Meridian Mall","address":"1999 Central Park Drive","city":"Okemos","state":"MI","zip":"48864","distance":24.634689184751,"lon":"-84.4225","lat":"42.7274","theaterChainName":"Independent Chains","ticketType":"STANDARD"}]