[{"id":"1836","name":"Lapeer Cinemas","address":"1650 DeMille Road","city":"Lapeer","state":"MI","zip":"48446","distance":"21.119739532470703","lon":"-83.324646","lat":"43.043991","theaterChainName":"NCG Cinemas","ticketType":"STANDARD"},{"id":"4309","name":"NCG Trillium Cinema and IMAX","address":"8220 Trillium Circle Ave","city":"Grand Blanc","state":"MI","zip":"48439","distance":"7.262257099151611","lon":"-83.627205","lat":"42.911850","theaterChainName":"NCG Cinemas","ticketType":"STANDARD"},{"id":"5046","name":"NCG Courtland Cinema","address":"4190 E. Court St.","city":"Burton","state":"MI","zip":"48509","distance":"7.27957820892334","lon":"-83.604797","lat":"43.028702","theaterChainName":"NCG Cinemas","ticketType":"STANDARD"},{"id":"325","name":"Flint West 14","address":"1591 S Graham Rd","city":"Flint","state":"MI","zip":"48532","distance":"1.7741172313690186","lon":"-83.751389","lat":"43.004406","theaterChainName":"Cinemark","ticketType":"STANDARD"},{"id":"2455","name":"Clio Cinema","address":"2151 West Vienna Rd.","city":"Clio","state":"MI","zip":"48420","distance":"13.51912784576416","lon":"-83.720398","lat":"43.177502","theaterChainName":"Emagine Entertainment","ticketType":"STANDARD"},{"id":"1840","name":"Owosso Cinemas","address":"314 E.Comstock St.","city":"Owosso","state":"MI","zip":"48867","distance":"21.940244674682617","lon":"-84.167648","lat":"42.996372","theaterChainName":"NCG Cinemas","ticketType":"STANDARD"},{"id":"2002","name":"Cinema Hollywood","address":"12280 Dixie Highway","city":"Birch Run","state":"MI","zip":"48415","distance":"18.323486328125","lon":"-83.769836","lat":"43.245991","theaterChainName":"Emagine Entertainment","ticketType":"STANDARD"}]