[{"id":"1888","name":"Goodrich Oxford 7 Theatre","address":"48 S. Washington Rd.","city":"Oxford","state":"MI","zip":"48371","distance":"22.73501968383789","lon":"-83.263672","lat":"42.823643","theaterChainName":"Goodrich Theatres","ticketType":"E_TICKET"},{"id":"1836","name":"Lapeer Cinemas","address":"1650 DeMille Road","city":"Lapeer","state":"MI","zip":"48446","distance":"17.754730224609375","lon":"-83.324646","lat":"43.043991","theaterChainName":"NCG Cinemas","ticketType":"STANDARD"},{"id":"786","name":"MJR Waterford Digital Cinema 16","address":"7501 Highland Rd.","city":"Waterford","state":"MI","zip":"48327","distance":"24.575668334960938","lon":"-83.434250","lat":"42.660763","theaterChainName":"MJR Theatres","ticketType":"E_TICKET"},{"id":"4309","name":"NCG Trillium Cinema and IMAX","address":"8220 Trillium Circle Ave","city":"Grand Blanc","state":"MI","zip":"48439","distance":"4.684047222137451","lon":"-83.627205","lat":"42.911850","theaterChainName":"NCG Cinemas","ticketType":"STANDARD"},{"id":"5046","name":"NCG Courtland Cinema","address":"4190 E. Court St.","city":"Burton","state":"MI","zip":"48509","distance":"4.764487266540527","lon":"-83.604797","lat":"43.028702","theaterChainName":"NCG Cinemas","ticketType":"STANDARD"},{"id":"325","name":"Flint West 14","address":"1591 S Graham Rd","city":"Flint","state":"MI","zip":"48532","distance":"4.929605960845947","lon":"-83.751389","lat":"43.004406","theaterChainName":"Cinemark","ticketType":"STANDARD"},{"id":"2455","name":"Clio Cinema","address":"2151 West Vienna Rd.","city":"Clio","state":"MI","zip":"48420","distance":"14.330750465393066","lon":"-83.720398","lat":"43.177502","theaterChainName":"Emagine Entertainment","ticketType":"STANDARD"},{"id":"2002","name":"Cinema Hollywood","address":"12280 Dixie Highway","city":"Birch Run","state":"MI","zip":"48415","distance":"19.526151657104492","lon":"-83.769836","lat":"43.245991","theaterChainName":"Emagine Entertainment","ticketType":"STANDARD"}]