[{"id":"325","tribuneTheaterId":"8234","providerTheaterId":"","name":"Flint West 14","address":"1591 S Graham Rd","city":"Flint","state":"MI","zip":"48532","distance":4.9293307318806,"lon":"-83.751386","lat":"43.004407","theaterChainName":"Cinemark","ticketType":"STANDARD"},{"id":"4309","tribuneTheaterId":"2362","providerTheaterId":"","name":"NCG Trillium Cinema and IMAX","address":"8220 Trillium Circle Ave","city":"Grand Blanc","state":"MI","zip":"48439","distance":4.6837648158706,"lon":"-83.627203","lat":"42.91185","theaterChainName":"NCG Cinemas","ticketType":"STANDARD"},{"id":"5046","tribuneTheaterId":"10424","providerTheaterId":"","name":"NCG Courtland Cinema","address":"4190 E. Court St.","city":"Burton","state":"MI","zip":"48509","distance":4.7641033571417,"lon":"-83.604797","lat":"43.028702","theaterChainName":"NCG Cinemas","ticketType":"STANDARD"},{"id":"2455","tribuneTheaterId":"1703","providerTheaterId":"","name":"Clio Cinema","address":"2151 West Vienna Rd.","city":"Clio","state":"MI","zip":"48420","distance":14.329884635895,"lon":"-83.720398","lat":"43.177502","theaterChainName":"Emagine Entertainment","ticketType":"STANDARD"},{"id":"1836","tribuneTheaterId":"1926","providerTheaterId":"","name":"Lapeer Cinemas","address":"1650 DeMille Road","city":"Lapeer","state":"MI","zip":"48446","distance":17.753451229124,"lon":"-83.324647","lat":"43.043992","theaterChainName":"NCG Cinemas","ticketType":"STANDARD"},{"id":"2002","tribuneTheaterId":"6469","providerTheaterId":"","name":"Cinema Hollywood","address":"12280 Dixie Highway","city":"Birch Run","state":"MI","zip":"48415","distance":19.524897054335,"lon":"-83.769836","lat":"43.24599","theaterChainName":"Emagine Entertainment","ticketType":"STANDARD"},{"id":"1888","tribuneTheaterId":"4877","providerTheaterId":"","name":"Goodrich Oxford 7 Theatre","address":"48 S. Washington Rd.","city":"Oxford","state":"MI","zip":"48371","distance":22.733379491012,"lon":"-83.263675","lat":"42.823642","theaterChainName":"Goodrich Theatres","ticketType":"E_TICKET"},{"id":"786","tribuneTheaterId":"9109","providerTheaterId":"","name":"MJR Waterford Digital Cinema 16","address":"7501 Highland Rd.","city":"Waterford","state":"MI","zip":"48327","distance":24.574162091364,"lon":"-83.434252","lat":"42.660761","theaterChainName":"MJR Theatres","ticketType":"E_TICKET"}]