[{"id":"1218","tribuneTheaterId":"250","providerTheaterId":"","name":"Gem Theatre - Beaverton","address":"120 N Ross","city":"Beaverton","state":"MI","zip":"48612","distance":10.642805009412,"lon":"-84.484853","lat":"43.883002","theaterChainName":"Independent Chains","ticketType":"STANDARD"},{"id":"1222","tribuneTheaterId":"251","providerTheaterId":"","name":"Ideal Theatre","address":"607 McEwan","city":"Clare","state":"MI","zip":"48617","distance":10.094506099804,"lon":"-84.768477","lat":"43.819732","theaterChainName":"Independent Chains","ticketType":"STANDARD"},{"id":"3049","tribuneTheaterId":"2282","providerTheaterId":"","name":"Celebration! Cinema, Mt. Pleasant","address":"4395 E. Pickard","city":"Mount Pleasant","state":"MI","zip":"48858","distance":12.659796801774,"lon":"-84.758494","lat":"43.611861","theaterChainName":"Celebration! Cinema","ticketType":"STANDARD"},{"id":"1837","tribuneTheaterId":"2227","providerTheaterId":"","name":"Midland Cinema 10","address":"6540 Cinema Drive","city":"Midland","state":"MI","zip":"48640","distance":18.942692109512,"lon":"-84.2342","lat":"43.6567","theaterChainName":"NCG Cinemas","ticketType":"STANDARD"},{"id":"1216","tribuneTheaterId":"1660","providerTheaterId":"","name":"Alma Cinemas 4","address":"3002 W Monroe","city":"Alma","state":"MI","zip":"48801","distance":23.861637185169,"lon":"-84.667629","lat":"43.408525","theaterChainName":"NCG Cinemas","ticketType":"STANDARD"}]