[{"id":"325","name":"Flint West 14","address":"1591 S Graham Rd","city":"Flint","state":"MI","zip":"48532","distance":"21.97064208984375","lon":"-83.751389","lat":"43.004406","theaterChainName":"Cinemark","ticketType":"STANDARD"},{"id":"2455","name":"Clio Cinema","address":"2151 West Vienna Rd.","city":"Clio","state":"MI","zip":"48420","distance":"19.74431800842285","lon":"-83.720398","lat":"43.177502","theaterChainName":"Emagine Entertainment","ticketType":"STANDARD"},{"id":"1840","name":"Owosso Cinemas","address":"314 E.Comstock St.","city":"Owosso","state":"MI","zip":"48867","distance":"13.155075073242188","lon":"-84.167648","lat":"42.996372","theaterChainName":"NCG Cinemas","ticketType":"STANDARD"},{"id":"2002","name":"Cinema Hollywood","address":"12280 Dixie Highway","city":"Birch Run","state":"MI","zip":"48415","distance":"17.791828155517578","lon":"-83.769836","lat":"43.245991","theaterChainName":"Emagine Entertainment","ticketType":"STANDARD"},{"id":"1554","name":"Carmike Fashion Square Ten","address":"4511 Fashion Square Blvd","city":"Saginaw","state":"MI","zip":"48604","distance":"21.316078186035156","lon":"-83.970772","lat":"43.473232","theaterChainName":"Carmike Cinemas","ticketType":"STANDARD"},{"id":"1555","name":"Goodrich Quality 10 GDX","address":"3250 Kabobel","city":"Saginaw","state":"MI","zip":"48604","distance":"21.771240234375","lon":"-83.979286","lat":"43.482281","theaterChainName":"Goodrich Theatres","ticketType":"SELECT_SEATING"}]