[{"id":"1554","name":"Carmike Fashion Square Ten","address":"4511 Fashion Square Blvd","city":"Saginaw","state":"MI","zip":"48604","distance":"14.28801155090332","lon":"-83.970772","lat":"43.473232","theaterChainName":"Carmike Cinemas","ticketType":"STANDARD"},{"id":"1555","name":"Goodrich Quality 10 GDX","address":"3250 Kabobel","city":"Saginaw","state":"MI","zip":"48604","distance":"13.637097358703613","lon":"-83.979286","lat":"43.482281","theaterChainName":"Goodrich Theatres","ticketType":"SELECT_SEATING"},{"id":"1883","name":"Goodrich Bay City 8","address":"4101 Wilder Road","city":"Bay City","state":"MI","zip":"48706","distance":"6.188735485076904","lon":"-83.891281","lat":"43.628044","theaterChainName":"Goodrich Theatres","ticketType":"E_TICKET"},{"id":"1837","name":"Midland Cinema 10","address":"6540 Cinema Drive","city":"Midland","state":"MI","zip":"48640","distance":"12.172160148620605","lon":"-84.234200","lat":"43.656700","theaterChainName":"NCG Cinemas","ticketType":"STANDARD"}]