[{"id":"1554","name":"Carmike Fashion Square Ten","address":"4511 Fashion Square Blvd","city":"Saginaw","state":"MI","zip":"48604","distance":"18.722084045410156","lon":"-83.970772","lat":"43.473232","theaterChainName":"Carmike Cinemas","ticketType":"STANDARD"},{"id":"1555","name":"Goodrich Quality 10 GDX","address":"3250 Kabobel","city":"Saginaw","state":"MI","zip":"48604","distance":"18.004558563232422","lon":"-83.979286","lat":"43.482281","theaterChainName":"Goodrich Theatres","ticketType":"SELECT_SEATING"},{"id":"1883","name":"Goodrich Bay City 8","address":"4101 Wilder Road","city":"Bay City","state":"MI","zip":"48706","distance":"18.851608276367188","lon":"-83.891281","lat":"43.628044","theaterChainName":"Goodrich Theatres","ticketType":"E_TICKET"},{"id":"1837","name":"Midland Cinema 10","address":"6540 Cinema Drive","city":"Midland","state":"MI","zip":"48640","distance":"2.1441850662231445","lon":"-84.234200","lat":"43.656700","theaterChainName":"NCG Cinemas","ticketType":"STANDARD"},{"id":"1218","name":"Gem Theatre - Beaverton","address":"120 N Ross","city":"Beaverton","state":"MI","zip":"48612","distance":"20.116003036499023","lon":"-84.484856","lat":"43.883003","theaterChainName":"Independent Chains","ticketType":"STANDARD"},{"id":"3049","name":"Celebration! Cinema, Mt. Pleasant","address":"4395 E. Pickard","city":"Mount Pleasant","state":"MI","zip":"48858","distance":"24.59783172607422","lon":"-84.758492","lat":"43.611862","theaterChainName":"Celebration! Cinema","ticketType":"STANDARD"}]