[{"id":"2455","name":"Clio Cinema","address":"2151 West Vienna Rd.","city":"Clio","state":"MI","zip":"48420","distance":"23.36348533630371","lon":"-83.720398","lat":"43.177502","theaterChainName":"Emagine Entertainment","ticketType":"STANDARD"},{"id":"1840","name":"Owosso Cinemas","address":"314 E.Comstock St.","city":"Owosso","state":"MI","zip":"48867","distance":"20.037263870239258","lon":"-84.167648","lat":"42.996372","theaterChainName":"NCG Cinemas","ticketType":"STANDARD"},{"id":"2002","name":"Cinema Hollywood","address":"12280 Dixie Highway","city":"Birch Run","state":"MI","zip":"48415","distance":"19.817720413208008","lon":"-83.769836","lat":"43.245991","theaterChainName":"Emagine Entertainment","ticketType":"STANDARD"},{"id":"1554","name":"Carmike Fashion Square Ten","address":"4511 Fashion Square Blvd","city":"Saginaw","state":"MI","zip":"48604","distance":"16.02983856201172","lon":"-83.970772","lat":"43.473232","theaterChainName":"Carmike Cinemas","ticketType":"STANDARD"},{"id":"1555","name":"Goodrich Quality 10 GDX","address":"3250 Kabobel","city":"Saginaw","state":"MI","zip":"48604","distance":"16.29570960998535","lon":"-83.979286","lat":"43.482281","theaterChainName":"Goodrich Theatres","ticketType":"SELECT_SEATING"}]