[{"id":"1555","tribuneTheaterId":"4880","providerTheaterId":"","name":"Goodrich Quality 10 GDX","address":"3250 Kabobel","city":"Saginaw","state":"MI","zip":"48604","distance":16.294791632108,"lon":"-83.979283","lat":"43.482279","theaterChainName":"Goodrich Theatres","ticketType":"SELECT_SEATING"},{"id":"1554","tribuneTheaterId":"4972","providerTheaterId":"","name":"Carmike Fashion Square Ten","address":"4511 Fashion Square Blvd","city":"Saginaw","state":"MI","zip":"48604","distance":16.028840674839,"lon":"-83.970775","lat":"43.473232","theaterChainName":"Carmike Cinemas","ticketType":"STANDARD"},{"id":"2002","tribuneTheaterId":"6469","providerTheaterId":"","name":"Cinema Hollywood","address":"12280 Dixie Highway","city":"Birch Run","state":"MI","zip":"48415","distance":19.816630225579,"lon":"-83.769836","lat":"43.24599","theaterChainName":"Emagine Entertainment","ticketType":"STANDARD"},{"id":"1840","tribuneTheaterId":"3047","providerTheaterId":"","name":"Owosso Cinemas","address":"314 E.Comstock St.","city":"Owosso","state":"MI","zip":"48867","distance":20.035921969055,"lon":"-84.167649","lat":"42.996373","theaterChainName":"NCG Cinemas","ticketType":"STANDARD"},{"id":"2455","tribuneTheaterId":"1703","providerTheaterId":"","name":"Clio Cinema","address":"2151 West Vienna Rd.","city":"Clio","state":"MI","zip":"48420","distance":23.362124057198,"lon":"-83.720398","lat":"43.177502","theaterChainName":"Emagine Entertainment","ticketType":"STANDARD"}]