[{"id":"1216","tribuneTheaterId":"1660","providerTheaterId":"","name":"Alma Cinemas 4","address":"3002 W Monroe","city":"Alma","state":"MI","zip":"48801","distance":12.244634400614,"lon":"-84.667629","lat":"43.408525","theaterChainName":"NCG Cinemas","ticketType":"STANDARD"},{"id":"1837","tribuneTheaterId":"2227","providerTheaterId":"","name":"Midland Cinema 10","address":"6540 Cinema Drive","city":"Midland","state":"MI","zip":"48640","distance":20.36297251932,"lon":"-84.2342","lat":"43.6567","theaterChainName":"NCG Cinemas","ticketType":"STANDARD"},{"id":"1555","tribuneTheaterId":"4880","providerTheaterId":"","name":"Goodrich Quality 10 GDX","address":"3250 Kabobel","city":"Saginaw","state":"MI","zip":"48604","distance":23.104594309234,"lon":"-83.979283","lat":"43.482279","theaterChainName":"Goodrich Theatres","ticketType":"SELECT_SEATING"},{"id":"3049","tribuneTheaterId":"2282","providerTheaterId":"","name":"Celebration! Cinema, Mt. Pleasant","address":"4395 E. Pickard","city":"Mount Pleasant","state":"MI","zip":"48858","distance":22.417224625424,"lon":"-84.758494","lat":"43.611861","theaterChainName":"Celebration! Cinema","ticketType":"STANDARD"},{"id":"1554","tribuneTheaterId":"4972","providerTheaterId":"","name":"Carmike Fashion Square Ten","address":"4511 Fashion Square Blvd","city":"Saginaw","state":"MI","zip":"48604","distance":23.368704218359,"lon":"-83.970775","lat":"43.473232","theaterChainName":"Carmike Cinemas","ticketType":"STANDARD"}]