[{"id":"1837","tribuneTheaterId":"2227","providerTheaterId":"","name":"Midland Cinema 10","address":"6540 Cinema Drive","city":"Midland","state":"MI","zip":"48640","distance":1.7425707069402,"lon":"-84.2342","lat":"43.6567","theaterChainName":"NCG Cinemas","ticketType":"STANDARD"},{"id":"1554","tribuneTheaterId":"4972","providerTheaterId":"","name":"Carmike Fashion Square Ten","address":"4511 Fashion Square Blvd","city":"Saginaw","state":"MI","zip":"48604","distance":18.273948733734,"lon":"-83.970775","lat":"43.473232","theaterChainName":"Carmike Cinemas","ticketType":"STANDARD"},{"id":"1883","tribuneTheaterId":"4881","providerTheaterId":"","name":"Goodrich Bay City 8","address":"4101 Wilder Road","city":"Bay City","state":"MI","zip":"48706","distance":18.290636515454,"lon":"-83.89128","lat":"43.628046","theaterChainName":"Goodrich Theatres","ticketType":"E_TICKET"},{"id":"1555","tribuneTheaterId":"4880","providerTheaterId":"","name":"Goodrich Quality 10 GDX","address":"3250 Kabobel","city":"Saginaw","state":"MI","zip":"48604","distance":17.552448918396,"lon":"-83.979283","lat":"43.482279","theaterChainName":"Goodrich Theatres","ticketType":"SELECT_SEATING"},{"id":"1218","tribuneTheaterId":"250","providerTheaterId":"","name":"Gem Theatre - Beaverton","address":"120 N Ross","city":"Beaverton","state":"MI","zip":"48612","distance":20.426407611265,"lon":"-84.484853","lat":"43.883002","theaterChainName":"Independent Chains","ticketType":"STANDARD"}]