[{"id":"1555","tribuneTheaterId":"4880","providerTheaterId":"","name":"Goodrich Quality 10 GDX","address":"3250 Kabobel","city":"Saginaw","state":"MI","zip":"48604","distance":5.1899101567517,"lon":"-83.979283","lat":"43.482279","theaterChainName":"Goodrich Theatres","ticketType":"SELECT_SEATING"},{"id":"1554","tribuneTheaterId":"4972","providerTheaterId":"","name":"Carmike Fashion Square Ten","address":"4511 Fashion Square Blvd","city":"Saginaw","state":"MI","zip":"48604","distance":5.8795413546826,"lon":"-83.970775","lat":"43.473232","theaterChainName":"Carmike Cinemas","ticketType":"STANDARD"},{"id":"1883","tribuneTheaterId":"4881","providerTheaterId":"","name":"Goodrich Bay City 8","address":"4101 Wilder Road","city":"Bay City","state":"MI","zip":"48706","distance":7.1376198598675,"lon":"-83.89128","lat":"43.628046","theaterChainName":"Goodrich Theatres","ticketType":"E_TICKET"},{"id":"1837","tribuneTheaterId":"2227","providerTheaterId":"","name":"Midland Cinema 10","address":"6540 Cinema Drive","city":"Midland","state":"MI","zip":"48640","distance":13.85230170453,"lon":"-84.2342","lat":"43.6567","theaterChainName":"NCG Cinemas","ticketType":"STANDARD"},{"id":"5707","tribuneTheaterId":"11147","providerTheaterId":"","name":"Vassar Theatre","address":"140 E. Huron Avenue","city":"Vassar","state":"MI","zip":"48768","distance":24.278885584855,"lon":"-83.582738","lat":"43.37154","theaterChainName":"Independent Chains","ticketType":"STANDARD"},{"id":"2002","tribuneTheaterId":"6469","providerTheaterId":"","name":"Cinema Hollywood","address":"12280 Dixie Highway","city":"Birch Run","state":"MI","zip":"48415","distance":24.239392058562,"lon":"-83.769836","lat":"43.24599","theaterChainName":"Emagine Entertainment","ticketType":"STANDARD"}]