[{"id":"2677","name":"Strand Theatre - Caro","address":"101 South State Street","city":"Caro","state":"MI","zip":"48723","distance":"22.79161262512207","lon":"-83.396667","lat":"43.489017","theaterChainName":"Independent Chains","ticketType":"STANDARD"},{"id":"5707","name":"Vassar Theatre","address":"140 E. Huron Avenue","city":"Vassar","state":"MI","zip":"48768","distance":"20.19845962524414","lon":"-83.582741","lat":"43.371540","theaterChainName":"Independent Chains","ticketType":"STANDARD"},{"id":"1554","name":"Carmike Fashion Square Ten","address":"4511 Fashion Square Blvd","city":"Saginaw","state":"MI","zip":"48604","distance":"11.876721382141113","lon":"-83.970772","lat":"43.473232","theaterChainName":"Carmike Cinemas","ticketType":"STANDARD"},{"id":"1555","name":"Goodrich Quality 10 GDX","address":"3250 Kabobel","city":"Saginaw","state":"MI","zip":"48604","distance":"11.680726051330566","lon":"-83.979286","lat":"43.482281","theaterChainName":"Goodrich Theatres","ticketType":"SELECT_SEATING"},{"id":"1883","name":"Goodrich Bay City 8","address":"4101 Wilder Road","city":"Bay City","state":"MI","zip":"48706","distance":"3.774888038635254","lon":"-83.891281","lat":"43.628044","theaterChainName":"Goodrich Theatres","ticketType":"E_TICKET"},{"id":"1837","name":"Midland Cinema 10","address":"6540 Cinema Drive","city":"Midland","state":"MI","zip":"48640","distance":"20.914905548095703","lon":"-84.234200","lat":"43.656700","theaterChainName":"NCG Cinemas","ticketType":"STANDARD"}]