[{"id":"1883","tribuneTheaterId":"4881","providerTheaterId":"","name":"Goodrich Bay City 8","address":"4101 Wilder Road","city":"Bay City","state":"MI","zip":"48706","distance":3.7746807848011,"lon":"-83.89128","lat":"43.628046","theaterChainName":"Goodrich Theatres","ticketType":"E_TICKET"},{"id":"1555","tribuneTheaterId":"4880","providerTheaterId":"","name":"Goodrich Quality 10 GDX","address":"3250 Kabobel","city":"Saginaw","state":"MI","zip":"48604","distance":11.680055900617,"lon":"-83.979283","lat":"43.482279","theaterChainName":"Goodrich Theatres","ticketType":"SELECT_SEATING"},{"id":"1554","tribuneTheaterId":"4972","providerTheaterId":"","name":"Carmike Fashion Square Ten","address":"4511 Fashion Square Blvd","city":"Saginaw","state":"MI","zip":"48604","distance":11.876174023188,"lon":"-83.970775","lat":"43.473232","theaterChainName":"Carmike Cinemas","ticketType":"STANDARD"},{"id":"1837","tribuneTheaterId":"2227","providerTheaterId":"","name":"Midland Cinema 10","address":"6540 Cinema Drive","city":"Midland","state":"MI","zip":"48640","distance":20.91367404868,"lon":"-84.2342","lat":"43.6567","theaterChainName":"NCG Cinemas","ticketType":"STANDARD"},{"id":"5707","tribuneTheaterId":"11147","providerTheaterId":"","name":"Vassar Theatre","address":"140 E. Huron Avenue","city":"Vassar","state":"MI","zip":"48768","distance":20.197305052832,"lon":"-83.582738","lat":"43.37154","theaterChainName":"Independent Chains","ticketType":"STANDARD"},{"id":"2677","tribuneTheaterId":"449","providerTheaterId":"","name":"Strand Theatre - Caro","address":"101 South State Street","city":"Caro","state":"MI","zip":"48723","distance":22.790298153874,"lon":"-83.396665","lat":"43.489017","theaterChainName":"Independent Chains","ticketType":"STANDARD"}]