[{"id":"2677","tribuneTheaterId":"449","providerTheaterId":"","name":"Strand Theatre - Caro","address":"101 South State Street","city":"Caro","state":"MI","zip":"48723","distance":9.2565422090734,"lon":"-83.396665","lat":"43.489017","theaterChainName":"Independent Chains","ticketType":"STANDARD"},{"id":"5707","tribuneTheaterId":"11147","providerTheaterId":"","name":"Vassar Theatre","address":"140 E. Huron Avenue","city":"Vassar","state":"MI","zip":"48768","distance":10.613593654887,"lon":"-83.582738","lat":"43.37154","theaterChainName":"Independent Chains","ticketType":"STANDARD"},{"id":"2002","tribuneTheaterId":"6469","providerTheaterId":"","name":"Cinema Hollywood","address":"12280 Dixie Highway","city":"Birch Run","state":"MI","zip":"48415","distance":21.381274144107,"lon":"-83.769836","lat":"43.24599","theaterChainName":"Emagine Entertainment","ticketType":"STANDARD"},{"id":"1836","tribuneTheaterId":"1926","providerTheaterId":"","name":"Lapeer Cinemas","address":"1650 DeMille Road","city":"Lapeer","state":"MI","zip":"48446","distance":21.705710003369,"lon":"-83.324647","lat":"43.043992","theaterChainName":"NCG Cinemas","ticketType":"STANDARD"},{"id":"2455","tribuneTheaterId":"1703","providerTheaterId":"","name":"Clio Cinema","address":"2151 West Vienna Rd.","city":"Clio","state":"MI","zip":"48420","distance":21.419828211646,"lon":"-83.720398","lat":"43.177502","theaterChainName":"Emagine Entertainment","ticketType":"STANDARD"}]