[{"id":"1836","name":"Lapeer Cinemas","address":"1650 DeMille Road","city":"Lapeer","state":"MI","zip":"48446","distance":"21.707189559936523","lon":"-83.324646","lat":"43.043991","theaterChainName":"NCG Cinemas","ticketType":"STANDARD"},{"id":"2455","name":"Clio Cinema","address":"2151 West Vienna Rd.","city":"Clio","state":"MI","zip":"48420","distance":"21.421314239501953","lon":"-83.720398","lat":"43.177502","theaterChainName":"Emagine Entertainment","ticketType":"STANDARD"},{"id":"2677","name":"Strand Theatre - Caro","address":"101 South State Street","city":"Caro","state":"MI","zip":"48723","distance":"9.257101058959961","lon":"-83.396667","lat":"43.489017","theaterChainName":"Independent Chains","ticketType":"STANDARD"},{"id":"5707","name":"Vassar Theatre","address":"140 E. Huron Avenue","city":"Vassar","state":"MI","zip":"48768","distance":"10.61450481414795","lon":"-83.582741","lat":"43.371540","theaterChainName":"Independent Chains","ticketType":"STANDARD"},{"id":"2002","name":"Cinema Hollywood","address":"12280 Dixie Highway","city":"Birch Run","state":"MI","zip":"48415","distance":"21.38274383544922","lon":"-83.769836","lat":"43.245991","theaterChainName":"Emagine Entertainment","ticketType":"STANDARD"}]