[{"id":"2677","tribuneTheaterId":"449","providerTheaterId":"","name":"Strand Theatre - Caro","address":"101 South State Street","city":"Caro","state":"MI","zip":"48723","distance":13.609795621768,"lon":"-83.396665","lat":"43.489017","theaterChainName":"Independent Chains","ticketType":"STANDARD"},{"id":"5707","tribuneTheaterId":"11147","providerTheaterId":"","name":"Vassar Theatre","address":"140 E. Huron Avenue","city":"Vassar","state":"MI","zip":"48768","distance":16.110677866173,"lon":"-83.582738","lat":"43.37154","theaterChainName":"Independent Chains","ticketType":"STANDARD"},{"id":"1836","tribuneTheaterId":"1926","providerTheaterId":"","name":"Lapeer Cinemas","address":"1650 DeMille Road","city":"Lapeer","state":"MI","zip":"48446","distance":18.850218807014,"lon":"-83.324647","lat":"43.043992","theaterChainName":"NCG Cinemas","ticketType":"STANDARD"},{"id":"2455","tribuneTheaterId":"1703","providerTheaterId":"","name":"Clio Cinema","address":"2151 West Vienna Rd.","city":"Clio","state":"MI","zip":"48420","distance":24.461458752851,"lon":"-83.720398","lat":"43.177502","theaterChainName":"Emagine Entertainment","ticketType":"STANDARD"}]