[{"id":"981","tribuneTheaterId":"2025","providerTheaterId":"","name":"Greenville Cinemas","address":"1500 North Lafayette","city":"Greenville","state":"MI","zip":"48838","distance":7.4360000172532,"lon":"-85.250983","lat":"43.19516","theaterChainName":"NCG Cinemas","ticketType":"STANDARD"},{"id":"984","tribuneTheaterId":"219","providerTheaterId":"","name":"Ionia Theatre","address":"209 West Main Street","city":"Ionia","state":"MI","zip":"48846","distance":11.174824033528,"lon":"-85.064475","lat":"42.982248","theaterChainName":"Independent Chains","ticketType":"STANDARD"},{"id":"1009","tribuneTheaterId":"4872","providerTheaterId":"","name":"Goodrich Ada-Lowell 5 Theatre","address":"2175 West Main Street","city":"Lowell","state":"MI","zip":"49331","distance":12.708543594907,"lon":"-85.363703","lat":"42.93211","theaterChainName":"Goodrich Theatres","ticketType":"E_TICKET"},{"id":"3486","tribuneTheaterId":"1869","providerTheaterId":"","name":"NorthStar Cinemas - Rockford","address":"11699 Northland Dr.","city":"Rockford","state":"MI","zip":"49341","distance":17.267754297193,"lon":"-85.551","lat":"43.1781","theaterChainName":"Independent Chains","ticketType":"STANDARD"},{"id":"3567","tribuneTheaterId":"2404","providerTheaterId":"","name":"Celebration! Cinema-North","address":"2121 Celebration","city":"Grand Rapids","state":"MI","zip":"49525","distance":19.24351324015,"lon":"-85.593117","lat":"43.00103","theaterChainName":"Celebration! Cinema","ticketType":"STANDARD"},{"id":"4388","tribuneTheaterId":"9432","providerTheaterId":"","name":"Celebration! Cinema Woodland","address":"3195 28th St. SE","city":"Grand Rapids","state":"MI","zip":"49512","distance":21.643141411787,"lon":"-85.587745","lat":"42.914809","theaterChainName":"Celebration! Cinema","ticketType":"STANDARD"},{"id":"334","tribuneTheaterId":"8240","providerTheaterId":"2908","name":"AMC Star Grand Rapids 18","address":"3000 Alpine Avenue","city":"Walker","state":"MI","zip":"49544","distance":23.465453303082,"lon":"-85.686096","lat":"43.018495","theaterChainName":"AMC Theatres","ticketType":"STANDARD"},{"id":"5491","tribuneTheaterId":"10932","providerTheaterId":"","name":"Urban Institute for Contemporary","address":"2 Fulton W.","city":"Grand Rapids","state":"MI","zip":"49503","distance":23.691263676756,"lon":"-85.6679","lat":"42.9632","theaterChainName":"Independent Chains","ticketType":"STANDARD"},{"id":"5513","tribuneTheaterId":"10935","providerTheaterId":"","name":"Track Cinema","address":"1579 Clark St Rd","city":"Auburn","state":"NY","zip":"13021","distance":23.702465636594,"lon":"-85.668075","lat":"42.963083","theaterChainName":"Independent Chains","ticketType":"STANDARD"}]