[{"id":"980","tribuneTheaterId":"1453","providerTheaterId":"","name":"Eaton Theaters","address":"235 S Cochran Street","city":"Charlotte","state":"MI","zip":"48813","distance":0.58808619723958,"lon":"-84.8358","lat":"42.5617","theaterChainName":"Independent Chains","ticketType":"STANDARD"},{"id":"1230","tribuneTheaterId":"252","providerTheaterId":"","name":"Sun Theatre - Grand Ledge","address":"316 South Bridge Street","city":"Grand Ledge","state":"MI","zip":"48837","distance":13.396970438865,"lon":"-84.747053","lat":"42.752941","theaterChainName":"Independent Chains","ticketType":"STANDARD"},{"id":"5517","tribuneTheaterId":"10941","providerTheaterId":"","name":"Lansing Mall Stadium 12 RPX","address":"5330 W. Saginaw Hwy","city":"Lansing","state":"MI","zip":"48917","distance":15.903411582464,"lon":"-84.6254","lat":"42.741","theaterChainName":"Regal Cinemas","ticketType":"STANDARD"},{"id":"1760","tribuneTheaterId":"3246","providerTheaterId":"","name":"Celebration! Cinema, Lansing","address":"200 E. Edgewood Blvd.","city":"Lansing","state":"MI","zip":"48911","distance":15.778165116219,"lon":"-84.549754","lat":"42.65976","theaterChainName":"Celebration! Cinema","ticketType":"STANDARD"},{"id":"1004","tribuneTheaterId":"1085","providerTheaterId":"","name":"Bogar Theatre","address":"223 East Michigan","city":"Marshall","state":"MI","zip":"49068","distance":21.502289562235,"lon":"-84.956878","lat":"42.272238","theaterChainName":"Independent Chains","ticketType":"STANDARD"},{"id":"3576","tribuneTheaterId":"6083","providerTheaterId":"","name":"NCG Eastwood Cinema","address":"2500 Showtime Drive","city":"Lansing","state":"MI","zip":"48912","distance":21.095110821924,"lon":"-84.515446","lat":"42.764976","theaterChainName":"NCG Cinemas","ticketType":"STANDARD"},{"id":"5510","tribuneTheaterId":"1457","providerTheaterId":"","name":"Bohm Theatre","address":"201 South Superior Street","city":"Albion","state":"MI","zip":"49224","distance":22.892199962275,"lon":"-84.752692","lat":"42.244526","theaterChainName":"Independent Chains","ticketType":"STANDARD"},{"id":"1003","tribuneTheaterId":"4870","providerTheaterId":"","name":"Goodrich Hastings 4","address":"213 West State Street","city":"Hastings","state":"MI","zip":"49058","distance":23.737496417343,"lon":"-85.289604","lat":"42.648848","theaterChainName":"Goodrich Theatres","ticketType":"E_TICKET"},{"id":"5363","tribuneTheaterId":"10802","providerTheaterId":"","name":"Studio C! Meridian Mall","address":"1999 Central Park Drive","city":"Okemos","state":"MI","zip":"48864","distance":23.618753864511,"lon":"-84.4225","lat":"42.7274","theaterChainName":"Independent Chains","ticketType":"STANDARD"}]