[{"id":"784","name":"MJR Brighton Town Square Digital Cinema 20","address":"8200 Murphy Dr.","city":"Brighton","state":"MI","zip":"48116","distance":"15.959869384765625","lon":"-83.798561","lat":"42.548199","theaterChainName":"MJR Theatres","ticketType":"STANDARD"},{"id":"2884","name":"Sun Theatre - Williamston","address":"150 West Grand River Ave","city":"Williamston","state":"MI","zip":"48895","distance":"10.951539993286133","lon":"-84.284340","lat":"42.689171","theaterChainName":"Independent Chains","ticketType":"STANDARD"},{"id":"1840","name":"Owosso Cinemas","address":"314 E.Comstock St.","city":"Owosso","state":"MI","zip":"48867","distance":"23.646827697753906","lon":"-84.167648","lat":"42.996372","theaterChainName":"NCG Cinemas","ticketType":"STANDARD"},{"id":"5363","name":"Studio C! Meridian Mall","address":"1999 Central Park Drive","city":"Okemos","state":"MI","zip":"48864","distance":"18.37042999267578","lon":"-84.422501","lat":"42.727402","theaterChainName":"Independent Chains","ticketType":"STANDARD"},{"id":"3576","name":"NCG Eastwood Cinema","address":"2500 Showtime Drive","city":"Lansing","state":"MI","zip":"48912","distance":"23.619354248046875","lon":"-84.515450","lat":"42.764977","theaterChainName":"NCG Cinemas","ticketType":"STANDARD"},{"id":"1760","name":"Celebration! Cinema, Lansing","address":"200 E. Edgewood Blvd.","city":"Lansing","state":"MI","zip":"48911","distance":"24.271265029907227","lon":"-84.549751","lat":"42.659760","theaterChainName":"Celebration! Cinema","ticketType":"STANDARD"}]