[{"id":"984","tribuneTheaterId":"219","providerTheaterId":"","name":"Ionia Theatre","address":"209 West Main Street","city":"Ionia","state":"MI","zip":"48846","distance":13.558074686366,"lon":"-85.064475","lat":"42.982248","theaterChainName":"Independent Chains","ticketType":"STANDARD"},{"id":"981","tribuneTheaterId":"2025","providerTheaterId":"","name":"Greenville Cinemas","address":"1500 North Lafayette","city":"Greenville","state":"MI","zip":"48838","distance":21.799098387722,"lon":"-85.250983","lat":"43.19516","theaterChainName":"NCG Cinemas","ticketType":"STANDARD"},{"id":"1230","tribuneTheaterId":"252","providerTheaterId":"","name":"Sun Theatre - Grand Ledge","address":"316 South Bridge Street","city":"Grand Ledge","state":"MI","zip":"48837","distance":23.936507092057,"lon":"-84.747053","lat":"42.752941","theaterChainName":"Independent Chains","ticketType":"STANDARD"},{"id":"1216","tribuneTheaterId":"1660","providerTheaterId":"","name":"Alma Cinemas 4","address":"3002 W Monroe","city":"Alma","state":"MI","zip":"48801","distance":23.549124308975,"lon":"-84.667629","lat":"43.408525","theaterChainName":"NCG Cinemas","ticketType":"STANDARD"}]