[{"id":"784","tribuneTheaterId":"7164","providerTheaterId":"","name":"MJR Brighton Town Square Digital Cinema 20","address":"8200 Murphy Dr.","city":"Brighton","state":"MI","zip":"48116","distance":6.8880005133899,"lon":"-83.798561","lat":"42.548197","theaterChainName":"MJR Theatres","ticketType":"STANDARD"},{"id":"5364","tribuneTheaterId":"267","providerTheaterId":"","name":"The Lyon Theatre","address":"126 E. Lake St.","city":"South Lyon","state":"MI","zip":"48178","distance":16.533862259478,"lon":"-83.650883","lat":"42.460442","theaterChainName":"Independent Chains","ticketType":"STANDARD"},{"id":"3453","tribuneTheaterId":"3021","providerTheaterId":"","name":"Ridgmar Movie Tavern","address":"6801 Ridgmar Meadow Road","city":"Fort Worth","state":"TX","zip":"76116","distance":16.533862259478,"lon":"-83.650883","lat":"42.460442","theaterChainName":"Movie Tavern","ticketType":"STANDARD"},{"id":"2884","tribuneTheaterId":"482","providerTheaterId":"","name":"Sun Theatre - Williamston","address":"150 West Grand River Ave","city":"Williamston","state":"MI","zip":"48895","distance":19.865845007146,"lon":"-84.28434","lat":"42.689169","theaterChainName":"Independent Chains","ticketType":"STANDARD"},{"id":"3571","tribuneTheaterId":"7316","providerTheaterId":"","name":"Emagine Entertainment Novi","address":"44425 West 12 Mile Road","city":"Novi","state":"MI","zip":"48377","distance":22.986560642691,"lon":"-83.484732","lat":"42.494078","theaterChainName":"Emagine Entertainment","ticketType":"STANDARD"},{"id":"2224","tribuneTheaterId":"5844","providerTheaterId":"","name":"Goodrich Quality 16 Ann Arbor","address":"3686 Jackson Rd","city":"Ann Arbor","state":"MI","zip":"48103","distance":22.574996354416,"lon":"-83.804183","lat":"42.286455","theaterChainName":"Goodrich Theatres","ticketType":"E_TICKET"},{"id":"1398","tribuneTheaterId":"2703","providerTheaterId":"","name":"Michigan Theater","address":"603 E. Liberty Street","city":"Ann Arbor","state":"MI","zip":"48104","distance":23.977582015493,"lon":"-83.742019","lat":"42.279704","theaterChainName":"Independent Chains","ticketType":"STANDARD"},{"id":"1556","tribuneTheaterId":"2711","providerTheaterId":"","name":"State Theater","address":"233 S State Street","city":"Ann Arbor","state":"MI","zip":"48104","distance":24.021781930694,"lon":"-83.740612","lat":"42.27942","theaterChainName":"Independent Chains","ticketType":"STANDARD"},{"id":"786","tribuneTheaterId":"9109","providerTheaterId":"","name":"MJR Waterford Digital Cinema 16","address":"7501 Highland Rd.","city":"Waterford","state":"MI","zip":"48327","distance":24.565416622338,"lon":"-83.434252","lat":"42.660761","theaterChainName":"MJR Theatres","ticketType":"E_TICKET"},{"id":"849","tribuneTheaterId":"8057","providerTheaterId":"","name":"United Artists Commerce Stadium 14","address":"3033 Springvale Drive","city":"Walled Lake","state":"MI","zip":"48390","distance":24.274358638243,"lon":"-83.444124","lat":"42.532076","theaterChainName":"United Artists","ticketType":"STANDARD"}]