[{"id":"784","tribuneTheaterId":"7164","providerTheaterId":"","name":"MJR Brighton Town Square Digital Cinema 20","address":"8200 Murphy Dr.","city":"Brighton","state":"MI","zip":"48116","distance":11.249818346005,"lon":"-83.798561","lat":"42.548197","theaterChainName":"MJR Theatres","ticketType":"STANDARD"},{"id":"2884","tribuneTheaterId":"482","providerTheaterId":"","name":"Sun Theatre - Williamston","address":"150 West Grand River Ave","city":"Williamston","state":"MI","zip":"48895","distance":18.809126173777,"lon":"-84.28434","lat":"42.689169","theaterChainName":"Independent Chains","ticketType":"STANDARD"},{"id":"3453","tribuneTheaterId":"3021","providerTheaterId":"","name":"Ridgmar Movie Tavern","address":"6801 Ridgmar Meadow Road","city":"Fort Worth","state":"TX","zip":"76116","distance":20.602904092352,"lon":"-83.650883","lat":"42.460442","theaterChainName":"Movie Tavern","ticketType":"STANDARD"},{"id":"5364","tribuneTheaterId":"267","providerTheaterId":"","name":"The Lyon Theatre","address":"126 E. Lake St.","city":"South Lyon","state":"MI","zip":"48178","distance":20.602904092352,"lon":"-83.650883","lat":"42.460442","theaterChainName":"Independent Chains","ticketType":"STANDARD"},{"id":"4309","tribuneTheaterId":"2362","providerTheaterId":"","name":"NCG Trillium Cinema and IMAX","address":"8220 Trillium Circle Ave","city":"Grand Blanc","state":"MI","zip":"48439","distance":21.272939799142,"lon":"-83.627203","lat":"42.91185","theaterChainName":"NCG Cinemas","ticketType":"STANDARD"},{"id":"325","tribuneTheaterId":"8234","providerTheaterId":"","name":"Flint West 14","address":"1591 S Graham Rd","city":"Flint","state":"MI","zip":"48532","distance":23.420341858482,"lon":"-83.751386","lat":"43.004407","theaterChainName":"Cinemark","ticketType":"STANDARD"},{"id":"1840","tribuneTheaterId":"3047","providerTheaterId":"","name":"Owosso Cinemas","address":"314 E.Comstock St.","city":"Owosso","state":"MI","zip":"48867","distance":24.934891910948,"lon":"-84.167649","lat":"42.996373","theaterChainName":"NCG Cinemas","ticketType":"STANDARD"},{"id":"786","tribuneTheaterId":"9109","providerTheaterId":"","name":"MJR Waterford Digital Cinema 16","address":"7501 Highland Rd.","city":"Waterford","state":"MI","zip":"48327","distance":24.438533761189,"lon":"-83.434252","lat":"42.660761","theaterChainName":"MJR Theatres","ticketType":"E_TICKET"}]