[{"id":"984","tribuneTheaterId":"219","providerTheaterId":"","name":"Ionia Theatre","address":"209 West Main Street","city":"Ionia","state":"MI","zip":"48846","distance":20.573677285936,"lon":"-85.064475","lat":"42.982248","theaterChainName":"Independent Chains","ticketType":"STANDARD"},{"id":"1216","tribuneTheaterId":"1660","providerTheaterId":"","name":"Alma Cinemas 4","address":"3002 W Monroe","city":"Alma","state":"MI","zip":"48801","distance":21.40138716718,"lon":"-84.667629","lat":"43.408525","theaterChainName":"NCG Cinemas","ticketType":"STANDARD"},{"id":"5517","tribuneTheaterId":"10941","providerTheaterId":"","name":"Lansing Mall Stadium 12 RPX","address":"5330 W. Saginaw Hwy","city":"Lansing","state":"MI","zip":"48917","distance":24.962800754099,"lon":"-84.6254","lat":"42.741","theaterChainName":"Regal Cinemas","ticketType":"STANDARD"},{"id":"1230","tribuneTheaterId":"252","providerTheaterId":"","name":"Sun Theatre - Grand Ledge","address":"316 South Bridge Street","city":"Grand Ledge","state":"MI","zip":"48837","distance":24.098885790357,"lon":"-84.747053","lat":"42.752941","theaterChainName":"Independent Chains","ticketType":"STANDARD"},{"id":"3576","tribuneTheaterId":"6083","providerTheaterId":"","name":"NCG Eastwood Cinema","address":"2500 Showtime Drive","city":"Lansing","state":"MI","zip":"48912","distance":24.719705177704,"lon":"-84.515446","lat":"42.764976","theaterChainName":"NCG Cinemas","ticketType":"STANDARD"}]