[{"id":"3576","name":"NCG Eastwood Cinema","address":"2500 Showtime Drive","city":"Lansing","state":"MI","zip":"48912","distance":"24.691028594970703","lon":"-84.515450","lat":"42.764977","theaterChainName":"NCG Cinemas","ticketType":"STANDARD"},{"id":"5517","name":"Lansing Mall Stadium 12 RPX","address":"5330 W. Saginaw Hwy","city":"Lansing","state":"MI","zip":"48917","distance":"21.45284652709961","lon":"-84.625397","lat":"42.741001","theaterChainName":"Regal Cinemas","ticketType":"STANDARD"},{"id":"1230","name":"Sun Theatre - Grand Ledge","address":"316 South Bridge Street","city":"Grand Ledge","state":"MI","zip":"48837","distance":"17.000402450561523","lon":"-84.747055","lat":"42.752941","theaterChainName":"Independent Chains","ticketType":"STANDARD"},{"id":"984","name":"Ionia Theatre","address":"209 West Main Street","city":"Ionia","state":"MI","zip":"48846","distance":"7.37473201751709","lon":"-85.064476","lat":"42.982246","theaterChainName":"Independent Chains","ticketType":"STANDARD"},{"id":"1009","name":"Goodrich Ada-Lowell 5 Theatre","address":"2175 West Main Street","city":"Lowell","state":"MI","zip":"49331","distance":"22.500043869018555","lon":"-85.363701","lat":"42.932110","theaterChainName":"Goodrich Theatres","ticketType":"E_TICKET"},{"id":"981","name":"Greenville Cinemas","address":"1500 North Lafayette","city":"Greenville","state":"MI","zip":"48838","distance":"23.107906341552734","lon":"-85.250984","lat":"43.195160","theaterChainName":"NCG Cinemas","ticketType":"STANDARD"}]