[{"id":"981","tribuneTheaterId":"2025","providerTheaterId":"","name":"Greenville Cinemas","address":"1500 North Lafayette","city":"Greenville","state":"MI","zip":"48838","distance":7.1359541658632,"lon":"-85.250983","lat":"43.19516","theaterChainName":"NCG Cinemas","ticketType":"STANDARD"},{"id":"984","tribuneTheaterId":"219","providerTheaterId":"","name":"Ionia Theatre","address":"209 West Main Street","city":"Ionia","state":"MI","zip":"48846","distance":17.746825560685,"lon":"-85.064475","lat":"42.982248","theaterChainName":"Independent Chains","ticketType":"STANDARD"},{"id":"3486","tribuneTheaterId":"1869","providerTheaterId":"","name":"NorthStar Cinemas - Rockford","address":"11699 Northland Dr.","city":"Rockford","state":"MI","zip":"49341","distance":22.034022022218,"lon":"-85.551","lat":"43.1781","theaterChainName":"Independent Chains","ticketType":"STANDARD"},{"id":"1009","tribuneTheaterId":"4872","providerTheaterId":"","name":"Goodrich Ada-Lowell 5 Theatre","address":"2175 West Main Street","city":"Lowell","state":"MI","zip":"49331","distance":24.30334778603,"lon":"-85.363703","lat":"42.93211","theaterChainName":"Goodrich Theatres","ticketType":"E_TICKET"}]