[{"id":"981","tribuneTheaterId":"2025","providerTheaterId":"","name":"Greenville Cinemas","address":"1500 North Lafayette","city":"Greenville","state":"MI","zip":"48838","distance":17.374650819821,"lon":"-85.250983","lat":"43.19516","theaterChainName":"NCG Cinemas","ticketType":"STANDARD"},{"id":"3049","tribuneTheaterId":"2282","providerTheaterId":"","name":"Celebration! Cinema, Mt. Pleasant","address":"4395 E. Pickard","city":"Mount Pleasant","state":"MI","zip":"48858","distance":22.801677853459,"lon":"-84.758494","lat":"43.611861","theaterChainName":"Celebration! Cinema","ticketType":"STANDARD"},{"id":"1216","tribuneTheaterId":"1660","providerTheaterId":"","name":"Alma Cinemas 4","address":"3002 W Monroe","city":"Alma","state":"MI","zip":"48801","distance":23.849219261552,"lon":"-84.667629","lat":"43.408525","theaterChainName":"NCG Cinemas","ticketType":"STANDARD"},{"id":"1221","tribuneTheaterId":"4966","providerTheaterId":"","name":"Carmike Big Rapids 4","address":"213 S Michigan","city":"Big Rapids","state":"MI","zip":"49307","distance":24.897135092168,"lon":"-85.481969","lat":"43.696417","theaterChainName":"Carmike Cinemas","ticketType":"STANDARD"}]