[{"id":"1837","name":"Midland Cinema 10","address":"6540 Cinema Drive","city":"Midland","state":"MI","zip":"48640","distance":"18.751163482666016","lon":"-84.234200","lat":"43.656700","theaterChainName":"NCG Cinemas","ticketType":"STANDARD"},{"id":"1218","name":"Gem Theatre - Beaverton","address":"120 N Ross","city":"Beaverton","state":"MI","zip":"48612","distance":"22.51375961303711","lon":"-84.484856","lat":"43.883003","theaterChainName":"Independent Chains","ticketType":"STANDARD"},{"id":"1222","name":"Ideal Theatre","address":"607 McEwan","city":"Clare","state":"MI","zip":"48617","distance":"19.74947738647461","lon":"-84.768478","lat":"43.819733","theaterChainName":"Independent Chains","ticketType":"STANDARD"},{"id":"3049","name":"Celebration! Cinema, Mt. Pleasant","address":"4395 E. Pickard","city":"Mount Pleasant","state":"MI","zip":"48858","distance":"9.142090797424316","lon":"-84.758492","lat":"43.611862","theaterChainName":"Celebration! Cinema","ticketType":"STANDARD"},{"id":"1216","name":"Alma Cinemas 4","address":"3002 W Monroe","city":"Alma","state":"MI","zip":"48801","distance":"11.58301067352295","lon":"-84.667625","lat":"43.408524","theaterChainName":"NCG Cinemas","ticketType":"STANDARD"}]