[{"id":"1003","tribuneTheaterId":"4870","providerTheaterId":"","name":"Goodrich Hastings 4","address":"213 West State Street","city":"Hastings","state":"MI","zip":"49058","distance":8.8901034011382,"lon":"-85.289604","lat":"42.648848","theaterChainName":"Goodrich Theatres","ticketType":"E_TICKET"},{"id":"980","tribuneTheaterId":"1453","providerTheaterId":"","name":"Eaton Theaters","address":"235 S Cochran Street","city":"Charlotte","state":"MI","zip":"48813","distance":18.072218065669,"lon":"-84.8358","lat":"42.5617","theaterChainName":"Independent Chains","ticketType":"STANDARD"},{"id":"1230","tribuneTheaterId":"252","providerTheaterId":"","name":"Sun Theatre - Grand Ledge","address":"316 South Bridge Street","city":"Grand Ledge","state":"MI","zip":"48837","distance":19.838276607432,"lon":"-84.747053","lat":"42.752941","theaterChainName":"Independent Chains","ticketType":"STANDARD"},{"id":"1009","tribuneTheaterId":"4872","providerTheaterId":"","name":"Goodrich Ada-Lowell 5 Theatre","address":"2175 West Main Street","city":"Lowell","state":"MI","zip":"49331","distance":19.542145286311,"lon":"-85.363703","lat":"42.93211","theaterChainName":"Goodrich Theatres","ticketType":"E_TICKET"},{"id":"984","tribuneTheaterId":"219","providerTheaterId":"","name":"Ionia Theatre","address":"209 West Main Street","city":"Ionia","state":"MI","zip":"48846","distance":19.416787008307,"lon":"-85.064475","lat":"42.982248","theaterChainName":"Independent Chains","ticketType":"STANDARD"}]