[{"id":"1230","name":"Sun Theatre - Grand Ledge","address":"316 South Bridge Street","city":"Grand Ledge","state":"MI","zip":"48837","distance":"19.8393497467041","lon":"-84.747055","lat":"42.752941","theaterChainName":"Independent Chains","ticketType":"STANDARD"},{"id":"984","name":"Ionia Theatre","address":"209 West Main Street","city":"Ionia","state":"MI","zip":"48846","distance":"19.41786766052246","lon":"-85.064476","lat":"42.982246","theaterChainName":"Independent Chains","ticketType":"STANDARD"},{"id":"980","name":"Eaton Theaters","address":"235 S Cochran Street","city":"Charlotte","state":"MI","zip":"48813","distance":"18.073322296142578","lon":"-84.835800","lat":"42.561699","theaterChainName":"Independent Chains","ticketType":"STANDARD"},{"id":"1003","name":"Goodrich Hastings 4","address":"213 West State Street","city":"Hastings","state":"MI","zip":"49058","distance":"8.890666007995605","lon":"-85.289604","lat":"42.648849","theaterChainName":"Goodrich Theatres","ticketType":"E_TICKET"},{"id":"1009","name":"Goodrich Ada-Lowell 5 Theatre","address":"2175 West Main Street","city":"Lowell","state":"MI","zip":"49331","distance":"19.54332160949707","lon":"-85.363701","lat":"42.932110","theaterChainName":"Goodrich Theatres","ticketType":"E_TICKET"}]