[{"id":"984","tribuneTheaterId":"219","providerTheaterId":"","name":"Ionia Theatre","address":"209 West Main Street","city":"Ionia","state":"MI","zip":"48846","distance":13.396854935099,"lon":"-85.064475","lat":"42.982248","theaterChainName":"Independent Chains","ticketType":"STANDARD"},{"id":"1230","tribuneTheaterId":"252","providerTheaterId":"","name":"Sun Theatre - Grand Ledge","address":"316 South Bridge Street","city":"Grand Ledge","state":"MI","zip":"48837","distance":12.808554172786,"lon":"-84.747053","lat":"42.752941","theaterChainName":"Independent Chains","ticketType":"STANDARD"},{"id":"5517","tribuneTheaterId":"10941","providerTheaterId":"","name":"Lansing Mall Stadium 12 RPX","address":"5330 W. Saginaw Hwy","city":"Lansing","state":"MI","zip":"48917","distance":16.170654531694,"lon":"-84.6254","lat":"42.741","theaterChainName":"Regal Cinemas","ticketType":"STANDARD"},{"id":"3576","tribuneTheaterId":"6083","providerTheaterId":"","name":"NCG Eastwood Cinema","address":"2500 Showtime Drive","city":"Lansing","state":"MI","zip":"48912","distance":18.828823919413,"lon":"-84.515446","lat":"42.764976","theaterChainName":"NCG Cinemas","ticketType":"STANDARD"},{"id":"1760","tribuneTheaterId":"3246","providerTheaterId":"","name":"Celebration! Cinema, Lansing","address":"200 E. Edgewood Blvd.","city":"Lansing","state":"MI","zip":"48911","distance":22.972052506663,"lon":"-84.549754","lat":"42.65976","theaterChainName":"Celebration! Cinema","ticketType":"STANDARD"},{"id":"5363","tribuneTheaterId":"10802","providerTheaterId":"","name":"Studio C! Meridian Mall","address":"1999 Central Park Drive","city":"Okemos","state":"MI","zip":"48864","distance":24.157083915005,"lon":"-84.4225","lat":"42.7274","theaterChainName":"Independent Chains","ticketType":"STANDARD"}]