[{"id":"5939","tribuneTheaterId":"11371","providerTheaterId":"","name":"JC Cinema","address":"15375 Helmer Rd. South","city":"Battle Creek","state":"MI","zip":"49015","distance":1.4478432343529,"lon":"-85.239164","lat":"42.295128","theaterChainName":"Independent Chains","ticketType":"STANDARD"},{"id":"989","tribuneTheaterId":"4876","providerTheaterId":"","name":"Goodrich West Columbia 7","address":"2500 West Columbia","city":"Battle Creek","state":"MI","zip":"49015","distance":1.8081688360799,"lon":"-85.247651","lat":"42.29828","theaterChainName":"Goodrich Theatres","ticketType":"E_TICKET"},{"id":"988","tribuneTheaterId":"4970","providerTheaterId":"","name":"Carmike Lakeview Square 10","address":"5775 Beckley Road","city":"Battle Creek","state":"MI","zip":"49015","distance":3.1510530097587,"lon":"-85.183793","lat":"42.262559","theaterChainName":"Carmike Cinemas","ticketType":"STANDARD"},{"id":"5909","tribuneTheaterId":"11333","providerTheaterId":"","name":"NCG Battle Creek","address":"5775 Beckley","city":"Battle Creek","state":"MI","zip":"49015","distance":3.0812345155483,"lon":"-85.186038","lat":"42.262841","theaterChainName":"NCG Cinemas","ticketType":"STANDARD"},{"id":"1004","tribuneTheaterId":"1085","providerTheaterId":"","name":"Bogar Theatre","address":"223 East Michigan","city":"Marshall","state":"MI","zip":"49068","distance":13.25045034653,"lon":"-84.956878","lat":"42.272238","theaterChainName":"Independent Chains","ticketType":"STANDARD"},{"id":"5323","tribuneTheaterId":"10760","providerTheaterId":"","name":"Alamo Drafthouse Kalamazoo","address":"180 Portage St.","city":"Kalamazoo","state":"MI","zip":"49007","distance":18.820210839066,"lon":"-85.5807","lat":"42.2908","theaterChainName":"Alamo Drafthouse","ticketType":"STANDARD"},{"id":"263","tribuneTheaterId":"6410","providerTheaterId":"","name":"Celebration! Cinema Crossroads, Portage","address":"6600 Ring Road","city":"Portage","state":"MI","zip":"49024","distance":20.511241899937,"lon":"-85.598415","lat":"42.22105","theaterChainName":"Celebration! Cinema","ticketType":"STANDARD"},{"id":"986","tribuneTheaterId":"4885","providerTheaterId":"","name":"Goodrich Kalamazoo 10","address":"820 Maple Hill Drive","city":"Kalamazoo","state":"MI","zip":"49009","distance":22.714392870864,"lon":"-85.657237","lat":"42.298144","theaterChainName":"Goodrich Theatres","ticketType":"E_TICKET"},{"id":"5510","tribuneTheaterId":"1457","providerTheaterId":"","name":"Bohm Theatre","address":"201 South Superior Street","city":"Albion","state":"MI","zip":"49224","distance":23.865054706828,"lon":"-84.752692","lat":"42.244526","theaterChainName":"Independent Chains","ticketType":"STANDARD"},{"id":"1003","tribuneTheaterId":"4870","providerTheaterId":"","name":"Goodrich Hastings 4","address":"213 West State Street","city":"Hastings","state":"MI","zip":"49058","distance":24.227835329806,"lon":"-85.289604","lat":"42.648848","theaterChainName":"Goodrich Theatres","ticketType":"E_TICKET"}]