[{"id":"998","name":"Celebration! Cinema, Benton Harbor","address":"1468 Cinema Way","city":"Benton Harbor","state":"MI","zip":"49022","distance":"23.083765029907227","lon":"-86.422783","lat":"42.076401","theaterChainName":"Celebration! Cinema","ticketType":"STANDARD"},{"id":"1005","name":"M-89 Cinema","address":"392 Cross Oaks Mall","city":"Otsego","state":"MI","zip":"49080","distance":"24.97504425048828","lon":"-85.668022","lat":"42.448097","theaterChainName":"Independent Chains","ticketType":"STANDARD"},{"id":"986","name":"Goodrich Kalamazoo 10","address":"820 Maple Hill Drive","city":"Kalamazoo","state":"MI","zip":"49009","distance":"24.319719314575195","lon":"-85.657234","lat":"42.298145","theaterChainName":"Goodrich Theatres","ticketType":"E_TICKET"},{"id":"1006","name":"Strand Theatre - Paw Paw","address":"115 East Michigan","city":"Paw Paw","state":"MI","zip":"49079","distance":"14.519468307495117","lon":"-85.891945","lat":"42.217888","theaterChainName":"Independent Chains","ticketType":"STANDARD"},{"id":"1007","name":"Michigan 3 Theatres","address":"210 Center Street","city":"South Haven","state":"MI","zip":"49090","distance":"8.878668785095215","lon":"-86.274193","lat":"42.404236","theaterChainName":"Independent Chains","ticketType":"STANDARD"},{"id":"1000","name":"Loma Theatre","address":"221 Paw Paw Street","city":"Coloma","state":"MI","zip":"49038","distance":"13.326614379882812","lon":"-86.305901","lat":"42.188156","theaterChainName":"Independent Chains","ticketType":"STANDARD"}]