[{"id":"1004","name":"Bogar Theatre","address":"223 East Michigan","city":"Marshall","state":"MI","zip":"49068","distance":"13.251164436340332","lon":"-84.956879","lat":"42.272240","theaterChainName":"Independent Chains","ticketType":"STANDARD"},{"id":"5510","name":"Bohm Theatre","address":"201 South Superior Street","city":"Albion","state":"MI","zip":"49224","distance":"23.86642074584961","lon":"-84.752693","lat":"42.244526","theaterChainName":"Independent Chains","ticketType":"STANDARD"},{"id":"988","name":"Carmike Lakeview Square 10","address":"5775 Beckley Road","city":"Battle Creek","state":"MI","zip":"49015","distance":"3.151262044906616","lon":"-85.183792","lat":"42.262558","theaterChainName":"Carmike Cinemas","ticketType":"STANDARD"},{"id":"5909","name":"NCG Battle Creek","address":"5775 Beckley","city":"Battle Creek","state":"MI","zip":"49015","distance":"3.0814661979675293","lon":"-85.186035","lat":"42.262840","theaterChainName":"NCG Cinemas","ticketType":"STANDARD"},{"id":"1003","name":"Goodrich Hastings 4","address":"213 West State Street","city":"Hastings","state":"MI","zip":"49058","distance":"24.22949981689453","lon":"-85.289604","lat":"42.648849","theaterChainName":"Goodrich Theatres","ticketType":"E_TICKET"},{"id":"5939","name":"JC Cinema","address":"15375 Helmer Rd. South","city":"Battle Creek","state":"MI","zip":"49015","distance":"1.4480682611465454","lon":"-85.239166","lat":"42.295128","theaterChainName":"Independent Chains","ticketType":"STANDARD"},{"id":"989","name":"Goodrich West Columbia 7","address":"2500 West Columbia","city":"Battle Creek","state":"MI","zip":"49015","distance":"1.808289647102356","lon":"-85.247650","lat":"42.298279","theaterChainName":"Goodrich Theatres","ticketType":"E_TICKET"},{"id":"263","name":"Celebration! Cinema Crossroads, Portage","address":"6600 Ring Road","city":"Portage","state":"MI","zip":"49024","distance":"20.51236915588379","lon":"-85.598412","lat":"42.221050","theaterChainName":"Celebration! Cinema","ticketType":"STANDARD"},{"id":"5323","name":"Alamo Drafthouse Kalamazoo","address":"180 Portage St.","city":"Kalamazoo","state":"MI","zip":"49007","distance":"18.821619033813477","lon":"-85.580704","lat":"42.290798","theaterChainName":"Alamo Drafthouse","ticketType":"STANDARD"},{"id":"986","name":"Goodrich Kalamazoo 10","address":"820 Maple Hill Drive","city":"Kalamazoo","state":"MI","zip":"49009","distance":"22.715702056884766","lon":"-85.657234","lat":"42.298145","theaterChainName":"Goodrich Theatres","ticketType":"E_TICKET"}]