[{"id":"1005","tribuneTheaterId":"1905","providerTheaterId":"","name":"M-89 Cinema","address":"392 Cross Oaks Mall","city":"Otsego","state":"MI","zip":"49080","distance":11.425120526496,"lon":"-85.668019","lat":"42.448099","theaterChainName":"Independent Chains","ticketType":"STANDARD"},{"id":"986","tribuneTheaterId":"4885","providerTheaterId":"","name":"Goodrich Kalamazoo 10","address":"820 Maple Hill Drive","city":"Kalamazoo","state":"MI","zip":"49009","distance":18.986941619228,"lon":"-85.657237","lat":"42.298144","theaterChainName":"Goodrich Theatres","ticketType":"E_TICKET"},{"id":"1010","tribuneTheaterId":"5833","providerTheaterId":"","name":"Goodrich Holland 7 Theatres","address":"500 Waverly Road","city":"Holland","state":"MI","zip":"49423","distance":20.600235789996,"lon":"-86.0796","lat":"42.779051","theaterChainName":"Goodrich Theatres","ticketType":"SELECT_SEATING"},{"id":"1011","tribuneTheaterId":"225","providerTheaterId":"","name":"Knickerbocker Theatre","address":"86 East 8th Street","city":"Holland","state":"MI","zip":"49423","distance":21.896929638278,"lon":"-86.103268","lat":"42.790206","theaterChainName":"Independent Chains","ticketType":"STANDARD"},{"id":"1006","tribuneTheaterId":"223","providerTheaterId":"","name":"Strand Theatre - Paw Paw","address":"115 East Michigan","city":"Paw Paw","state":"MI","zip":"49079","distance":21.301654584796,"lon":"-85.891943","lat":"42.217889","theaterChainName":"Independent Chains","ticketType":"STANDARD"},{"id":"1007","tribuneTheaterId":"1456","providerTheaterId":"","name":"Michigan 3 Theatres","address":"210 Center Street","city":"South Haven","state":"MI","zip":"49090","distance":22.426918908695,"lon":"-86.274192","lat":"42.404234","theaterChainName":"Independent Chains","ticketType":"STANDARD"},{"id":"332","tribuneTheaterId":"7636","providerTheaterId":"2907","name":"AMC Star Holland 8","address":"12270 James Street","city":"Holland","state":"MI","zip":"49424","distance":22.434162130135,"lon":"-86.08469","lat":"42.80772","theaterChainName":"AMC Theatres","ticketType":"STANDARD"},{"id":"5323","tribuneTheaterId":"10760","providerTheaterId":"","name":"Alamo Drafthouse Kalamazoo","address":"180 Portage St.","city":"Kalamazoo","state":"MI","zip":"49007","distance":21.798570865458,"lon":"-85.5807","lat":"42.2908","theaterChainName":"Alamo Drafthouse","ticketType":"STANDARD"}]