[{"id":"1228","name":"Wonderland Cinema","address":"402 N. Front Street","city":"Niles","state":"MI","zip":"49120","distance":"22.064302444458008","lon":"-86.259048","lat":"41.832241","theaterChainName":"Independent Chains","ticketType":"STANDARD"},{"id":"998","name":"Celebration! Cinema, Benton Harbor","address":"1468 Cinema Way","city":"Benton Harbor","state":"MI","zip":"49022","distance":"3.2168922424316406","lon":"-86.422783","lat":"42.076401","theaterChainName":"Celebration! Cinema","ticketType":"STANDARD"},{"id":"1007","name":"Michigan 3 Theatres","address":"210 Center Street","city":"South Haven","state":"MI","zip":"49090","distance":"21.897018432617188","lon":"-86.274193","lat":"42.404236","theaterChainName":"Independent Chains","ticketType":"STANDARD"},{"id":"1000","name":"Loma Theatre","address":"221 Paw Paw Street","city":"Coloma","state":"MI","zip":"49038","distance":"9.06042766571045","lon":"-86.305901","lat":"42.188156","theaterChainName":"Independent Chains","ticketType":"STANDARD"}]