[{"id":"980","name":"Eaton Theaters","address":"235 S Cochran Street","city":"Charlotte","state":"MI","zip":"48813","distance":"13.219661712646484","lon":"-84.835800","lat":"42.561699","theaterChainName":"Independent Chains","ticketType":"STANDARD"},{"id":"1004","name":"Bogar Theatre","address":"223 East Michigan","city":"Marshall","state":"MI","zip":"49068","distance":"13.312087059020996","lon":"-84.956879","lat":"42.272240","theaterChainName":"Independent Chains","ticketType":"STANDARD"},{"id":"5510","name":"Bohm Theatre","address":"201 South Superior Street","city":"Albion","state":"MI","zip":"49224","distance":"20.86420249938965","lon":"-84.752693","lat":"42.244526","theaterChainName":"Independent Chains","ticketType":"STANDARD"},{"id":"988","name":"Carmike Lakeview Square 10","address":"5775 Beckley Road","city":"Battle Creek","state":"MI","zip":"49015","distance":"14.822054862976074","lon":"-85.183792","lat":"42.262558","theaterChainName":"Carmike Cinemas","ticketType":"STANDARD"},{"id":"5909","name":"NCG Battle Creek","address":"5775 Beckley","city":"Battle Creek","state":"MI","zip":"49015","distance":"14.85840892791748","lon":"-85.186035","lat":"42.262840","theaterChainName":"NCG Cinemas","ticketType":"STANDARD"},{"id":"1003","name":"Goodrich Hastings 4","address":"213 West State Street","city":"Hastings","state":"MI","zip":"49058","distance":"18.281124114990234","lon":"-85.289604","lat":"42.648849","theaterChainName":"Goodrich Theatres","ticketType":"E_TICKET"},{"id":"5939","name":"JC Cinema","address":"15375 Helmer Rd. South","city":"Battle Creek","state":"MI","zip":"49015","distance":"14.580084800720215","lon":"-85.239166","lat":"42.295128","theaterChainName":"Independent Chains","ticketType":"STANDARD"},{"id":"989","name":"Goodrich West Columbia 7","address":"2500 West Columbia","city":"Battle Creek","state":"MI","zip":"49015","distance":"14.713471412658691","lon":"-85.247650","lat":"42.298279","theaterChainName":"Goodrich Theatres","ticketType":"E_TICKET"}]