[{"id":"1007","tribuneTheaterId":"1456","providerTheaterId":"","name":"Michigan 3 Theatres","address":"210 Center Street","city":"South Haven","state":"MI","zip":"49090","distance":11.040646533236,"lon":"-86.274192","lat":"42.404234","theaterChainName":"Independent Chains","ticketType":"STANDARD"},{"id":"1006","tribuneTheaterId":"223","providerTheaterId":"","name":"Strand Theatre - Paw Paw","address":"115 East Michigan","city":"Paw Paw","state":"MI","zip":"49079","distance":12.812153202806,"lon":"-85.891943","lat":"42.217889","theaterChainName":"Independent Chains","ticketType":"STANDARD"},{"id":"1000","tribuneTheaterId":"1455","providerTheaterId":"","name":"Loma Theatre","address":"221 Paw Paw Street","city":"Coloma","state":"MI","zip":"49038","distance":16.189797277523,"lon":"-86.305903","lat":"42.188158","theaterChainName":"Independent Chains","ticketType":"STANDARD"},{"id":"1005","tribuneTheaterId":"1905","providerTheaterId":"","name":"M-89 Cinema","address":"392 Cross Oaks Mall","city":"Otsego","state":"MI","zip":"49080","distance":21.799587616768,"lon":"-85.668019","lat":"42.448099","theaterChainName":"Independent Chains","ticketType":"STANDARD"},{"id":"986","tribuneTheaterId":"4885","providerTheaterId":"","name":"Goodrich Kalamazoo 10","address":"820 Maple Hill Drive","city":"Kalamazoo","state":"MI","zip":"49009","distance":21.475357320217,"lon":"-85.657237","lat":"42.298144","theaterChainName":"Goodrich Theatres","ticketType":"E_TICKET"}]