[{"id":"1003","tribuneTheaterId":"4870","providerTheaterId":"","name":"Goodrich Hastings 4","address":"213 West State Street","city":"Hastings","state":"MI","zip":"49058","distance":3.8371555509208,"lon":"-85.289604","lat":"42.648848","theaterChainName":"Goodrich Theatres","ticketType":"E_TICKET"},{"id":"989","tribuneTheaterId":"4876","providerTheaterId":"","name":"Goodrich West Columbia 7","address":"2500 West Columbia","city":"Battle Creek","state":"MI","zip":"49015","distance":20.742358626454,"lon":"-85.247651","lat":"42.29828","theaterChainName":"Goodrich Theatres","ticketType":"E_TICKET"},{"id":"1005","tribuneTheaterId":"1905","providerTheaterId":"","name":"M-89 Cinema","address":"392 Cross Oaks Mall","city":"Otsego","state":"MI","zip":"49080","distance":20.932080776388,"lon":"-85.668019","lat":"42.448099","theaterChainName":"Independent Chains","ticketType":"STANDARD"},{"id":"5939","tribuneTheaterId":"11371","providerTheaterId":"","name":"JC Cinema","address":"15375 Helmer Rd. South","city":"Battle Creek","state":"MI","zip":"49015","distance":21.026235658615,"lon":"-85.239164","lat":"42.295128","theaterChainName":"Independent Chains","ticketType":"STANDARD"},{"id":"5909","tribuneTheaterId":"11333","providerTheaterId":"","name":"NCG Battle Creek","address":"5775 Beckley","city":"Battle Creek","state":"MI","zip":"49015","distance":23.792570987433,"lon":"-85.186038","lat":"42.262841","theaterChainName":"NCG Cinemas","ticketType":"STANDARD"},{"id":"988","tribuneTheaterId":"4970","providerTheaterId":"","name":"Carmike Lakeview Square 10","address":"5775 Beckley Road","city":"Battle Creek","state":"MI","zip":"49015","distance":23.841685260104,"lon":"-85.183793","lat":"42.262559","theaterChainName":"Carmike Cinemas","ticketType":"STANDARD"},{"id":"1009","tribuneTheaterId":"4872","providerTheaterId":"","name":"Goodrich Ada-Lowell 5 Theatre","address":"2175 West Main Street","city":"Lowell","state":"MI","zip":"49331","distance":23.45229539337,"lon":"-85.363703","lat":"42.93211","theaterChainName":"Goodrich Theatres","ticketType":"E_TICKET"},{"id":"4140","tribuneTheaterId":"2387","providerTheaterId":"","name":"Celebration! Cinema-South","address":"1506 Eastport Drive SE","city":"Grand Rapids","state":"MI","zip":"49508","distance":23.912452848202,"lon":"-85.628203","lat":"42.849361","theaterChainName":"Celebration! Cinema","ticketType":"STANDARD"},{"id":"980","tribuneTheaterId":"1453","providerTheaterId":"","name":"Eaton Theaters","address":"235 S Cochran Street","city":"Charlotte","state":"MI","zip":"48813","distance":24.165059711708,"lon":"-84.8358","lat":"42.5617","theaterChainName":"Independent Chains","ticketType":"STANDARD"}]