[{"id":"1520","name":"AMC Showplace South Bend 16","address":"450 W. Chippewa","city":"South Bend","state":"IN","zip":"46614","distance":"22.700965881347656","lon":"-86.255623","lat":"41.633438","theaterChainName":"AMC Theatres","ticketType":"STANDARD"},{"id":"1228","name":"Wonderland Cinema","address":"402 N. Front Street","city":"Niles","state":"MI","zip":"49120","distance":"14.433106422424316","lon":"-86.259048","lat":"41.832241","theaterChainName":"Independent Chains","ticketType":"STANDARD"},{"id":"1357","name":"Cinemark Movies 14 Mishawaka","address":"910 West Edison","city":"Mishawaka","state":"IN","zip":"46545","distance":"17.308744430541992","lon":"-86.194580","lat":"41.696781","theaterChainName":"Cinemark","ticketType":"STANDARD"},{"id":"707","name":"Cinemark University Park 6","address":"6424 Grape Road","city":"Mishawaka","state":"IN","zip":"46545","distance":"15.899393081665039","lon":"-86.187599","lat":"41.718601","theaterChainName":"Cinemark","ticketType":"STANDARD"},{"id":"2221","name":"Carmike Encore Park 14","address":"2701 Cassopolis St.","city":"Elkhart","state":"IN","zip":"46514","distance":"12.129912376403809","lon":"-85.973831","lat":"41.721794","theaterChainName":"Carmike Cinemas","ticketType":"STANDARD"},{"id":"1756","name":"Linway Plaza Cinema 14","address":"514 West Lincoln Avenue","city":"Goshen","state":"IN","zip":"46526","distance":"22.85942840576172","lon":"-85.843620","lat":"41.585129","theaterChainName":"Independent Chains","ticketType":"STANDARD"},{"id":"5465","name":"Goshen Art House Cinema","address":"211 S. Main St. Floor 2","city":"Goshen","state":"IN","zip":"46528","distance":"23.05003547668457","lon":"-85.834946","lat":"41.584560","theaterChainName":"Independent Chains","ticketType":"STANDARD"},{"id":"4939","name":"Riviera Theatre - Three Rivers","address":"50 North Main St.","city":"Three Rivers","state":"MI","zip":"49093","distance":"18.704936981201172","lon":"-85.634392","lat":"41.945381","theaterChainName":"Independent Chains","ticketType":"STANDARD"},{"id":"1008","name":"Goodrich Three Rivers 6","address":"120 Enterprise Drive","city":"Three Rivers","state":"MI","zip":"49093","distance":"19.094491958618164","lon":"-85.633598","lat":"41.968601","theaterChainName":"Goodrich Theatres","ticketType":"E_TICKET"},{"id":"1006","name":"Strand Theatre - Paw Paw","address":"115 East Michigan","city":"Paw Paw","state":"MI","zip":"49079","distance":"22.775896072387695","lon":"-85.891945","lat":"42.217888","theaterChainName":"Independent Chains","ticketType":"STANDARD"}]