[{"id":"980","name":"Eaton Theaters","address":"235 S Cochran Street","city":"Charlotte","state":"MI","zip":"48813","distance":"21.471477508544922","lon":"-84.835800","lat":"42.561699","theaterChainName":"Independent Chains","ticketType":"STANDARD"},{"id":"1004","name":"Bogar Theatre","address":"223 East Michigan","city":"Marshall","state":"MI","zip":"49068","distance":"21.770893096923828","lon":"-84.956879","lat":"42.272240","theaterChainName":"Independent Chains","ticketType":"STANDARD"},{"id":"988","name":"Carmike Lakeview Square 10","address":"5775 Beckley Road","city":"Battle Creek","state":"MI","zip":"49015","distance":"16.847402572631836","lon":"-85.183792","lat":"42.262558","theaterChainName":"Carmike Cinemas","ticketType":"STANDARD"},{"id":"5909","name":"NCG Battle Creek","address":"5775 Beckley","city":"Battle Creek","state":"MI","zip":"49015","distance":"16.805845260620117","lon":"-85.186035","lat":"42.262840","theaterChainName":"NCG Cinemas","ticketType":"STANDARD"},{"id":"1003","name":"Goodrich Hastings 4","address":"213 West State Street","city":"Hastings","state":"MI","zip":"49058","distance":"10.384064674377441","lon":"-85.289604","lat":"42.648849","theaterChainName":"Goodrich Theatres","ticketType":"E_TICKET"},{"id":"5939","name":"JC Cinema","address":"15375 Helmer Rd. South","city":"Battle Creek","state":"MI","zip":"49015","distance":"14.269497871398926","lon":"-85.239166","lat":"42.295128","theaterChainName":"Independent Chains","ticketType":"STANDARD"},{"id":"989","name":"Goodrich West Columbia 7","address":"2500 West Columbia","city":"Battle Creek","state":"MI","zip":"49015","distance":"14.042352676391602","lon":"-85.247650","lat":"42.298279","theaterChainName":"Goodrich Theatres","ticketType":"E_TICKET"},{"id":"1005","name":"M-89 Cinema","address":"392 Cross Oaks Mall","city":"Otsego","state":"MI","zip":"49080","distance":"21.646791458129883","lon":"-85.668022","lat":"42.448097","theaterChainName":"Independent Chains","ticketType":"STANDARD"},{"id":"5323","name":"Alamo Drafthouse Kalamazoo","address":"180 Portage St.","city":"Kalamazoo","state":"MI","zip":"49007","distance":"22.307092666625977","lon":"-85.580704","lat":"42.290798","theaterChainName":"Alamo Drafthouse","ticketType":"STANDARD"}]