[{"id":"988","tribuneTheaterId":"4970","providerTheaterId":"","name":"Carmike Lakeview Square 10","address":"5775 Beckley Road","city":"Battle Creek","state":"MI","zip":"49015","distance":5.1906626131553,"lon":"-85.183793","lat":"42.262559","theaterChainName":"Carmike Cinemas","ticketType":"STANDARD"},{"id":"5909","tribuneTheaterId":"11333","providerTheaterId":"","name":"NCG Battle Creek","address":"5775 Beckley","city":"Battle Creek","state":"MI","zip":"49015","distance":5.155531022068,"lon":"-85.186038","lat":"42.262841","theaterChainName":"NCG Cinemas","ticketType":"STANDARD"},{"id":"989","tribuneTheaterId":"4876","providerTheaterId":"","name":"Goodrich West Columbia 7","address":"2500 West Columbia","city":"Battle Creek","state":"MI","zip":"49015","distance":7.1105237545716,"lon":"-85.247651","lat":"42.29828","theaterChainName":"Goodrich Theatres","ticketType":"E_TICKET"},{"id":"5939","tribuneTheaterId":"11371","providerTheaterId":"","name":"JC Cinema","address":"15375 Helmer Rd. South","city":"Battle Creek","state":"MI","zip":"49015","distance":6.8545919532845,"lon":"-85.239164","lat":"42.295128","theaterChainName":"Independent Chains","ticketType":"STANDARD"},{"id":"1004","tribuneTheaterId":"1085","providerTheaterId":"","name":"Bogar Theatre","address":"223 East Michigan","city":"Marshall","state":"MI","zip":"49068","distance":14.982283689189,"lon":"-84.956878","lat":"42.272238","theaterChainName":"Independent Chains","ticketType":"STANDARD"},{"id":"5323","tribuneTheaterId":"10760","providerTheaterId":"","name":"Alamo Drafthouse Kalamazoo","address":"180 Portage St.","city":"Kalamazoo","state":"MI","zip":"49007","distance":19.0413260608,"lon":"-85.5807","lat":"42.2908","theaterChainName":"Alamo Drafthouse","ticketType":"STANDARD"},{"id":"263","tribuneTheaterId":"6410","providerTheaterId":"","name":"Celebration! Cinema Crossroads, Portage","address":"6600 Ring Road","city":"Portage","state":"MI","zip":"49024","distance":18.877195659264,"lon":"-85.598415","lat":"42.22105","theaterChainName":"Celebration! Cinema","ticketType":"STANDARD"},{"id":"986","tribuneTheaterId":"4885","providerTheaterId":"","name":"Goodrich Kalamazoo 10","address":"820 Maple Hill Drive","city":"Kalamazoo","state":"MI","zip":"49009","distance":22.907381678681,"lon":"-85.657237","lat":"42.298144","theaterChainName":"Goodrich Theatres","ticketType":"E_TICKET"},{"id":"2561","tribuneTheaterId":"6408","providerTheaterId":"","name":"Coldwater Cinema","address":"414 N. Willowbrook Rd.","city":"Coldwater","state":"MI","zip":"49036","distance":21.926802509838,"lon":"-84.971872","lat":"41.943748","theaterChainName":"NCG Cinemas","ticketType":"STANDARD"},{"id":"5510","tribuneTheaterId":"1457","providerTheaterId":"","name":"Bohm Theatre","address":"201 South Superior Street","city":"Albion","state":"MI","zip":"49224","distance":24.706839189355,"lon":"-84.752692","lat":"42.244526","theaterChainName":"Independent Chains","ticketType":"STANDARD"}]