[{"id":"1003","tribuneTheaterId":"4870","providerTheaterId":"","name":"Goodrich Hastings 4","address":"213 West State Street","city":"Hastings","state":"MI","zip":"49058","distance":0.45452813521578,"lon":"-85.289604","lat":"42.648848","theaterChainName":"Goodrich Theatres","ticketType":"E_TICKET"},{"id":"1009","tribuneTheaterId":"4872","providerTheaterId":"","name":"Goodrich Ada-Lowell 5 Theatre","address":"2175 West Main Street","city":"Lowell","state":"MI","zip":"49331","distance":20.28848346152,"lon":"-85.363703","lat":"42.93211","theaterChainName":"Goodrich Theatres","ticketType":"E_TICKET"},{"id":"4140","tribuneTheaterId":"2387","providerTheaterId":"","name":"Celebration! Cinema-South","address":"1506 Eastport Drive SE","city":"Grand Rapids","state":"MI","zip":"49508","distance":22.166742295377,"lon":"-85.628203","lat":"42.849361","theaterChainName":"Celebration! Cinema","ticketType":"STANDARD"},{"id":"1005","tribuneTheaterId":"1905","providerTheaterId":"","name":"M-89 Cinema","address":"392 Cross Oaks Mall","city":"Otsego","state":"MI","zip":"49080","distance":23.3325026593,"lon":"-85.668019","lat":"42.448099","theaterChainName":"Independent Chains","ticketType":"STANDARD"},{"id":"4388","tribuneTheaterId":"9432","providerTheaterId":"","name":"Celebration! Cinema Woodland","address":"3195 28th St. SE","city":"Grand Rapids","state":"MI","zip":"49512","distance":23.980393475081,"lon":"-85.587745","lat":"42.914809","theaterChainName":"Celebration! Cinema","ticketType":"STANDARD"},{"id":"989","tribuneTheaterId":"4876","providerTheaterId":"","name":"Goodrich West Columbia 7","address":"2500 West Columbia","city":"Battle Creek","state":"MI","zip":"49015","distance":23.933187156572,"lon":"-85.247651","lat":"42.29828","theaterChainName":"Goodrich Theatres","ticketType":"E_TICKET"},{"id":"5939","tribuneTheaterId":"11371","providerTheaterId":"","name":"JC Cinema","address":"15375 Helmer Rd. South","city":"Battle Creek","state":"MI","zip":"49015","distance":24.19580049649,"lon":"-85.239164","lat":"42.295128","theaterChainName":"Independent Chains","ticketType":"STANDARD"},{"id":"980","tribuneTheaterId":"1453","providerTheaterId":"","name":"Eaton Theaters","address":"235 S Cochran Street","city":"Charlotte","state":"MI","zip":"48813","distance":23.955500852213,"lon":"-84.8358","lat":"42.5617","theaterChainName":"Independent Chains","ticketType":"STANDARD"}]