[{"id":"2561","name":"Coldwater Cinema","address":"414 N. Willowbrook Rd.","city":"Coldwater","state":"MI","zip":"49036","distance":"20.287904739379883","lon":"-84.971870","lat":"41.943748","theaterChainName":"NCG Cinemas","ticketType":"STANDARD"},{"id":"4939","name":"Riviera Theatre - Three Rivers","address":"50 North Main St.","city":"Three Rivers","state":"MI","zip":"49093","distance":"15.731990814208984","lon":"-85.634392","lat":"41.945381","theaterChainName":"Independent Chains","ticketType":"STANDARD"},{"id":"1008","name":"Goodrich Three Rivers 6","address":"120 Enterprise Drive","city":"Three Rivers","state":"MI","zip":"49093","distance":"15.171454429626465","lon":"-85.633598","lat":"41.968601","theaterChainName":"Goodrich Theatres","ticketType":"E_TICKET"},{"id":"988","name":"Carmike Lakeview Square 10","address":"5775 Beckley Road","city":"Battle Creek","state":"MI","zip":"49015","distance":"18.21535301208496","lon":"-85.183792","lat":"42.262558","theaterChainName":"Carmike Cinemas","ticketType":"STANDARD"},{"id":"5909","name":"NCG Battle Creek","address":"5775 Beckley","city":"Battle Creek","state":"MI","zip":"49015","distance":"18.179311752319336","lon":"-85.186035","lat":"42.262840","theaterChainName":"NCG Cinemas","ticketType":"STANDARD"},{"id":"5939","name":"JC Cinema","address":"15375 Helmer Rd. South","city":"Battle Creek","state":"MI","zip":"49015","distance":"19.21415138244629","lon":"-85.239166","lat":"42.295128","theaterChainName":"Independent Chains","ticketType":"STANDARD"},{"id":"989","name":"Goodrich West Columbia 7","address":"2500 West Columbia","city":"Battle Creek","state":"MI","zip":"49015","distance":"19.300094604492188","lon":"-85.247650","lat":"42.298279","theaterChainName":"Goodrich Theatres","ticketType":"E_TICKET"},{"id":"263","name":"Celebration! Cinema Crossroads, Portage","address":"6600 Ring Road","city":"Portage","state":"MI","zip":"49024","distance":"18.380043029785156","lon":"-85.598412","lat":"42.221050","theaterChainName":"Celebration! Cinema","ticketType":"STANDARD"},{"id":"5323","name":"Alamo Drafthouse Kalamazoo","address":"180 Portage St.","city":"Kalamazoo","state":"MI","zip":"49007","distance":"21.592374801635742","lon":"-85.580704","lat":"42.290798","theaterChainName":"Alamo Drafthouse","ticketType":"STANDARD"},{"id":"986","name":"Goodrich Kalamazoo 10","address":"820 Maple Hill Drive","city":"Kalamazoo","state":"MI","zip":"49009","distance":"24.35002326965332","lon":"-85.657234","lat":"42.298145","theaterChainName":"Goodrich Theatres","ticketType":"E_TICKET"}]