[{"id":"1005","tribuneTheaterId":"1905","providerTheaterId":"","name":"M-89 Cinema","address":"392 Cross Oaks Mall","city":"Otsego","state":"MI","zip":"49080","distance":2.4631257476602,"lon":"-85.668019","lat":"42.448099","theaterChainName":"Independent Chains","ticketType":"STANDARD"},{"id":"986","tribuneTheaterId":"4885","providerTheaterId":"","name":"Goodrich Kalamazoo 10","address":"820 Maple Hill Drive","city":"Kalamazoo","state":"MI","zip":"49009","distance":12.262451624209,"lon":"-85.657237","lat":"42.298144","theaterChainName":"Goodrich Theatres","ticketType":"E_TICKET"},{"id":"5323","tribuneTheaterId":"10760","providerTheaterId":"","name":"Alamo Drafthouse Kalamazoo","address":"180 Portage St.","city":"Kalamazoo","state":"MI","zip":"49007","distance":14.019360194404,"lon":"-85.5807","lat":"42.2908","theaterChainName":"Alamo Drafthouse","ticketType":"STANDARD"},{"id":"263","tribuneTheaterId":"6410","providerTheaterId":"","name":"Celebration! Cinema Crossroads, Portage","address":"6600 Ring Road","city":"Portage","state":"MI","zip":"49024","distance":18.170174087146,"lon":"-85.598415","lat":"42.22105","theaterChainName":"Celebration! Cinema","ticketType":"STANDARD"},{"id":"1006","tribuneTheaterId":"223","providerTheaterId":"","name":"Strand Theatre - Paw Paw","address":"115 East Michigan","city":"Paw Paw","state":"MI","zip":"49079","distance":20.039835898881,"lon":"-85.891943","lat":"42.217889","theaterChainName":"Independent Chains","ticketType":"STANDARD"},{"id":"1003","tribuneTheaterId":"4870","providerTheaterId":"","name":"Goodrich Hastings 4","address":"213 West State Street","city":"Hastings","state":"MI","zip":"49058","distance":24.340912874112,"lon":"-85.289604","lat":"42.648848","theaterChainName":"Goodrich Theatres","ticketType":"E_TICKET"}]