[{"id":"1008","tribuneTheaterId":"4874","providerTheaterId":"","name":"Goodrich Three Rivers 6","address":"120 Enterprise Drive","city":"Three Rivers","state":"MI","zip":"49093","distance":10.093976043529,"lon":"-85.633597","lat":"41.968601","theaterChainName":"Goodrich Theatres","ticketType":"E_TICKET"},{"id":"4939","tribuneTheaterId":"10290","providerTheaterId":"","name":"Riviera Theatre - Three Rivers","address":"50 North Main St.","city":"Three Rivers","state":"MI","zip":"49093","distance":9.7085764500402,"lon":"-85.634394","lat":"41.945383","theaterChainName":"Independent Chains","ticketType":"STANDARD"},{"id":"263","tribuneTheaterId":"6410","providerTheaterId":"","name":"Celebration! Cinema Crossroads, Portage","address":"6600 Ring Road","city":"Portage","state":"MI","zip":"49024","distance":22.240433997405,"lon":"-85.598415","lat":"42.22105","theaterChainName":"Celebration! Cinema","ticketType":"STANDARD"},{"id":"2561","tribuneTheaterId":"6408","providerTheaterId":"","name":"Coldwater Cinema","address":"414 N. Willowbrook Rd.","city":"Coldwater","state":"MI","zip":"49036","distance":24.580052639991,"lon":"-84.971872","lat":"41.943748","theaterChainName":"NCG Cinemas","ticketType":"STANDARD"}]