[{"id":"2561","tribuneTheaterId":"6408","providerTheaterId":"","name":"Coldwater Cinema","address":"414 N. Willowbrook Rd.","city":"Coldwater","state":"MI","zip":"49036","distance":9.9066980196464,"lon":"-84.971872","lat":"41.943748","theaterChainName":"NCG Cinemas","ticketType":"STANDARD"},{"id":"1004","tribuneTheaterId":"1085","providerTheaterId":"","name":"Bogar Theatre","address":"223 East Michigan","city":"Marshall","state":"MI","zip":"49068","distance":12.976614171502,"lon":"-84.956878","lat":"42.272238","theaterChainName":"Independent Chains","ticketType":"STANDARD"},{"id":"5909","tribuneTheaterId":"11333","providerTheaterId":"","name":"NCG Battle Creek","address":"5775 Beckley","city":"Battle Creek","state":"MI","zip":"49015","distance":15.712918122875,"lon":"-85.186038","lat":"42.262841","theaterChainName":"NCG Cinemas","ticketType":"STANDARD"},{"id":"988","tribuneTheaterId":"4970","providerTheaterId":"","name":"Carmike Lakeview Square 10","address":"5775 Beckley Road","city":"Battle Creek","state":"MI","zip":"49015","distance":15.62553082042,"lon":"-85.183793","lat":"42.262559","theaterChainName":"Carmike Cinemas","ticketType":"STANDARD"},{"id":"5510","tribuneTheaterId":"1457","providerTheaterId":"","name":"Bohm Theatre","address":"201 South Superior Street","city":"Albion","state":"MI","zip":"49224","distance":16.445963831293,"lon":"-84.752692","lat":"42.244526","theaterChainName":"Independent Chains","ticketType":"STANDARD"},{"id":"989","tribuneTheaterId":"4876","providerTheaterId":"","name":"Goodrich West Columbia 7","address":"2500 West Columbia","city":"Battle Creek","state":"MI","zip":"49015","distance":19.620977857572,"lon":"-85.247651","lat":"42.29828","theaterChainName":"Goodrich Theatres","ticketType":"E_TICKET"},{"id":"5939","tribuneTheaterId":"11371","providerTheaterId":"","name":"JC Cinema","address":"15375 Helmer Rd. South","city":"Battle Creek","state":"MI","zip":"49015","distance":19.170361017691,"lon":"-85.239164","lat":"42.295128","theaterChainName":"Independent Chains","ticketType":"STANDARD"},{"id":"4116","tribuneTheaterId":"2072","providerTheaterId":"","name":"Premiere Theatre 7 Hillsdale","address":"2950 Carleton Rd.","city":"Hillsdale","state":"MI","zip":"49242","distance":20.261763523586,"lon":"-84.650077","lat":"41.940589","theaterChainName":"UEC Theatres","ticketType":"STANDARD"}]