[{"id":"1228","name":"Wonderland Cinema","address":"402 N. Front Street","city":"Niles","state":"MI","zip":"49120","distance":"20.21512794494629","lon":"-86.259048","lat":"41.832241","theaterChainName":"Independent Chains","ticketType":"STANDARD"},{"id":"1357","name":"Cinemark Movies 14 Mishawaka","address":"910 West Edison","city":"Mishawaka","state":"IN","zip":"46545","distance":"21.417469024658203","lon":"-86.194580","lat":"41.696781","theaterChainName":"Cinemark","ticketType":"STANDARD"},{"id":"707","name":"Cinemark University Park 6","address":"6424 Grape Road","city":"Mishawaka","state":"IN","zip":"46545","distance":"20.1939640045166","lon":"-86.187599","lat":"41.718601","theaterChainName":"Cinemark","ticketType":"STANDARD"},{"id":"2221","name":"Carmike Encore Park 14","address":"2701 Cassopolis St.","city":"Elkhart","state":"IN","zip":"46514","distance":"13.027295112609863","lon":"-85.973831","lat":"41.721794","theaterChainName":"Carmike Cinemas","ticketType":"STANDARD"},{"id":"1756","name":"Linway Plaza Cinema 14","address":"514 West Lincoln Avenue","city":"Goshen","state":"IN","zip":"46526","distance":"21.50882339477539","lon":"-85.843620","lat":"41.585129","theaterChainName":"Independent Chains","ticketType":"STANDARD"},{"id":"5465","name":"Goshen Art House Cinema","address":"211 S. Main St. Floor 2","city":"Goshen","state":"IN","zip":"46528","distance":"21.58670997619629","lon":"-85.834946","lat":"41.584560","theaterChainName":"Independent Chains","ticketType":"STANDARD"},{"id":"4939","name":"Riviera Theatre - Three Rivers","address":"50 North Main St.","city":"Three Rivers","state":"MI","zip":"49093","distance":"12.86666202545166","lon":"-85.634392","lat":"41.945381","theaterChainName":"Independent Chains","ticketType":"STANDARD"},{"id":"1008","name":"Goodrich Three Rivers 6","address":"120 Enterprise Drive","city":"Three Rivers","state":"MI","zip":"49093","distance":"13.421697616577148","lon":"-85.633598","lat":"41.968601","theaterChainName":"Goodrich Theatres","ticketType":"E_TICKET"},{"id":"1006","name":"Strand Theatre - Paw Paw","address":"115 East Michigan","city":"Paw Paw","state":"MI","zip":"49079","distance":"22.29217529296875","lon":"-85.891945","lat":"42.217888","theaterChainName":"Independent Chains","ticketType":"STANDARD"}]