[{"id":"1000","tribuneTheaterId":"1455","providerTheaterId":"","name":"Loma Theatre","address":"221 Paw Paw Street","city":"Coloma","state":"MI","zip":"49038","distance":2.3617803934339,"lon":"-86.305903","lat":"42.188158","theaterChainName":"Independent Chains","ticketType":"STANDARD"},{"id":"998","tribuneTheaterId":"2334","providerTheaterId":"","name":"Celebration! Cinema, Benton Harbor","address":"1468 Cinema Way","city":"Benton Harbor","state":"MI","zip":"49022","distance":11.619984790637,"lon":"-86.422786","lat":"42.076399","theaterChainName":"Celebration! Cinema","ticketType":"STANDARD"},{"id":"1007","tribuneTheaterId":"1456","providerTheaterId":"","name":"Michigan 3 Theatres","address":"210 Center Street","city":"South Haven","state":"MI","zip":"49090","distance":14.556653937246,"lon":"-86.274192","lat":"42.404234","theaterChainName":"Independent Chains","ticketType":"STANDARD"},{"id":"1006","tribuneTheaterId":"223","providerTheaterId":"","name":"Strand Theatre - Paw Paw","address":"115 East Michigan","city":"Paw Paw","state":"MI","zip":"49079","distance":18.930885722479,"lon":"-85.891943","lat":"42.217889","theaterChainName":"Independent Chains","ticketType":"STANDARD"},{"id":"1228","tribuneTheaterId":"1662","providerTheaterId":"","name":"Wonderland Cinema","address":"402 N. Front Street","city":"Niles","state":"MI","zip":"49120","distance":24.981401868829,"lon":"-86.259048","lat":"41.832241","theaterChainName":"Independent Chains","ticketType":"STANDARD"}]