[{"id":"1760","name":"Celebration! Cinema, Lansing","address":"200 E. Edgewood Blvd.","city":"Lansing","state":"MI","zip":"48911","distance":"23.484703063964844","lon":"-84.549751","lat":"42.659760","theaterChainName":"Celebration! Cinema","ticketType":"STANDARD"},{"id":"5517","name":"Lansing Mall Stadium 12 RPX","address":"5330 W. Saginaw Hwy","city":"Lansing","state":"MI","zip":"48917","distance":"20.809412002563477","lon":"-84.625397","lat":"42.741001","theaterChainName":"Regal Cinemas","ticketType":"STANDARD"},{"id":"1230","name":"Sun Theatre - Grand Ledge","address":"316 South Bridge Street","city":"Grand Ledge","state":"MI","zip":"48837","distance":"15.53845500946045","lon":"-84.747055","lat":"42.752941","theaterChainName":"Independent Chains","ticketType":"STANDARD"},{"id":"984","name":"Ionia Theatre","address":"209 West Main Street","city":"Ionia","state":"MI","zip":"48846","distance":"23.8582763671875","lon":"-85.064476","lat":"42.982246","theaterChainName":"Independent Chains","ticketType":"STANDARD"},{"id":"980","name":"Eaton Theaters","address":"235 S Cochran Street","city":"Charlotte","state":"MI","zip":"48813","distance":"10.39635944366455","lon":"-84.835800","lat":"42.561699","theaterChainName":"Independent Chains","ticketType":"STANDARD"},{"id":"1003","name":"Goodrich Hastings 4","address":"213 West State Street","city":"Hastings","state":"MI","zip":"49058","distance":"14.176104545593262","lon":"-85.289604","lat":"42.648849","theaterChainName":"Goodrich Theatres","ticketType":"E_TICKET"}]