[{"id":"1008","tribuneTheaterId":"4874","providerTheaterId":"","name":"Goodrich Three Rivers 6","address":"120 Enterprise Drive","city":"Three Rivers","state":"MI","zip":"49093","distance":0.64742484279833,"lon":"-85.633597","lat":"41.968601","theaterChainName":"Goodrich Theatres","ticketType":"E_TICKET"},{"id":"4939","tribuneTheaterId":"10290","providerTheaterId":"","name":"Riviera Theatre - Three Rivers","address":"50 North Main St.","city":"Three Rivers","state":"MI","zip":"49093","distance":0.99209188439265,"lon":"-85.634394","lat":"41.945383","theaterChainName":"Independent Chains","ticketType":"STANDARD"},{"id":"263","tribuneTheaterId":"6410","providerTheaterId":"","name":"Celebration! Cinema Crossroads, Portage","address":"6600 Ring Road","city":"Portage","state":"MI","zip":"49024","distance":18.173013751915,"lon":"-85.598415","lat":"42.22105","theaterChainName":"Celebration! Cinema","ticketType":"STANDARD"},{"id":"5323","tribuneTheaterId":"10760","providerTheaterId":"","name":"Alamo Drafthouse Kalamazoo","address":"180 Portage St.","city":"Kalamazoo","state":"MI","zip":"49007","distance":23.065496973476,"lon":"-85.5807","lat":"42.2908","theaterChainName":"Alamo Drafthouse","ticketType":"STANDARD"},{"id":"1006","tribuneTheaterId":"223","providerTheaterId":"","name":"Strand Theatre - Paw Paw","address":"115 East Michigan","city":"Paw Paw","state":"MI","zip":"49079","distance":22.118458454736,"lon":"-85.891943","lat":"42.217889","theaterChainName":"Independent Chains","ticketType":"STANDARD"},{"id":"986","tribuneTheaterId":"4885","providerTheaterId":"","name":"Goodrich Kalamazoo 10","address":"820 Maple Hill Drive","city":"Kalamazoo","state":"MI","zip":"49009","distance":23.41387137935,"lon":"-85.657237","lat":"42.298144","theaterChainName":"Goodrich Theatres","ticketType":"E_TICKET"},{"id":"2221","tribuneTheaterId":"4974","providerTheaterId":"","name":"Carmike Encore Park 14","address":"2701 Cassopolis St.","city":"Elkhart","state":"IN","zip":"46514","distance":23.883161884946,"lon":"-85.973833","lat":"41.721796","theaterChainName":"Carmike Cinemas","ticketType":"STANDARD"}]