[{"id":"2561","tribuneTheaterId":"6408","providerTheaterId":"","name":"Coldwater Cinema","address":"414 N. Willowbrook Rd.","city":"Coldwater","state":"MI","zip":"49036","distance":11.395993960925,"lon":"-84.971872","lat":"41.943748","theaterChainName":"NCG Cinemas","ticketType":"STANDARD"},{"id":"5909","tribuneTheaterId":"11333","providerTheaterId":"","name":"NCG Battle Creek","address":"5775 Beckley","city":"Battle Creek","state":"MI","zip":"49015","distance":14.584130099167,"lon":"-85.186038","lat":"42.262841","theaterChainName":"NCG Cinemas","ticketType":"STANDARD"},{"id":"988","tribuneTheaterId":"4970","providerTheaterId":"","name":"Carmike Lakeview Square 10","address":"5775 Beckley Road","city":"Battle Creek","state":"MI","zip":"49015","distance":14.545001262427,"lon":"-85.183793","lat":"42.262559","theaterChainName":"Carmike Cinemas","ticketType":"STANDARD"},{"id":"989","tribuneTheaterId":"4876","providerTheaterId":"","name":"Goodrich West Columbia 7","address":"2500 West Columbia","city":"Battle Creek","state":"MI","zip":"49015","distance":17.754675966384,"lon":"-85.247651","lat":"42.29828","theaterChainName":"Goodrich Theatres","ticketType":"E_TICKET"},{"id":"5939","tribuneTheaterId":"11371","providerTheaterId":"","name":"JC Cinema","address":"15375 Helmer Rd. South","city":"Battle Creek","state":"MI","zip":"49015","distance":17.411527402537,"lon":"-85.239164","lat":"42.295128","theaterChainName":"Independent Chains","ticketType":"STANDARD"},{"id":"1004","tribuneTheaterId":"1085","providerTheaterId":"","name":"Bogar Theatre","address":"223 East Michigan","city":"Marshall","state":"MI","zip":"49068","distance":17.57446787895,"lon":"-84.956878","lat":"42.272238","theaterChainName":"Independent Chains","ticketType":"STANDARD"},{"id":"5510","tribuneTheaterId":"1457","providerTheaterId":"","name":"Bohm Theatre","address":"201 South Superior Street","city":"Albion","state":"MI","zip":"49224","distance":23.58022155782,"lon":"-84.752692","lat":"42.244526","theaterChainName":"Independent Chains","ticketType":"STANDARD"}]