[{"id":"1520","name":"AMC Showplace South Bend 16","address":"450 W. Chippewa","city":"South Bend","state":"IN","zip":"46614","distance":"21.815582275390625","lon":"-86.255623","lat":"41.633438","theaterChainName":"AMC Theatres","ticketType":"STANDARD"},{"id":"1228","name":"Wonderland Cinema","address":"402 N. Front Street","city":"Niles","state":"MI","zip":"49120","distance":"8.136486053466797","lon":"-86.259048","lat":"41.832241","theaterChainName":"Independent Chains","ticketType":"STANDARD"},{"id":"1357","name":"Cinemark Movies 14 Mishawaka","address":"910 West Edison","city":"Mishawaka","state":"IN","zip":"46545","distance":"17.998830795288086","lon":"-86.194580","lat":"41.696781","theaterChainName":"Cinemark","ticketType":"STANDARD"},{"id":"707","name":"Cinemark University Park 6","address":"6424 Grape Road","city":"Mishawaka","state":"IN","zip":"46545","distance":"16.651498794555664","lon":"-86.187599","lat":"41.718601","theaterChainName":"Cinemark","ticketType":"STANDARD"},{"id":"998","name":"Celebration! Cinema, Benton Harbor","address":"1468 Cinema Way","city":"Benton Harbor","state":"MI","zip":"49022","distance":"11.325291633605957","lon":"-86.422783","lat":"42.076401","theaterChainName":"Celebration! Cinema","ticketType":"STANDARD"},{"id":"2221","name":"Carmike Encore Park 14","address":"2701 Cassopolis St.","city":"Elkhart","state":"IN","zip":"46514","distance":"22.40096092224121","lon":"-85.973831","lat":"41.721794","theaterChainName":"Carmike Cinemas","ticketType":"STANDARD"},{"id":"1000","name":"Loma Theatre","address":"221 Paw Paw Street","city":"Coloma","state":"MI","zip":"49038","distance":"16.601306915283203","lon":"-86.305901","lat":"42.188156","theaterChainName":"Independent Chains","ticketType":"STANDARD"}]