[{"id":"1228","tribuneTheaterId":"1662","providerTheaterId":"","name":"Wonderland Cinema","address":"402 N. Front Street","city":"Niles","state":"MI","zip":"49120","distance":8.1360549367155,"lon":"-86.259048","lat":"41.832241","theaterChainName":"Independent Chains","ticketType":"STANDARD"},{"id":"998","tribuneTheaterId":"2334","providerTheaterId":"","name":"Celebration! Cinema, Benton Harbor","address":"1468 Cinema Way","city":"Benton Harbor","state":"MI","zip":"49022","distance":11.324636188887,"lon":"-86.422786","lat":"42.076399","theaterChainName":"Celebration! Cinema","ticketType":"STANDARD"},{"id":"707","tribuneTheaterId":"7059","providerTheaterId":"","name":"Cinemark University Park 6","address":"6424 Grape Road","city":"Mishawaka","state":"IN","zip":"46545","distance":16.650521328204,"lon":"-86.187599","lat":"41.718601","theaterChainName":"Cinemark","ticketType":"STANDARD"},{"id":"1000","tribuneTheaterId":"1455","providerTheaterId":"","name":"Loma Theatre","address":"221 Paw Paw Street","city":"Coloma","state":"MI","zip":"49038","distance":16.600330414024,"lon":"-86.305903","lat":"42.188158","theaterChainName":"Independent Chains","ticketType":"STANDARD"},{"id":"1357","tribuneTheaterId":"5223","providerTheaterId":"","name":"Cinemark Movies 14 Mishawaka","address":"910 West Edison","city":"Mishawaka","state":"IN","zip":"46545","distance":17.997677792748,"lon":"-86.194577","lat":"41.696783","theaterChainName":"Cinemark","ticketType":"STANDARD"},{"id":"1520","tribuneTheaterId":"4960","providerTheaterId":"6881","name":"AMC Showplace South Bend 16","address":"450 W. Chippewa","city":"South Bend","state":"IN","zip":"46614","distance":21.814245107231,"lon":"-86.255625","lat":"41.633439","theaterChainName":"AMC Theatres","ticketType":"STANDARD"},{"id":"2221","tribuneTheaterId":"4974","providerTheaterId":"","name":"Carmike Encore Park 14","address":"2701 Cassopolis St.","city":"Elkhart","state":"IN","zip":"46514","distance":22.39934797886,"lon":"-85.973833","lat":"41.721796","theaterChainName":"Carmike Cinemas","ticketType":"STANDARD"}]