[{"id":"3989","name":"AMC Showplace Michigan City 14","address":"100 Meijer Dr.","city":"Michigan City","state":"IN","zip":"46360","distance":"22.33926010131836","lon":"-86.890305","lat":"41.675060","theaterChainName":"AMC Theatres","ticketType":"STANDARD"},{"id":"1520","name":"AMC Showplace South Bend 16","address":"450 W. Chippewa","city":"South Bend","state":"IN","zip":"46614","distance":"22.492826461791992","lon":"-86.255623","lat":"41.633438","theaterChainName":"AMC Theatres","ticketType":"STANDARD"},{"id":"1228","name":"Wonderland Cinema","address":"402 N. Front Street","city":"Niles","state":"MI","zip":"49120","distance":"15.204996109008789","lon":"-86.259048","lat":"41.832241","theaterChainName":"Independent Chains","ticketType":"STANDARD"},{"id":"1357","name":"Cinemark Movies 14 Mishawaka","address":"910 West Edison","city":"Mishawaka","state":"IN","zip":"46545","distance":"22.001815795898438","lon":"-86.194580","lat":"41.696781","theaterChainName":"Cinemark","ticketType":"STANDARD"},{"id":"707","name":"Cinemark University Park 6","address":"6424 Grape Road","city":"Mishawaka","state":"IN","zip":"46545","distance":"21.505617141723633","lon":"-86.187599","lat":"41.718601","theaterChainName":"Cinemark","ticketType":"STANDARD"},{"id":"998","name":"Celebration! Cinema, Benton Harbor","address":"1468 Cinema Way","city":"Benton Harbor","state":"MI","zip":"49022","distance":"15.390177726745605","lon":"-86.422783","lat":"42.076401","theaterChainName":"Celebration! Cinema","ticketType":"STANDARD"}]