[{"id":"5078","name":"Russellville ","address":"3800 West Main","city":"Russellville","state":"AR","zip":"72801","distance":"22.158693313598633","lon":"-84.006142","lat":"41.931667","theaterChainName":"UEC Theatres","ticketType":"STANDARD"},{"id":"783","name":"MJR Adrian Digital Cinema 10","address":"3150 N. Adrian Hwy.","city":"Adrian","state":"MI","zip":"49221","distance":"22.158693313598633","lon":"-84.006142","lat":"41.931667","theaterChainName":"MJR Theatres","ticketType":"E_TICKET"},{"id":"4116","name":"Premiere Theatre 7 Hillsdale","address":"2950 Carleton Rd.","city":"Hillsdale","state":"MI","zip":"49242","distance":"19.840024948120117","lon":"-84.650078","lat":"41.940590","theaterChainName":"UEC Theatres","ticketType":"STANDARD"},{"id":"2537","name":"Goodrich Jackson 10","address":"1501 N Wisner","city":"Jackson","state":"MI","zip":"49202","distance":"10.631568908691406","lon":"-84.428078","lat":"42.266697","theaterChainName":"Goodrich Theatres","ticketType":"E_TICKET"},{"id":"2222","name":"Carmike Plaza Cinemas 8","address":"1700 N Wisner St","city":"Jackson","state":"MI","zip":"49202","distance":"10.715218544006348","lon":"-84.430298","lat":"42.267345","theaterChainName":"Carmike Cinemas","ticketType":"STANDARD"},{"id":"5510","name":"Bohm Theatre","address":"201 South Superior Street","city":"Albion","state":"MI","zip":"49224","distance":"22.150074005126953","lon":"-84.752693","lat":"42.244526","theaterChainName":"Independent Chains","ticketType":"STANDARD"}]