[{"id":"783","tribuneTheaterId":"7770","providerTheaterId":"","name":"MJR Adrian Digital Cinema 10","address":"3150 N. Adrian Hwy.","city":"Adrian","state":"MI","zip":"49221","distance":11.729367695071,"lon":"-84.006143","lat":"41.931668","theaterChainName":"MJR Theatres","ticketType":"E_TICKET"},{"id":"5078","tribuneTheaterId":"10466","providerTheaterId":"","name":"Russellville ","address":"3800 West Main","city":"Russellville","state":"AR","zip":"72801","distance":11.729367695071,"lon":"-84.006143","lat":"41.931668","theaterChainName":"UEC Theatres","ticketType":"STANDARD"},{"id":"4015","tribuneTheaterId":"5145","providerTheaterId":"","name":"Rave Motion Pictures Franklin Park 16","address":"5001 Monroe Street","city":"Toledo","state":"OH","zip":"43623","distance":15.333571008911,"lon":"-83.64177","lat":"41.696232","theaterChainName":"Cinemark","ticketType":"STANDARD"},{"id":"4427","tribuneTheaterId":"9498","providerTheaterId":"","name":"Phoenix Theatres at Mall of Monroe","address":"2121 N. Monroe St.","city":"Monroe","state":"MI","zip":"48162","distance":20.763413268998,"lon":"-83.388215","lat":"41.948104","theaterChainName":"Phoenix Theatres - Michigan","ticketType":"STANDARD"},{"id":"5555","tribuneTheaterId":"11000","providerTheaterId":"","name":"Eastwood Theater","address":"817 E Broadway Street","city":"Toledo","state":"OH","zip":"43605","distance":22.436738890318,"lon":"-83.515311","lat":"41.635803","theaterChainName":"Independent Chains","ticketType":"STANDARD"},{"id":"324","tribuneTheaterId":"7779","providerTheaterId":"","name":"Ann Arbor 20","address":"4100 Carpenter Road","city":"Ypsilanti","state":"MI","zip":"48197","distance":23.856525396747,"lon":"-83.681855","lat":"42.227631","theaterChainName":"Cinemark","ticketType":"STANDARD"},{"id":"3794","tribuneTheaterId":"5067","providerTheaterId":"","name":"Maumee Indoor Theatre","address":"601 Conant St.","city":"Maumee","state":"OH","zip":"43537","distance":23.49556361807,"lon":"-83.655239","lat":"41.564859","theaterChainName":"Independent Chains","ticketType":"STANDARD"},{"id":"4442","tribuneTheaterId":"9522","providerTheaterId":"","name":"Rave Motion Pictures Fallen Timbers 14","address":"2300 Village Dr. West Suite 1700","city":"Maumee","state":"OH","zip":"43537","distance":24.102656375995,"lon":"-83.70499","lat":"41.547169","theaterChainName":"Cinemark","ticketType":"STANDARD"}]