[{"id":"4116","tribuneTheaterId":"2072","providerTheaterId":"","name":"Premiere Theatre 7 Hillsdale","address":"2950 Carleton Rd.","city":"Hillsdale","state":"MI","zip":"49242","distance":12.878146607238,"lon":"-84.650077","lat":"41.940589","theaterChainName":"UEC Theatres","ticketType":"STANDARD"},{"id":"2222","tribuneTheaterId":"5942","providerTheaterId":"","name":"Carmike Plaza Cinemas 8","address":"1700 N Wisner St","city":"Jackson","state":"MI","zip":"49202","distance":15.147732287781,"lon":"-84.430296","lat":"42.267346","theaterChainName":"Carmike Cinemas","ticketType":"STANDARD"},{"id":"2537","tribuneTheaterId":"5840","providerTheaterId":"","name":"Goodrich Jackson 10","address":"1501 N Wisner","city":"Jackson","state":"MI","zip":"49202","distance":15.109296865091,"lon":"-84.42808","lat":"42.266698","theaterChainName":"Goodrich Theatres","ticketType":"E_TICKET"},{"id":"5510","tribuneTheaterId":"1457","providerTheaterId":"","name":"Bohm Theatre","address":"201 South Superior Street","city":"Albion","state":"MI","zip":"49224","distance":20.76718558965,"lon":"-84.752692","lat":"42.244526","theaterChainName":"Independent Chains","ticketType":"STANDARD"},{"id":"5078","tribuneTheaterId":"10466","providerTheaterId":"","name":"Russellville ","address":"3800 West Main","city":"Russellville","state":"AR","zip":"72801","distance":23.961083382454,"lon":"-84.006143","lat":"41.931668","theaterChainName":"UEC Theatres","ticketType":"STANDARD"},{"id":"783","tribuneTheaterId":"7770","providerTheaterId":"","name":"MJR Adrian Digital Cinema 10","address":"3150 N. Adrian Hwy.","city":"Adrian","state":"MI","zip":"49221","distance":23.961083382454,"lon":"-84.006143","lat":"41.931668","theaterChainName":"MJR Theatres","ticketType":"E_TICKET"}]