[{"id":"2537","tribuneTheaterId":"5840","providerTheaterId":"","name":"Goodrich Jackson 10","address":"1501 N Wisner","city":"Jackson","state":"MI","zip":"49202","distance":13.381906471317,"lon":"-84.42808","lat":"42.266698","theaterChainName":"Goodrich Theatres","ticketType":"E_TICKET"},{"id":"2222","tribuneTheaterId":"5942","providerTheaterId":"","name":"Carmike Plaza Cinemas 8","address":"1700 N Wisner St","city":"Jackson","state":"MI","zip":"49202","distance":13.340826885448,"lon":"-84.430296","lat":"42.267346","theaterChainName":"Carmike Cinemas","ticketType":"STANDARD"},{"id":"1760","tribuneTheaterId":"3246","providerTheaterId":"","name":"Celebration! Cinema, Lansing","address":"200 E. Edgewood Blvd.","city":"Lansing","state":"MI","zip":"48911","distance":15.266356670927,"lon":"-84.549754","lat":"42.65976","theaterChainName":"Celebration! Cinema","ticketType":"STANDARD"},{"id":"2884","tribuneTheaterId":"482","providerTheaterId":"","name":"Sun Theatre - Williamston","address":"150 West Grand River Ave","city":"Williamston","state":"MI","zip":"48895","distance":17.268366801831,"lon":"-84.28434","lat":"42.689169","theaterChainName":"Independent Chains","ticketType":"STANDARD"},{"id":"5363","tribuneTheaterId":"10802","providerTheaterId":"","name":"Studio C! Meridian Mall","address":"1999 Central Park Drive","city":"Okemos","state":"MI","zip":"48864","distance":18.455048273725,"lon":"-84.4225","lat":"42.7274","theaterChainName":"Independent Chains","ticketType":"STANDARD"},{"id":"5510","tribuneTheaterId":"1457","providerTheaterId":"","name":"Bohm Theatre","address":"201 South Superior Street","city":"Albion","state":"MI","zip":"49224","distance":22.574940005831,"lon":"-84.752692","lat":"42.244526","theaterChainName":"Independent Chains","ticketType":"STANDARD"},{"id":"980","tribuneTheaterId":"1453","providerTheaterId":"","name":"Eaton Theaters","address":"235 S Cochran Street","city":"Charlotte","state":"MI","zip":"48813","distance":22.272443736665,"lon":"-84.8358","lat":"42.5617","theaterChainName":"Independent Chains","ticketType":"STANDARD"},{"id":"3576","tribuneTheaterId":"6083","providerTheaterId":"","name":"NCG Eastwood Cinema","address":"2500 Showtime Drive","city":"Lansing","state":"MI","zip":"48912","distance":21.595325142921,"lon":"-84.515446","lat":"42.764976","theaterChainName":"NCG Cinemas","ticketType":"STANDARD"},{"id":"5517","tribuneTheaterId":"10941","providerTheaterId":"","name":"Lansing Mall Stadium 12 RPX","address":"5330 W. Saginaw Hwy","city":"Lansing","state":"MI","zip":"48917","distance":22.012049269072,"lon":"-84.6254","lat":"42.741","theaterChainName":"Regal Cinemas","ticketType":"STANDARD"}]