[{"id":"2537","name":"Goodrich Jackson 10","address":"1501 N Wisner","city":"Jackson","state":"MI","zip":"49202","distance":"13.382837295532227","lon":"-84.428078","lat":"42.266697","theaterChainName":"Goodrich Theatres","ticketType":"E_TICKET"},{"id":"2222","name":"Carmike Plaza Cinemas 8","address":"1700 N Wisner St","city":"Jackson","state":"MI","zip":"49202","distance":"13.341727256774902","lon":"-84.430298","lat":"42.267345","theaterChainName":"Carmike Cinemas","ticketType":"STANDARD"},{"id":"2884","name":"Sun Theatre - Williamston","address":"150 West Grand River Ave","city":"Williamston","state":"MI","zip":"48895","distance":"17.269529342651367","lon":"-84.284340","lat":"42.689171","theaterChainName":"Independent Chains","ticketType":"STANDARD"},{"id":"5363","name":"Studio C! Meridian Mall","address":"1999 Central Park Drive","city":"Okemos","state":"MI","zip":"48864","distance":"18.456281661987305","lon":"-84.422501","lat":"42.727402","theaterChainName":"Independent Chains","ticketType":"STANDARD"},{"id":"3576","name":"NCG Eastwood Cinema","address":"2500 Showtime Drive","city":"Lansing","state":"MI","zip":"48912","distance":"21.59670639038086","lon":"-84.515450","lat":"42.764977","theaterChainName":"NCG Cinemas","ticketType":"STANDARD"},{"id":"1760","name":"Celebration! Cinema, Lansing","address":"200 E. Edgewood Blvd.","city":"Lansing","state":"MI","zip":"48911","distance":"15.267184257507324","lon":"-84.549751","lat":"42.659760","theaterChainName":"Celebration! Cinema","ticketType":"STANDARD"},{"id":"5517","name":"Lansing Mall Stadium 12 RPX","address":"5330 W. Saginaw Hwy","city":"Lansing","state":"MI","zip":"48917","distance":"22.01337432861328","lon":"-84.625397","lat":"42.741001","theaterChainName":"Regal Cinemas","ticketType":"STANDARD"},{"id":"980","name":"Eaton Theaters","address":"235 S Cochran Street","city":"Charlotte","state":"MI","zip":"48813","distance":"22.27379608154297","lon":"-84.835800","lat":"42.561699","theaterChainName":"Independent Chains","ticketType":"STANDARD"},{"id":"5510","name":"Bohm Theatre","address":"201 South Superior Street","city":"Albion","state":"MI","zip":"49224","distance":"22.576406478881836","lon":"-84.752693","lat":"42.244526","theaterChainName":"Independent Chains","ticketType":"STANDARD"}]