[{"id":"4116","name":"Premiere Theatre 7 Hillsdale","address":"2950 Carleton Rd.","city":"Hillsdale","state":"MI","zip":"49242","distance":"6.977962493896484","lon":"-84.650078","lat":"41.940590","theaterChainName":"UEC Theatres","ticketType":"STANDARD"},{"id":"2561","name":"Coldwater Cinema","address":"414 N. Willowbrook Rd.","city":"Coldwater","state":"MI","zip":"49036","distance":"23.256942749023438","lon":"-84.971870","lat":"41.943748","theaterChainName":"NCG Cinemas","ticketType":"STANDARD"},{"id":"2537","name":"Goodrich Jackson 10","address":"1501 N Wisner","city":"Jackson","state":"MI","zip":"49202","distance":"20.943635940551758","lon":"-84.428078","lat":"42.266697","theaterChainName":"Goodrich Theatres","ticketType":"E_TICKET"},{"id":"2222","name":"Carmike Plaza Cinemas 8","address":"1700 N Wisner St","city":"Jackson","state":"MI","zip":"49202","distance":"20.961801528930664","lon":"-84.430298","lat":"42.267345","theaterChainName":"Carmike Cinemas","ticketType":"STANDARD"},{"id":"5510","name":"Bohm Theatre","address":"201 South Superior Street","city":"Albion","state":"MI","zip":"49224","distance":"22.29831314086914","lon":"-84.752693","lat":"42.244526","theaterChainName":"Independent Chains","ticketType":"STANDARD"}]