[{"id":"5510","tribuneTheaterId":"1457","providerTheaterId":"","name":"Bohm Theatre","address":"201 South Superior Street","city":"Albion","state":"MI","zip":"49224","distance":8.0725602989433,"lon":"-84.752692","lat":"42.244526","theaterChainName":"Independent Chains","ticketType":"STANDARD"},{"id":"2222","tribuneTheaterId":"5942","providerTheaterId":"","name":"Carmike Plaza Cinemas 8","address":"1700 N Wisner St","city":"Jackson","state":"MI","zip":"49202","distance":8.6832244633475,"lon":"-84.430296","lat":"42.267346","theaterChainName":"Carmike Cinemas","ticketType":"STANDARD"},{"id":"2537","tribuneTheaterId":"5840","providerTheaterId":"","name":"Goodrich Jackson 10","address":"1501 N Wisner","city":"Jackson","state":"MI","zip":"49202","distance":8.7988340923515,"lon":"-84.42808","lat":"42.266698","theaterChainName":"Goodrich Theatres","ticketType":"E_TICKET"},{"id":"1004","tribuneTheaterId":"1085","providerTheaterId":"","name":"Bogar Theatre","address":"223 East Michigan","city":"Marshall","state":"MI","zip":"49068","distance":18.250993246898,"lon":"-84.956878","lat":"42.272238","theaterChainName":"Independent Chains","ticketType":"STANDARD"},{"id":"980","tribuneTheaterId":"1453","providerTheaterId":"","name":"Eaton Theaters","address":"235 S Cochran Street","city":"Charlotte","state":"MI","zip":"48813","distance":23.242229349549,"lon":"-84.8358","lat":"42.5617","theaterChainName":"Independent Chains","ticketType":"STANDARD"},{"id":"4116","tribuneTheaterId":"2072","providerTheaterId":"","name":"Premiere Theatre 7 Hillsdale","address":"2950 Carleton Rd.","city":"Hillsdale","state":"MI","zip":"49242","distance":23.172741591313,"lon":"-84.650077","lat":"41.940589","theaterChainName":"UEC Theatres","ticketType":"STANDARD"}]