[{"id":"4015","tribuneTheaterId":"5145","providerTheaterId":"","name":"Rave Motion Pictures Franklin Park 16","address":"5001 Monroe Street","city":"Toledo","state":"OH","zip":"43623","distance":10.691891608777,"lon":"-83.64177","lat":"41.696232","theaterChainName":"Cinemark","ticketType":"STANDARD"},{"id":"5078","tribuneTheaterId":"10466","providerTheaterId":"","name":"Russellville ","address":"3800 West Main","city":"Russellville","state":"AR","zip":"72801","distance":14.145480419533,"lon":"-84.006143","lat":"41.931668","theaterChainName":"UEC Theatres","ticketType":"STANDARD"},{"id":"783","tribuneTheaterId":"7770","providerTheaterId":"","name":"MJR Adrian Digital Cinema 10","address":"3150 N. Adrian Hwy.","city":"Adrian","state":"MI","zip":"49221","distance":14.145480419533,"lon":"-84.006143","lat":"41.931668","theaterChainName":"MJR Theatres","ticketType":"E_TICKET"},{"id":"4442","tribuneTheaterId":"9522","providerTheaterId":"","name":"Rave Motion Pictures Fallen Timbers 14","address":"2300 Village Dr. West Suite 1700","city":"Maumee","state":"OH","zip":"43537","distance":17.84734749515,"lon":"-83.70499","lat":"41.547169","theaterChainName":"Cinemark","ticketType":"STANDARD"},{"id":"5555","tribuneTheaterId":"11000","providerTheaterId":"","name":"Eastwood Theater","address":"817 E Broadway Street","city":"Toledo","state":"OH","zip":"43605","distance":18.403811717014,"lon":"-83.515311","lat":"41.635803","theaterChainName":"Independent Chains","ticketType":"STANDARD"},{"id":"3794","tribuneTheaterId":"5067","providerTheaterId":"","name":"Maumee Indoor Theatre","address":"601 Conant St.","city":"Maumee","state":"OH","zip":"43537","distance":17.611438286265,"lon":"-83.655239","lat":"41.564859","theaterChainName":"Independent Chains","ticketType":"STANDARD"},{"id":"3906","tribuneTheaterId":"8856","providerTheaterId":"","name":"Rave Motion Pictures Levis Commons","address":"2005 Hollenbeck Drive","city":"Perrysburg","state":"OH","zip":"43551","distance":20.21223942566,"lon":"-83.641292","lat":"41.528236","theaterChainName":"Cinemark","ticketType":"STANDARD"},{"id":"4019","tribuneTheaterId":"1430","providerTheaterId":"","name":"Skye Cinema","address":"455 East Airport Hwy","city":"Wauseon","state":"OH","zip":"43567","distance":23.299980949139,"lon":"-84.140999","lat":"41.573299","theaterChainName":"Independent Chains","ticketType":"STANDARD"},{"id":"4427","tribuneTheaterId":"9498","providerTheaterId":"","name":"Phoenix Theatres at Mall of Monroe","address":"2121 N. Monroe St.","city":"Monroe","state":"MI","zip":"48162","distance":23.721748613308,"lon":"-83.388215","lat":"41.948104","theaterChainName":"Phoenix Theatres - Michigan","ticketType":"STANDARD"}]