[{"id":"2537","tribuneTheaterId":"5840","providerTheaterId":"","name":"Goodrich Jackson 10","address":"1501 N Wisner","city":"Jackson","state":"MI","zip":"49202","distance":9.5869033068298,"lon":"-84.42808","lat":"42.266698","theaterChainName":"Goodrich Theatres","ticketType":"E_TICKET"},{"id":"2222","tribuneTheaterId":"5942","providerTheaterId":"","name":"Carmike Plaza Cinemas 8","address":"1700 N Wisner St","city":"Jackson","state":"MI","zip":"49202","distance":9.5992075096006,"lon":"-84.430296","lat":"42.267346","theaterChainName":"Carmike Cinemas","ticketType":"STANDARD"},{"id":"1760","tribuneTheaterId":"3246","providerTheaterId":"","name":"Celebration! Cinema, Lansing","address":"200 E. Edgewood Blvd.","city":"Lansing","state":"MI","zip":"48911","distance":21.393422876614,"lon":"-84.549754","lat":"42.65976","theaterChainName":"Celebration! Cinema","ticketType":"STANDARD"},{"id":"2884","tribuneTheaterId":"482","providerTheaterId":"","name":"Sun Theatre - Williamston","address":"150 West Grand River Ave","city":"Williamston","state":"MI","zip":"48895","distance":20.863205221225,"lon":"-84.28434","lat":"42.689169","theaterChainName":"Independent Chains","ticketType":"STANDARD"},{"id":"5510","tribuneTheaterId":"1457","providerTheaterId":"","name":"Bohm Theatre","address":"201 South Superior Street","city":"Albion","state":"MI","zip":"49224","distance":23.237366460458,"lon":"-84.752692","lat":"42.244526","theaterChainName":"Independent Chains","ticketType":"STANDARD"},{"id":"5363","tribuneTheaterId":"10802","providerTheaterId":"","name":"Studio C! Meridian Mall","address":"1999 Central Park Drive","city":"Okemos","state":"MI","zip":"48864","distance":23.64189985496,"lon":"-84.4225","lat":"42.7274","theaterChainName":"Independent Chains","ticketType":"STANDARD"}]