[{"id":"2537","name":"Goodrich Jackson 10","address":"1501 N Wisner","city":"Jackson","state":"MI","zip":"49202","distance":"16.136877059936523","lon":"-84.428078","lat":"42.266697","theaterChainName":"Goodrich Theatres","ticketType":"E_TICKET"},{"id":"2222","name":"Carmike Plaza Cinemas 8","address":"1700 N Wisner St","city":"Jackson","state":"MI","zip":"49202","distance":"16.015941619873047","lon":"-84.430298","lat":"42.267345","theaterChainName":"Carmike Cinemas","ticketType":"STANDARD"},{"id":"1760","name":"Celebration! Cinema, Lansing","address":"200 E. Edgewood Blvd.","city":"Lansing","state":"MI","zip":"48911","distance":"20.831972122192383","lon":"-84.549751","lat":"42.659760","theaterChainName":"Celebration! Cinema","ticketType":"STANDARD"},{"id":"980","name":"Eaton Theaters","address":"235 S Cochran Street","city":"Charlotte","state":"MI","zip":"48813","distance":"14.210938453674316","lon":"-84.835800","lat":"42.561699","theaterChainName":"Independent Chains","ticketType":"STANDARD"},{"id":"1004","name":"Bogar Theatre","address":"223 East Michigan","city":"Marshall","state":"MI","zip":"49068","distance":"14.932223320007324","lon":"-84.956879","lat":"42.272240","theaterChainName":"Independent Chains","ticketType":"STANDARD"},{"id":"5510","name":"Bohm Theatre","address":"201 South Superior Street","city":"Albion","state":"MI","zip":"49224","distance":"9.72065544128418","lon":"-84.752693","lat":"42.244526","theaterChainName":"Independent Chains","ticketType":"STANDARD"}]