[{"id":"981","name":"Greenville Cinemas","address":"1500 North Lafayette","city":"Greenville","state":"MI","zip":"48838","distance":"24.783004760742188","lon":"-85.250984","lat":"43.195160","theaterChainName":"NCG Cinemas","ticketType":"STANDARD"},{"id":"4388","name":"Celebration! Cinema Woodland","address":"3195 28th St. SE","city":"Grand Rapids","state":"MI","zip":"49512","distance":"23.49750328063965","lon":"-85.587746","lat":"42.914810","theaterChainName":"Celebration! Cinema","ticketType":"STANDARD"},{"id":"3567","name":"Celebration! Cinema-North","address":"2121 Celebration","city":"Grand Rapids","state":"MI","zip":"49525","distance":"17.85655403137207","lon":"-85.593117","lat":"43.001030","theaterChainName":"Celebration! Cinema","ticketType":"STANDARD"},{"id":"5513","name":"Track Cinema","address":"1579 Clark St Rd","city":"Auburn","state":"NY","zip":"13021","distance":"19.216480255126953","lon":"-85.668076","lat":"42.963081","theaterChainName":"Independent Chains","ticketType":"STANDARD"},{"id":"5491","name":"Urban Institute for Contemporary","address":"2 Fulton W.","city":"Grand Rapids","state":"MI","zip":"49503","distance":"19.210126876831055","lon":"-85.667900","lat":"42.963200","theaterChainName":"Independent Chains","ticketType":"STANDARD"},{"id":"334","name":"AMC Star Grand Rapids 18","address":"3000 Alpine Avenue","city":"Walker","state":"MI","zip":"49544","distance":"15.28560733795166","lon":"-85.686096","lat":"43.018494","theaterChainName":"AMC Theatres","ticketType":"STANDARD"},{"id":"4394","name":"Celebration! Cinema RiverTown","address":"3728 Rivertown Pkwy","city":"Grandville","state":"MI","zip":"49418","distance":"24.7110595703125","lon":"-85.755943","lat":"42.878765","theaterChainName":"Celebration! Cinema","ticketType":"STANDARD"},{"id":"1223","name":"Cinema Carousel","address":"4289 Grand Haven Rd.","city":"Muskegon","state":"MI","zip":"49441","distance":"24.602493286132812","lon":"-86.220840","lat":"43.173901","theaterChainName":"Celebration! Cinema","ticketType":"STANDARD"},{"id":"3486","name":"NorthStar Cinemas - Rockford","address":"11699 Northland Dr.","city":"Rockford","state":"MI","zip":"49341","distance":"10.325876235961914","lon":"-85.551003","lat":"43.178101","theaterChainName":"Independent Chains","ticketType":"STANDARD"}]