[{"id":"1009","tribuneTheaterId":"4872","providerTheaterId":"","name":"Goodrich Ada-Lowell 5 Theatre","address":"2175 West Main Street","city":"Lowell","state":"MI","zip":"49331","distance":1.5836069904634,"lon":"-85.363703","lat":"42.93211","theaterChainName":"Goodrich Theatres","ticketType":"E_TICKET"},{"id":"4388","tribuneTheaterId":"9432","providerTheaterId":"","name":"Celebration! Cinema Woodland","address":"3195 28th St. SE","city":"Grand Rapids","state":"MI","zip":"49512","distance":11.589997294334,"lon":"-85.587745","lat":"42.914809","theaterChainName":"Celebration! Cinema","ticketType":"STANDARD"},{"id":"3567","tribuneTheaterId":"2404","providerTheaterId":"","name":"Celebration! Cinema-North","address":"2121 Celebration","city":"Grand Rapids","state":"MI","zip":"49525","distance":11.947168691713,"lon":"-85.593117","lat":"43.00103","theaterChainName":"Celebration! Cinema","ticketType":"STANDARD"},{"id":"5491","tribuneTheaterId":"10932","providerTheaterId":"","name":"Urban Institute for Contemporary","address":"2 Fulton W.","city":"Grand Rapids","state":"MI","zip":"49503","distance":15.311527266599,"lon":"-85.6679","lat":"42.9632","theaterChainName":"Independent Chains","ticketType":"STANDARD"},{"id":"5513","tribuneTheaterId":"10935","providerTheaterId":"","name":"Track Cinema","address":"1579 Clark St Rd","city":"Auburn","state":"NY","zip":"13021","distance":15.320087842356,"lon":"-85.668075","lat":"42.963083","theaterChainName":"Independent Chains","ticketType":"STANDARD"},{"id":"4140","tribuneTheaterId":"2387","providerTheaterId":"","name":"Celebration! Cinema-South","address":"1506 Eastport Drive SE","city":"Grand Rapids","state":"MI","zip":"49508","distance":15.17647239877,"lon":"-85.628203","lat":"42.849361","theaterChainName":"Celebration! Cinema","ticketType":"STANDARD"},{"id":"984","tribuneTheaterId":"219","providerTheaterId":"","name":"Ionia Theatre","address":"209 West Main Street","city":"Ionia","state":"MI","zip":"48846","distance":15.325013351742,"lon":"-85.064475","lat":"42.982248","theaterChainName":"Independent Chains","ticketType":"STANDARD"},{"id":"981","tribuneTheaterId":"2025","providerTheaterId":"","name":"Greenville Cinemas","address":"1500 North Lafayette","city":"Greenville","state":"MI","zip":"48838","distance":17.567873158385,"lon":"-85.250983","lat":"43.19516","theaterChainName":"NCG Cinemas","ticketType":"STANDARD"},{"id":"334","tribuneTheaterId":"8240","providerTheaterId":"2908","name":"AMC Star Grand Rapids 18","address":"3000 Alpine Avenue","city":"Walker","state":"MI","zip":"49544","distance":16.796869138609,"lon":"-85.686096","lat":"43.018495","theaterChainName":"AMC Theatres","ticketType":"STANDARD"},{"id":"3486","tribuneTheaterId":"1869","providerTheaterId":"","name":"NorthStar Cinemas - Rockford","address":"11699 Northland Dr.","city":"Rockford","state":"MI","zip":"49341","distance":18.040969411498,"lon":"-85.551","lat":"43.1781","theaterChainName":"Independent Chains","ticketType":"STANDARD"},{"id":"4394","tribuneTheaterId":"9442","providerTheaterId":"","name":"Celebration! Cinema RiverTown","address":"3728 Rivertown Pkwy","city":"Grandville","state":"MI","zip":"49418","distance":20.456434117021,"lon":"-85.755946","lat":"42.878764","theaterChainName":"Celebration! Cinema","ticketType":"STANDARD"},{"id":"1003","tribuneTheaterId":"4870","providerTheaterId":"","name":"Goodrich Hastings 4","address":"213 West State Street","city":"Hastings","state":"MI","zip":"49058","distance":21.498297230528,"lon":"-85.289604","lat":"42.648848","theaterChainName":"Goodrich Theatres","ticketType":"E_TICKET"}]