[{"id":"1221","name":"Carmike Big Rapids 4","address":"213 S Michigan","city":"Big Rapids","state":"MI","zip":"49307","distance":"24.988361358642578","lon":"-85.481972","lat":"43.696419","theaterChainName":"Carmike Cinemas","ticketType":"STANDARD"},{"id":"981","name":"Greenville Cinemas","address":"1500 North Lafayette","city":"Greenville","state":"MI","zip":"48838","distance":"16.381919860839844","lon":"-85.250984","lat":"43.195160","theaterChainName":"NCG Cinemas","ticketType":"STANDARD"},{"id":"3567","name":"Celebration! Cinema-North","address":"2121 Celebration","city":"Grand Rapids","state":"MI","zip":"49525","distance":"23.45758819580078","lon":"-85.593117","lat":"43.001030","theaterChainName":"Celebration! Cinema","ticketType":"STANDARD"},{"id":"334","name":"AMC Star Grand Rapids 18","address":"3000 Alpine Avenue","city":"Walker","state":"MI","zip":"49544","distance":"23.56955909729004","lon":"-85.686096","lat":"43.018494","theaterChainName":"AMC Theatres","ticketType":"STANDARD"},{"id":"3486","name":"NorthStar Cinemas - Rockford","address":"11699 Northland Dr.","city":"Rockford","state":"MI","zip":"49341","distance":"11.039250373840332","lon":"-85.551003","lat":"43.178101","theaterChainName":"Independent Chains","ticketType":"STANDARD"}]