[{"id":"1005","tribuneTheaterId":"1905","providerTheaterId":"","name":"M-89 Cinema","address":"392 Cross Oaks Mall","city":"Otsego","state":"MI","zip":"49080","distance":10.255605291127,"lon":"-85.668019","lat":"42.448099","theaterChainName":"Independent Chains","ticketType":"STANDARD"},{"id":"1003","tribuneTheaterId":"4870","providerTheaterId":"","name":"Goodrich Hastings 4","address":"213 West State Street","city":"Hastings","state":"MI","zip":"49058","distance":17.633047242337,"lon":"-85.289604","lat":"42.648848","theaterChainName":"Goodrich Theatres","ticketType":"E_TICKET"},{"id":"4140","tribuneTheaterId":"2387","providerTheaterId":"","name":"Celebration! Cinema-South","address":"1506 Eastport Drive SE","city":"Grand Rapids","state":"MI","zip":"49508","distance":17.671372208894,"lon":"-85.628203","lat":"42.849361","theaterChainName":"Celebration! Cinema","ticketType":"STANDARD"},{"id":"986","tribuneTheaterId":"4885","providerTheaterId":"","name":"Goodrich Kalamazoo 10","address":"820 Maple Hill Drive","city":"Kalamazoo","state":"MI","zip":"49009","distance":20.467642159165,"lon":"-85.657237","lat":"42.298144","theaterChainName":"Goodrich Theatres","ticketType":"E_TICKET"},{"id":"5323","tribuneTheaterId":"10760","providerTheaterId":"","name":"Alamo Drafthouse Kalamazoo","address":"180 Portage St.","city":"Kalamazoo","state":"MI","zip":"49007","distance":21.0611692825,"lon":"-85.5807","lat":"42.2908","theaterChainName":"Alamo Drafthouse","ticketType":"STANDARD"},{"id":"4394","tribuneTheaterId":"9442","providerTheaterId":"","name":"Celebration! Cinema RiverTown","address":"3728 Rivertown Pkwy","city":"Grandville","state":"MI","zip":"49418","distance":20.742043419549,"lon":"-85.755946","lat":"42.878764","theaterChainName":"Celebration! Cinema","ticketType":"STANDARD"},{"id":"4388","tribuneTheaterId":"9432","providerTheaterId":"","name":"Celebration! Cinema Woodland","address":"3195 28th St. SE","city":"Grand Rapids","state":"MI","zip":"49512","distance":22.288090206953,"lon":"-85.587745","lat":"42.914809","theaterChainName":"Celebration! Cinema","ticketType":"STANDARD"}]