[{"id":"2639","tribuneTheaterId":"4884","providerTheaterId":"","name":"Goodrich Grand Haven 9","address":"17220 Hayes Street","city":"Grand Haven","state":"MI","zip":"49417","distance":3.5593722184499,"lon":"-86.215928","lat":"43.029386","theaterChainName":"Goodrich Theatres","ticketType":"E_TICKET"},{"id":"1223","tribuneTheaterId":"2372","providerTheaterId":"","name":"Cinema Carousel","address":"4289 Grand Haven Rd.","city":"Muskegon","state":"MI","zip":"49441","distance":6.4314567460987,"lon":"-86.220838","lat":"43.173899","theaterChainName":"Celebration! Cinema","ticketType":"STANDARD"},{"id":"1225","tribuneTheaterId":"6390","providerTheaterId":"","name":"New Plaza 1 & 2","address":"3450 Henry St.","city":"Muskegon","state":"MI","zip":"49441","distance":7.8844034134564,"lon":"-86.262344","lat":"43.189749","theaterChainName":"Celebration! Cinema","ticketType":"STANDARD"},{"id":"1011","tribuneTheaterId":"225","providerTheaterId":"","name":"Knickerbocker Theatre","address":"86 East 8th Street","city":"Holland","state":"MI","zip":"49423","distance":20.870568880489,"lon":"-86.103268","lat":"42.790206","theaterChainName":"Independent Chains","ticketType":"STANDARD"},{"id":"332","tribuneTheaterId":"7636","providerTheaterId":"2907","name":"AMC Star Holland 8","address":"12270 James Street","city":"Holland","state":"MI","zip":"49424","distance":19.999171145647,"lon":"-86.08469","lat":"42.80772","theaterChainName":"AMC Theatres","ticketType":"STANDARD"},{"id":"1010","tribuneTheaterId":"5833","providerTheaterId":"","name":"Goodrich Holland 7 Theatres","address":"500 Waverly Road","city":"Holland","state":"MI","zip":"49423","distance":21.958113387356,"lon":"-86.0796","lat":"42.779051","theaterChainName":"Goodrich Theatres","ticketType":"SELECT_SEATING"},{"id":"1226","tribuneTheaterId":"1462","providerTheaterId":"","name":"Northstar Cinemas - Whitehall","address":"8171 White Hall Road","city":"Whitehall","state":"MI","zip":"49461","distance":23.046654956852,"lon":"-86.314934","lat":"43.406483","theaterChainName":"Independent Chains","ticketType":"STANDARD"}]