[{"id":"334","name":"AMC Star Grand Rapids 18","address":"3000 Alpine Avenue","city":"Walker","state":"MI","zip":"49544","distance":"24.444835662841797","lon":"-85.686096","lat":"43.018494","theaterChainName":"AMC Theatres","ticketType":"STANDARD"},{"id":"1011","name":"Knickerbocker Theatre","address":"86 East 8th Street","city":"Holland","state":"MI","zip":"49423","distance":"24.532739639282227","lon":"-86.103271","lat":"42.790207","theaterChainName":"Independent Chains","ticketType":"STANDARD"},{"id":"332","name":"AMC Star Holland 8","address":"12270 James Street","city":"Holland","state":"MI","zip":"49424","distance":"23.41710662841797","lon":"-86.084686","lat":"42.807720","theaterChainName":"AMC Theatres","ticketType":"STANDARD"},{"id":"1223","name":"Cinema Carousel","address":"4289 Grand Haven Rd.","city":"Muskegon","state":"MI","zip":"49441","distance":"4.613300800323486","lon":"-86.220840","lat":"43.173901","theaterChainName":"Celebration! Cinema","ticketType":"STANDARD"},{"id":"1225","name":"New Plaza 1 & 2","address":"3450 Henry St.","city":"Muskegon","state":"MI","zip":"49441","distance":"6.973465919494629","lon":"-86.262344","lat":"43.189751","theaterChainName":"Celebration! Cinema","ticketType":"STANDARD"},{"id":"2639","name":"Goodrich Grand Haven 9","address":"17220 Hayes Street","city":"Grand Haven","state":"MI","zip":"49417","distance":"8.842832565307617","lon":"-86.215927","lat":"43.029385","theaterChainName":"Goodrich Theatres","ticketType":"E_TICKET"},{"id":"1226","name":"Northstar Cinemas - Whitehall","address":"8171 White Hall Road","city":"Whitehall","state":"MI","zip":"49461","distance":"20.16713523864746","lon":"-86.314934","lat":"43.406483","theaterChainName":"Independent Chains","ticketType":"STANDARD"}]