[{"id":"1010","tribuneTheaterId":"5833","providerTheaterId":"","name":"Goodrich Holland 7 Theatres","address":"500 Waverly Road","city":"Holland","state":"MI","zip":"49423","distance":8.2360002791322,"lon":"-86.0796","lat":"42.779051","theaterChainName":"Goodrich Theatres","ticketType":"SELECT_SEATING"},{"id":"1011","tribuneTheaterId":"225","providerTheaterId":"","name":"Knickerbocker Theatre","address":"86 East 8th Street","city":"Holland","state":"MI","zip":"49423","distance":9.6092028243866,"lon":"-86.103268","lat":"42.790206","theaterChainName":"Independent Chains","ticketType":"STANDARD"},{"id":"332","tribuneTheaterId":"7636","providerTheaterId":"2907","name":"AMC Star Holland 8","address":"12270 James Street","city":"Holland","state":"MI","zip":"49424","distance":9.9726474412824,"lon":"-86.08469","lat":"42.80772","theaterChainName":"AMC Theatres","ticketType":"STANDARD"},{"id":"4394","tribuneTheaterId":"9442","providerTheaterId":"","name":"Celebration! Cinema RiverTown","address":"3728 Rivertown Pkwy","city":"Grandville","state":"MI","zip":"49418","distance":17.221946683664,"lon":"-85.755946","lat":"42.878764","theaterChainName":"Celebration! Cinema","ticketType":"STANDARD"},{"id":"4140","tribuneTheaterId":"2387","providerTheaterId":"","name":"Celebration! Cinema-South","address":"1506 Eastport Drive SE","city":"Grand Rapids","state":"MI","zip":"49508","distance":20.809100809741,"lon":"-85.628203","lat":"42.849361","theaterChainName":"Celebration! Cinema","ticketType":"STANDARD"},{"id":"1005","tribuneTheaterId":"1905","providerTheaterId":"","name":"M-89 Cinema","address":"392 Cross Oaks Mall","city":"Otsego","state":"MI","zip":"49080","distance":22.770834464361,"lon":"-85.668019","lat":"42.448099","theaterChainName":"Independent Chains","ticketType":"STANDARD"},{"id":"1007","tribuneTheaterId":"1456","providerTheaterId":"","name":"Michigan 3 Theatres","address":"210 Center Street","city":"South Haven","state":"MI","zip":"49090","distance":24.841321319082,"lon":"-86.274192","lat":"42.404234","theaterChainName":"Independent Chains","ticketType":"STANDARD"},{"id":"5513","tribuneTheaterId":"10935","providerTheaterId":"","name":"Track Cinema","address":"1579 Clark St Rd","city":"Auburn","state":"NY","zip":"13021","distance":24.544109915245,"lon":"-85.668075","lat":"42.963083","theaterChainName":"Independent Chains","ticketType":"STANDARD"},{"id":"5491","tribuneTheaterId":"10932","providerTheaterId":"","name":"Urban Institute for Contemporary","address":"2 Fulton W.","city":"Grand Rapids","state":"MI","zip":"49503","distance":24.555972445239,"lon":"-85.6679","lat":"42.9632","theaterChainName":"Independent Chains","ticketType":"STANDARD"}]