[{"id":"1010","tribuneTheaterId":"5833","providerTheaterId":"","name":"Goodrich Holland 7 Theatres","address":"500 Waverly Road","city":"Holland","state":"MI","zip":"49423","distance":1.9866216000169,"lon":"-86.0796","lat":"42.779051","theaterChainName":"Goodrich Theatres","ticketType":"SELECT_SEATING"},{"id":"1011","tribuneTheaterId":"225","providerTheaterId":"","name":"Knickerbocker Theatre","address":"86 East 8th Street","city":"Holland","state":"MI","zip":"49423","distance":1.5968667523355,"lon":"-86.103268","lat":"42.790206","theaterChainName":"Independent Chains","ticketType":"STANDARD"},{"id":"332","tribuneTheaterId":"7636","providerTheaterId":"2907","name":"AMC Star Holland 8","address":"12270 James Street","city":"Holland","state":"MI","zip":"49424","distance":3.1094486631741,"lon":"-86.08469","lat":"42.80772","theaterChainName":"AMC Theatres","ticketType":"STANDARD"},{"id":"2639","tribuneTheaterId":"4884","providerTheaterId":"","name":"Goodrich Grand Haven 9","address":"17220 Hayes Street","city":"Grand Haven","state":"MI","zip":"49417","distance":18.66958022295,"lon":"-86.215928","lat":"43.029386","theaterChainName":"Goodrich Theatres","ticketType":"E_TICKET"},{"id":"4394","tribuneTheaterId":"9442","providerTheaterId":"","name":"Celebration! Cinema RiverTown","address":"3728 Rivertown Pkwy","city":"Grandville","state":"MI","zip":"49418","distance":19.772922633296,"lon":"-85.755946","lat":"42.878764","theaterChainName":"Celebration! Cinema","ticketType":"STANDARD"}]