[{"id":"1009","name":"Goodrich Ada-Lowell 5 Theatre","address":"2175 West Main Street","city":"Lowell","state":"MI","zip":"49331","distance":"23.520841598510742","lon":"-85.363701","lat":"42.932110","theaterChainName":"Goodrich Theatres","ticketType":"E_TICKET"},{"id":"4388","name":"Celebration! Cinema Woodland","address":"3195 28th St. SE","city":"Grand Rapids","state":"MI","zip":"49512","distance":"12.141959190368652","lon":"-85.587746","lat":"42.914810","theaterChainName":"Celebration! Cinema","ticketType":"STANDARD"},{"id":"3567","name":"Celebration! Cinema-North","address":"2121 Celebration","city":"Grand Rapids","state":"MI","zip":"49525","distance":"13.410022735595703","lon":"-85.593117","lat":"43.001030","theaterChainName":"Celebration! Cinema","ticketType":"STANDARD"},{"id":"4140","name":"Celebration! Cinema-South","address":"1506 Eastport Drive SE","city":"Grand Rapids","state":"MI","zip":"49508","distance":"10.941575050354004","lon":"-85.628204","lat":"42.849361","theaterChainName":"Celebration! Cinema","ticketType":"STANDARD"},{"id":"5513","name":"Track Cinema","address":"1579 Clark St Rd","city":"Auburn","state":"NY","zip":"13021","distance":"8.852764129638672","lon":"-85.668076","lat":"42.963081","theaterChainName":"Independent Chains","ticketType":"STANDARD"},{"id":"5491","name":"Urban Institute for Contemporary","address":"2 Fulton W.","city":"Grand Rapids","state":"MI","zip":"49503","distance":"8.864209175109863","lon":"-85.667900","lat":"42.963200","theaterChainName":"Independent Chains","ticketType":"STANDARD"},{"id":"334","name":"AMC Star Grand Rapids 18","address":"3000 Alpine Avenue","city":"Walker","state":"MI","zip":"49544","distance":"10.343047142028809","lon":"-85.686096","lat":"43.018494","theaterChainName":"AMC Theatres","ticketType":"STANDARD"},{"id":"4394","name":"Celebration! Cinema RiverTown","address":"3728 Rivertown Pkwy","city":"Grandville","state":"MI","zip":"49418","distance":"4.235030174255371","lon":"-85.755943","lat":"42.878765","theaterChainName":"Celebration! Cinema","ticketType":"STANDARD"},{"id":"1010","name":"Goodrich Holland 7 Theatres","address":"500 Waverly Road","city":"Holland","state":"MI","zip":"49423","distance":"15.664040565490723","lon":"-86.079597","lat":"42.779053","theaterChainName":"Goodrich Theatres","ticketType":"SELECT_SEATING"},{"id":"1011","name":"Knickerbocker Theatre","address":"86 East 8th Street","city":"Holland","state":"MI","zip":"49423","distance":"16.247894287109375","lon":"-86.103271","lat":"42.790207","theaterChainName":"Independent Chains","ticketType":"STANDARD"},{"id":"332","name":"AMC Star Holland 8","address":"12270 James Street","city":"Holland","state":"MI","zip":"49424","distance":"14.829058647155762","lon":"-86.084686","lat":"42.807720","theaterChainName":"AMC Theatres","ticketType":"STANDARD"},{"id":"2639","name":"Goodrich Grand Haven 9","address":"17220 Hayes Street","city":"Grand Haven","state":"MI","zip":"49417","distance":"21.285552978515625","lon":"-86.215927","lat":"43.029385","theaterChainName":"Goodrich Theatres","ticketType":"E_TICKET"},{"id":"3486","name":"NorthStar Cinemas - Rockford","address":"11699 Northland Dr.","city":"Rockford","state":"MI","zip":"49341","distance":"23.178630828857422","lon":"-85.551003","lat":"43.178101","theaterChainName":"Independent Chains","ticketType":"STANDARD"}]