[{"id":"4394","name":"Celebration! Cinema RiverTown","address":"3728 Rivertown Pkwy","city":"Grandville","state":"MI","zip":"49418","distance":"20.100914001464844","lon":"-85.755943","lat":"42.878765","theaterChainName":"Celebration! Cinema","ticketType":"STANDARD"},{"id":"1010","name":"Goodrich Holland 7 Theatres","address":"500 Waverly Road","city":"Holland","state":"MI","zip":"49423","distance":"3.9836554527282715","lon":"-86.079597","lat":"42.779053","theaterChainName":"Goodrich Theatres","ticketType":"SELECT_SEATING"},{"id":"1011","name":"Knickerbocker Theatre","address":"86 East 8th Street","city":"Holland","state":"MI","zip":"49423","distance":"2.562424421310425","lon":"-86.103271","lat":"42.790207","theaterChainName":"Independent Chains","ticketType":"STANDARD"},{"id":"332","name":"AMC Star Holland 8","address":"12270 James Street","city":"Holland","state":"MI","zip":"49424","distance":"2.9627487659454346","lon":"-86.084686","lat":"42.807720","theaterChainName":"AMC Theatres","ticketType":"STANDARD"},{"id":"2639","name":"Goodrich Grand Haven 9","address":"17220 Hayes Street","city":"Grand Haven","state":"MI","zip":"49417","distance":"15.37163257598877","lon":"-86.215927","lat":"43.029385","theaterChainName":"Goodrich Theatres","ticketType":"E_TICKET"}]