[{"id":"1223","name":"Cinema Carousel","address":"4289 Grand Haven Rd.","city":"Muskegon","state":"MI","zip":"49441","distance":"3.0813748836517334","lon":"-86.220840","lat":"43.173901","theaterChainName":"Celebration! Cinema","ticketType":"STANDARD"},{"id":"1225","name":"New Plaza 1 & 2","address":"3450 Henry St.","city":"Muskegon","state":"MI","zip":"49441","distance":"0.7293251752853394","lon":"-86.262344","lat":"43.189751","theaterChainName":"Celebration! Cinema","ticketType":"STANDARD"},{"id":"2639","name":"Goodrich Grand Haven 9","address":"17220 Hayes Street","city":"Grand Haven","state":"MI","zip":"49417","distance":"11.89059066772461","lon":"-86.215927","lat":"43.029385","theaterChainName":"Goodrich Theatres","ticketType":"E_TICKET"},{"id":"1226","name":"Northstar Cinemas - Whitehall","address":"8171 White Hall Road","city":"Whitehall","state":"MI","zip":"49461","distance":"14.676401138305664","lon":"-86.314934","lat":"43.406483","theaterChainName":"Independent Chains","ticketType":"STANDARD"}]