[{"id":"1005","name":"M-89 Cinema","address":"392 Cross Oaks Mall","city":"Otsego","state":"MI","zip":"49080","distance":"21.03025245666504","lon":"-85.668022","lat":"42.448097","theaterChainName":"Independent Chains","ticketType":"STANDARD"},{"id":"986","name":"Goodrich Kalamazoo 10","address":"820 Maple Hill Drive","city":"Kalamazoo","state":"MI","zip":"49009","distance":"24.463890075683594","lon":"-85.657234","lat":"42.298145","theaterChainName":"Goodrich Theatres","ticketType":"E_TICKET"},{"id":"1006","name":"Strand Theatre - Paw Paw","address":"115 East Michigan","city":"Paw Paw","state":"MI","zip":"49079","distance":"19.59429168701172","lon":"-85.891945","lat":"42.217888","theaterChainName":"Independent Chains","ticketType":"STANDARD"},{"id":"1010","name":"Goodrich Holland 7 Theatres","address":"500 Waverly Road","city":"Holland","state":"MI","zip":"49423","distance":"21.69342803955078","lon":"-86.079597","lat":"42.779053","theaterChainName":"Goodrich Theatres","ticketType":"SELECT_SEATING"},{"id":"1011","name":"Knickerbocker Theatre","address":"86 East 8th Street","city":"Holland","state":"MI","zip":"49423","distance":"22.495542526245117","lon":"-86.103271","lat":"42.790207","theaterChainName":"Independent Chains","ticketType":"STANDARD"},{"id":"332","name":"AMC Star Holland 8","address":"12270 James Street","city":"Holland","state":"MI","zip":"49424","distance":"23.675521850585938","lon":"-86.084686","lat":"42.807720","theaterChainName":"AMC Theatres","ticketType":"STANDARD"},{"id":"1007","name":"Michigan 3 Theatres","address":"210 Center Street","city":"South Haven","state":"MI","zip":"49090","distance":"10.763834953308105","lon":"-86.274193","lat":"42.404236","theaterChainName":"Independent Chains","ticketType":"STANDARD"},{"id":"1000","name":"Loma Theatre","address":"221 Paw Paw Street","city":"Coloma","state":"MI","zip":"49038","distance":"22.34903907775879","lon":"-86.305901","lat":"42.188156","theaterChainName":"Independent Chains","ticketType":"STANDARD"}]