[{"id":"3567","name":"Celebration! Cinema-North","address":"2121 Celebration","city":"Grand Rapids","state":"MI","zip":"49525","distance":"23.628068923950195","lon":"-85.593117","lat":"43.001030","theaterChainName":"Celebration! Cinema","ticketType":"STANDARD"},{"id":"5513","name":"Track Cinema","address":"1579 Clark St Rd","city":"Auburn","state":"NY","zip":"13021","distance":"22.653600692749023","lon":"-85.668076","lat":"42.963081","theaterChainName":"Independent Chains","ticketType":"STANDARD"},{"id":"5491","name":"Urban Institute for Contemporary","address":"2 Fulton W.","city":"Grand Rapids","state":"MI","zip":"49503","distance":"22.653316497802734","lon":"-85.667900","lat":"42.963200","theaterChainName":"Independent Chains","ticketType":"STANDARD"},{"id":"334","name":"AMC Star Grand Rapids 18","address":"3000 Alpine Avenue","city":"Walker","state":"MI","zip":"49544","distance":"19.26357650756836","lon":"-85.686096","lat":"43.018494","theaterChainName":"AMC Theatres","ticketType":"STANDARD"},{"id":"1223","name":"Cinema Carousel","address":"4289 Grand Haven Rd.","city":"Muskegon","state":"MI","zip":"49441","distance":"13.125934600830078","lon":"-86.220840","lat":"43.173901","theaterChainName":"Celebration! Cinema","ticketType":"STANDARD"},{"id":"1225","name":"New Plaza 1 & 2","address":"3450 Henry St.","city":"Muskegon","state":"MI","zip":"49441","distance":"15.047045707702637","lon":"-86.262344","lat":"43.189751","theaterChainName":"Celebration! Cinema","ticketType":"STANDARD"},{"id":"2639","name":"Goodrich Grand Haven 9","address":"17220 Hayes Street","city":"Grand Haven","state":"MI","zip":"49417","distance":"17.73785972595215","lon":"-86.215927","lat":"43.029385","theaterChainName":"Goodrich Theatres","ticketType":"E_TICKET"},{"id":"1226","name":"Northstar Cinemas - Whitehall","address":"8171 White Hall Road","city":"Whitehall","state":"MI","zip":"49461","distance":"22.27004623413086","lon":"-86.314934","lat":"43.406483","theaterChainName":"Independent Chains","ticketType":"STANDARD"},{"id":"3486","name":"NorthStar Cinemas - Rockford","address":"11699 Northland Dr.","city":"Rockford","state":"MI","zip":"49341","distance":"20.95478630065918","lon":"-85.551003","lat":"43.178101","theaterChainName":"Independent Chains","ticketType":"STANDARD"}]