[{"id":"1223","tribuneTheaterId":"2372","providerTheaterId":"","name":"Cinema Carousel","address":"4289 Grand Haven Rd.","city":"Muskegon","state":"MI","zip":"49441","distance":13.124935352869,"lon":"-86.220838","lat":"43.173899","theaterChainName":"Celebration! Cinema","ticketType":"STANDARD"},{"id":"1225","tribuneTheaterId":"6390","providerTheaterId":"","name":"New Plaza 1 & 2","address":"3450 Henry St.","city":"Muskegon","state":"MI","zip":"49441","distance":15.046010582185,"lon":"-86.262344","lat":"43.189749","theaterChainName":"Celebration! Cinema","ticketType":"STANDARD"},{"id":"2639","tribuneTheaterId":"4884","providerTheaterId":"","name":"Goodrich Grand Haven 9","address":"17220 Hayes Street","city":"Grand Haven","state":"MI","zip":"49417","distance":17.736708253399,"lon":"-86.215928","lat":"43.029386","theaterChainName":"Goodrich Theatres","ticketType":"E_TICKET"},{"id":"334","tribuneTheaterId":"8240","providerTheaterId":"2908","name":"AMC Star Grand Rapids 18","address":"3000 Alpine Avenue","city":"Walker","state":"MI","zip":"49544","distance":19.262455418478,"lon":"-85.686096","lat":"43.018495","theaterChainName":"AMC Theatres","ticketType":"STANDARD"},{"id":"3486","tribuneTheaterId":"1869","providerTheaterId":"","name":"NorthStar Cinemas - Rockford","address":"11699 Northland Dr.","city":"Rockford","state":"MI","zip":"49341","distance":20.953726188196,"lon":"-85.551","lat":"43.1781","theaterChainName":"Independent Chains","ticketType":"STANDARD"},{"id":"1226","tribuneTheaterId":"1462","providerTheaterId":"","name":"Northstar Cinemas - Whitehall","address":"8171 White Hall Road","city":"Whitehall","state":"MI","zip":"49461","distance":22.268556319086,"lon":"-86.314934","lat":"43.406483","theaterChainName":"Independent Chains","ticketType":"STANDARD"},{"id":"3567","tribuneTheaterId":"2404","providerTheaterId":"","name":"Celebration! Cinema-North","address":"2121 Celebration","city":"Grand Rapids","state":"MI","zip":"49525","distance":23.626723669953,"lon":"-85.593117","lat":"43.00103","theaterChainName":"Celebration! Cinema","ticketType":"STANDARD"},{"id":"5491","tribuneTheaterId":"10932","providerTheaterId":"","name":"Urban Institute for Contemporary","address":"2 Fulton W.","city":"Grand Rapids","state":"MI","zip":"49503","distance":22.652023517884,"lon":"-85.6679","lat":"42.9632","theaterChainName":"Independent Chains","ticketType":"STANDARD"},{"id":"5513","tribuneTheaterId":"10935","providerTheaterId":"","name":"Track Cinema","address":"1579 Clark St Rd","city":"Auburn","state":"NY","zip":"13021","distance":22.652258976192,"lon":"-85.668075","lat":"42.963083","theaterChainName":"Independent Chains","ticketType":"STANDARD"}]