[{"id":"1009","name":"Goodrich Ada-Lowell 5 Theatre","address":"2175 West Main Street","city":"Lowell","state":"MI","zip":"49331","distance":"20.26871681213379","lon":"-85.363701","lat":"42.932110","theaterChainName":"Goodrich Theatres","ticketType":"E_TICKET"},{"id":"4388","name":"Celebration! Cinema Woodland","address":"3195 28th St. SE","city":"Grand Rapids","state":"MI","zip":"49512","distance":"8.881144523620605","lon":"-85.587746","lat":"42.914810","theaterChainName":"Celebration! Cinema","ticketType":"STANDARD"},{"id":"3567","name":"Celebration! Cinema-North","address":"2121 Celebration","city":"Grand Rapids","state":"MI","zip":"49525","distance":"10.664053916931152","lon":"-85.593117","lat":"43.001030","theaterChainName":"Celebration! Cinema","ticketType":"STANDARD"},{"id":"4140","name":"Celebration! Cinema-South","address":"1506 Eastport Drive SE","city":"Grand Rapids","state":"MI","zip":"49508","distance":"8.0021333694458","lon":"-85.628204","lat":"42.849361","theaterChainName":"Celebration! Cinema","ticketType":"STANDARD"},{"id":"5513","name":"Track Cinema","address":"1579 Clark St Rd","city":"Auburn","state":"NY","zip":"13021","distance":"6.059135437011719","lon":"-85.668076","lat":"42.963081","theaterChainName":"Independent Chains","ticketType":"STANDARD"},{"id":"5491","name":"Urban Institute for Contemporary","address":"2 Fulton W.","city":"Grand Rapids","state":"MI","zip":"49503","distance":"6.07114839553833","lon":"-85.667900","lat":"42.963200","theaterChainName":"Independent Chains","ticketType":"STANDARD"},{"id":"334","name":"AMC Star Grand Rapids 18","address":"3000 Alpine Avenue","city":"Walker","state":"MI","zip":"49544","distance":"8.465982437133789","lon":"-85.686096","lat":"43.018494","theaterChainName":"AMC Theatres","ticketType":"STANDARD"},{"id":"4394","name":"Celebration! Cinema RiverTown","address":"3728 Rivertown Pkwy","city":"Grandville","state":"MI","zip":"49418","distance":"2.1679046154022217","lon":"-85.755943","lat":"42.878765","theaterChainName":"Celebration! Cinema","ticketType":"STANDARD"},{"id":"1010","name":"Goodrich Holland 7 Theatres","address":"500 Waverly Road","city":"Holland","state":"MI","zip":"49423","distance":"18.40108299255371","lon":"-86.079597","lat":"42.779053","theaterChainName":"Goodrich Theatres","ticketType":"SELECT_SEATING"},{"id":"1011","name":"Knickerbocker Theatre","address":"86 East 8th Street","city":"Holland","state":"MI","zip":"49423","distance":"19.108293533325195","lon":"-86.103271","lat":"42.790207","theaterChainName":"Independent Chains","ticketType":"STANDARD"},{"id":"332","name":"AMC Star Holland 8","address":"12270 James Street","city":"Holland","state":"MI","zip":"49424","distance":"17.747432708740234","lon":"-86.084686","lat":"42.807720","theaterChainName":"AMC Theatres","ticketType":"STANDARD"},{"id":"2639","name":"Goodrich Grand Haven 9","address":"17220 Hayes Street","city":"Grand Haven","state":"MI","zip":"49417","distance":"24.342689514160156","lon":"-86.215927","lat":"43.029385","theaterChainName":"Goodrich Theatres","ticketType":"E_TICKET"},{"id":"3486","name":"NorthStar Cinemas - Rockford","address":"11699 Northland Dr.","city":"Rockford","state":"MI","zip":"49341","distance":"21.41654396057129","lon":"-85.551003","lat":"43.178101","theaterChainName":"Independent Chains","ticketType":"STANDARD"}]