[{"id":"4140","tribuneTheaterId":"2387","providerTheaterId":"","name":"Celebration! Cinema-South","address":"1506 Eastport Drive SE","city":"Grand Rapids","state":"MI","zip":"49508","distance":2.7847784542115,"lon":"-85.628203","lat":"42.849361","theaterChainName":"Celebration! Cinema","ticketType":"STANDARD"},{"id":"4388","tribuneTheaterId":"9432","providerTheaterId":"","name":"Celebration! Cinema Woodland","address":"3195 28th St. SE","city":"Grand Rapids","state":"MI","zip":"49512","distance":2.4638085043113,"lon":"-85.587745","lat":"42.914809","theaterChainName":"Celebration! Cinema","ticketType":"STANDARD"},{"id":"5491","tribuneTheaterId":"10932","providerTheaterId":"","name":"Urban Institute for Contemporary","address":"2 Fulton W.","city":"Grand Rapids","state":"MI","zip":"49503","distance":5.6050626339107,"lon":"-85.6679","lat":"42.9632","theaterChainName":"Independent Chains","ticketType":"STANDARD"},{"id":"5513","tribuneTheaterId":"10935","providerTheaterId":"","name":"Track Cinema","address":"1579 Clark St Rd","city":"Auburn","state":"NY","zip":"13021","distance":5.6013970723842,"lon":"-85.668075","lat":"42.963083","theaterChainName":"Independent Chains","ticketType":"STANDARD"},{"id":"4394","tribuneTheaterId":"9442","providerTheaterId":"","name":"Celebration! Cinema RiverTown","address":"3728 Rivertown Pkwy","city":"Grandville","state":"MI","zip":"49418","distance":6.8260021842609,"lon":"-85.755946","lat":"42.878764","theaterChainName":"Celebration! Cinema","ticketType":"STANDARD"},{"id":"3567","tribuneTheaterId":"2404","providerTheaterId":"","name":"Celebration! Cinema-North","address":"2121 Celebration","city":"Grand Rapids","state":"MI","zip":"49525","distance":7.8490637773383,"lon":"-85.593117","lat":"43.00103","theaterChainName":"Celebration! Cinema","ticketType":"STANDARD"},{"id":"334","tribuneTheaterId":"8240","providerTheaterId":"2908","name":"AMC Star Grand Rapids 18","address":"3000 Alpine Avenue","city":"Walker","state":"MI","zip":"49544","distance":9.4920017622902,"lon":"-85.686096","lat":"43.018495","theaterChainName":"AMC Theatres","ticketType":"STANDARD"},{"id":"1009","tribuneTheaterId":"4872","providerTheaterId":"","name":"Goodrich Ada-Lowell 5 Theatre","address":"2175 West Main Street","city":"Lowell","state":"MI","zip":"49331","distance":13.395142789699,"lon":"-85.363703","lat":"42.93211","theaterChainName":"Goodrich Theatres","ticketType":"E_TICKET"},{"id":"3486","tribuneTheaterId":"1869","providerTheaterId":"","name":"NorthStar Cinemas - Rockford","address":"11699 Northland Dr.","city":"Rockford","state":"MI","zip":"49341","distance":20.266073526783,"lon":"-85.551","lat":"43.1781","theaterChainName":"Independent Chains","ticketType":"STANDARD"},{"id":"332","tribuneTheaterId":"7636","providerTheaterId":"2907","name":"AMC Star Holland 8","address":"12270 James Street","city":"Holland","state":"MI","zip":"49424","distance":24.112789718955,"lon":"-86.08469","lat":"42.80772","theaterChainName":"AMC Theatres","ticketType":"STANDARD"},{"id":"1010","tribuneTheaterId":"5833","providerTheaterId":"","name":"Goodrich Holland 7 Theatres","address":"500 Waverly Road","city":"Holland","state":"MI","zip":"49423","distance":24.411777371533,"lon":"-86.0796","lat":"42.779051","theaterChainName":"Goodrich Theatres","ticketType":"SELECT_SEATING"},{"id":"1003","tribuneTheaterId":"4870","providerTheaterId":"","name":"Goodrich Hastings 4","address":"213 West State Street","city":"Hastings","state":"MI","zip":"49058","distance":23.670905716334,"lon":"-85.289604","lat":"42.648848","theaterChainName":"Goodrich Theatres","ticketType":"E_TICKET"}]