[{"id":"1009","name":"Goodrich Ada-Lowell 5 Theatre","address":"2175 West Main Street","city":"Lowell","state":"MI","zip":"49331","distance":"18.116113662719727","lon":"-85.363701","lat":"42.932110","theaterChainName":"Goodrich Theatres","ticketType":"E_TICKET"},{"id":"4388","name":"Celebration! Cinema Woodland","address":"3195 28th St. SE","city":"Grand Rapids","state":"MI","zip":"49512","distance":"6.727329254150391","lon":"-85.587746","lat":"42.914810","theaterChainName":"Celebration! Cinema","ticketType":"STANDARD"},{"id":"3567","name":"Celebration! Cinema-North","address":"2121 Celebration","city":"Grand Rapids","state":"MI","zip":"49525","distance":"9.55261516571045","lon":"-85.593117","lat":"43.001030","theaterChainName":"Celebration! Cinema","ticketType":"STANDARD"},{"id":"4140","name":"Celebration! Cinema-South","address":"1506 Eastport Drive SE","city":"Grand Rapids","state":"MI","zip":"49508","distance":"5.666493892669678","lon":"-85.628204","lat":"42.849361","theaterChainName":"Celebration! Cinema","ticketType":"STANDARD"},{"id":"5513","name":"Track Cinema","address":"1579 Clark St Rd","city":"Auburn","state":"NY","zip":"13021","distance":"5.190559387207031","lon":"-85.668076","lat":"42.963081","theaterChainName":"Independent Chains","ticketType":"STANDARD"},{"id":"5491","name":"Urban Institute for Contemporary","address":"2 Fulton W.","city":"Grand Rapids","state":"MI","zip":"49503","distance":"5.202043056488037","lon":"-85.667900","lat":"42.963200","theaterChainName":"Independent Chains","ticketType":"STANDARD"},{"id":"334","name":"AMC Star Grand Rapids 18","address":"3000 Alpine Avenue","city":"Walker","state":"MI","zip":"49544","distance":"8.506746292114258","lon":"-85.686096","lat":"43.018494","theaterChainName":"AMC Theatres","ticketType":"STANDARD"},{"id":"4394","name":"Celebration! Cinema RiverTown","address":"3728 Rivertown Pkwy","city":"Grandville","state":"MI","zip":"49418","distance":"2.2992937564849854","lon":"-85.755943","lat":"42.878765","theaterChainName":"Celebration! Cinema","ticketType":"STANDARD"},{"id":"1010","name":"Goodrich Holland 7 Theatres","address":"500 Waverly Road","city":"Holland","state":"MI","zip":"49423","distance":"20.044233322143555","lon":"-86.079597","lat":"42.779053","theaterChainName":"Goodrich Theatres","ticketType":"SELECT_SEATING"},{"id":"1011","name":"Knickerbocker Theatre","address":"86 East 8th Street","city":"Holland","state":"MI","zip":"49423","distance":"20.85613250732422","lon":"-86.103271","lat":"42.790207","theaterChainName":"Independent Chains","ticketType":"STANDARD"},{"id":"332","name":"AMC Star Holland 8","address":"12270 James Street","city":"Holland","state":"MI","zip":"49424","distance":"19.559011459350586","lon":"-86.084686","lat":"42.807720","theaterChainName":"AMC Theatres","ticketType":"STANDARD"},{"id":"3486","name":"NorthStar Cinemas - Rockford","address":"11699 Northland Dr.","city":"Rockford","state":"MI","zip":"49341","distance":"21.143051147460938","lon":"-85.551003","lat":"43.178101","theaterChainName":"Independent Chains","ticketType":"STANDARD"}]