[{"id":"1994","name":"Bellaire Theatre","address":"219 N. Bridge St.","city":"Bellaire","state":"MI","zip":"49615","distance":"11.310070037841797","lon":"-85.209900","lat":"44.976898","theaterChainName":"Independent Chains","ticketType":"STANDARD"},{"id":"2366","name":"Elk Rapids Cinema Theatre","address":"205 River Street","city":"Elk Rapids","state":"MI","zip":"49629","distance":"14.810545921325684","lon":"-85.414696","lat":"44.897781","theaterChainName":"Independent Chains","ticketType":"STANDARD"},{"id":"3565","name":"Bay Theatre - Suttons Bay","address":"214 N. St. Joseph","city":"Suttons Bay","state":"MI","zip":"49682","distance":"17.2523193359375","lon":"-85.651077","lat":"44.976387","theaterChainName":"Independent Chains","ticketType":"STANDARD"},{"id":"2729","name":"Charlevoix Cinema III","address":"107 Antrim St","city":"Charlevoix","state":"MI","zip":"49720","distance":"15.05639934539795","lon":"-85.258797","lat":"45.315392","theaterChainName":"Independent Chains","ticketType":"STANDARD"}]