[{"id":"1994","tribuneTheaterId":"295","providerTheaterId":"","name":"Bellaire Theatre","address":"219 N. Bridge St.","city":"Bellaire","state":"MI","zip":"49615","distance":7.4557999917203,"lon":"-85.2099","lat":"44.9769","theaterChainName":"Independent Chains","ticketType":"STANDARD"},{"id":"2366","tribuneTheaterId":"384","providerTheaterId":"","name":"Elk Rapids Cinema Theatre","address":"205 River Street","city":"Elk Rapids","state":"MI","zip":"49629","distance":8.4717774913235,"lon":"-85.414699","lat":"44.897783","theaterChainName":"Independent Chains","ticketType":"STANDARD"},{"id":"3565","tribuneTheaterId":"656","providerTheaterId":"","name":"Bay Theatre - Suttons Bay","address":"214 N. St. Joseph","city":"Suttons Bay","state":"MI","zip":"49682","distance":14.734351344246,"lon":"-85.651077","lat":"44.976388","theaterChainName":"Independent Chains","ticketType":"STANDARD"},{"id":"5445","tribuneTheaterId":"10885","providerTheaterId":"","name":"Bijou by the Bay","address":"181 E. Grandview Parkway","city":"Traverse City","state":"MI","zip":"49684","distance":21.553790097825,"lon":"-85.62212","lat":"44.765206","theaterChainName":"Independent Chains","ticketType":"STANDARD"},{"id":"2729","tribuneTheaterId":"1526","providerTheaterId":"","name":"Charlevoix Cinema III","address":"107 Antrim St","city":"Charlevoix","state":"MI","zip":"49720","distance":21.427822327499,"lon":"-85.258798","lat":"45.315393","theaterChainName":"Independent Chains","ticketType":"STANDARD"},{"id":"5837","tribuneTheaterId":"11248","providerTheaterId":"","name":"Cherry Blossom 14 IMAX","address":"3825 Marketplace Circle","city":"Traverse City","state":"MI","zip":"49684","distance":24.151132208193,"lon":"-85.649886","lat":"44.732988","theaterChainName":"Carmike Cinemas","ticketType":"STANDARD"}]