[{"id":"1994","name":"Bellaire Theatre","address":"219 N. Bridge St.","city":"Bellaire","state":"MI","zip":"49615","distance":"13.770092964172363","lon":"-85.209900","lat":"44.976898","theaterChainName":"Independent Chains","ticketType":"STANDARD"},{"id":"2366","name":"Elk Rapids Cinema Theatre","address":"205 River Street","city":"Elk Rapids","state":"MI","zip":"49629","distance":"5.449526309967041","lon":"-85.414696","lat":"44.897781","theaterChainName":"Independent Chains","ticketType":"STANDARD"},{"id":"5445","name":"Bijou by the Bay","address":"181 E. Grandview Parkway","city":"Traverse City","state":"MI","zip":"49684","distance":"14.679758071899414","lon":"-85.622124","lat":"44.765205","theaterChainName":"Independent Chains","ticketType":"STANDARD"},{"id":"3565","name":"Bay Theatre - Suttons Bay","address":"214 N. St. Joseph","city":"Suttons Bay","state":"MI","zip":"49682","distance":"8.001131057739258","lon":"-85.651077","lat":"44.976387","theaterChainName":"Independent Chains","ticketType":"STANDARD"},{"id":"5837","name":"Cherry Blossom 14 IMAX","address":"3825 Marketplace Circle","city":"Traverse City","state":"MI","zip":"49684","distance":"17.28010368347168","lon":"-85.649887","lat":"44.732986","theaterChainName":"Carmike Cinemas","ticketType":"STANDARD"}]