[{"id":"5837","tribuneTheaterId":"11248","providerTheaterId":"","name":"Cherry Blossom 14 IMAX","address":"3825 Marketplace Circle","city":"Traverse City","state":"MI","zip":"49684","distance":2.989754756928,"lon":"-85.649886","lat":"44.732988","theaterChainName":"Carmike Cinemas","ticketType":"STANDARD"},{"id":"5445","tribuneTheaterId":"10885","providerTheaterId":"","name":"Bijou by the Bay","address":"181 E. Grandview Parkway","city":"Traverse City","state":"MI","zip":"49684","distance":5.5926677764092,"lon":"-85.62212","lat":"44.765206","theaterChainName":"Independent Chains","ticketType":"STANDARD"},{"id":"3565","tribuneTheaterId":"656","providerTheaterId":"","name":"Bay Theatre - Suttons Bay","address":"214 N. St. Joseph","city":"Suttons Bay","state":"MI","zip":"49682","distance":19.550219514171,"lon":"-85.651077","lat":"44.976388","theaterChainName":"Independent Chains","ticketType":"STANDARD"},{"id":"2366","tribuneTheaterId":"384","providerTheaterId":"","name":"Elk Rapids Cinema Theatre","address":"205 River Street","city":"Elk Rapids","state":"MI","zip":"49629","distance":19.046288953343,"lon":"-85.414699","lat":"44.897783","theaterChainName":"Independent Chains","ticketType":"STANDARD"}]