[{"id":"1994","name":"Bellaire Theatre","address":"219 N. Bridge St.","city":"Bellaire","state":"MI","zip":"49615","distance":"16.344900131225586","lon":"-85.209900","lat":"44.976898","theaterChainName":"Independent Chains","ticketType":"STANDARD"},{"id":"2366","name":"Elk Rapids Cinema Theatre","address":"205 River Street","city":"Elk Rapids","state":"MI","zip":"49629","distance":"6.690545082092285","lon":"-85.414696","lat":"44.897781","theaterChainName":"Independent Chains","ticketType":"STANDARD"},{"id":"5445","name":"Bijou by the Bay","address":"181 E. Grandview Parkway","city":"Traverse City","state":"MI","zip":"49684","distance":"9.537016868591309","lon":"-85.622124","lat":"44.765205","theaterChainName":"Independent Chains","ticketType":"STANDARD"},{"id":"3565","name":"Bay Theatre - Suttons Bay","address":"214 N. St. Joseph","city":"Suttons Bay","state":"MI","zip":"49682","distance":"16.043664932250977","lon":"-85.651077","lat":"44.976387","theaterChainName":"Independent Chains","ticketType":"STANDARD"},{"id":"5837","name":"Cherry Blossom 14 IMAX","address":"3825 Marketplace Circle","city":"Traverse City","state":"MI","zip":"49684","distance":"11.583532333374023","lon":"-85.649887","lat":"44.732986","theaterChainName":"Carmike Cinemas","ticketType":"STANDARD"}]