[{"id":"2729","tribuneTheaterId":"1526","providerTheaterId":"","name":"Charlevoix Cinema III","address":"107 Antrim St","city":"Charlevoix","state":"MI","zip":"49720","distance":10.745757533553,"lon":"-85.258798","lat":"45.315393","theaterChainName":"Independent Chains","ticketType":"STANDARD"},{"id":"1994","tribuneTheaterId":"295","providerTheaterId":"","name":"Bellaire Theatre","address":"219 N. Bridge St.","city":"Bellaire","state":"MI","zip":"49615","distance":12.909796741547,"lon":"-85.2099","lat":"44.9769","theaterChainName":"Independent Chains","ticketType":"STANDARD"},{"id":"2366","tribuneTheaterId":"384","providerTheaterId":"","name":"Elk Rapids Cinema Theatre","address":"205 River Street","city":"Elk Rapids","state":"MI","zip":"49629","distance":19.561402327296,"lon":"-85.414699","lat":"44.897783","theaterChainName":"Independent Chains","ticketType":"STANDARD"},{"id":"3526","tribuneTheaterId":"1872","providerTheaterId":"","name":"Petoskey Cinema","address":"1540 Anderson Rd.","city":"Petoskey","state":"MI","zip":"49770","distance":19.580449350699,"lon":"-84.970901","lat":"45.354698","theaterChainName":"Independent Chains","ticketType":"STANDARD"},{"id":"3565","tribuneTheaterId":"656","providerTheaterId":"","name":"Bay Theatre - Suttons Bay","address":"214 N. St. Joseph","city":"Suttons Bay","state":"MI","zip":"49682","distance":22.778052369912,"lon":"-85.651077","lat":"44.976388","theaterChainName":"Independent Chains","ticketType":"STANDARD"}]