[{"id":"5984","tribuneTheaterId":"4013","providerTheaterId":"","name":"Mariner 2","address":"2000 Ella Ct.","city":"Marinette","state":"WI","zip":"54143","distance":2.3889835490706,"lon":"-87.634219","lat":"45.100909","theaterChainName":"Independent Chains","ticketType":"STANDARD"},{"id":"2529","tribuneTheaterId":"4981","providerTheaterId":"","name":"Carmike Pine Tree 9","address":"2727 Cahill Road","city":"Marinette","state":"WI","zip":"54143","distance":4.3252883607181,"lon":"-87.656574","lat":"45.076802","theaterChainName":"Carmike Cinemas","ticketType":"STANDARD"},{"id":"3956","tribuneTheaterId":"981","providerTheaterId":"","name":"Tivoli Theater","address":"307 Railroad Street","city":"Stephenson","state":"MI","zip":"49887","distance":18.268431543323,"lon":"-87.6203","lat":"45.398701","theaterChainName":"Independent Chains","ticketType":"STANDARD"},{"id":"5299","tribuneTheaterId":"10733","providerTheaterId":"","name":"Sturgeon Bay Cinema 6","address":"1820 Alabama Street","city":"Sturgeon Bay","state":"WI","zip":"54235","distance":23.712375850775,"lon":"-87.3503","lat":"44.8497","theaterChainName":"Independent Chains","ticketType":"STANDARD"}]