[{"id":"2945","name":"CopperCreek 9","address":"1325 Copper Creek Dr","city":"Pleasant Hill","state":"IA","zip":"50327","distance":"24.0771484375","lon":"-93.523125","lat":"41.603031","theaterChainName":"Fridley Theatres","ticketType":"STANDARD"},{"id":"5876","name":"Cinemark Altoona and XD","address":"2227 Adventureland Dr., NW","city":"Altoona","state":"IA","zip":"50009","distance":"20.331926345825195","lon":"-93.489166","lat":"41.660297","theaterChainName":"Cinemark","ticketType":"STANDARD"},{"id":"3150","name":"Springwood 9","address":"2829 S. Ankeny Blvd","city":"Ankeny","state":"IA","zip":"50023","distance":"24.0660457611084","lon":"-93.596970","lat":"41.701084","theaterChainName":"Fridley Theatres","ticketType":"STANDARD"},{"id":"2439","name":"Central States Capitol II","address":"116 1st Street","city":"Newton","state":"IA","zip":"50208","distance":"9.914177894592285","lon":"-93.053505","lat":"41.700085","theaterChainName":"Independent Chains","ticketType":"STANDARD"},{"id":"2074","name":"Plaza Theatre - Marshalltown","address":"2500 S. Center St.","city":"Marshalltown","state":"IA","zip":"50158","distance":"18.588743209838867","lon":"-92.909904","lat":"42.015873","theaterChainName":"Fridley Theatres","ticketType":"STANDARD"},{"id":"4669","name":"Strand Theatre - Grinnell","address":"921 Main St.","city":"Grinnell","state":"IA","zip":"50112","distance":"22.901029586791992","lon":"-92.725830","lat":"41.743927","theaterChainName":"Fridley Theatres","ticketType":"STANDARD"}]