[{"id":"2439","tribuneTheaterId":"1190","providerTheaterId":"","name":"Central States Capitol II","address":"116 1st Street","city":"Newton","state":"IA","zip":"50208","distance":9.9134068008965,"lon":"-93.053505","lat":"41.700086","theaterChainName":"Independent Chains","ticketType":"STANDARD"},{"id":"2074","tribuneTheaterId":"6137","providerTheaterId":"","name":"Plaza Theatre - Marshalltown","address":"2500 S. Center St.","city":"Marshalltown","state":"IA","zip":"50158","distance":18.587385385735,"lon":"-92.909907","lat":"42.015872","theaterChainName":"Fridley Theatres","ticketType":"STANDARD"},{"id":"5876","tribuneTheaterId":"11292","providerTheaterId":"","name":"Cinemark Altoona and XD","address":"2227 Adventureland Dr., NW","city":"Altoona","state":"IA","zip":"50009","distance":20.330729015335,"lon":"-93.489167","lat":"41.660299","theaterChainName":"Cinemark","ticketType":"STANDARD"},{"id":"4669","tribuneTheaterId":"9870","providerTheaterId":"","name":"Strand Theatre - Grinnell","address":"921 Main St.","city":"Grinnell","state":"IA","zip":"50112","distance":22.899377555517,"lon":"-92.725832","lat":"41.743928","theaterChainName":"Fridley Theatres","ticketType":"STANDARD"},{"id":"3150","tribuneTheaterId":"2189","providerTheaterId":"","name":"Springwood 9","address":"2829 S. Ankeny Blvd","city":"Ankeny","state":"IA","zip":"50023","distance":24.064731707822,"lon":"-93.596971","lat":"41.701084","theaterChainName":"Fridley Theatres","ticketType":"STANDARD"},{"id":"2945","tribuneTheaterId":"2188","providerTheaterId":"","name":"CopperCreek 9","address":"1325 Copper Creek Dr","city":"Pleasant Hill","state":"IA","zip":"50327","distance":24.075631295987,"lon":"-93.523124","lat":"41.603033","theaterChainName":"Fridley Theatres","ticketType":"STANDARD"}]