[{"id":"1383","tribuneTheaterId":"4179","providerTheaterId":"","name":"Cinemark Movies 12 Ames","address":"1317 Buckeye Avenue","city":"Ames","state":"IA","zip":"50010","distance":14.089755866606,"lon":"-93.613585","lat":"42.011001","theaterChainName":"Cinemark","ticketType":"STANDARD"},{"id":"6134","tribuneTheaterId":"11552","providerTheaterId":"","name":"Perry Grand 3 Theatres","address":"1312 2nd Street","city":"Perry","state":"IA","zip":"50220","distance":19.012547847894,"lon":"-94.10478","lat":"41.841017","theaterChainName":"Independent Chains","ticketType":"STANDARD"},{"id":"5871","tribuneTheaterId":"11287","providerTheaterId":"","name":"Andover Showplace","address":"33 Public Square","city":"Andover","state":"OH","zip":"44003","distance":19.012547847894,"lon":"-94.10478","lat":"41.841017","theaterChainName":"Independent Chains","ticketType":"STANDARD"},{"id":"5735","tribuneTheaterId":"1825","providerTheaterId":"","name":"Washington Square Theatre","address":"121 W Front St","city":"Detroit Lakes","state":"MN","zip":"56501","distance":19.012547847894,"lon":"-94.10478","lat":"41.841017","theaterChainName":"Independent Chains","ticketType":"STANDARD"}]