[{"id":"2114","name":"Paramount 7 Theatres Indianola","address":"105 S. 1st Street","city":"Indianola","state":"IA","zip":"50125","distance":"21.1550350189209","lon":"-93.559708","lat":"41.359886","theaterChainName":"Fridley Theatres","ticketType":"STANDARD"},{"id":"1726","name":"Carmike Southridge 12","address":"6720 S.E. 14th Street","city":"Des Moines","state":"IA","zip":"50320","distance":"10.22617244720459","lon":"-93.601852","lat":"41.524452","theaterChainName":"Carmike Cinemas","ticketType":"STANDARD"},{"id":"2945","name":"CopperCreek 9","address":"1325 Copper Creek Dr","city":"Pleasant Hill","state":"IA","zip":"50327","distance":"4.459217071533203","lon":"-93.523125","lat":"41.603031","theaterChainName":"Fridley Theatres","ticketType":"STANDARD"},{"id":"2200","name":"The Fleur Cinema and Cafe","address":"4545 Fleur Drive","city":"Des Moines","state":"IA","zip":"50306","distance":"9.895026206970215","lon":"-93.642174","lat":"41.543201","theaterChainName":"Independent Chains","ticketType":"STANDARD"},{"id":"5876","name":"Cinemark Altoona and XD","address":"2227 Adventureland Dr., NW","city":"Altoona","state":"IA","zip":"50009","distance":"2.8149075508117676","lon":"-93.489166","lat":"41.660297","theaterChainName":"Cinemark","ticketType":"STANDARD"},{"id":"3150","name":"Springwood 9","address":"2829 S. Ankeny Blvd","city":"Ankeny","state":"IA","zip":"50023","distance":"3.69385027885437","lon":"-93.596970","lat":"41.701084","theaterChainName":"Fridley Theatres","ticketType":"STANDARD"},{"id":"1727","name":"Carmike Cobblestone 9","address":"8501 Hickman Road","city":"Des Moines","state":"IA","zip":"50322","distance":"10.460538864135742","lon":"-93.734619","lat":"41.616261","theaterChainName":"Carmike Cinemas","ticketType":"STANDARD"},{"id":"3866","name":"Century 20 Jordan Creek","address":"101 Jordan Creek Parkway","city":"West Des Moines","state":"IA","zip":"50266","distance":"15.001787185668945","lon":"-93.802940","lat":"41.568691","theaterChainName":"Cinemark","ticketType":"STANDARD"},{"id":"1722","name":"Carmike Wynnsong 16 Johnston","address":"5233 N.W. 84th Ave","city":"Johnston","state":"IA","zip":"50131","distance":"9.873919486999512","lon":"-93.734001","lat":"41.655800","theaterChainName":"Carmike Cinemas","ticketType":"STANDARD"},{"id":"1383","name":"Cinemark Movies 12 Ames","address":"1317 Buckeye Avenue","city":"Ames","state":"IA","zip":"50010","distance":"24.126388549804688","lon":"-93.613586","lat":"42.011002","theaterChainName":"Cinemark","ticketType":"STANDARD"}]