[{"id":"2114","name":"Paramount 7 Theatres Indianola","address":"105 S. 1st Street","city":"Indianola","state":"IA","zip":"50125","distance":"20.265918731689453","lon":"-93.559708","lat":"41.359886","theaterChainName":"Fridley Theatres","ticketType":"STANDARD"},{"id":"1726","name":"Carmike Southridge 12","address":"6720 S.E. 14th Street","city":"Des Moines","state":"IA","zip":"50320","distance":"14.585429191589355","lon":"-93.601852","lat":"41.524452","theaterChainName":"Carmike Cinemas","ticketType":"STANDARD"},{"id":"2945","name":"CopperCreek 9","address":"1325 Copper Creek Dr","city":"Pleasant Hill","state":"IA","zip":"50327","distance":"19.426076889038086","lon":"-93.523125","lat":"41.603031","theaterChainName":"Fridley Theatres","ticketType":"STANDARD"},{"id":"2200","name":"The Fleur Cinema and Cafe","address":"4545 Fleur Drive","city":"Des Moines","state":"IA","zip":"50306","distance":"12.566495895385742","lon":"-93.642174","lat":"41.543201","theaterChainName":"Independent Chains","ticketType":"STANDARD"},{"id":"5876","name":"Cinemark Altoona and XD","address":"2227 Adventureland Dr., NW","city":"Altoona","state":"IA","zip":"50009","distance":"22.45717430114746","lon":"-93.489166","lat":"41.660297","theaterChainName":"Cinemark","ticketType":"STANDARD"},{"id":"3150","name":"Springwood 9","address":"2829 S. Ankeny Blvd","city":"Ankeny","state":"IA","zip":"50023","distance":"19.208019256591797","lon":"-93.596970","lat":"41.701084","theaterChainName":"Fridley Theatres","ticketType":"STANDARD"},{"id":"1727","name":"Carmike Cobblestone 9","address":"8501 Hickman Road","city":"Des Moines","state":"IA","zip":"50322","distance":"9.996722221374512","lon":"-93.734619","lat":"41.616261","theaterChainName":"Carmike Cinemas","ticketType":"STANDARD"},{"id":"3866","name":"Century 20 Jordan Creek","address":"101 Jordan Creek Parkway","city":"West Des Moines","state":"IA","zip":"50266","distance":"5.189876556396484","lon":"-93.802940","lat":"41.568691","theaterChainName":"Cinemark","ticketType":"STANDARD"},{"id":"1722","name":"Carmike Wynnsong 16 Johnston","address":"5233 N.W. 84th Ave","city":"Johnston","state":"IA","zip":"50131","distance":"11.942102432250977","lon":"-93.734001","lat":"41.655800","theaterChainName":"Carmike Cinemas","ticketType":"STANDARD"},{"id":"5735","name":"Washington Square Theatre","address":"121 W Front St","city":"Detroit Lakes","state":"MN","zip":"56501","distance":"24.68360710144043","lon":"-94.104782","lat":"41.841019","theaterChainName":"Independent Chains","ticketType":"STANDARD"},{"id":"5871","name":"Andover Showplace","address":"33 Public Square","city":"Andover","state":"OH","zip":"44003","distance":"24.68360710144043","lon":"-94.104782","lat":"41.841019","theaterChainName":"Independent Chains","ticketType":"STANDARD"},{"id":"6134","name":"Perry Grand 3 Theatres","address":"1312 2nd Street","city":"Perry","state":"IA","zip":"50220","distance":"24.68360710144043","lon":"-94.104782","lat":"41.841019","theaterChainName":"Independent Chains","ticketType":"STANDARD"},{"id":"4893","name":"Stuart Fremont Theatre","address":"124 N. Fremont","city":"Stuart","state":"IA","zip":"50250","distance":"22.457294464111328","lon":"-94.317001","lat":"41.504002","theaterChainName":"Independent Chains","ticketType":"STANDARD"}]