[{"id":"1383","tribuneTheaterId":"4179","providerTheaterId":"","name":"Cinemark Movies 12 Ames","address":"1317 Buckeye Avenue","city":"Ames","state":"IA","zip":"50010","distance":8.626981415732,"lon":"-93.613585","lat":"42.011001","theaterChainName":"Cinemark","ticketType":"STANDARD"},{"id":"3150","tribuneTheaterId":"2189","providerTheaterId":"","name":"Springwood 9","address":"2829 S. Ankeny Blvd","city":"Ankeny","state":"IA","zip":"50023","distance":14.33144217706,"lon":"-93.596971","lat":"41.701084","theaterChainName":"Fridley Theatres","ticketType":"STANDARD"},{"id":"5876","tribuneTheaterId":"11292","providerTheaterId":"","name":"Cinemark Altoona and XD","address":"2227 Adventureland Dr., NW","city":"Altoona","state":"IA","zip":"50009","distance":16.869423385977,"lon":"-93.489167","lat":"41.660299","theaterChainName":"Cinemark","ticketType":"STANDARD"},{"id":"1722","tribuneTheaterId":"4710","providerTheaterId":"","name":"Carmike Wynnsong 16 Johnston","address":"5233 N.W. 84th Ave","city":"Johnston","state":"IA","zip":"50131","distance":20.012046483753,"lon":"-93.734001","lat":"41.6558","theaterChainName":"Carmike Cinemas","ticketType":"STANDARD"},{"id":"2945","tribuneTheaterId":"2188","providerTheaterId":"","name":"CopperCreek 9","address":"1325 Copper Creek Dr","city":"Pleasant Hill","state":"IA","zip":"50327","distance":20.694656835301,"lon":"-93.523124","lat":"41.603033","theaterChainName":"Fridley Theatres","ticketType":"STANDARD"},{"id":"1727","tribuneTheaterId":"6919","providerTheaterId":"","name":"Carmike Cobblestone 9","address":"8501 Hickman Road","city":"Des Moines","state":"IA","zip":"50322","distance":22.401144509295,"lon":"-93.734617","lat":"41.616261","theaterChainName":"Carmike Cinemas","ticketType":"STANDARD"}]