[{"id":"1383","tribuneTheaterId":"4179","providerTheaterId":"","name":"Cinemark Movies 12 Ames","address":"1317 Buckeye Avenue","city":"Ames","state":"IA","zip":"50010","distance":17.713272162314,"lon":"-93.613585","lat":"42.011001","theaterChainName":"Cinemark","ticketType":"STANDARD"},{"id":"2439","tribuneTheaterId":"1190","providerTheaterId":"","name":"Central States Capitol II","address":"116 1st Street","city":"Newton","state":"IA","zip":"50208","distance":18.952136707199,"lon":"-93.053505","lat":"41.700086","theaterChainName":"Independent Chains","ticketType":"STANDARD"},{"id":"5876","tribuneTheaterId":"11292","providerTheaterId":"","name":"Cinemark Altoona and XD","address":"2227 Adventureland Dr., NW","city":"Altoona","state":"IA","zip":"50009","distance":19.386878931988,"lon":"-93.489167","lat":"41.660299","theaterChainName":"Cinemark","ticketType":"STANDARD"},{"id":"2074","tribuneTheaterId":"6137","providerTheaterId":"","name":"Plaza Theatre - Marshalltown","address":"2500 S. Center St.","city":"Marshalltown","state":"IA","zip":"50158","distance":21.539670071279,"lon":"-92.909907","lat":"42.015872","theaterChainName":"Fridley Theatres","ticketType":"STANDARD"},{"id":"3150","tribuneTheaterId":"2189","providerTheaterId":"","name":"Springwood 9","address":"2829 S. Ankeny Blvd","city":"Ankeny","state":"IA","zip":"50023","distance":20.681289172558,"lon":"-93.596971","lat":"41.701084","theaterChainName":"Fridley Theatres","ticketType":"STANDARD"},{"id":"2945","tribuneTheaterId":"2188","providerTheaterId":"","name":"CopperCreek 9","address":"1325 Copper Creek Dr","city":"Pleasant Hill","state":"IA","zip":"50327","distance":23.69497479857,"lon":"-93.523124","lat":"41.603033","theaterChainName":"Fridley Theatres","ticketType":"STANDARD"}]