[{"id":"1727","name":"Carmike Cobblestone 9","address":"8501 Hickman Road","city":"Des Moines","state":"IA","zip":"50322","distance":"22.75346565246582","lon":"-93.734619","lat":"41.616261","theaterChainName":"Carmike Cinemas","ticketType":"STANDARD"},{"id":"3866","name":"Century 20 Jordan Creek","address":"101 Jordan Creek Parkway","city":"West Des Moines","state":"IA","zip":"50266","distance":"18.191055297851562","lon":"-93.802940","lat":"41.568691","theaterChainName":"Cinemark","ticketType":"STANDARD"},{"id":"1722","name":"Carmike Wynnsong 16 Johnston","address":"5233 N.W. 84th Ave","city":"Johnston","state":"IA","zip":"50131","distance":"24.106346130371094","lon":"-93.734001","lat":"41.655800","theaterChainName":"Carmike Cinemas","ticketType":"STANDARD"},{"id":"4893","name":"Stuart Fremont Theatre","address":"124 N. Fremont","city":"Stuart","state":"IA","zip":"50250","distance":"9.976046562194824","lon":"-94.317001","lat":"41.504002","theaterChainName":"Independent Chains","ticketType":"STANDARD"}]