[{"id":"3866","name":"Century 20 Jordan Creek","address":"101 Jordan Creek Parkway","city":"West Des Moines","state":"IA","zip":"50266","distance":"23.175870895385742","lon":"-93.802940","lat":"41.568691","theaterChainName":"Cinemark","ticketType":"STANDARD"},{"id":"5735","name":"Washington Square Theatre","address":"121 W Front St","city":"Detroit Lakes","state":"MN","zip":"56501","distance":"15.41956615447998","lon":"-94.104782","lat":"41.841019","theaterChainName":"Independent Chains","ticketType":"STANDARD"},{"id":"5871","name":"Andover Showplace","address":"33 Public Square","city":"Andover","state":"OH","zip":"44003","distance":"15.41956615447998","lon":"-94.104782","lat":"41.841019","theaterChainName":"Independent Chains","ticketType":"STANDARD"},{"id":"6134","name":"Perry Grand 3 Theatres","address":"1312 2nd Street","city":"Perry","state":"IA","zip":"50220","distance":"15.41956615447998","lon":"-94.104782","lat":"41.841019","theaterChainName":"Independent Chains","ticketType":"STANDARD"},{"id":"4893","name":"Stuart Fremont Theatre","address":"124 N. Fremont","city":"Stuart","state":"IA","zip":"50250","distance":"10.33366870880127","lon":"-94.317001","lat":"41.504002","theaterChainName":"Independent Chains","ticketType":"STANDARD"}]