[{"id":"2439","name":"Central States Capitol II","address":"116 1st Street","city":"Newton","state":"IA","zip":"50208","distance":"24.612443923950195","lon":"-93.053505","lat":"41.700085","theaterChainName":"Independent Chains","ticketType":"STANDARD"},{"id":"2074","name":"Plaza Theatre - Marshalltown","address":"2500 S. Center St.","city":"Marshalltown","state":"IA","zip":"50158","distance":"1.7077383995056152","lon":"-92.909904","lat":"42.015873","theaterChainName":"Fridley Theatres","ticketType":"STANDARD"},{"id":"2780","name":"Grand Theatre - Eldora","address":"1148 Edgington Avenue","city":"Eldora","state":"IA","zip":"50627","distance":"24.073537826538086","lon":"-93.097961","lat":"42.360729","theaterChainName":"Independent Chains","ticketType":"STANDARD"},{"id":"4669","name":"Strand Theatre - Grinnell","address":"921 Main St.","city":"Grinnell","state":"IA","zip":"50112","distance":"22.634675979614258","lon":"-92.725830","lat":"41.743927","theaterChainName":"Fridley Theatres","ticketType":"STANDARD"}]