[{"id":"2439","tribuneTheaterId":"1190","providerTheaterId":"","name":"Central States Capitol II","address":"116 1st Street","city":"Newton","state":"IA","zip":"50208","distance":12.510506239671,"lon":"-93.053505","lat":"41.700086","theaterChainName":"Independent Chains","ticketType":"STANDARD"},{"id":"5876","tribuneTheaterId":"11292","providerTheaterId":"","name":"Cinemark Altoona and XD","address":"2227 Adventureland Dr., NW","city":"Altoona","state":"IA","zip":"50009","distance":13.822965265426,"lon":"-93.489167","lat":"41.660299","theaterChainName":"Cinemark","ticketType":"STANDARD"},{"id":"2945","tribuneTheaterId":"2188","providerTheaterId":"","name":"CopperCreek 9","address":"1325 Copper Creek Dr","city":"Pleasant Hill","state":"IA","zip":"50327","distance":14.628857761185,"lon":"-93.523124","lat":"41.603033","theaterChainName":"Fridley Theatres","ticketType":"STANDARD"},{"id":"1726","tribuneTheaterId":"4708","providerTheaterId":"","name":"Carmike Southridge 12","address":"6720 S.E. 14th Street","city":"Des Moines","state":"IA","zip":"50320","distance":19.12681068865,"lon":"-93.601853","lat":"41.524453","theaterChainName":"Carmike Cinemas","ticketType":"STANDARD"},{"id":"3150","tribuneTheaterId":"2189","providerTheaterId":"","name":"Springwood 9","address":"2829 S. Ankeny Blvd","city":"Ankeny","state":"IA","zip":"50023","distance":20.042669444732,"lon":"-93.596971","lat":"41.701084","theaterChainName":"Fridley Theatres","ticketType":"STANDARD"},{"id":"2200","tribuneTheaterId":"1693","providerTheaterId":"","name":"The Fleur Cinema and Cafe","address":"4545 Fleur Drive","city":"Des Moines","state":"IA","zip":"50306","distance":20.943176191269,"lon":"-93.642174","lat":"41.543202","theaterChainName":"Independent Chains","ticketType":"STANDARD"},{"id":"2114","tribuneTheaterId":"2037","providerTheaterId":"","name":"Paramount 7 Theatres Indianola","address":"105 S. 1st Street","city":"Indianola","state":"IA","zip":"50125","distance":22.693865534189,"lon":"-93.55971","lat":"41.359888","theaterChainName":"Fridley Theatres","ticketType":"STANDARD"}]