[{"id":"2114","name":"Paramount 7 Theatres Indianola","address":"105 S. 1st Street","city":"Indianola","state":"IA","zip":"50125","distance":"14.991963386535645","lon":"-93.559708","lat":"41.359886","theaterChainName":"Fridley Theatres","ticketType":"STANDARD"},{"id":"1726","name":"Carmike Southridge 12","address":"6720 S.E. 14th Street","city":"Des Moines","state":"IA","zip":"50320","distance":"20.040624618530273","lon":"-93.601852","lat":"41.524452","theaterChainName":"Carmike Cinemas","ticketType":"STANDARD"},{"id":"2945","name":"CopperCreek 9","address":"1325 Copper Creek Dr","city":"Pleasant Hill","state":"IA","zip":"50327","distance":"20.51627540588379","lon":"-93.523125","lat":"41.603031","theaterChainName":"Fridley Theatres","ticketType":"STANDARD"},{"id":"2200","name":"The Fleur Cinema and Cafe","address":"4545 Fleur Drive","city":"Des Moines","state":"IA","zip":"50306","distance":"22.495677947998047","lon":"-93.642174","lat":"41.543201","theaterChainName":"Independent Chains","ticketType":"STANDARD"},{"id":"5876","name":"Cinemark Altoona and XD","address":"2227 Adventureland Dr., NW","city":"Altoona","state":"IA","zip":"50009","distance":"22.782989501953125","lon":"-93.489166","lat":"41.660297","theaterChainName":"Cinemark","ticketType":"STANDARD"}]