[{"id":"2114","name":"Paramount 7 Theatres Indianola","address":"105 S. 1st Street","city":"Indianola","state":"IA","zip":"50125","distance":"15.201667785644531","lon":"-93.559708","lat":"41.359886","theaterChainName":"Fridley Theatres","ticketType":"STANDARD"},{"id":"1726","name":"Carmike Southridge 12","address":"6720 S.E. 14th Street","city":"Des Moines","state":"IA","zip":"50320","distance":"16.128454208374023","lon":"-93.601852","lat":"41.524452","theaterChainName":"Carmike Cinemas","ticketType":"STANDARD"},{"id":"2945","name":"CopperCreek 9","address":"1325 Copper Creek Dr","city":"Pleasant Hill","state":"IA","zip":"50327","distance":"14.9940185546875","lon":"-93.523125","lat":"41.603031","theaterChainName":"Fridley Theatres","ticketType":"STANDARD"},{"id":"2200","name":"The Fleur Cinema and Cafe","address":"4545 Fleur Drive","city":"Des Moines","state":"IA","zip":"50306","distance":"18.491960525512695","lon":"-93.642174","lat":"41.543201","theaterChainName":"Independent Chains","ticketType":"STANDARD"},{"id":"5876","name":"Cinemark Altoona and XD","address":"2227 Adventureland Dr., NW","city":"Altoona","state":"IA","zip":"50009","distance":"16.714183807373047","lon":"-93.489166","lat":"41.660297","theaterChainName":"Cinemark","ticketType":"STANDARD"},{"id":"3150","name":"Springwood 9","address":"2829 S. Ankeny Blvd","city":"Ankeny","state":"IA","zip":"50023","distance":"22.433774948120117","lon":"-93.596970","lat":"41.701084","theaterChainName":"Fridley Theatres","ticketType":"STANDARD"},{"id":"1727","name":"Carmike Cobblestone 9","address":"8501 Hickman Road","city":"Des Moines","state":"IA","zip":"50322","distance":"24.78316879272461","lon":"-93.734619","lat":"41.616261","theaterChainName":"Carmike Cinemas","ticketType":"STANDARD"},{"id":"2439","name":"Central States Capitol II","address":"116 1st Street","city":"Newton","state":"IA","zip":"50208","distance":"20.752059936523438","lon":"-93.053505","lat":"41.700085","theaterChainName":"Independent Chains","ticketType":"STANDARD"}]