[{"id":"1726","tribuneTheaterId":"4708","providerTheaterId":"","name":"Carmike Southridge 12","address":"6720 S.E. 14th Street","city":"Des Moines","state":"IA","zip":"50320","distance":1.9462448541086,"lon":"-93.601853","lat":"41.524453","theaterChainName":"Carmike Cinemas","ticketType":"STANDARD"},{"id":"2200","tribuneTheaterId":"1693","providerTheaterId":"","name":"The Fleur Cinema and Cafe","address":"4545 Fleur Drive","city":"Des Moines","state":"IA","zip":"50306","distance":3.0988371878126,"lon":"-93.642174","lat":"41.543202","theaterChainName":"Independent Chains","ticketType":"STANDARD"},{"id":"2945","tribuneTheaterId":"2188","providerTheaterId":"","name":"CopperCreek 9","address":"1325 Copper Creek Dr","city":"Pleasant Hill","state":"IA","zip":"50327","distance":4.8554131641245,"lon":"-93.523124","lat":"41.603033","theaterChainName":"Fridley Theatres","ticketType":"STANDARD"},{"id":"1727","tribuneTheaterId":"6919","providerTheaterId":"","name":"Carmike Cobblestone 9","address":"8501 Hickman Road","city":"Des Moines","state":"IA","zip":"50322","distance":9.1342245289348,"lon":"-93.734617","lat":"41.616261","theaterChainName":"Carmike Cinemas","ticketType":"STANDARD"},{"id":"5876","tribuneTheaterId":"11292","providerTheaterId":"","name":"Cinemark Altoona and XD","address":"2227 Adventureland Dr., NW","city":"Altoona","state":"IA","zip":"50009","distance":9.0998224557412,"lon":"-93.489167","lat":"41.660299","theaterChainName":"Cinemark","ticketType":"STANDARD"},{"id":"3866","tribuneTheaterId":"8433","providerTheaterId":"","name":"Century 20 Jordan Creek","address":"101 Jordan Creek Parkway","city":"West Des Moines","state":"IA","zip":"50266","distance":11.47026867807,"lon":"-93.802944","lat":"41.56869","theaterChainName":"Cinemark","ticketType":"STANDARD"},{"id":"3150","tribuneTheaterId":"2189","providerTheaterId":"","name":"Springwood 9","address":"2829 S. Ankeny Blvd","city":"Ankeny","state":"IA","zip":"50023","distance":10.554481624862,"lon":"-93.596971","lat":"41.701084","theaterChainName":"Fridley Theatres","ticketType":"STANDARD"},{"id":"1722","tribuneTheaterId":"4710","providerTheaterId":"","name":"Carmike Wynnsong 16 Johnston","address":"5233 N.W. 84th Ave","city":"Johnston","state":"IA","zip":"50131","distance":10.764095557138,"lon":"-93.734001","lat":"41.6558","theaterChainName":"Carmike Cinemas","ticketType":"STANDARD"},{"id":"2114","tribuneTheaterId":"2037","providerTheaterId":"","name":"Paramount 7 Theatres Indianola","address":"105 S. 1st Street","city":"Indianola","state":"IA","zip":"50125","distance":13.099854307229,"lon":"-93.55971","lat":"41.359888","theaterChainName":"Fridley Theatres","ticketType":"STANDARD"}]