[{"id":"1985","name":"Charles Theatre","address":"409 N. Main St.","city":"Charles City","state":"IA","zip":"50616","distance":"24.600374221801758","lon":"-92.677277","lat":"43.069260","theaterChainName":"Independent Chains","ticketType":"STANDARD"},{"id":"2123","name":"Waverly Palace Theatre","address":"90 E. Bremer Ave.","city":"Waverly","state":"IA","zip":"50677","distance":"4.766621112823486","lon":"-92.469856","lat":"42.725605","theaterChainName":"Independent Chains","ticketType":"STANDARD"},{"id":"2789","name":"College Square Theatre","address":"6301 University Avenue","city":"Cedar Falls","state":"IA","zip":"50613","distance":"18.375255584716797","lon":"-92.435341","lat":"42.509869","theaterChainName":"Marcus Theaters","ticketType":"STANDARD"},{"id":"4350","name":"Waterloo Crossroads Cinema","address":"2450 Crossroads Boulevard","city":"Waterloo","state":"IA","zip":"50702","distance":"22.175052642822266","lon":"-92.321442","lat":"42.459679","theaterChainName":"Marcus Theaters","ticketType":"STANDARD"}]