[{"id":"1696","tribuneTheaterId":"1915","providerTheaterId":"","name":"Royal T III Theatres","address":"33 Central Ave. SW","city":"Le Mars","state":"IA","zip":"51031","distance":18.281742033318,"lon":"-96.166641","lat":"42.792208","theaterChainName":"Independent Chains","ticketType":"STANDARD"},{"id":"1742","tribuneTheaterId":"275","providerTheaterId":"","name":"Vermillion Theatre","address":"4 W. Main St.","city":"Vermillion","state":"SD","zip":"57069","distance":21.114918218857,"lon":"-96.931999","lat":"42.7794","theaterChainName":"Independent Chains","ticketType":"STANDARD"},{"id":"1986","tribuneTheaterId":"1134","providerTheaterId":"","name":"Coyote Theatre","address":"10 E. Main St.","city":"Vermillion","state":"SD","zip":"57069","distance":21.111428560452,"lon":"-96.93193","lat":"42.779404","theaterChainName":"Independent Chains","ticketType":"STANDARD"},{"id":"4673","tribuneTheaterId":"9877","providerTheaterId":"","name":"Cinema 5 Theatres","address":"251 North Main Ave. #106","city":"Sioux Center","state":"IA","zip":"51250","distance":24.301604085638,"lon":"-96.176291","lat":"43.079344","theaterChainName":"Fridley Theatres","ticketType":"STANDARD"},{"id":"3933","tribuneTheaterId":"5066","providerTheaterId":"","name":"Promenade Cinema 14","address":"924 4th Street","city":"Sioux City","state":"IA","zip":"51101","distance":24.425882071382,"lon":"-96.398683","lat":"42.493805","theaterChainName":"Main Street Theatres","ticketType":"STANDARD"}]