[{"id":"1696","name":"Royal T III Theatres","address":"33 Central Ave. SW","city":"Le Mars","state":"IA","zip":"51031","distance":"18.282794952392578","lon":"-96.166641","lat":"42.792210","theaterChainName":"Independent Chains","ticketType":"STANDARD"},{"id":"4673","name":"Cinema 5 Theatres","address":"251 North Main Ave. #106","city":"Sioux Center","state":"IA","zip":"51250","distance":"24.303125381469727","lon":"-96.176292","lat":"43.079346","theaterChainName":"Fridley Theatres","ticketType":"STANDARD"},{"id":"3933","name":"Promenade Cinema 14","address":"924 4th Street","city":"Sioux City","state":"IA","zip":"51101","distance":"24.42738151550293","lon":"-96.398682","lat":"42.493805","theaterChainName":"Main Street Theatres","ticketType":"STANDARD"},{"id":"1986","name":"Coyote Theatre","address":"10 E. Main St.","city":"Vermillion","state":"SD","zip":"57069","distance":"21.112808227539062","lon":"-96.931931","lat":"42.779404","theaterChainName":"Independent Chains","ticketType":"STANDARD"},{"id":"1742","name":"Vermillion Theatre","address":"4 W. Main St.","city":"Vermillion","state":"SD","zip":"57069","distance":"21.11627960205078","lon":"-96.931999","lat":"42.779400","theaterChainName":"Independent Chains","ticketType":"STANDARD"}]