[{"id":"2102","name":"American Theatre - Cherokee","address":"108 East Main Street","city":"Cherokee","state":"IA","zip":"51012","distance":"23.198062896728516","lon":"-95.550690","lat":"42.749760","theaterChainName":"Fridley Theatres","ticketType":"STANDARD"},{"id":"3932","name":"Main St. 3 Theatre","address":"401 9th Street","city":"Sheldon","state":"IA","zip":"51201","distance":"14.763989448547363","lon":"-95.853523","lat":"43.180573","theaterChainName":"Main Street Theatres","ticketType":"STANDARD"},{"id":"3482","name":"Holland Plaza 7 Theatre","address":"717 8th Street SE","city":"Orange City","state":"IA","zip":"51041","distance":"7.916929244995117","lon":"-96.049004","lat":"42.997501","theaterChainName":"Main Street Theatres","ticketType":"STANDARD"},{"id":"1696","name":"Royal T III Theatres","address":"33 Central Ave. SW","city":"Le Mars","state":"IA","zip":"51031","distance":"18.326143264770508","lon":"-96.166641","lat":"42.792210","theaterChainName":"Independent Chains","ticketType":"STANDARD"},{"id":"4673","name":"Cinema 5 Theatres","address":"251 North Main Ave. #106","city":"Sioux Center","state":"IA","zip":"51250","distance":"16.018083572387695","lon":"-96.176292","lat":"43.079346","theaterChainName":"Fridley Theatres","ticketType":"STANDARD"}]