[{"id":"2102","name":"American Theatre - Cherokee","address":"108 East Main Street","city":"Cherokee","state":"IA","zip":"51012","distance":"17.203006744384766","lon":"-95.550690","lat":"42.749760","theaterChainName":"Fridley Theatres","ticketType":"STANDARD"},{"id":"3932","name":"Main St. 3 Theatre","address":"401 9th Street","city":"Sheldon","state":"IA","zip":"51201","distance":"16.273635864257812","lon":"-95.853523","lat":"43.180573","theaterChainName":"Main Street Theatres","ticketType":"STANDARD"},{"id":"3482","name":"Holland Plaza 7 Theatre","address":"717 8th Street SE","city":"Orange City","state":"IA","zip":"51041","distance":"17.324262619018555","lon":"-96.049004","lat":"42.997501","theaterChainName":"Main Street Theatres","ticketType":"STANDARD"},{"id":"4673","name":"Cinema 5 Theatres","address":"251 North Main Ave. #106","city":"Sioux Center","state":"IA","zip":"51250","distance":"24.812158584594727","lon":"-96.176292","lat":"43.079346","theaterChainName":"Fridley Theatres","ticketType":"STANDARD"}]