[{"id":"1696","name":"Royal T III Theatres","address":"33 Central Ave. SW","city":"Le Mars","state":"IA","zip":"51031","distance":"17.816387176513672","lon":"-96.166641","lat":"42.792210","theaterChainName":"Independent Chains","ticketType":"STANDARD"},{"id":"3933","name":"Promenade Cinema 14","address":"924 4th Street","city":"Sioux City","state":"IA","zip":"51101","distance":"14.709782600402832","lon":"-96.398682","lat":"42.493805","theaterChainName":"Main Street Theatres","ticketType":"STANDARD"},{"id":"1986","name":"Coyote Theatre","address":"10 E. Main St.","city":"Vermillion","state":"SD","zip":"57069","distance":"23.07062339782715","lon":"-96.931931","lat":"42.779404","theaterChainName":"Independent Chains","ticketType":"STANDARD"},{"id":"1742","name":"Vermillion Theatre","address":"4 W. Main St.","city":"Vermillion","state":"SD","zip":"57069","distance":"23.073928833007812","lon":"-96.931999","lat":"42.779400","theaterChainName":"Independent Chains","ticketType":"STANDARD"},{"id":"1660","name":"Carmike Southern Hills 12","address":"4400 Sergeant Road","city":"Sioux City","state":"IA","zip":"51106","distance":"18.514802932739258","lon":"-96.352531","lat":"42.447815","theaterChainName":"Carmike Cinemas","ticketType":"STANDARD"}]