[{"id":"3933","tribuneTheaterId":"5066","providerTheaterId":"","name":"Promenade Cinema 14","address":"924 4th Street","city":"Sioux City","state":"IA","zip":"51101","distance":14.708828174566,"lon":"-96.398683","lat":"42.493805","theaterChainName":"Main Street Theatres","ticketType":"STANDARD"},{"id":"1660","tribuneTheaterId":"4707","providerTheaterId":"","name":"Carmike Southern Hills 12","address":"4400 Sergeant Road","city":"Sioux City","state":"IA","zip":"51106","distance":18.51361709337,"lon":"-96.352533","lat":"42.447815","theaterChainName":"Carmike Cinemas","ticketType":"STANDARD"},{"id":"1696","tribuneTheaterId":"1915","providerTheaterId":"","name":"Royal T III Theatres","address":"33 Central Ave. SW","city":"Le Mars","state":"IA","zip":"51031","distance":17.815432494333,"lon":"-96.166641","lat":"42.792208","theaterChainName":"Independent Chains","ticketType":"STANDARD"},{"id":"1742","tribuneTheaterId":"275","providerTheaterId":"","name":"Vermillion Theatre","address":"4 W. Main St.","city":"Vermillion","state":"SD","zip":"57069","distance":23.072351317793,"lon":"-96.931999","lat":"42.7794","theaterChainName":"Independent Chains","ticketType":"STANDARD"},{"id":"1986","tribuneTheaterId":"1134","providerTheaterId":"","name":"Coyote Theatre","address":"10 E. Main St.","city":"Vermillion","state":"SD","zip":"57069","distance":23.069031581484,"lon":"-96.93193","lat":"42.779404","theaterChainName":"Independent Chains","ticketType":"STANDARD"}]