[{"id":"1746","tribuneTheaterId":"2030","providerTheaterId":"","name":"Great Lakes Cinema 7","address":"1698 Exchange St.","city":"Okoboji","state":"IA","zip":"51355","distance":10.609170738204,"lon":"-95.124768","lat":"43.3892","theaterChainName":"Odyssey Entertainment\/CineMagic","ticketType":"STANDARD"},{"id":"4573","tribuneTheaterId":"9717","providerTheaterId":"","name":"Northland Cinema 5","address":"1635 Oxford Street","city":"Worthington","state":"MN","zip":"56187","distance":18.467174381843,"lon":"-95.585861","lat":"43.631588","theaterChainName":"Independent Chains","ticketType":"STANDARD"},{"id":"3269","tribuneTheaterId":"1264","providerTheaterId":"","name":"Max Twin","address":"338 9th St.","city":"Sibley","state":"IA","zip":"51249","distance":21.726159144462,"lon":"-95.7499","lat":"43.399291","theaterChainName":"Independent Chains","ticketType":"STANDARD"},{"id":"4060","tribuneTheaterId":"1436","providerTheaterId":"","name":"Historic State Theatre","address":"600 2nd Street","city":"Jackson","state":"MN","zip":"56143","distance":20.72752543554,"lon":"-94.9877","lat":"43.6224","theaterChainName":"Independent Chains","ticketType":"STANDARD"},{"id":"4472","tribuneTheaterId":"9560","providerTheaterId":"","name":"Southpark 7 Theatre","address":"901 SW. 11th St.","city":"Spencer","state":"IA","zip":"51301","distance":23.4287581562,"lon":"-95.15733","lat":"43.127895","theaterChainName":"Fridley Theatres","ticketType":"STANDARD"},{"id":"2075","tribuneTheaterId":"1503","providerTheaterId":"","name":"Grand 3 Theatre","address":"1031 Central Ave.","city":"Estherville","state":"IA","zip":"51334","distance":24.789512266473,"lon":"-94.8312","lat":"43.402","theaterChainName":"Fridley Theatres","ticketType":"STANDARD"}]