[{"id":"4472","name":"Southpark 7 Theatre","address":"901 SW. 11th St.","city":"Spencer","state":"IA","zip":"51301","distance":"23.430282592773438","lon":"-95.157333","lat":"43.127895","theaterChainName":"Fridley Theatres","ticketType":"STANDARD"},{"id":"2075","name":"Grand 3 Theatre","address":"1031 Central Ave.","city":"Estherville","state":"IA","zip":"51334","distance":"24.791170120239258","lon":"-94.831200","lat":"43.402000","theaterChainName":"Fridley Theatres","ticketType":"STANDARD"},{"id":"1746","name":"Great Lakes Cinema 7","address":"1698 Exchange St.","city":"Okoboji","state":"IA","zip":"51355","distance":"10.609859466552734","lon":"-95.124771","lat":"43.389198","theaterChainName":"Odyssey Entertainment\/CineMagic","ticketType":"STANDARD"},{"id":"4060","name":"Historic State Theatre","address":"600 2nd Street","city":"Jackson","state":"MN","zip":"56143","distance":"20.72868537902832","lon":"-94.987701","lat":"43.622398","theaterChainName":"Independent Chains","ticketType":"STANDARD"},{"id":"3269","name":"Max Twin","address":"338 9th St.","city":"Sibley","state":"IA","zip":"51249","distance":"21.727462768554688","lon":"-95.749901","lat":"43.399292","theaterChainName":"Independent Chains","ticketType":"STANDARD"},{"id":"4573","name":"Northland Cinema 5","address":"1635 Oxford Street","city":"Worthington","state":"MN","zip":"56187","distance":"18.468168258666992","lon":"-95.585861","lat":"43.631588","theaterChainName":"Independent Chains","ticketType":"STANDARD"}]