[{"id":"3269","tribuneTheaterId":"1264","providerTheaterId":"","name":"Max Twin","address":"338 9th St.","city":"Sibley","state":"IA","zip":"51249","distance":11.536382339166,"lon":"-95.7499","lat":"43.399291","theaterChainName":"Independent Chains","ticketType":"STANDARD"},{"id":"4573","tribuneTheaterId":"9717","providerTheaterId":"","name":"Northland Cinema 5","address":"1635 Oxford Street","city":"Worthington","state":"MN","zip":"56187","distance":16.943564922491,"lon":"-95.585861","lat":"43.631588","theaterChainName":"Independent Chains","ticketType":"STANDARD"},{"id":"1746","tribuneTheaterId":"2030","providerTheaterId":"","name":"Great Lakes Cinema 7","address":"1698 Exchange St.","city":"Okoboji","state":"IA","zip":"51355","distance":19.864913255806,"lon":"-95.124768","lat":"43.3892","theaterChainName":"Odyssey Entertainment\/CineMagic","ticketType":"STANDARD"},{"id":"3932","tribuneTheaterId":"5063","providerTheaterId":"","name":"Main St. 3 Theatre","address":"401 9th Street","city":"Sheldon","state":"IA","zip":"51201","distance":22.183325975074,"lon":"-95.853521","lat":"43.180574","theaterChainName":"Main Street Theatres","ticketType":"STANDARD"}]