[{"id":"2075","tribuneTheaterId":"1503","providerTheaterId":"","name":"Grand 3 Theatre","address":"1031 Central Ave.","city":"Estherville","state":"IA","zip":"51334","distance":6.0018840035372,"lon":"-94.8312","lat":"43.402","theaterChainName":"Fridley Theatres","ticketType":"STANDARD"},{"id":"5330","tribuneTheaterId":"350","providerTheaterId":"","name":"Riviera Theatre - Emmetsburg","address":"2209 Main","city":"Emmetsburg","state":"IA","zip":"50536","distance":15.47780076759,"lon":"-94.6789","lat":"43.1119","theaterChainName":"Independent Chains","ticketType":"STANDARD"},{"id":"1746","tribuneTheaterId":"2030","providerTheaterId":"","name":"Great Lakes Cinema 7","address":"1698 Exchange St.","city":"Okoboji","state":"IA","zip":"51355","distance":17.197236865684,"lon":"-95.124768","lat":"43.3892","theaterChainName":"Odyssey Entertainment\/CineMagic","ticketType":"STANDARD"},{"id":"4060","tribuneTheaterId":"1436","providerTheaterId":"","name":"Historic State Theatre","address":"600 2nd Street","city":"Jackson","state":"MN","zip":"56143","distance":23.059601287198,"lon":"-94.9877","lat":"43.6224","theaterChainName":"Independent Chains","ticketType":"STANDARD"},{"id":"4472","tribuneTheaterId":"9560","providerTheaterId":"","name":"Southpark 7 Theatre","address":"901 SW. 11th St.","city":"Spencer","state":"IA","zip":"51301","distance":22.458467708692,"lon":"-95.15733","lat":"43.127895","theaterChainName":"Fridley Theatres","ticketType":"STANDARD"}]