[{"id":"1714","tribuneTheaterId":"8830","providerTheaterId":"","name":"Berkeley Plaza Theatre 7","address":"267 Monroe St.","city":"Martinsburg","state":"WV","zip":"25404","distance":12.779444291323,"lon":"-96.13689","lat":"41.54357","theaterChainName":"Independent Chains","ticketType":"STANDARD"},{"id":"1713","tribuneTheaterId":"6327","providerTheaterId":"","name":"Blair 3 Theatre","address":"1645 S Hwy 30","city":"Blair","state":"NE","zip":"68008","distance":13.26367971468,"lon":"-96.1434","lat":"41.529","theaterChainName":"Independent Chains","ticketType":"STANDARD"},{"id":"4266","tribuneTheaterId":"2395","providerTheaterId":"","name":"Great Escape Omaha Stadium 16","address":"7440 Crown Point Ave.","city":"Omaha","state":"NE","zip":"68134","distance":18.713859267923,"lon":"-96.027761","lat":"41.313613","theaterChainName":"Regal Cinemas","ticketType":"STANDARD"},{"id":"5286","tribuneTheaterId":"10720","providerTheaterId":"468","name":"AMC Westroads 14","address":"10000 California St.","city":"Omaha","state":"NE","zip":"68114","distance":22.469409481621,"lon":"-96.068873","lat":"41.267711","theaterChainName":"AMC Theatres","ticketType":"STANDARD"},{"id":"4849","tribuneTheaterId":"10131","providerTheaterId":"","name":"Midtown Cinema","address":"3201 Farnam Street","city":"Omaha","state":"NE","zip":"68131","distance":21.506130804944,"lon":"-95.960405","lat":"41.257483","theaterChainName":"Marcus Theaters","ticketType":"STANDARD"},{"id":"4433","tribuneTheaterId":"9505","providerTheaterId":"","name":"Film Streams at the Ruth Sokolof Theater","address":"1340 Webster Street","city":"Omaha","state":"NE","zip":"68102","distance":20.744264467713,"lon":"-95.934235","lat":"41.265896","theaterChainName":"Independent Chains","ticketType":"STANDARD"},{"id":"1279","tribuneTheaterId":"3245","providerTheaterId":"","name":"20 Grand (Majestic Cinema)","address":"14304 W. Maple Rd","city":"Omaha","state":"NE","zip":"68164","distance":22.617179060301,"lon":"-96.136057","lat":"41.293335","theaterChainName":"Marcus Theaters","ticketType":"STANDARD"},{"id":"3614","tribuneTheaterId":"2377","providerTheaterId":"6195","name":"AMC Star Council Bluffs 17","address":"3220 23rd Ave.","city":"Council Bluffs","state":"IA","zip":"51501","distance":22.290225403459,"lon":"-95.895517","lat":"41.241805","theaterChainName":"AMC Theatres","ticketType":"STANDARD"},{"id":"5002","tribuneTheaterId":"10373","providerTheaterId":"","name":"Aksarben Cinema","address":"2110 S. 67th St","city":"Omaha","state":"NE","zip":"68106","distance":23.344662306958,"lon":"-96.015464","lat":"41.239618","theaterChainName":"Main Street Theatres","ticketType":"STANDARD"}]