[{"id":"3267","name":"Harlan 4","address":"621 Court","city":"Harlan","state":"IA","zip":"51537","distance":"23.251779556274414","lon":"-95.318771","lat":"41.657436","theaterChainName":"Independent Chains","ticketType":"STANDARD"},{"id":"4433","name":"Film Streams at the Ruth Sokolof Theater","address":"1340 Webster Street","city":"Omaha","state":"NE","zip":"68102","distance":"18.653369903564453","lon":"-95.934235","lat":"41.265896","theaterChainName":"Independent Chains","ticketType":"STANDARD"},{"id":"3614","name":"AMC Star Council Bluffs 17","address":"3220 23rd Ave.","city":"Council Bluffs","state":"IA","zip":"51501","distance":"18.588769912719727","lon":"-95.895515","lat":"41.241806","theaterChainName":"AMC Theatres","ticketType":"STANDARD"},{"id":"4849","name":"Midtown Cinema","address":"3201 Farnam Street","city":"Omaha","state":"NE","zip":"68131","distance":"20.033222198486328","lon":"-95.960403","lat":"41.257484","theaterChainName":"Marcus Theaters","ticketType":"STANDARD"},{"id":"5002","name":"Aksarben Cinema","address":"2110 S. 67th St","city":"Omaha","state":"NE","zip":"68106","distance":"22.984216690063477","lon":"-96.015465","lat":"41.239616","theaterChainName":"Main Street Theatres","ticketType":"STANDARD"},{"id":"4266","name":"Great Escape Omaha Stadium 16","address":"7440 Crown Point Ave.","city":"Omaha","state":"NE","zip":"68134","distance":"20.579505920410156","lon":"-96.027763","lat":"41.313614","theaterChainName":"Regal Cinemas","ticketType":"STANDARD"},{"id":"5286","name":"AMC Westroads 14","address":"10000 California St.","city":"Omaha","state":"NE","zip":"68114","distance":"24.040964126586914","lon":"-96.068871","lat":"41.267712","theaterChainName":"AMC Theatres","ticketType":"STANDARD"},{"id":"1713","name":"Blair 3 Theatre","address":"1645 S Hwy 30","city":"Blair","state":"NE","zip":"68008","distance":"24.533693313598633","lon":"-96.143402","lat":"41.528999","theaterChainName":"Independent Chains","ticketType":"STANDARD"},{"id":"1714","name":"Berkeley Plaza Theatre 7","address":"267 Monroe St.","city":"Martinsburg","state":"WV","zip":"25404","distance":"24.42966079711914","lon":"-96.136887","lat":"41.543571","theaterChainName":"Independent Chains","ticketType":"STANDARD"}]