[{"id":"3108","tribuneTheaterId":"3230","providerTheaterId":"","name":"Twin Creek Cinema","address":"3909 Raynor Parkway","city":"Bellevue","state":"NE","zip":"68123","distance":11.988641561721,"lon":"-95.971262","lat":"41.146799","theaterChainName":"Marcus Theaters","ticketType":"STANDARD"},{"id":"3614","tribuneTheaterId":"2377","providerTheaterId":"6195","name":"AMC Star Council Bluffs 17","address":"3220 23rd Ave.","city":"Council Bluffs","state":"IA","zip":"51501","distance":15.570869830759,"lon":"-95.895517","lat":"41.241805","theaterChainName":"AMC Theatres","ticketType":"STANDARD"},{"id":"5636","tribuneTheaterId":"11099","providerTheaterId":"","name":"Alamo Drafthouse Cinema-La Vista","address":"12750 Westport Parkway","city":"La Vista","state":"NE","zip":"68138","distance":19.236574035941,"lon":"-96.11417","lat":"41.179087","theaterChainName":"Alamo Drafthouse","ticketType":"STANDARD"},{"id":"5002","tribuneTheaterId":"10373","providerTheaterId":"","name":"Aksarben Cinema","address":"2110 S. 67th St","city":"Omaha","state":"NE","zip":"68106","distance":18.330852867718,"lon":"-96.015464","lat":"41.239618","theaterChainName":"Main Street Theatres","ticketType":"STANDARD"},{"id":"4433","tribuneTheaterId":"9505","providerTheaterId":"","name":"Film Streams at the Ruth Sokolof Theater","address":"1340 Webster Street","city":"Omaha","state":"NE","zip":"68102","distance":17.824592640366,"lon":"-95.934235","lat":"41.265896","theaterChainName":"Independent Chains","ticketType":"STANDARD"},{"id":"4849","tribuneTheaterId":"10131","providerTheaterId":"","name":"Midtown Cinema","address":"3201 Farnam Street","city":"Omaha","state":"NE","zip":"68131","distance":17.863440815184,"lon":"-95.960405","lat":"41.257483","theaterChainName":"Marcus Theaters","ticketType":"STANDARD"},{"id":"517","tribuneTheaterId":"8251","providerTheaterId":"85","name":"AMC Oak View Plaza 24","address":"3555 S. 140th Plaza","city":"Omaha","state":"NE","zip":"68144","distance":21.783656077546,"lon":"-96.13021","lat":"41.2252","theaterChainName":"AMC Theatres","ticketType":"STANDARD"},{"id":"5286","tribuneTheaterId":"10720","providerTheaterId":"468","name":"AMC Westroads 14","address":"10000 California St.","city":"Omaha","state":"NE","zip":"68114","distance":21.573877549563,"lon":"-96.068873","lat":"41.267711","theaterChainName":"AMC Theatres","ticketType":"STANDARD"},{"id":"4266","tribuneTheaterId":"2395","providerTheaterId":"","name":"Great Escape Omaha Stadium 16","address":"7440 Crown Point Ave.","city":"Omaha","state":"NE","zip":"68134","distance":22.947786590441,"lon":"-96.027761","lat":"41.313613","theaterChainName":"Regal Cinemas","ticketType":"STANDARD"},{"id":"2073","tribuneTheaterId":"5061","providerTheaterId":"","name":"Pioneer Theater","address":"110 S. 11th St.","city":"Nebraska City","state":"NE","zip":"68410","distance":24.406798626471,"lon":"-95.859048","lat":"40.676265","theaterChainName":"Main Street Theatres","ticketType":"STANDARD"}]