[{"id":"2193","name":"State Theatre - Washington","address":"123 E Washington St.","city":"Washington","state":"IA","zip":"52353","distance":"7.599862098693848","lon":"-91.690681","lat":"41.298252","theaterChainName":"Fridley Theatres","ticketType":"STANDARD"},{"id":"2192","name":"Main Street Cinemas","address":"115 N. Main St.","city":"Mount Pleasant","state":"IA","zip":"52641","distance":"24.427797317504883","lon":"-91.553268","lat":"40.966705","theaterChainName":"Independent Chains","ticketType":"STANDARD"},{"id":"2790","name":"Marcus Sycamore 12","address":"1602 Sycamore Street","city":"Iowa City","state":"IA","zip":"52240","distance":"22.346485137939453","lon":"-91.510048","lat":"41.642406","theaterChainName":"Marcus Theaters","ticketType":"STANDARD"},{"id":"5455","name":"FilmScene","address":"118 E. College St. #101","city":"Iowa City","state":"IA","zip":"52240","distance":"23.42645263671875","lon":"-91.533829","lat":"41.659088","theaterChainName":"Independent Chains","ticketType":"STANDARD"},{"id":"2416","name":"New Strand Theatre","address":"111 East 3rd Street","city":"West Liberty","state":"IA","zip":"52776","distance":"22.698118209838867","lon":"-91.262733","lat":"41.570080","theaterChainName":"Independent Chains","ticketType":"STANDARD"}]