[{"id":"2197","tribuneTheaterId":"4709","providerTheaterId":"","name":"Carmike Wynnsong 12 Cedar Rapids","address":"2435 Edgewood Rd","city":"Cedar Rapids","state":"IA","zip":"52404","distance":8.6344351550276,"lon":"-91.714355","lat":"41.953842","theaterChainName":"Carmike Cinemas","ticketType":"STANDARD"},{"id":"4026","tribuneTheaterId":"2384","providerTheaterId":"","name":"Wehrenberg Cedar Rapids Galaxy 16 Cine","address":"5340 Council Street NE","city":"Cedar Rapids","state":"IA","zip":"52402","distance":11.747366703893,"lon":"-91.654987","lat":"42.032142","theaterChainName":"Wehrenberg Theatres","ticketType":"STANDARD"},{"id":"2199","tribuneTheaterId":"1842","providerTheaterId":"","name":"Collins Road Theatre","address":"1462 Twixt Town Rd.","city":"Marion","state":"IA","zip":"52302","distance":15.220033701787,"lon":"-91.5914","lat":"42.0499","theaterChainName":"Independent Chains","ticketType":"STANDARD"},{"id":"3410","tribuneTheaterId":"624","providerTheaterId":"","name":"Palace Theatre - Vinton","address":"210 W. 4th St.","city":"Vinton","state":"IA","zip":"52349","distance":14.60253695585,"lon":"-92.026302","lat":"42.167603","theaterChainName":"Independent Chains","ticketType":"STANDARD"},{"id":"3594","tribuneTheaterId":"1303","providerTheaterId":"","name":"Bijou Theater","address":"123 2nd Street SW","city":"Mount Vernon","state":"IA","zip":"52314","distance":23.944372302024,"lon":"-91.418519","lat":"41.922128","theaterChainName":"Independent Chains","ticketType":"STANDARD"}]