[{"id":"3410","name":"Palace Theatre - Vinton","address":"210 W. 4th St.","city":"Vinton","state":"IA","zip":"52349","distance":"19.836828231811523","lon":"-92.026299","lat":"42.167603","theaterChainName":"Independent Chains","ticketType":"STANDARD"},{"id":"3594","name":"Bijou Theater","address":"123 2nd Street SW","city":"Mount Vernon","state":"IA","zip":"52314","distance":"19.863372802734375","lon":"-91.418518","lat":"41.922127","theaterChainName":"Independent Chains","ticketType":"STANDARD"},{"id":"2199","name":"Collins Road Theatre","address":"1462 Twixt Town Rd.","city":"Marion","state":"IA","zip":"52302","distance":"7.880708694458008","lon":"-91.591400","lat":"42.049900","theaterChainName":"Independent Chains","ticketType":"STANDARD"},{"id":"4026","name":"Wehrenberg Cedar Rapids Galaxy 16 Cine","address":"5340 Council Street NE","city":"Cedar Rapids","state":"IA","zip":"52402","distance":"8.754556655883789","lon":"-91.654984","lat":"42.032143","theaterChainName":"Wehrenberg Theatres","ticketType":"STANDARD"},{"id":"2197","name":"Carmike Wynnsong 12 Cedar Rapids","address":"2435 Edgewood Rd","city":"Cedar Rapids","state":"IA","zip":"52404","distance":"14.644189834594727","lon":"-91.714355","lat":"41.953842","theaterChainName":"Carmike Cinemas","ticketType":"STANDARD"}]