[{"id":"3594","name":"Bijou Theater","address":"123 2nd Street SW","city":"Mount Vernon","state":"IA","zip":"52314","distance":"18.456884384155273","lon":"-91.418518","lat":"41.922127","theaterChainName":"Independent Chains","ticketType":"STANDARD"},{"id":"2790","name":"Marcus Sycamore 12","address":"1602 Sycamore Street","city":"Iowa City","state":"IA","zip":"52240","distance":"1.576088786125183","lon":"-91.510048","lat":"41.642406","theaterChainName":"Marcus Theaters","ticketType":"STANDARD"},{"id":"5455","name":"FilmScene","address":"118 E. College St. #101","city":"Iowa City","state":"IA","zip":"52240","distance":"1.0470043420791626","lon":"-91.533829","lat":"41.659088","theaterChainName":"Independent Chains","ticketType":"STANDARD"},{"id":"2416","name":"New Strand Theatre","address":"111 East 3rd Street","city":"West Liberty","state":"IA","zip":"52776","distance":"14.590291976928711","lon":"-91.262733","lat":"41.570080","theaterChainName":"Independent Chains","ticketType":"STANDARD"},{"id":"1679","name":"Coral Ridge 10","address":"1451 Coral Ridge Ave.","city":"Coralville","state":"IA","zip":"52241","distance":"4.7208685874938965","lon":"-91.599968","lat":"41.690392","theaterChainName":"Marcus Theaters","ticketType":"STANDARD"},{"id":"2197","name":"Carmike Wynnsong 12 Cedar Rapids","address":"2435 Edgewood Rd","city":"Cedar Rapids","state":"IA","zip":"52404","distance":"22.448150634765625","lon":"-91.714355","lat":"41.953842","theaterChainName":"Carmike Cinemas","ticketType":"STANDARD"}]