[{"id":"2193","tribuneTheaterId":"353","providerTheaterId":"","name":"State Theatre - Washington","address":"123 E Washington St.","city":"Washington","state":"IA","zip":"52353","distance":12.740358393105,"lon":"-91.690682","lat":"41.298251","theaterChainName":"Fridley Theatres","ticketType":"STANDARD"},{"id":"1679","tribuneTheaterId":"3146","providerTheaterId":"","name":"Coral Ridge 10","address":"1451 Coral Ridge Ave.","city":"Coralville","state":"IA","zip":"52241","distance":15.380974300545,"lon":"-91.599968","lat":"41.690391","theaterChainName":"Marcus Theaters","ticketType":"STANDARD"},{"id":"5455","tribuneTheaterId":"10898","providerTheaterId":"","name":"FilmScene","address":"118 E. College St. #101","city":"Iowa City","state":"IA","zip":"52240","distance":15.104172827975,"lon":"-91.533825","lat":"41.659088","theaterChainName":"Independent Chains","ticketType":"STANDARD"},{"id":"2790","tribuneTheaterId":"4094","providerTheaterId":"","name":"Marcus Sycamore 12","address":"1602 Sycamore Street","city":"Iowa City","state":"IA","zip":"52240","distance":14.989259535764,"lon":"-91.510051","lat":"41.642405","theaterChainName":"Marcus Theaters","ticketType":"STANDARD"},{"id":"2416","tribuneTheaterId":"405","providerTheaterId":"","name":"New Strand Theatre","address":"111 East 3rd Street","city":"West Liberty","state":"IA","zip":"52776","distance":23.702204651888,"lon":"-91.262736","lat":"41.570079","theaterChainName":"Independent Chains","ticketType":"STANDARD"}]