[{"id":"2193","name":"State Theatre - Washington","address":"123 E Washington St.","city":"Washington","state":"IA","zip":"52353","distance":"12.741071701049805","lon":"-91.690681","lat":"41.298252","theaterChainName":"Fridley Theatres","ticketType":"STANDARD"},{"id":"2790","name":"Marcus Sycamore 12","address":"1602 Sycamore Street","city":"Iowa City","state":"IA","zip":"52240","distance":"14.990510940551758","lon":"-91.510048","lat":"41.642406","theaterChainName":"Marcus Theaters","ticketType":"STANDARD"},{"id":"5455","name":"FilmScene","address":"118 E. College St. #101","city":"Iowa City","state":"IA","zip":"52240","distance":"15.105127334594727","lon":"-91.533829","lat":"41.659088","theaterChainName":"Independent Chains","ticketType":"STANDARD"},{"id":"2416","name":"New Strand Theatre","address":"111 East 3rd Street","city":"West Liberty","state":"IA","zip":"52776","distance":"23.704004287719727","lon":"-91.262733","lat":"41.570080","theaterChainName":"Independent Chains","ticketType":"STANDARD"},{"id":"1679","name":"Coral Ridge 10","address":"1451 Coral Ridge Ave.","city":"Coralville","state":"IA","zip":"52241","distance":"15.382044792175293","lon":"-91.599968","lat":"41.690392","theaterChainName":"Marcus Theaters","ticketType":"STANDARD"}]