[{"id":"2197","tribuneTheaterId":"4709","providerTheaterId":"","name":"Carmike Wynnsong 12 Cedar Rapids","address":"2435 Edgewood Rd","city":"Cedar Rapids","state":"IA","zip":"52404","distance":14.589066067532,"lon":"-91.714355","lat":"41.953842","theaterChainName":"Carmike Cinemas","ticketType":"STANDARD"},{"id":"1679","tribuneTheaterId":"3146","providerTheaterId":"","name":"Coral Ridge 10","address":"1451 Coral Ridge Ave.","city":"Coralville","state":"IA","zip":"52241","distance":17.168794983806,"lon":"-91.599968","lat":"41.690391","theaterChainName":"Marcus Theaters","ticketType":"STANDARD"},{"id":"5455","tribuneTheaterId":"10898","providerTheaterId":"","name":"FilmScene","address":"118 E. College St. #101","city":"Iowa City","state":"IA","zip":"52240","distance":21.183732986879,"lon":"-91.533825","lat":"41.659088","theaterChainName":"Independent Chains","ticketType":"STANDARD"},{"id":"4026","tribuneTheaterId":"2384","providerTheaterId":"","name":"Wehrenberg Cedar Rapids Galaxy 16 Cine","address":"5340 Council Street NE","city":"Cedar Rapids","state":"IA","zip":"52402","distance":20.702622622249,"lon":"-91.654987","lat":"42.032142","theaterChainName":"Wehrenberg Theatres","ticketType":"STANDARD"},{"id":"2790","tribuneTheaterId":"4094","providerTheaterId":"","name":"Marcus Sycamore 12","address":"1602 Sycamore Street","city":"Iowa City","state":"IA","zip":"52240","distance":22.801840841651,"lon":"-91.510051","lat":"41.642405","theaterChainName":"Marcus Theaters","ticketType":"STANDARD"},{"id":"2199","tribuneTheaterId":"1842","providerTheaterId":"","name":"Collins Road Theatre","address":"1462 Twixt Town Rd.","city":"Marion","state":"IA","zip":"52302","distance":23.745275830074,"lon":"-91.5914","lat":"42.0499","theaterChainName":"Independent Chains","ticketType":"STANDARD"}]