[{"id":"2199","name":"Collins Road Theatre","address":"1462 Twixt Town Rd.","city":"Marion","state":"IA","zip":"52302","distance":"23.746883392333984","lon":"-91.591400","lat":"42.049900","theaterChainName":"Independent Chains","ticketType":"STANDARD"},{"id":"4026","name":"Wehrenberg Cedar Rapids Galaxy 16 Cine","address":"5340 Council Street NE","city":"Cedar Rapids","state":"IA","zip":"52402","distance":"20.704185485839844","lon":"-91.654984","lat":"42.032143","theaterChainName":"Wehrenberg Theatres","ticketType":"STANDARD"},{"id":"2790","name":"Marcus Sycamore 12","address":"1602 Sycamore Street","city":"Iowa City","state":"IA","zip":"52240","distance":"22.803401947021484","lon":"-91.510048","lat":"41.642406","theaterChainName":"Marcus Theaters","ticketType":"STANDARD"},{"id":"5455","name":"FilmScene","address":"118 E. College St. #101","city":"Iowa City","state":"IA","zip":"52240","distance":"21.184925079345703","lon":"-91.533829","lat":"41.659088","theaterChainName":"Independent Chains","ticketType":"STANDARD"},{"id":"1679","name":"Coral Ridge 10","address":"1451 Coral Ridge Ave.","city":"Coralville","state":"IA","zip":"52241","distance":"17.169904708862305","lon":"-91.599968","lat":"41.690392","theaterChainName":"Marcus Theaters","ticketType":"STANDARD"},{"id":"2197","name":"Carmike Wynnsong 12 Cedar Rapids","address":"2435 Edgewood Rd","city":"Cedar Rapids","state":"IA","zip":"52404","distance":"14.590099334716797","lon":"-91.714355","lat":"41.953842","theaterChainName":"Carmike Cinemas","ticketType":"STANDARD"}]