[{"id":"1679","tribuneTheaterId":"3146","providerTheaterId":"","name":"Coral Ridge 10","address":"1451 Coral Ridge Ave.","city":"Coralville","state":"IA","zip":"52241","distance":9.3123955351648,"lon":"-91.599968","lat":"41.690391","theaterChainName":"Marcus Theaters","ticketType":"STANDARD"},{"id":"5455","tribuneTheaterId":"10898","providerTheaterId":"","name":"FilmScene","address":"118 E. College St. #101","city":"Iowa City","state":"IA","zip":"52240","distance":12.329788272089,"lon":"-91.533825","lat":"41.659088","theaterChainName":"Independent Chains","ticketType":"STANDARD"},{"id":"2790","tribuneTheaterId":"4094","providerTheaterId":"","name":"Marcus Sycamore 12","address":"1602 Sycamore Street","city":"Iowa City","state":"IA","zip":"52240","distance":13.557338031584,"lon":"-91.510051","lat":"41.642405","theaterChainName":"Marcus Theaters","ticketType":"STANDARD"},{"id":"2197","tribuneTheaterId":"4709","providerTheaterId":"","name":"Carmike Wynnsong 12 Cedar Rapids","address":"2435 Edgewood Rd","city":"Cedar Rapids","state":"IA","zip":"52404","distance":21.157370858022,"lon":"-91.714355","lat":"41.953842","theaterChainName":"Carmike Cinemas","ticketType":"STANDARD"},{"id":"2193","tribuneTheaterId":"353","providerTheaterId":"","name":"State Theatre - Washington","address":"123 E Washington St.","city":"Washington","state":"IA","zip":"52353","distance":24.716581545021,"lon":"-91.690682","lat":"41.298251","theaterChainName":"Fridley Theatres","ticketType":"STANDARD"}]