[{"id":"3594","name":"Bijou Theater","address":"123 2nd Street SW","city":"Mount Vernon","state":"IA","zip":"52314","distance":"14.697935104370117","lon":"-91.418518","lat":"41.922127","theaterChainName":"Independent Chains","ticketType":"STANDARD"},{"id":"2199","name":"Collins Road Theatre","address":"1462 Twixt Town Rd.","city":"Marion","state":"IA","zip":"52302","distance":"15.988121032714844","lon":"-91.591400","lat":"42.049900","theaterChainName":"Independent Chains","ticketType":"STANDARD"},{"id":"4026","name":"Wehrenberg Cedar Rapids Galaxy 16 Cine","address":"5340 Council Street NE","city":"Cedar Rapids","state":"IA","zip":"52402","distance":"14.221863746643066","lon":"-91.654984","lat":"42.032143","theaterChainName":"Wehrenberg Theatres","ticketType":"STANDARD"},{"id":"2790","name":"Marcus Sycamore 12","address":"1602 Sycamore Street","city":"Iowa City","state":"IA","zip":"52240","distance":"15.287808418273926","lon":"-91.510048","lat":"41.642406","theaterChainName":"Marcus Theaters","ticketType":"STANDARD"},{"id":"5455","name":"FilmScene","address":"118 E. College St. #101","city":"Iowa City","state":"IA","zip":"52240","distance":"13.654438018798828","lon":"-91.533829","lat":"41.659088","theaterChainName":"Independent Chains","ticketType":"STANDARD"},{"id":"1679","name":"Coral Ridge 10","address":"1451 Coral Ridge Ave.","city":"Coralville","state":"IA","zip":"52241","distance":"10.166716575622559","lon":"-91.599968","lat":"41.690392","theaterChainName":"Marcus Theaters","ticketType":"STANDARD"},{"id":"2197","name":"Carmike Wynnsong 12 Cedar Rapids","address":"2435 Edgewood Rd","city":"Cedar Rapids","state":"IA","zip":"52404","distance":"9.021535873413086","lon":"-91.714355","lat":"41.953842","theaterChainName":"Carmike Cinemas","ticketType":"STANDARD"}]