[{"id":"3594","name":"Bijou Theater","address":"123 2nd Street SW","city":"Mount Vernon","state":"IA","zip":"52314","distance":"9.634905815124512","lon":"-91.418518","lat":"41.922127","theaterChainName":"Independent Chains","ticketType":"STANDARD"},{"id":"2199","name":"Collins Road Theatre","address":"1462 Twixt Town Rd.","city":"Marion","state":"IA","zip":"52302","distance":"7.833981037139893","lon":"-91.591400","lat":"42.049900","theaterChainName":"Independent Chains","ticketType":"STANDARD"},{"id":"4026","name":"Wehrenberg Cedar Rapids Galaxy 16 Cine","address":"5340 Council Street NE","city":"Cedar Rapids","state":"IA","zip":"52402","distance":"11.236649513244629","lon":"-91.654984","lat":"42.032143","theaterChainName":"Wehrenberg Theatres","ticketType":"STANDARD"},{"id":"2197","name":"Carmike Wynnsong 12 Cedar Rapids","address":"2435 Edgewood Rd","city":"Cedar Rapids","state":"IA","zip":"52404","distance":"15.931512832641602","lon":"-91.714355","lat":"41.953842","theaterChainName":"Carmike Cinemas","ticketType":"STANDARD"}]