[{"id":"2416","tribuneTheaterId":"405","providerTheaterId":"","name":"New Strand Theatre","address":"111 East 3rd Street","city":"West Liberty","state":"IA","zip":"52776","distance":14.429467603842,"lon":"-91.262736","lat":"41.570079","theaterChainName":"Independent Chains","ticketType":"STANDARD"},{"id":"3594","tribuneTheaterId":"1303","providerTheaterId":"","name":"Bijou Theater","address":"123 2nd Street SW","city":"Mount Vernon","state":"IA","zip":"52314","distance":18.506023742987,"lon":"-91.418519","lat":"41.922128","theaterChainName":"Independent Chains","ticketType":"STANDARD"},{"id":"2415","tribuneTheaterId":"1701","providerTheaterId":"","name":"Palms Theatre","address":"3611 Palms Drive","city":"Muscatine","state":"IA","zip":"52761","distance":21.477116298726,"lon":"-91.086394","lat":"41.447697","theaterChainName":"Fridley Theatres","ticketType":"STANDARD"},{"id":"5455","tribuneTheaterId":"10898","providerTheaterId":"","name":"FilmScene","address":"118 E. College St. #101","city":"Iowa City","state":"IA","zip":"52240","distance":21.581874620585,"lon":"-91.533825","lat":"41.659088","theaterChainName":"Independent Chains","ticketType":"STANDARD"},{"id":"2790","tribuneTheaterId":"4094","providerTheaterId":"","name":"Marcus Sycamore 12","address":"1602 Sycamore Street","city":"Iowa City","state":"IA","zip":"52240","distance":20.829973483066,"lon":"-91.510051","lat":"41.642405","theaterChainName":"Marcus Theaters","ticketType":"STANDARD"},{"id":"1679","tribuneTheaterId":"3146","providerTheaterId":"","name":"Coral Ridge 10","address":"1451 Coral Ridge Ave.","city":"Coralville","state":"IA","zip":"52241","distance":24.345696220676,"lon":"-91.599968","lat":"41.690391","theaterChainName":"Marcus Theaters","ticketType":"STANDARD"}]