[{"id":"4148","name":"Saukville Cinemas","address":"350 South Riverside Drive","city":"Saukville","state":"WI","zip":"53080","distance":"22.294198989868164","lon":"-87.927940","lat":"43.376511","theaterChainName":"Marcus Theaters","ticketType":"STANDARD"},{"id":"5898","name":"West Bend Cinema","address":"2014 Parkway Drive","city":"West Bend","state":"WI","zip":"53095","distance":"9.820263862609863","lon":"-88.186180","lat":"43.394859","theaterChainName":"Independent Chains","ticketType":"STANDARD"},{"id":"951","name":"Marcus Menomonee Falls","address":"W180 N9393 Premier Lane","city":"Menomonee Falls","state":"WI","zip":"53051","distance":"22.409408569335938","lon":"-88.134331","lat":"43.185844","theaterChainName":"Marcus Theaters","ticketType":"STANDARD"},{"id":"1450","name":"Schubert's Hartford Theatre","address":"2941 Highway 83 S.","city":"Hartford","state":"WI","zip":"53027","distance":"11.860323905944824","lon":"-88.378357","lat":"43.297379","theaterChainName":"Independent Chains","ticketType":"STANDARD"},{"id":"4677","name":"Forest Mall Cinema","address":"755 W. Johnson Street","city":"North Fond du Lac","state":"WI","zip":"54935","distance":"22.76496124267578","lon":"-88.475838","lat":"43.785519","theaterChainName":"Independent Chains","ticketType":"STANDARD"},{"id":"1690","name":"Fond Du Lac Theatre 8","address":"1131 W. Scott Street","city":"Fond du Lac","state":"WI","zip":"54937","distance":"23.417112350463867","lon":"-88.489029","lat":"43.792580","theaterChainName":"Independent Chains","ticketType":"STANDARD"},{"id":"1502","name":"Rogers Cinema 5","address":"236 Front Street","city":"Beaver Dam","state":"WI","zip":"53916","distance":"24.39318084716797","lon":"-88.839996","lat":"43.456200","theaterChainName":"Independent Chains","ticketType":"STANDARD"}]