[{"id":"5898","tribuneTheaterId":"11320","providerTheaterId":"","name":"West Bend Cinema","address":"2014 Parkway Drive","city":"West Bend","state":"WI","zip":"53095","distance":18.82371657233,"lon":"-88.186179","lat":"43.394858","theaterChainName":"Independent Chains","ticketType":"STANDARD"},{"id":"1481","tribuneTheaterId":"4840","providerTheaterId":"","name":"Marcus Marc Cinemas - Sheboygan","address":"3226 Kohler Memorial Drive","city":"Sheboygan","state":"WI","zip":"53081","distance":18.453516259614,"lon":"-87.751209","lat":"43.757489","theaterChainName":"Marcus Theaters","ticketType":"STANDARD"},{"id":"1690","tribuneTheaterId":"2097","providerTheaterId":"","name":"Fond Du Lac Theatre 8","address":"1131 W. Scott Street","city":"Fond du Lac","state":"WI","zip":"54937","distance":21.742092282795,"lon":"-88.48903","lat":"43.792581","theaterChainName":"Independent Chains","ticketType":"STANDARD"},{"id":"4677","tribuneTheaterId":"9881","providerTheaterId":"","name":"Forest Mall Cinema","address":"755 W. Johnson Street","city":"North Fond du Lac","state":"WI","zip":"54935","distance":20.940371922941,"lon":"-88.47584","lat":"43.785519","theaterChainName":"Independent Chains","ticketType":"STANDARD"},{"id":"4148","tribuneTheaterId":"4838","providerTheaterId":"","name":"Saukville Cinemas","address":"350 South Riverside Drive","city":"Saukville","state":"WI","zip":"53080","distance":21.237553179517,"lon":"-87.92794","lat":"43.376512","theaterChainName":"Marcus Theaters","ticketType":"STANDARD"}]