[{"id":"1502","tribuneTheaterId":"1467","providerTheaterId":"","name":"Rogers Cinema 5","address":"236 Front Street","city":"Beaver Dam","state":"WI","zip":"53916","distance":10.502842498994,"lon":"-88.84","lat":"43.4562","theaterChainName":"Independent Chains","ticketType":"STANDARD"},{"id":"1450","tribuneTheaterId":"2092","providerTheaterId":"","name":"Schubert's Hartford Theatre","address":"2941 Highway 83 S.","city":"Hartford","state":"WI","zip":"53027","distance":16.362800345686,"lon":"-88.378354","lat":"43.297377","theaterChainName":"Independent Chains","ticketType":"STANDARD"},{"id":"1956","tribuneTheaterId":"1487","providerTheaterId":"","name":"Towne Cinema","address":"308 E. Main St.","city":"Watertown","state":"WI","zip":"53094","distance":18.009947859219,"lon":"-88.721536","lat":"43.194698","theaterChainName":"Independent Chains","ticketType":"STANDARD"},{"id":"5898","tribuneTheaterId":"11320","providerTheaterId":"","name":"West Bend Cinema","address":"2014 Parkway Drive","city":"West Bend","state":"WI","zip":"53095","distance":22.610675922809,"lon":"-88.186179","lat":"43.394858","theaterChainName":"Independent Chains","ticketType":"STANDARD"},{"id":"1690","tribuneTheaterId":"2097","providerTheaterId":"","name":"Fond Du Lac Theatre 8","address":"1131 W. Scott Street","city":"Fond du Lac","state":"WI","zip":"54937","distance":24.917533004382,"lon":"-88.48903","lat":"43.792581","theaterChainName":"Independent Chains","ticketType":"STANDARD"},{"id":"4677","tribuneTheaterId":"9881","providerTheaterId":"","name":"Forest Mall Cinema","address":"755 W. Johnson Street","city":"North Fond du Lac","state":"WI","zip":"54935","distance":24.650067451338,"lon":"-88.47584","lat":"43.785519","theaterChainName":"Independent Chains","ticketType":"STANDARD"}]