[{"id":"1450","tribuneTheaterId":"2092","providerTheaterId":"","name":"Schubert's Hartford Theatre","address":"2941 Highway 83 S.","city":"Hartford","state":"WI","zip":"53027","distance":7.1480436076451,"lon":"-88.378354","lat":"43.297377","theaterChainName":"Independent Chains","ticketType":"STANDARD"},{"id":"1956","tribuneTheaterId":"1487","providerTheaterId":"","name":"Towne Cinema","address":"308 E. Main St.","city":"Watertown","state":"WI","zip":"53094","distance":12.374072607223,"lon":"-88.721536","lat":"43.194698","theaterChainName":"Independent Chains","ticketType":"STANDARD"},{"id":"5898","tribuneTheaterId":"11320","providerTheaterId":"","name":"West Bend Cinema","address":"2014 Parkway Drive","city":"West Bend","state":"WI","zip":"53095","distance":18.087344015999,"lon":"-88.186179","lat":"43.394858","theaterChainName":"Independent Chains","ticketType":"STANDARD"},{"id":"1502","tribuneTheaterId":"1467","providerTheaterId":"","name":"Rogers Cinema 5","address":"236 Front Street","city":"Beaver Dam","state":"WI","zip":"53916","distance":19.422536916868,"lon":"-88.84","lat":"43.4562","theaterChainName":"Independent Chains","ticketType":"STANDARD"},{"id":"950","tribuneTheaterId":"4842","providerTheaterId":"","name":"Marcus Hillside Cinema","address":"2950 Hillside Drive","city":"Delafield","state":"WI","zip":"53018","distance":18.9060430992,"lon":"-88.369598","lat":"43.047276","theaterChainName":"Marcus Theaters","ticketType":"STANDARD"},{"id":"2489","tribuneTheaterId":"6074","providerTheaterId":"6445","name":"AMC Star Johnson Creek 12","address":"420 Village Walk Ln.","city":"Johnson Creek","state":"WI","zip":"53038","distance":19.405438977731,"lon":"-88.765959","lat":"43.081342","theaterChainName":"AMC Theatres","ticketType":"STANDARD"},{"id":"951","tribuneTheaterId":"4837","providerTheaterId":"","name":"Marcus Menomonee Falls","address":"W180 N9393 Premier Lane","city":"Menomonee Falls","state":"WI","zip":"53051","distance":20.919507229282,"lon":"-88.13433","lat":"43.185844","theaterChainName":"Marcus Theaters","ticketType":"STANDARD"},{"id":"4357","tribuneTheaterId":"9390","providerTheaterId":"","name":"Majestic Cinema","address":"770 Springdale Road","city":"Brookfield","state":"WI","zip":"53005","distance":24.609434205433,"lon":"-88.183404","lat":"43.040086","theaterChainName":"Marcus Theaters","ticketType":"STANDARD"}]