[{"id":"5898","name":"West Bend Cinema","address":"2014 Parkway Drive","city":"West Bend","state":"WI","zip":"53095","distance":"19.533479690551758","lon":"-88.186180","lat":"43.394859","theaterChainName":"Independent Chains","ticketType":"STANDARD"},{"id":"1450","name":"Schubert's Hartford Theatre","address":"2941 Highway 83 S.","city":"Hartford","state":"WI","zip":"53027","distance":"16.58003807067871","lon":"-88.378357","lat":"43.297379","theaterChainName":"Independent Chains","ticketType":"STANDARD"},{"id":"1956","name":"Towne Cinema","address":"308 E. Main St.","city":"Watertown","state":"WI","zip":"53094","distance":"23.169754028320312","lon":"-88.721535","lat":"43.194698","theaterChainName":"Independent Chains","ticketType":"STANDARD"},{"id":"4677","name":"Forest Mall Cinema","address":"755 W. Johnson Street","city":"North Fond du Lac","state":"WI","zip":"54935","distance":"19.724008560180664","lon":"-88.475838","lat":"43.785519","theaterChainName":"Independent Chains","ticketType":"STANDARD"},{"id":"1690","name":"Fond Du Lac Theatre 8","address":"1131 W. Scott Street","city":"Fond du Lac","state":"WI","zip":"54937","distance":"20.10194206237793","lon":"-88.489029","lat":"43.792580","theaterChainName":"Independent Chains","ticketType":"STANDARD"},{"id":"1502","name":"Rogers Cinema 5","address":"236 Front Street","city":"Beaver Dam","state":"WI","zip":"53916","distance":"15.157622337341309","lon":"-88.839996","lat":"43.456200","theaterChainName":"Independent Chains","ticketType":"STANDARD"}]