[{"id":"4148","name":"Saukville Cinemas","address":"350 South Riverside Drive","city":"Saukville","state":"WI","zip":"53080","distance":"7.8207855224609375","lon":"-87.927940","lat":"43.376511","theaterChainName":"Marcus Theaters","ticketType":"STANDARD"},{"id":"952","name":"Marcus North Shore Cinema","address":"11700 North Port Washington","city":"Mequon","state":"WI","zip":"53092","distance":"15.6846342086792","lon":"-87.922295","lat":"43.230934","theaterChainName":"Marcus Theaters","ticketType":"STANDARD"},{"id":"5898","name":"West Bend Cinema","address":"2014 Parkway Drive","city":"West Bend","state":"WI","zip":"53095","distance":"6.7750091552734375","lon":"-88.186180","lat":"43.394859","theaterChainName":"Independent Chains","ticketType":"STANDARD"},{"id":"2303","name":"Fox-Bay Cinema Grill","address":"334 E. Silver Spring Dr.","city":"Whitefish Bay","state":"WI","zip":"53217","distance":"23.150554656982422","lon":"-87.905624","lat":"43.118774","theaterChainName":"Independent Chains","ticketType":"STANDARD"},{"id":"951","name":"Marcus Menomonee Falls","address":"W180 N9393 Premier Lane","city":"Menomonee Falls","state":"WI","zip":"53051","distance":"17.511690139770508","lon":"-88.134331","lat":"43.185844","theaterChainName":"Marcus Theaters","ticketType":"STANDARD"},{"id":"1450","name":"Schubert's Hartford Theatre","address":"2941 Highway 83 S.","city":"Hartford","state":"WI","zip":"53027","distance":"18.46392822265625","lon":"-88.378357","lat":"43.297379","theaterChainName":"Independent Chains","ticketType":"STANDARD"}]