[{"id":"1972","tribuneTheaterId":"292","providerTheaterId":"","name":"Chilton Cinema Cafe","address":"26 N. Madison St.","city":"Chilton","state":"WI","zip":"53014","distance":6.8465571988533,"lon":"-88.162804","lat":"44.029202","theaterChainName":"Get Reel Inc","ticketType":"STANDARD"},{"id":"5527","tribuneTheaterId":"10956","providerTheaterId":"","name":"Carmike Manitowoc 10","address":"2555 S 44th Street","city":"Manitowoc","state":"WI","zip":"54220","distance":20.933010569456,"lon":"-87.70742","lat":"44.069635","theaterChainName":"Carmike Cinemas","ticketType":"STANDARD"},{"id":"1481","tribuneTheaterId":"4840","providerTheaterId":"","name":"Marcus Marc Cinemas - Sheboygan","address":"3226 Kohler Memorial Drive","city":"Sheboygan","state":"WI","zip":"53081","distance":21.305983135315,"lon":"-87.751209","lat":"43.757489","theaterChainName":"Marcus Theaters","ticketType":"STANDARD"},{"id":"1690","tribuneTheaterId":"2097","providerTheaterId":"","name":"Fond Du Lac Theatre 8","address":"1131 W. Scott Street","city":"Fond du Lac","state":"WI","zip":"54937","distance":22.43241953898,"lon":"-88.48903","lat":"43.792581","theaterChainName":"Independent Chains","ticketType":"STANDARD"},{"id":"4677","tribuneTheaterId":"9881","providerTheaterId":"","name":"Forest Mall Cinema","address":"755 W. Johnson Street","city":"North Fond du Lac","state":"WI","zip":"54935","distance":22.093684123479,"lon":"-88.47584","lat":"43.785519","theaterChainName":"Independent Chains","ticketType":"STANDARD"},{"id":"4953","tribuneTheaterId":"10309","providerTheaterId":"","name":"Marcus Cinema Appleton East","address":"W3091 Van Roy Road","city":"Appleton","state":"WI","zip":"54915","distance":24.905189172605,"lon":"-88.343972","lat":"44.255974","theaterChainName":"Marcus Theaters","ticketType":"STANDARD"},{"id":"1478","tribuneTheaterId":"4833","providerTheaterId":"","name":"Oshkosh Cinema","address":"340 South Koeller Road","city":"Oshkosh","state":"WI","zip":"54902","distance":24.870052102349,"lon":"-88.581431","lat":"44.015825","theaterChainName":"Marcus Theaters","ticketType":"STANDARD"},{"id":"1483","tribuneTheaterId":"4825","providerTheaterId":"","name":"Marcus Valley Value Cinemas","address":"1401 Valley Fair Mall","city":"Appleton","state":"WI","zip":"54915","distance":24.522455848266,"lon":"-88.353075","lat":"44.245545","theaterChainName":"Marcus Theaters","ticketType":"STANDARD"}]