[{"id":"1481","name":"Marcus Marc Cinemas - Sheboygan","address":"3226 Kohler Memorial Drive","city":"Sheboygan","state":"WI","zip":"53081","distance":"21.30754280090332","lon":"-87.751205","lat":"43.757488","theaterChainName":"Marcus Theaters","ticketType":"STANDARD"},{"id":"4677","name":"Forest Mall Cinema","address":"755 W. Johnson Street","city":"North Fond du Lac","state":"WI","zip":"54935","distance":"22.094825744628906","lon":"-88.475838","lat":"43.785519","theaterChainName":"Independent Chains","ticketType":"STANDARD"},{"id":"1690","name":"Fond Du Lac Theatre 8","address":"1131 W. Scott Street","city":"Fond du Lac","state":"WI","zip":"54937","distance":"22.433664321899414","lon":"-88.489029","lat":"43.792580","theaterChainName":"Independent Chains","ticketType":"STANDARD"},{"id":"1478","name":"Oshkosh Cinema","address":"340 South Koeller Road","city":"Oshkosh","state":"WI","zip":"54902","distance":"24.871335983276367","lon":"-88.581429","lat":"44.015823","theaterChainName":"Marcus Theaters","ticketType":"STANDARD"},{"id":"1972","name":"Chilton Cinema Cafe","address":"26 N. Madison St.","city":"Chilton","state":"WI","zip":"53014","distance":"6.846926212310791","lon":"-88.162804","lat":"44.029202","theaterChainName":"Get Reel Inc","ticketType":"STANDARD"},{"id":"5527","name":"Carmike Manitowoc 10","address":"2555 S 44th Street","city":"Manitowoc","state":"WI","zip":"54220","distance":"20.934391021728516","lon":"-87.707420","lat":"44.069633","theaterChainName":"Carmike Cinemas","ticketType":"STANDARD"},{"id":"1483","name":"Marcus Valley Value Cinemas","address":"1401 Valley Fair Mall","city":"Appleton","state":"WI","zip":"54915","distance":"24.523874282836914","lon":"-88.353073","lat":"44.245544","theaterChainName":"Marcus Theaters","ticketType":"STANDARD"},{"id":"4953","name":"Marcus Cinema Appleton East","address":"W3091 Van Roy Road","city":"Appleton","state":"WI","zip":"54915","distance":"24.906688690185547","lon":"-88.343971","lat":"44.255974","theaterChainName":"Marcus Theaters","ticketType":"STANDARD"}]