[{"id":"4148","tribuneTheaterId":"4838","providerTheaterId":"","name":"Saukville Cinemas","address":"350 South Riverside Drive","city":"Saukville","state":"WI","zip":"53080","distance":1.7731758952562,"lon":"-87.92794","lat":"43.376512","theaterChainName":"Marcus Theaters","ticketType":"STANDARD"},{"id":"952","tribuneTheaterId":"4836","providerTheaterId":"","name":"Marcus North Shore Cinema","address":"11700 North Port Washington","city":"Mequon","state":"WI","zip":"53092","distance":11.215107435923,"lon":"-87.922297","lat":"43.230935","theaterChainName":"Marcus Theaters","ticketType":"STANDARD"},{"id":"5898","tribuneTheaterId":"11320","providerTheaterId":"","name":"West Bend Cinema","address":"2014 Parkway Drive","city":"West Bend","state":"WI","zip":"53095","distance":11.519092132515,"lon":"-88.186179","lat":"43.394858","theaterChainName":"Independent Chains","ticketType":"STANDARD"},{"id":"951","tribuneTheaterId":"4837","providerTheaterId":"","name":"Marcus Menomonee Falls","address":"W180 N9393 Premier Lane","city":"Menomonee Falls","state":"WI","zip":"53051","distance":16.770098690998,"lon":"-88.13433","lat":"43.185844","theaterChainName":"Marcus Theaters","ticketType":"STANDARD"},{"id":"2303","tribuneTheaterId":"1510","providerTheaterId":"","name":"Fox-Bay Cinema Grill","address":"334 E. Silver Spring Dr.","city":"Whitefish Bay","state":"WI","zip":"53217","distance":19.005047463875,"lon":"-87.905628","lat":"43.118773","theaterChainName":"Independent Chains","ticketType":"STANDARD"},{"id":"2927","tribuneTheaterId":"491","providerTheaterId":"","name":"Rosebud Cinema Drafthouse","address":"6823 W. North Ave.","city":"Wauwatosa","state":"WI","zip":"53213","distance":22.946929769136,"lon":"-87.998294","lat":"43.060564","theaterChainName":"Independent Chains","ticketType":"STANDARD"},{"id":"1450","tribuneTheaterId":"2092","providerTheaterId":"","name":"Schubert's Hartford Theatre","address":"2941 Highway 83 S.","city":"Hartford","state":"WI","zip":"53027","distance":22.153801716169,"lon":"-88.378354","lat":"43.297377","theaterChainName":"Independent Chains","ticketType":"STANDARD"},{"id":"947","tribuneTheaterId":"218","providerTheaterId":"","name":"Times Cinema","address":"5906 W. Vliet St.","city":"Milwaukee","state":"WI","zip":"53208","distance":23.616926561612,"lon":"-87.986763","lat":"43.050186","theaterChainName":"Independent Chains","ticketType":"STANDARD"},{"id":"2479","tribuneTheaterId":"9116","providerTheaterId":"858","name":"AMC Mayfair 18","address":"2500 N. Mayfair Rd","city":"Wauwatosa","state":"WI","zip":"53226","distance":23.078395484032,"lon":"-88.0476","lat":"43.0639","theaterChainName":"AMC Theatres","ticketType":"STANDARD"}]