[{"id":"5898","tribuneTheaterId":"11320","providerTheaterId":"","name":"West Bend Cinema","address":"2014 Parkway Drive","city":"West Bend","state":"WI","zip":"53095","distance":3.4194981239087,"lon":"-88.186179","lat":"43.394858","theaterChainName":"Independent Chains","ticketType":"STANDARD"},{"id":"4148","tribuneTheaterId":"4838","providerTheaterId":"","name":"Saukville Cinemas","address":"350 South Riverside Drive","city":"Saukville","state":"WI","zip":"53080","distance":14.249557988963,"lon":"-87.92794","lat":"43.376512","theaterChainName":"Marcus Theaters","ticketType":"STANDARD"},{"id":"1450","tribuneTheaterId":"2092","providerTheaterId":"","name":"Schubert's Hartford Theatre","address":"2941 Highway 83 S.","city":"Hartford","state":"WI","zip":"53027","distance":13.63670300027,"lon":"-88.378354","lat":"43.297377","theaterChainName":"Independent Chains","ticketType":"STANDARD"},{"id":"951","tribuneTheaterId":"4837","providerTheaterId":"","name":"Marcus Menomonee Falls","address":"W180 N9393 Premier Lane","city":"Menomonee Falls","state":"WI","zip":"53051","distance":18.093253917475,"lon":"-88.13433","lat":"43.185844","theaterChainName":"Marcus Theaters","ticketType":"STANDARD"},{"id":"952","tribuneTheaterId":"4836","providerTheaterId":"","name":"Marcus North Shore Cinema","address":"11700 North Port Washington","city":"Mequon","state":"WI","zip":"53092","distance":20.147249058355,"lon":"-87.922297","lat":"43.230935","theaterChainName":"Marcus Theaters","ticketType":"STANDARD"}]