[{"id":"950","tribuneTheaterId":"4842","providerTheaterId":"","name":"Marcus Hillside Cinema","address":"2950 Hillside Drive","city":"Delafield","state":"WI","zip":"53018","distance":12.513934826855,"lon":"-88.369598","lat":"43.047276","theaterChainName":"Marcus Theaters","ticketType":"STANDARD"},{"id":"2974","tribuneTheaterId":"1720","providerTheaterId":"","name":"Theatres of Whitewater","address":"151 E. Pearson Ln.","city":"Whitewater","state":"WI","zip":"53190","distance":15.441356034718,"lon":"-88.765825","lat":"42.835174","theaterChainName":"Independent Chains","ticketType":"STANDARD"},{"id":"1957","tribuneTheaterId":"3640","providerTheaterId":"","name":"Plaza Theatre 4","address":"448 Milwaukee Ave.","city":"Burlington","state":"WI","zip":"53105","distance":16.905806125205,"lon":"-88.277933","lat":"42.679578","theaterChainName":"Independent Chains","ticketType":"STANDARD"},{"id":"1871","tribuneTheaterId":"3126","providerTheaterId":"","name":"Showboat of Lyons","address":"2565 Highway 120","city":"Lake Geneva","state":"WI","zip":"53147","distance":18.686029983875,"lon":"-88.414587","lat":"42.613249","theaterChainName":"Nova Cinemas","ticketType":"STANDARD"},{"id":"4357","tribuneTheaterId":"9390","providerTheaterId":"","name":"Majestic Cinema","address":"770 Springdale Road","city":"Brookfield","state":"WI","zip":"53005","distance":18.088125224596,"lon":"-88.183404","lat":"43.040086","theaterChainName":"Marcus Theaters","ticketType":"STANDARD"},{"id":"955","tribuneTheaterId":"4844","providerTheaterId":"","name":"Marcus Ridge Cinema","address":"5200 S. Mooreland Rd.","city":"New Berlin","state":"WI","zip":"53151","distance":18.867263353299,"lon":"-88.106468","lat":"42.94942","theaterChainName":"Marcus Theaters","ticketType":"STANDARD"},{"id":"2489","tribuneTheaterId":"6074","providerTheaterId":"6445","name":"AMC Star Johnson Creek 12","address":"420 Village Walk Ln.","city":"Johnson Creek","state":"WI","zip":"53038","distance":20.482845036811,"lon":"-88.765959","lat":"43.081342","theaterChainName":"AMC Theatres","ticketType":"STANDARD"},{"id":"3680","tribuneTheaterId":"6206","providerTheaterId":"","name":"Showtime Cinema - Franklin","address":"8910 S 102nd St.","city":"Franklin","state":"WI","zip":"53132","distance":21.577119624684,"lon":"-88.041226","lat":"42.883169","theaterChainName":"Marcus Theaters","ticketType":"STANDARD"},{"id":"2479","tribuneTheaterId":"9116","providerTheaterId":"858","name":"AMC Mayfair 18","address":"2500 N. Mayfair Rd","city":"Wauwatosa","state":"WI","zip":"53226","distance":24.703718925529,"lon":"-88.0476","lat":"43.0639","theaterChainName":"AMC Theatres","ticketType":"STANDARD"}]