[{"id":"2479","name":"AMC Mayfair 18","address":"2500 N. Mayfair Rd","city":"Wauwatosa","state":"WI","zip":"53226","distance":"24.7051944732666","lon":"-88.047600","lat":"43.063900","theaterChainName":"AMC Theatres","ticketType":"STANDARD"},{"id":"4357","name":"Majestic Cinema","address":"770 Springdale Road","city":"Brookfield","state":"WI","zip":"53005","distance":"18.08916473388672","lon":"-88.183403","lat":"43.040085","theaterChainName":"Marcus Theaters","ticketType":"STANDARD"},{"id":"955","name":"Marcus Ridge Cinema","address":"5200 S. Mooreland Rd.","city":"New Berlin","state":"WI","zip":"53151","distance":"18.86839485168457","lon":"-88.106468","lat":"42.949421","theaterChainName":"Marcus Theaters","ticketType":"STANDARD"},{"id":"3680","name":"Showtime Cinema - Franklin","address":"8910 S 102nd St.","city":"Franklin","state":"WI","zip":"53132","distance":"21.578269958496094","lon":"-88.041229","lat":"42.883167","theaterChainName":"Marcus Theaters","ticketType":"STANDARD"},{"id":"950","name":"Marcus Hillside Cinema","address":"2950 Hillside Drive","city":"Delafield","state":"WI","zip":"53018","distance":"12.514580726623535","lon":"-88.369598","lat":"43.047276","theaterChainName":"Marcus Theaters","ticketType":"STANDARD"},{"id":"1957","name":"Plaza Theatre 4","address":"448 Milwaukee Ave.","city":"Burlington","state":"WI","zip":"53105","distance":"16.907033920288086","lon":"-88.277931","lat":"42.679577","theaterChainName":"Independent Chains","ticketType":"STANDARD"},{"id":"1871","name":"Showboat of Lyons","address":"2565 Highway 120","city":"Lake Geneva","state":"WI","zip":"53147","distance":"18.687143325805664","lon":"-88.414589","lat":"42.613251","theaterChainName":"Nova Cinemas","ticketType":"STANDARD"},{"id":"2489","name":"AMC Star Johnson Creek 12","address":"420 Village Walk Ln.","city":"Johnson Creek","state":"WI","zip":"53038","distance":"20.484073638916016","lon":"-88.765961","lat":"43.081341","theaterChainName":"AMC Theatres","ticketType":"STANDARD"},{"id":"2974","name":"Theatres of Whitewater","address":"151 E. Pearson Ln.","city":"Whitewater","state":"WI","zip":"53190","distance":"15.442262649536133","lon":"-88.765823","lat":"42.835175","theaterChainName":"Independent Chains","ticketType":"STANDARD"}]