[{"id":"950","tribuneTheaterId":"4842","providerTheaterId":"","name":"Marcus Hillside Cinema","address":"2950 Hillside Drive","city":"Delafield","state":"WI","zip":"53018","distance":5.6820939244617,"lon":"-88.369598","lat":"43.047276","theaterChainName":"Marcus Theaters","ticketType":"STANDARD"},{"id":"4357","tribuneTheaterId":"9390","providerTheaterId":"","name":"Majestic Cinema","address":"770 Springdale Road","city":"Brookfield","state":"WI","zip":"53005","distance":14.716175054106,"lon":"-88.183404","lat":"43.040086","theaterChainName":"Marcus Theaters","ticketType":"STANDARD"},{"id":"2489","tribuneTheaterId":"6074","providerTheaterId":"6445","name":"AMC Star Johnson Creek 12","address":"420 Village Walk Ln.","city":"Johnson Creek","state":"WI","zip":"53038","distance":15.521830855737,"lon":"-88.765959","lat":"43.081342","theaterChainName":"AMC Theatres","ticketType":"STANDARD"},{"id":"1956","tribuneTheaterId":"1487","providerTheaterId":"","name":"Towne Cinema","address":"308 E. Main St.","city":"Watertown","state":"WI","zip":"53094","distance":17.698224537525,"lon":"-88.721536","lat":"43.194698","theaterChainName":"Independent Chains","ticketType":"STANDARD"},{"id":"1450","tribuneTheaterId":"2092","providerTheaterId":"","name":"Schubert's Hartford Theatre","address":"2941 Highway 83 S.","city":"Hartford","state":"WI","zip":"53027","distance":20.13403436729,"lon":"-88.378354","lat":"43.297377","theaterChainName":"Independent Chains","ticketType":"STANDARD"},{"id":"2974","tribuneTheaterId":"1720","providerTheaterId":"","name":"Theatres of Whitewater","address":"151 E. Pearson Ln.","city":"Whitewater","state":"WI","zip":"53190","distance":19.315523371448,"lon":"-88.765825","lat":"42.835174","theaterChainName":"Independent Chains","ticketType":"STANDARD"},{"id":"955","tribuneTheaterId":"4844","providerTheaterId":"","name":"Marcus Ridge Cinema","address":"5200 S. Mooreland Rd.","city":"New Berlin","state":"WI","zip":"53151","distance":19.040264183755,"lon":"-88.106468","lat":"42.94942","theaterChainName":"Marcus Theaters","ticketType":"STANDARD"},{"id":"951","tribuneTheaterId":"4837","providerTheaterId":"","name":"Marcus Menomonee Falls","address":"W180 N9393 Premier Lane","city":"Menomonee Falls","state":"WI","zip":"53051","distance":20.781631727865,"lon":"-88.13433","lat":"43.185844","theaterChainName":"Marcus Theaters","ticketType":"STANDARD"},{"id":"2479","tribuneTheaterId":"9116","providerTheaterId":"858","name":"AMC Mayfair 18","address":"2500 N. Mayfair Rd","city":"Wauwatosa","state":"WI","zip":"53226","distance":21.735245559773,"lon":"-88.0476","lat":"43.0639","theaterChainName":"AMC Theatres","ticketType":"STANDARD"},{"id":"3680","tribuneTheaterId":"6206","providerTheaterId":"","name":"Showtime Cinema - Franklin","address":"8910 S 102nd St.","city":"Franklin","state":"WI","zip":"53132","distance":23.620111387704,"lon":"-88.041226","lat":"42.883169","theaterChainName":"Marcus Theaters","ticketType":"STANDARD"},{"id":"2927","tribuneTheaterId":"491","providerTheaterId":"","name":"Rosebud Cinema Drafthouse","address":"6823 W. North Ave.","city":"Wauwatosa","state":"WI","zip":"53213","distance":24.166104025727,"lon":"-87.998294","lat":"43.060564","theaterChainName":"Independent Chains","ticketType":"STANDARD"},{"id":"947","tribuneTheaterId":"218","providerTheaterId":"","name":"Times Cinema","address":"5906 W. Vliet St.","city":"Milwaukee","state":"WI","zip":"53208","distance":24.662891937367,"lon":"-87.986763","lat":"43.050186","theaterChainName":"Independent Chains","ticketType":"STANDARD"}]