[{"id":"951","name":"Marcus Menomonee Falls","address":"W180 N9393 Premier Lane","city":"Menomonee Falls","state":"WI","zip":"53051","distance":"20.783090591430664","lon":"-88.134331","lat":"43.185844","theaterChainName":"Marcus Theaters","ticketType":"STANDARD"},{"id":"2927","name":"Rosebud Cinema Drafthouse","address":"6823 W. North Ave.","city":"Wauwatosa","state":"WI","zip":"53213","distance":"24.167892456054688","lon":"-87.998291","lat":"43.060562","theaterChainName":"Independent Chains","ticketType":"STANDARD"},{"id":"947","name":"Times Cinema","address":"5906 W. Vliet St.","city":"Milwaukee","state":"WI","zip":"53208","distance":"24.66457748413086","lon":"-87.986763","lat":"43.050186","theaterChainName":"Independent Chains","ticketType":"STANDARD"},{"id":"2479","name":"AMC Mayfair 18","address":"2500 N. Mayfair Rd","city":"Wauwatosa","state":"WI","zip":"53226","distance":"21.73676300048828","lon":"-88.047600","lat":"43.063900","theaterChainName":"AMC Theatres","ticketType":"STANDARD"},{"id":"1450","name":"Schubert's Hartford Theatre","address":"2941 Highway 83 S.","city":"Hartford","state":"WI","zip":"53027","distance":"20.135498046875","lon":"-88.378357","lat":"43.297379","theaterChainName":"Independent Chains","ticketType":"STANDARD"},{"id":"4357","name":"Majestic Cinema","address":"770 Springdale Road","city":"Brookfield","state":"WI","zip":"53005","distance":"14.717284202575684","lon":"-88.183403","lat":"43.040085","theaterChainName":"Marcus Theaters","ticketType":"STANDARD"},{"id":"955","name":"Marcus Ridge Cinema","address":"5200 S. Mooreland Rd.","city":"New Berlin","state":"WI","zip":"53151","distance":"19.041532516479492","lon":"-88.106468","lat":"42.949421","theaterChainName":"Marcus Theaters","ticketType":"STANDARD"},{"id":"3680","name":"Showtime Cinema - Franklin","address":"8910 S 102nd St.","city":"Franklin","state":"WI","zip":"53132","distance":"23.621557235717773","lon":"-88.041229","lat":"42.883167","theaterChainName":"Marcus Theaters","ticketType":"STANDARD"},{"id":"950","name":"Marcus Hillside Cinema","address":"2950 Hillside Drive","city":"Delafield","state":"WI","zip":"53018","distance":"5.682594299316406","lon":"-88.369598","lat":"43.047276","theaterChainName":"Marcus Theaters","ticketType":"STANDARD"},{"id":"1956","name":"Towne Cinema","address":"308 E. Main St.","city":"Watertown","state":"WI","zip":"53094","distance":"17.69927406311035","lon":"-88.721535","lat":"43.194698","theaterChainName":"Independent Chains","ticketType":"STANDARD"},{"id":"2489","name":"AMC Star Johnson Creek 12","address":"420 Village Walk Ln.","city":"Johnson Creek","state":"WI","zip":"53038","distance":"15.522747993469238","lon":"-88.765961","lat":"43.081341","theaterChainName":"AMC Theatres","ticketType":"STANDARD"},{"id":"2974","name":"Theatres of Whitewater","address":"151 E. Pearson Ln.","city":"Whitewater","state":"WI","zip":"53190","distance":"19.31644630432129","lon":"-88.765823","lat":"42.835175","theaterChainName":"Independent Chains","ticketType":"STANDARD"}]