[{"id":"1957","name":"Plaza Theatre 4","address":"448 Milwaukee Ave.","city":"Burlington","state":"WI","zip":"53105","distance":"17.532175064086914","lon":"-88.277931","lat":"42.679577","theaterChainName":"Independent Chains","ticketType":"STANDARD"},{"id":"1871","name":"Showboat of Lyons","address":"2565 Highway 120","city":"Lake Geneva","state":"WI","zip":"53147","distance":"9.21269416809082","lon":"-88.414589","lat":"42.613251","theaterChainName":"Nova Cinemas","ticketType":"STANDARD"},{"id":"2974","name":"Theatres of Whitewater","address":"151 E. Pearson Ln.","city":"Whitewater","state":"WI","zip":"53190","distance":"22.547746658325195","lon":"-88.765823","lat":"42.835175","theaterChainName":"Independent Chains","ticketType":"STANDARD"},{"id":"2506","name":"Wildwood Movies 16","address":"3100 Deerfield Dr.","city":"Janesville","state":"WI","zip":"53546","distance":"24.246383666992188","lon":"-88.979706","lat":"42.720551","theaterChainName":"Independent Chains","ticketType":"STANDARD"},{"id":"791","name":"CC Fox Lake Theatre","address":"115 Town Centre Lane","city":"Fox Lake","state":"IL","zip":"60020","distance":"22.304418563842773","lon":"-88.179153","lat":"42.395393","theaterChainName":"Classic Cinemas","ticketType":"STANDARD"},{"id":"798","name":"CC Woodstock Theatre","address":"209 Main St.","city":"Woodstock","state":"IL","zip":"60098","distance":"16.865400314331055","lon":"-88.447739","lat":"42.315647","theaterChainName":"Classic Cinemas","ticketType":"STANDARD"},{"id":"1631","name":"Wildwood Beloit Luxury 10","address":"2799 Cranston Rd.","city":"Beloit","state":"WI","zip":"53511","distance":"21.163925170898438","lon":"-88.983047","lat":"42.521671","theaterChainName":"Independent Chains","ticketType":"STANDARD"}]