[{"id":"3680","name":"Showtime Cinema - Franklin","address":"8910 S 102nd St.","city":"Franklin","state":"WI","zip":"53132","distance":"21.997636795043945","lon":"-88.041229","lat":"42.883167","theaterChainName":"Marcus Theaters","ticketType":"STANDARD"},{"id":"959","name":"Marcus Value Cinema Oak Creek","address":"6912 S. 27th St.","city":"Oak Creek","state":"WI","zip":"53154","distance":"22.534059524536133","lon":"-87.946434","lat":"42.919899","theaterChainName":"Marcus Theaters","ticketType":"STANDARD"},{"id":"958","name":"Marcus South Shore","address":"7261 South 13th Street","city":"Oak Creek","state":"WI","zip":"53154","distance":"21.934368133544922","lon":"-87.934380","lat":"42.913235","theaterChainName":"Marcus Theaters","ticketType":"STANDARD"},{"id":"4292","name":"Marcus Cinema at the Renaissance","address":"10411 Washington Ave","city":"Sturtevant","state":"WI","zip":"53177","distance":"8.828401565551758","lon":"-87.912582","lat":"42.717575","theaterChainName":"Marcus Theaters","ticketType":"STANDARD"},{"id":"1957","name":"Plaza Theatre 4","address":"448 Milwaukee Ave.","city":"Burlington","state":"WI","zip":"53105","distance":"23.345012664794922","lon":"-88.277931","lat":"42.679577","theaterChainName":"Independent Chains","ticketType":"STANDARD"},{"id":"791","name":"CC Fox Lake Theatre","address":"115 Town Centre Lane","city":"Fox Lake","state":"IL","zip":"60020","distance":"22.95060157775879","lon":"-88.179153","lat":"42.395393","theaterChainName":"Classic Cinemas","ticketType":"STANDARD"},{"id":"1488","name":"Regal Round Lake Beach Stadium 18","address":"550 East Rollins Road","city":"Round Lake Beach","state":"IL","zip":"60073","distance":"19.68110466003418","lon":"-88.068794","lat":"42.381371","theaterChainName":"Regal Cinemas","ticketType":"STANDARD"},{"id":"1376","name":"Tinseltown Kenosha","address":"7101 70th Court","city":"Kenosha","state":"WI","zip":"53142","distance":"3.98136568069458","lon":"-87.892159","lat":"42.570286","theaterChainName":"Cinemark","ticketType":"STANDARD"},{"id":"745","name":"Marcus Gurnee Cinema","address":"6144 Grand Ave.","city":"Gurnee","state":"IL","zip":"60031","distance":"16.204065322875977","lon":"-87.960365","lat":"42.391327","theaterChainName":"Marcus Theaters","ticketType":"STANDARD"},{"id":"2268","name":"Golden Age Cinemas The Liberty 1 & 2 Theaters","address":"708 N. Milwaukee Ave.","city":"Libertyville","state":"IL","zip":"60048","distance":"22.70920753479004","lon":"-87.954552","lat":"42.289680","theaterChainName":"Independent Chains","ticketType":"STANDARD"}]