[{"id":"1376","tribuneTheaterId":"4239","providerTheaterId":"","name":"Tinseltown Kenosha","address":"7101 70th Court","city":"Kenosha","state":"WI","zip":"53142","distance":3.9812493652373,"lon":"-87.892159","lat":"42.570284","theaterChainName":"Cinemark","ticketType":"STANDARD"},{"id":"4292","tribuneTheaterId":"4841","providerTheaterId":"","name":"Marcus Cinema at the Renaissance","address":"10411 Washington Ave","city":"Sturtevant","state":"WI","zip":"53177","distance":8.8279484359457,"lon":"-87.912582","lat":"42.717574","theaterChainName":"Marcus Theaters","ticketType":"STANDARD"},{"id":"745","tribuneTheaterId":"7291","providerTheaterId":"","name":"Marcus Gurnee Cinema","address":"6144 Grand Ave.","city":"Gurnee","state":"IL","zip":"60031","distance":16.202933562115,"lon":"-87.960362","lat":"42.391327","theaterChainName":"Marcus Theaters","ticketType":"STANDARD"},{"id":"1488","tribuneTheaterId":"5638","providerTheaterId":"","name":"Regal Round Lake Beach Stadium 18","address":"550 East Rollins Road","city":"Round Lake Beach","state":"IL","zip":"60073","distance":19.68001366746,"lon":"-88.068796","lat":"42.381369","theaterChainName":"Regal Cinemas","ticketType":"STANDARD"},{"id":"2268","tribuneTheaterId":"2727","providerTheaterId":"","name":"Golden Age Cinemas The Liberty 1 & 2 Theaters","address":"708 N. Milwaukee Ave.","city":"Libertyville","state":"IL","zip":"60048","distance":22.707732288749,"lon":"-87.95455","lat":"42.28968","theaterChainName":"Independent Chains","ticketType":"STANDARD"},{"id":"3680","tribuneTheaterId":"6206","providerTheaterId":"","name":"Showtime Cinema - Franklin","address":"8910 S 102nd St.","city":"Franklin","state":"WI","zip":"53132","distance":21.996467062406,"lon":"-88.041226","lat":"42.883169","theaterChainName":"Marcus Theaters","ticketType":"STANDARD"},{"id":"958","tribuneTheaterId":"4831","providerTheaterId":"","name":"Marcus South Shore","address":"7261 South 13th Street","city":"Oak Creek","state":"WI","zip":"53154","distance":21.933011052391,"lon":"-87.934377","lat":"42.913233","theaterChainName":"Marcus Theaters","ticketType":"STANDARD"},{"id":"1957","tribuneTheaterId":"3640","providerTheaterId":"","name":"Plaza Theatre 4","address":"448 Milwaukee Ave.","city":"Burlington","state":"WI","zip":"53105","distance":23.343828845412,"lon":"-88.277933","lat":"42.679578","theaterChainName":"Independent Chains","ticketType":"STANDARD"},{"id":"959","tribuneTheaterId":"4829","providerTheaterId":"","name":"Marcus Value Cinema Oak Creek","address":"6912 S. 27th St.","city":"Oak Creek","state":"WI","zip":"53154","distance":22.532907603934,"lon":"-87.946436","lat":"42.9199","theaterChainName":"Marcus Theaters","ticketType":"STANDARD"},{"id":"791","tribuneTheaterId":"6190","providerTheaterId":"","name":"CC Fox Lake Theatre","address":"115 Town Centre Lane","city":"Fox Lake","state":"IL","zip":"60020","distance":22.949120621835,"lon":"-88.179153","lat":"42.395395","theaterChainName":"Classic Cinemas","ticketType":"STANDARD"}]