[{"id":"1957","tribuneTheaterId":"3640","providerTheaterId":"","name":"Plaza Theatre 4","address":"448 Milwaukee Ave.","city":"Burlington","state":"WI","zip":"53105","distance":7.6105995149949,"lon":"-88.277933","lat":"42.679578","theaterChainName":"Independent Chains","ticketType":"STANDARD"},{"id":"1871","tribuneTheaterId":"3126","providerTheaterId":"","name":"Showboat of Lyons","address":"2565 Highway 120","city":"Lake Geneva","state":"WI","zip":"53147","distance":9.6341299057529,"lon":"-88.414587","lat":"42.613249","theaterChainName":"Nova Cinemas","ticketType":"STANDARD"},{"id":"791","tribuneTheaterId":"6190","providerTheaterId":"","name":"CC Fox Lake Theatre","address":"115 Town Centre Lane","city":"Fox Lake","state":"IL","zip":"60020","distance":12.67781098146,"lon":"-88.179153","lat":"42.395395","theaterChainName":"Classic Cinemas","ticketType":"STANDARD"},{"id":"1488","tribuneTheaterId":"5638","providerTheaterId":"","name":"Regal Round Lake Beach Stadium 18","address":"550 East Rollins Road","city":"Round Lake Beach","state":"IL","zip":"60073","distance":15.745631868259,"lon":"-88.068796","lat":"42.381369","theaterChainName":"Regal Cinemas","ticketType":"STANDARD"},{"id":"1376","tribuneTheaterId":"4239","providerTheaterId":"","name":"Tinseltown Kenosha","address":"7101 70th Court","city":"Kenosha","state":"WI","zip":"53142","distance":17.324828731513,"lon":"-87.892159","lat":"42.570284","theaterChainName":"Cinemark","ticketType":"STANDARD"},{"id":"745","tribuneTheaterId":"7291","providerTheaterId":"","name":"Marcus Gurnee Cinema","address":"6144 Grand Ave.","city":"Gurnee","state":"IL","zip":"60031","distance":18.782358797115,"lon":"-87.960362","lat":"42.391327","theaterChainName":"Marcus Theaters","ticketType":"STANDARD"},{"id":"4292","tribuneTheaterId":"4841","providerTheaterId":"","name":"Marcus Cinema at the Renaissance","address":"10411 Washington Ave","city":"Sturtevant","state":"WI","zip":"53177","distance":19.028884023667,"lon":"-87.912582","lat":"42.717574","theaterChainName":"Marcus Theaters","ticketType":"STANDARD"},{"id":"798","tribuneTheaterId":"4120","providerTheaterId":"","name":"CC Woodstock Theatre","address":"209 Main St.","city":"Woodstock","state":"IL","zip":"60098","distance":20.986653919673,"lon":"-88.447742","lat":"42.315648","theaterChainName":"Classic Cinemas","ticketType":"STANDARD"},{"id":"2268","tribuneTheaterId":"2727","providerTheaterId":"","name":"Golden Age Cinemas The Liberty 1 & 2 Theaters","address":"708 N. Milwaukee Ave.","city":"Libertyville","state":"IL","zip":"60048","distance":24.261024703573,"lon":"-87.95455","lat":"42.28968","theaterChainName":"Independent Chains","ticketType":"STANDARD"},{"id":"1850","tribuneTheaterId":"4647","providerTheaterId":"","name":"Regal Showplace 16","address":"5000 Northwest Highway","city":"Crystal Lake","state":"IL","zip":"60014","distance":24.261350912419,"lon":"-88.29482","lat":"42.22648","theaterChainName":"Regal Cinemas","ticketType":"STANDARD"},{"id":"3680","tribuneTheaterId":"6206","providerTheaterId":"","name":"Showtime Cinema - Franklin","address":"8910 S 102nd St.","city":"Franklin","state":"WI","zip":"53132","distance":23.42832065511,"lon":"-88.041226","lat":"42.883169","theaterChainName":"Marcus Theaters","ticketType":"STANDARD"}]