[{"id":"959","tribuneTheaterId":"4829","providerTheaterId":"","name":"Marcus Value Cinema Oak Creek","address":"6912 S. 27th St.","city":"Oak Creek","state":"WI","zip":"53154","distance":3.0657529450137,"lon":"-87.946436","lat":"42.9199","theaterChainName":"Marcus Theaters","ticketType":"STANDARD"},{"id":"958","tribuneTheaterId":"4831","providerTheaterId":"","name":"Marcus South Shore","address":"7261 South 13th Street","city":"Oak Creek","state":"WI","zip":"53154","distance":2.3081969763615,"lon":"-87.934377","lat":"42.913233","theaterChainName":"Marcus Theaters","ticketType":"STANDARD"},{"id":"2381","tribuneTheaterId":"4835","providerTheaterId":"","name":"Marcus Southgate Theatre 10","address":"3330 S. 30th Street","city":"Milwaukee","state":"WI","zip":"53215","distance":7.0858809031714,"lon":"-87.951629","lat":"42.985296","theaterChainName":"Marcus Theaters","ticketType":"STANDARD"},{"id":"5847","tribuneTheaterId":"11259","providerTheaterId":"","name":"Avalon Theater","address":"2473 S Kinnickinnic Ave","city":"Milwaukee","state":"WI","zip":"53207","distance":7.6334618452852,"lon":"-87.901687","lat":"42.999678","theaterChainName":"Independent Chains","ticketType":"STANDARD"},{"id":"3680","tribuneTheaterId":"6206","providerTheaterId":"","name":"Showtime Cinema - Franklin","address":"8910 S 102nd St.","city":"Franklin","state":"WI","zip":"53132","distance":7.0252675754848,"lon":"-88.041226","lat":"42.883169","theaterChainName":"Marcus Theaters","ticketType":"STANDARD"},{"id":"4292","tribuneTheaterId":"4841","providerTheaterId":"","name":"Marcus Cinema at the Renaissance","address":"10411 Washington Ave","city":"Sturtevant","state":"WI","zip":"53177","distance":11.86878369602,"lon":"-87.912582","lat":"42.717574","theaterChainName":"Marcus Theaters","ticketType":"STANDARD"},{"id":"955","tribuneTheaterId":"4844","providerTheaterId":"","name":"Marcus Ridge Cinema","address":"5200 S. Mooreland Rd.","city":"New Berlin","state":"WI","zip":"53151","distance":11.118151296596,"lon":"-88.106468","lat":"42.94942","theaterChainName":"Marcus Theaters","ticketType":"STANDARD"},{"id":"947","tribuneTheaterId":"218","providerTheaterId":"","name":"Times Cinema","address":"5906 W. Vliet St.","city":"Milwaukee","state":"WI","zip":"53208","distance":11.907319314783,"lon":"-87.986763","lat":"43.050186","theaterChainName":"Independent Chains","ticketType":"STANDARD"},{"id":"2927","tribuneTheaterId":"491","providerTheaterId":"","name":"Rosebud Cinema Drafthouse","address":"6823 W. North Ave.","city":"Wauwatosa","state":"WI","zip":"53213","distance":12.788316301895,"lon":"-87.998294","lat":"43.060564","theaterChainName":"Independent Chains","ticketType":"STANDARD"},{"id":"2479","tribuneTheaterId":"9116","providerTheaterId":"858","name":"AMC Mayfair 18","address":"2500 N. Mayfair Rd","city":"Wauwatosa","state":"WI","zip":"53226","distance":14.119218820968,"lon":"-88.0476","lat":"43.0639","theaterChainName":"AMC Theatres","ticketType":"STANDARD"},{"id":"2303","tribuneTheaterId":"1510","providerTheaterId":"","name":"Fox-Bay Cinema Grill","address":"334 E. Silver Spring Dr.","city":"Whitefish Bay","state":"WI","zip":"53217","distance":15.862646740208,"lon":"-87.905628","lat":"43.118773","theaterChainName":"Independent Chains","ticketType":"STANDARD"},{"id":"4357","tribuneTheaterId":"9390","providerTheaterId":"","name":"Majestic Cinema","address":"770 Springdale Road","city":"Brookfield","state":"WI","zip":"53005","distance":17.610058622365,"lon":"-88.183404","lat":"43.040086","theaterChainName":"Marcus Theaters","ticketType":"STANDARD"},{"id":"1376","tribuneTheaterId":"4239","providerTheaterId":"","name":"Tinseltown Kenosha","address":"7101 70th Court","city":"Kenosha","state":"WI","zip":"53142","distance":22.041453302895,"lon":"-87.892159","lat":"42.570284","theaterChainName":"Cinemark","ticketType":"STANDARD"},{"id":"1957","tribuneTheaterId":"3640","providerTheaterId":"","name":"Plaza Theatre 4","address":"448 Milwaukee Ave.","city":"Burlington","state":"WI","zip":"53105","distance":23.912683911595,"lon":"-88.277933","lat":"42.679578","theaterChainName":"Independent Chains","ticketType":"STANDARD"},{"id":"951","tribuneTheaterId":"4837","providerTheaterId":"","name":"Marcus Menomonee Falls","address":"W180 N9393 Premier Lane","city":"Menomonee Falls","state":"WI","zip":"53051","distance":23.599170563623,"lon":"-88.13433","lat":"43.185844","theaterChainName":"Marcus Theaters","ticketType":"STANDARD"},{"id":"952","tribuneTheaterId":"4836","providerTheaterId":"","name":"Marcus North Shore Cinema","address":"11700 North Port Washington","city":"Mequon","state":"WI","zip":"53092","distance":23.632315797231,"lon":"-87.922297","lat":"43.230935","theaterChainName":"Marcus Theaters","ticketType":"STANDARD"}]