[{"id":"3680","name":"Showtime Cinema - Franklin","address":"8910 S 102nd St.","city":"Franklin","state":"WI","zip":"53132","distance":"22.028980255126953","lon":"-88.041229","lat":"42.883167","theaterChainName":"Marcus Theaters","ticketType":"STANDARD"},{"id":"4292","name":"Marcus Cinema at the Renaissance","address":"10411 Washington Ave","city":"Sturtevant","state":"WI","zip":"53177","distance":"14.945732116699219","lon":"-87.912582","lat":"42.717575","theaterChainName":"Marcus Theaters","ticketType":"STANDARD"},{"id":"1957","name":"Plaza Theatre 4","address":"448 Milwaukee Ave.","city":"Burlington","state":"WI","zip":"53105","distance":"10.674976348876953","lon":"-88.277931","lat":"42.679577","theaterChainName":"Independent Chains","ticketType":"STANDARD"},{"id":"1871","name":"Showboat of Lyons","address":"2565 Highway 120","city":"Lake Geneva","state":"WI","zip":"53147","distance":"14.834362030029297","lon":"-88.414589","lat":"42.613251","theaterChainName":"Nova Cinemas","ticketType":"STANDARD"},{"id":"791","name":"CC Fox Lake Theatre","address":"115 Town Centre Lane","city":"Fox Lake","state":"IL","zip":"60020","distance":"12.396614074707031","lon":"-88.179153","lat":"42.395393","theaterChainName":"Classic Cinemas","ticketType":"STANDARD"},{"id":"1488","name":"Regal Round Lake Beach Stadium 18","address":"550 East Rollins Road","city":"Round Lake Beach","state":"IL","zip":"60073","distance":"13.447184562683105","lon":"-88.068794","lat":"42.381371","theaterChainName":"Regal Cinemas","ticketType":"STANDARD"},{"id":"1376","name":"Tinseltown Kenosha","address":"7101 70th Court","city":"Kenosha","state":"WI","zip":"53142","distance":"12.036859512329102","lon":"-87.892159","lat":"42.570286","theaterChainName":"Cinemark","ticketType":"STANDARD"},{"id":"798","name":"CC Woodstock Theatre","address":"209 Main St.","city":"Woodstock","state":"IL","zip":"60098","distance":"23.994115829467773","lon":"-88.447739","lat":"42.315647","theaterChainName":"Classic Cinemas","ticketType":"STANDARD"},{"id":"745","name":"Marcus Gurnee Cinema","address":"6144 Grand Ave.","city":"Gurnee","state":"IL","zip":"60031","distance":"15.084640502929688","lon":"-87.960365","lat":"42.391327","theaterChainName":"Marcus Theaters","ticketType":"STANDARD"},{"id":"2268","name":"Golden Age Cinemas The Liberty 1 & 2 Theaters","address":"708 N. Milwaukee Ave.","city":"Libertyville","state":"IL","zip":"60048","distance":"21.365182876586914","lon":"-87.954552","lat":"42.289680","theaterChainName":"Independent Chains","ticketType":"STANDARD"},{"id":"5700","name":"AMC Hawthorn 12","address":"675 Hawthorn Center","city":"Vernon Hills","state":"IL","zip":"60061","distance":"24.450340270996094","lon":"-87.945900","lat":"42.243801","theaterChainName":"AMC Theatres","ticketType":"STANDARD"},{"id":"1197","name":"AMC Showplace Vernon Hills 8","address":"555 N. Lakeview Parkway","city":"Vernon Hills","state":"IL","zip":"60061","distance":"24.88161277770996","lon":"-87.946854","lat":"42.236778","theaterChainName":"AMC Theatres","ticketType":"STANDARD"}]