[{"id":"951","name":"Marcus Menomonee Falls","address":"W180 N9393 Premier Lane","city":"Menomonee Falls","state":"WI","zip":"53051","distance":"17.368701934814453","lon":"-88.134331","lat":"43.185844","theaterChainName":"Marcus Theaters","ticketType":"STANDARD"},{"id":"2927","name":"Rosebud Cinema Drafthouse","address":"6823 W. North Ave.","city":"Wauwatosa","state":"WI","zip":"53213","distance":"19.543088912963867","lon":"-87.998291","lat":"43.060562","theaterChainName":"Independent Chains","ticketType":"STANDARD"},{"id":"947","name":"Times Cinema","address":"5906 W. Vliet St.","city":"Milwaukee","state":"WI","zip":"53208","distance":"20.00240135192871","lon":"-87.986763","lat":"43.050186","theaterChainName":"Independent Chains","ticketType":"STANDARD"},{"id":"2479","name":"AMC Mayfair 18","address":"2500 N. Mayfair Rd","city":"Wauwatosa","state":"WI","zip":"53226","distance":"17.150104522705078","lon":"-88.047600","lat":"43.063900","theaterChainName":"AMC Theatres","ticketType":"STANDARD"},{"id":"5847","name":"Avalon Theater","address":"2473 S Kinnickinnic Ave","city":"Milwaukee","state":"WI","zip":"53207","distance":"24.112268447875977","lon":"-87.901688","lat":"42.999680","theaterChainName":"Independent Chains","ticketType":"STANDARD"},{"id":"1450","name":"Schubert's Hartford Theatre","address":"2941 Highway 83 S.","city":"Hartford","state":"WI","zip":"53027","distance":"19.940052032470703","lon":"-88.378357","lat":"43.297379","theaterChainName":"Independent Chains","ticketType":"STANDARD"},{"id":"4357","name":"Majestic Cinema","address":"770 Springdale Road","city":"Brookfield","state":"WI","zip":"53005","distance":"10.099425315856934","lon":"-88.183403","lat":"43.040085","theaterChainName":"Marcus Theaters","ticketType":"STANDARD"},{"id":"955","name":"Marcus Ridge Cinema","address":"5200 S. Mooreland Rd.","city":"New Berlin","state":"WI","zip":"53151","distance":"14.360469818115234","lon":"-88.106468","lat":"42.949421","theaterChainName":"Marcus Theaters","ticketType":"STANDARD"},{"id":"2381","name":"Marcus Southgate Theatre 10","address":"3330 S. 30th Street","city":"Milwaukee","state":"WI","zip":"53215","distance":"21.643959045410156","lon":"-87.951630","lat":"42.985294","theaterChainName":"Marcus Theaters","ticketType":"STANDARD"},{"id":"3680","name":"Showtime Cinema - Franklin","address":"8910 S 102nd St.","city":"Franklin","state":"WI","zip":"53132","distance":"19.14965057373047","lon":"-88.041229","lat":"42.883167","theaterChainName":"Marcus Theaters","ticketType":"STANDARD"},{"id":"959","name":"Marcus Value Cinema Oak Creek","address":"6912 S. 27th St.","city":"Oak Creek","state":"WI","zip":"53154","distance":"22.703929901123047","lon":"-87.946434","lat":"42.919899","theaterChainName":"Marcus Theaters","ticketType":"STANDARD"},{"id":"958","name":"Marcus South Shore","address":"7261 South 13th Street","city":"Oak Creek","state":"WI","zip":"53154","distance":"23.418128967285156","lon":"-87.934380","lat":"42.913235","theaterChainName":"Marcus Theaters","ticketType":"STANDARD"},{"id":"950","name":"Marcus Hillside Cinema","address":"2950 Hillside Drive","city":"Delafield","state":"WI","zip":"53018","distance":"2.6979925632476807","lon":"-88.369598","lat":"43.047276","theaterChainName":"Marcus Theaters","ticketType":"STANDARD"},{"id":"1957","name":"Plaza Theatre 4","address":"448 Milwaukee Ave.","city":"Burlington","state":"WI","zip":"53105","distance":"23.314374923706055","lon":"-88.277931","lat":"42.679577","theaterChainName":"Independent Chains","ticketType":"STANDARD"},{"id":"1956","name":"Towne Cinema","address":"308 E. Main St.","city":"Watertown","state":"WI","zip":"53094","distance":"21.54433822631836","lon":"-88.721535","lat":"43.194698","theaterChainName":"Independent Chains","ticketType":"STANDARD"},{"id":"2489","name":"AMC Star Johnson Creek 12","address":"420 Village Walk Ln.","city":"Johnson Creek","state":"WI","zip":"53038","distance":"20.18787956237793","lon":"-88.765961","lat":"43.081341","theaterChainName":"AMC Theatres","ticketType":"STANDARD"},{"id":"2974","name":"Theatres of Whitewater","address":"151 E. Pearson Ln.","city":"Whitewater","state":"WI","zip":"53190","distance":"22.96996307373047","lon":"-88.765823","lat":"42.835175","theaterChainName":"Independent Chains","ticketType":"STANDARD"}]