[{"id":"1871","tribuneTheaterId":"3126","providerTheaterId":"","name":"Showboat of Lyons","address":"2565 Highway 120","city":"Lake Geneva","state":"WI","zip":"53147","distance":10.99269785726,"lon":"-88.414587","lat":"42.613249","theaterChainName":"Nova Cinemas","ticketType":"STANDARD"},{"id":"798","tribuneTheaterId":"4120","providerTheaterId":"","name":"CC Woodstock Theatre","address":"209 Main St.","city":"Woodstock","state":"IL","zip":"60098","distance":17.092570890394,"lon":"-88.447742","lat":"42.315648","theaterChainName":"Classic Cinemas","ticketType":"STANDARD"},{"id":"1957","tribuneTheaterId":"3640","providerTheaterId":"","name":"Plaza Theatre 4","address":"448 Milwaukee Ave.","city":"Burlington","state":"WI","zip":"53105","distance":19.301527140775,"lon":"-88.277933","lat":"42.679578","theaterChainName":"Independent Chains","ticketType":"STANDARD"},{"id":"1631","tribuneTheaterId":"2224","providerTheaterId":"","name":"Wildwood Beloit Luxury 10","address":"2799 Cranston Rd.","city":"Beloit","state":"WI","zip":"53511","distance":19.388510791184,"lon":"-88.983051","lat":"42.521673","theaterChainName":"Independent Chains","ticketType":"STANDARD"},{"id":"3988","tribuneTheaterId":"4956","providerTheaterId":"6832","name":"AMC Showplace Machesney Park 14","address":"1860 Anjali Way","city":"Machesney Park","state":"IL","zip":"61115","distance":23.420302070831,"lon":"-89.004594","lat":"42.37078","theaterChainName":"AMC Theatres","ticketType":"STANDARD"},{"id":"2506","tribuneTheaterId":"2232","providerTheaterId":"","name":"Wildwood Movies 16","address":"3100 Deerfield Dr.","city":"Janesville","state":"WI","zip":"53546","distance":23.058418017024,"lon":"-88.979709","lat":"42.720551","theaterChainName":"Independent Chains","ticketType":"STANDARD"},{"id":"2974","tribuneTheaterId":"1720","providerTheaterId":"","name":"Theatres of Whitewater","address":"151 E. Pearson Ln.","city":"Whitewater","state":"WI","zip":"53190","distance":22.333616056053,"lon":"-88.765825","lat":"42.835174","theaterChainName":"Independent Chains","ticketType":"STANDARD"},{"id":"791","tribuneTheaterId":"6190","providerTheaterId":"","name":"CC Fox Lake Theatre","address":"115 Town Centre Lane","city":"Fox Lake","state":"IL","zip":"60020","distance":23.644782558086,"lon":"-88.179153","lat":"42.395395","theaterChainName":"Classic Cinemas","ticketType":"STANDARD"}]