[{"id":"1871","tribuneTheaterId":"3126","providerTheaterId":"","name":"Showboat of Lyons","address":"2565 Highway 120","city":"Lake Geneva","state":"WI","zip":"53147","distance":7.7453241998968,"lon":"-88.414587","lat":"42.613249","theaterChainName":"Nova Cinemas","ticketType":"STANDARD"},{"id":"798","tribuneTheaterId":"4120","providerTheaterId":"","name":"CC Woodstock Theatre","address":"209 Main St.","city":"Woodstock","state":"IL","zip":"60098","distance":13.803704185058,"lon":"-88.447742","lat":"42.315648","theaterChainName":"Classic Cinemas","ticketType":"STANDARD"},{"id":"1957","tribuneTheaterId":"3640","providerTheaterId":"","name":"Plaza Theatre 4","address":"448 Milwaukee Ave.","city":"Burlington","state":"WI","zip":"53105","distance":15.546243715682,"lon":"-88.277933","lat":"42.679578","theaterChainName":"Independent Chains","ticketType":"STANDARD"},{"id":"791","tribuneTheaterId":"6190","providerTheaterId":"","name":"CC Fox Lake Theatre","address":"115 Town Centre Lane","city":"Fox Lake","state":"IL","zip":"60020","distance":17.56941646238,"lon":"-88.179153","lat":"42.395395","theaterChainName":"Classic Cinemas","ticketType":"STANDARD"},{"id":"1850","tribuneTheaterId":"4647","providerTheaterId":"","name":"Regal Showplace 16","address":"5000 Northwest Highway","city":"Crystal Lake","state":"IL","zip":"60014","distance":22.070389821021,"lon":"-88.29482","lat":"42.22648","theaterChainName":"Regal Cinemas","ticketType":"STANDARD"},{"id":"1488","tribuneTheaterId":"5638","providerTheaterId":"","name":"Regal Round Lake Beach Stadium 18","address":"550 East Rollins Road","city":"Round Lake Beach","state":"IL","zip":"60073","distance":23.070082507423,"lon":"-88.068796","lat":"42.381369","theaterChainName":"Regal Cinemas","ticketType":"STANDARD"},{"id":"1195","tribuneTheaterId":"5932","providerTheaterId":"6501","name":"AMC Lake In The Hills 12","address":"311 N. Randall Road","city":"Lake in the Hills","state":"IL","zip":"60156","distance":24.314578129749,"lon":"-88.334399","lat":"42.179585","theaterChainName":"AMC Theatres","ticketType":"STANDARD"}]