[{"id":"4148","name":"Saukville Cinemas","address":"350 South Riverside Drive","city":"Saukville","state":"WI","zip":"53080","distance":"22.37074851989746","lon":"-87.927940","lat":"43.376511","theaterChainName":"Marcus Theaters","ticketType":"STANDARD"},{"id":"952","name":"Marcus North Shore Cinema","address":"11700 North Port Washington","city":"Mequon","state":"WI","zip":"53092","distance":"12.326152801513672","lon":"-87.922295","lat":"43.230934","theaterChainName":"Marcus Theaters","ticketType":"STANDARD"},{"id":"2303","name":"Fox-Bay Cinema Grill","address":"334 E. Silver Spring Dr.","city":"Whitefish Bay","state":"WI","zip":"53217","distance":"4.7984442710876465","lon":"-87.905624","lat":"43.118774","theaterChainName":"Independent Chains","ticketType":"STANDARD"},{"id":"951","name":"Marcus Menomonee Falls","address":"W180 N9393 Premier Lane","city":"Menomonee Falls","state":"WI","zip":"53051","distance":"13.611760139465332","lon":"-88.134331","lat":"43.185844","theaterChainName":"Marcus Theaters","ticketType":"STANDARD"},{"id":"2927","name":"Rosebud Cinema Drafthouse","address":"6823 W. North Ave.","city":"Wauwatosa","state":"WI","zip":"53213","distance":"3.2250804901123047","lon":"-87.998291","lat":"43.060562","theaterChainName":"Independent Chains","ticketType":"STANDARD"},{"id":"947","name":"Times Cinema","address":"5906 W. Vliet St.","city":"Milwaukee","state":"WI","zip":"53208","distance":"2.6046183109283447","lon":"-87.986763","lat":"43.050186","theaterChainName":"Independent Chains","ticketType":"STANDARD"},{"id":"2479","name":"AMC Mayfair 18","address":"2500 N. Mayfair Rd","city":"Wauwatosa","state":"WI","zip":"53226","distance":"5.721165180206299","lon":"-88.047600","lat":"43.063900","theaterChainName":"AMC Theatres","ticketType":"STANDARD"},{"id":"5847","name":"Avalon Theater","address":"2473 S Kinnickinnic Ave","city":"Milwaukee","state":"WI","zip":"53207","distance":"4.044175624847412","lon":"-87.901688","lat":"42.999680","theaterChainName":"Independent Chains","ticketType":"STANDARD"},{"id":"4357","name":"Majestic Cinema","address":"770 Springdale Road","city":"Brookfield","state":"WI","zip":"53005","distance":"12.558971405029297","lon":"-88.183403","lat":"43.040085","theaterChainName":"Marcus Theaters","ticketType":"STANDARD"},{"id":"955","name":"Marcus Ridge Cinema","address":"5200 S. Mooreland Rd.","city":"New Berlin","state":"WI","zip":"53151","distance":"11.217911720275879","lon":"-88.106468","lat":"42.949421","theaterChainName":"Marcus Theaters","ticketType":"STANDARD"},{"id":"2381","name":"Marcus Southgate Theatre 10","address":"3330 S. 30th Street","city":"Milwaukee","state":"WI","zip":"53215","distance":"4.736790657043457","lon":"-87.951630","lat":"42.985294","theaterChainName":"Marcus Theaters","ticketType":"STANDARD"},{"id":"3680","name":"Showtime Cinema - Franklin","address":"8910 S 102nd St.","city":"Franklin","state":"WI","zip":"53132","distance":"12.886801719665527","lon":"-88.041229","lat":"42.883167","theaterChainName":"Marcus Theaters","ticketType":"STANDARD"},{"id":"959","name":"Marcus Value Cinema Oak Creek","address":"6912 S. 27th St.","city":"Oak Creek","state":"WI","zip":"53154","distance":"9.200305938720703","lon":"-87.946434","lat":"42.919899","theaterChainName":"Marcus Theaters","ticketType":"STANDARD"},{"id":"958","name":"Marcus South Shore","address":"7261 South 13th Street","city":"Oak Creek","state":"WI","zip":"53154","distance":"9.643683433532715","lon":"-87.934380","lat":"42.913235","theaterChainName":"Marcus Theaters","ticketType":"STANDARD"},{"id":"950","name":"Marcus Hillside Cinema","address":"2950 Hillside Drive","city":"Delafield","state":"WI","zip":"53018","distance":"21.93244743347168","lon":"-88.369598","lat":"43.047276","theaterChainName":"Marcus Theaters","ticketType":"STANDARD"},{"id":"4292","name":"Marcus Cinema at the Renaissance","address":"10411 Washington Ave","city":"Sturtevant","state":"WI","zip":"53177","distance":"23.19172477722168","lon":"-87.912582","lat":"42.717575","theaterChainName":"Marcus Theaters","ticketType":"STANDARD"}]