[{"id":"5847","name":"Avalon Theater","address":"2473 S Kinnickinnic Ave","city":"Milwaukee","state":"WI","zip":"53207","distance":"22.025726318359375","lon":"-87.901688","lat":"42.999680","theaterChainName":"Independent Chains","ticketType":"STANDARD"},{"id":"2381","name":"Marcus Southgate Theatre 10","address":"3330 S. 30th Street","city":"Milwaukee","state":"WI","zip":"53215","distance":"22.648584365844727","lon":"-87.951630","lat":"42.985294","theaterChainName":"Marcus Theaters","ticketType":"STANDARD"},{"id":"3680","name":"Showtime Cinema - Franklin","address":"8910 S 102nd St.","city":"Franklin","state":"WI","zip":"53132","distance":"21.42311668395996","lon":"-88.041229","lat":"42.883167","theaterChainName":"Marcus Theaters","ticketType":"STANDARD"},{"id":"959","name":"Marcus Value Cinema Oak Creek","address":"6912 S. 27th St.","city":"Oak Creek","state":"WI","zip":"53154","distance":"19.10831069946289","lon":"-87.946434","lat":"42.919899","theaterChainName":"Marcus Theaters","ticketType":"STANDARD"},{"id":"958","name":"Marcus South Shore","address":"7261 South 13th Street","city":"Oak Creek","state":"WI","zip":"53154","distance":"18.350013732910156","lon":"-87.934380","lat":"42.913235","theaterChainName":"Marcus Theaters","ticketType":"STANDARD"},{"id":"4292","name":"Marcus Cinema at the Renaissance","address":"10411 Washington Ave","city":"Sturtevant","state":"WI","zip":"53177","distance":"12.02778434753418","lon":"-87.912582","lat":"42.717575","theaterChainName":"Marcus Theaters","ticketType":"STANDARD"},{"id":"1376","name":"Tinseltown Kenosha","address":"7101 70th Court","city":"Kenosha","state":"WI","zip":"53142","distance":"15.43504810333252","lon":"-87.892159","lat":"42.570286","theaterChainName":"Cinemark","ticketType":"STANDARD"}]