[{"id":"2943","tribuneTheaterId":"495","providerTheaterId":"","name":"Dodge Theatre","address":"205 N. Iowa St.","city":"Dodgeville","state":"WI","zip":"53533","distance":15.252500461999,"lon":"-90.130281","lat":"42.961281","theaterChainName":"Independent Chains","ticketType":"STANDARD"},{"id":"1482","tribuneTheaterId":"5797","providerTheaterId":"","name":"Marcus Point Ultra Screen Cinemas","address":"7825 Big Sky Drive","city":"Madison","state":"WI","zip":"53719","distance":16.317997860079,"lon":"-89.519563","lat":"43.057726","theaterChainName":"Marcus Theaters","ticketType":"STANDARD"},{"id":"2932","tribuneTheaterId":"3927","providerTheaterId":"6284","name":"AMC Star Fitchburg 18","address":"6091 McKee Rd.","city":"Fitchburg","state":"WI","zip":"53719","distance":18.612017491852,"lon":"-89.466358","lat":"43.014753","theaterChainName":"AMC Theatres","ticketType":"STANDARD"},{"id":"1958","tribuneTheaterId":"1488","providerTheaterId":"","name":"Bonham Theatre & Video","address":"564 Water St.","city":"Prairie du Sac","state":"WI","zip":"53578","distance":20.606873563088,"lon":"-89.721281","lat":"43.29158","theaterChainName":"Independent Chains","ticketType":"STANDARD"}]