[{"id":"1631","tribuneTheaterId":"2224","providerTheaterId":"","name":"Wildwood Beloit Luxury 10","address":"2799 Cranston Rd.","city":"Beloit","state":"WI","zip":"53511","distance":5.9354580345569,"lon":"-88.983051","lat":"42.521673","theaterChainName":"Independent Chains","ticketType":"STANDARD"},{"id":"2506","tribuneTheaterId":"2232","providerTheaterId":"","name":"Wildwood Movies 16","address":"3100 Deerfield Dr.","city":"Janesville","state":"WI","zip":"53546","distance":12.214451036312,"lon":"-88.979709","lat":"42.720551","theaterChainName":"Independent Chains","ticketType":"STANDARD"},{"id":"3988","tribuneTheaterId":"4956","providerTheaterId":"6832","name":"AMC Showplace Machesney Park 14","address":"1860 Anjali Way","city":"Machesney Park","state":"IL","zip":"61115","distance":13.848201771472,"lon":"-89.004594","lat":"42.37078","theaterChainName":"AMC Theatres","ticketType":"STANDARD"},{"id":"1510","tribuneTheaterId":"5937","providerTheaterId":"6831","name":"AMC Showplace Rockford 16","address":"8301 E. State St.","city":"Rockford","state":"IL","zip":"61108","distance":21.225138920405,"lon":"-88.953799","lat":"42.270721","theaterChainName":"AMC Theatres","ticketType":"STANDARD"},{"id":"2974","tribuneTheaterId":"1720","providerTheaterId":"","name":"Theatres of Whitewater","address":"151 E. Pearson Ln.","city":"Whitewater","state":"WI","zip":"53190","distance":24.911255456992,"lon":"-88.765825","lat":"42.835174","theaterChainName":"Independent Chains","ticketType":"STANDARD"}]