[{"id":"2974","name":"Theatres of Whitewater","address":"151 E. Pearson Ln.","city":"Whitewater","state":"WI","zip":"53190","distance":"24.91282081604004","lon":"-88.765823","lat":"42.835175","theaterChainName":"Independent Chains","ticketType":"STANDARD"},{"id":"2506","name":"Wildwood Movies 16","address":"3100 Deerfield Dr.","city":"Janesville","state":"WI","zip":"53546","distance":"12.215201377868652","lon":"-88.979706","lat":"42.720551","theaterChainName":"Independent Chains","ticketType":"STANDARD"},{"id":"1631","name":"Wildwood Beloit Luxury 10","address":"2799 Cranston Rd.","city":"Beloit","state":"WI","zip":"53511","distance":"5.9359822273254395","lon":"-88.983047","lat":"42.521671","theaterChainName":"Independent Chains","ticketType":"STANDARD"},{"id":"3988","name":"AMC Showplace Machesney Park 14","address":"1860 Anjali Way","city":"Machesney Park","state":"IL","zip":"61115","distance":"13.849010467529297","lon":"-89.004593","lat":"42.370781","theaterChainName":"AMC Theatres","ticketType":"STANDARD"},{"id":"1510","name":"AMC Showplace Rockford 16","address":"8301 E. State St.","city":"Rockford","state":"IL","zip":"61108","distance":"21.226463317871094","lon":"-88.953796","lat":"42.270721","theaterChainName":"AMC Theatres","ticketType":"STANDARD"}]