[{"id":"5089","tribuneTheaterId":"10482","providerTheaterId":"","name":"Stoughton Cinema Cafe","address":"124 W. Main St.","city":"Stoughton","state":"WI","zip":"53589","distance":11.355020950065,"lon":"-89.220774","lat":"42.916908","theaterChainName":"Independent Chains","ticketType":"STANDARD"},{"id":"2489","tribuneTheaterId":"6074","providerTheaterId":"6445","name":"AMC Star Johnson Creek 12","address":"420 Village Walk Ln.","city":"Johnson Creek","state":"WI","zip":"53038","distance":14.284227201599,"lon":"-88.765959","lat":"43.081342","theaterChainName":"AMC Theatres","ticketType":"STANDARD"},{"id":"1468","tribuneTheaterId":"5795","providerTheaterId":"","name":"Marcus Eastgate Cinemas","address":"5202 High Crossing Blvd","city":"Madison","state":"WI","zip":"53718","distance":16.96008267403,"lon":"-89.292519","lat":"43.13628","theaterChainName":"Marcus Theaters","ticketType":"STANDARD"},{"id":"5714","tribuneTheaterId":"11156","providerTheaterId":"","name":"Marcus Palace Cinema - Sun Prairie","address":"2830 Hoepker Road","city":"Sun Prairie","state":"WI","zip":"53590","distance":17.550458141135,"lon":"-89.271","lat":"43.1683","theaterChainName":"Marcus Theaters","ticketType":"STANDARD"},{"id":"2974","tribuneTheaterId":"1720","providerTheaterId":"","name":"Theatres of Whitewater","address":"151 E. Pearson Ln.","city":"Whitewater","state":"WI","zip":"53190","distance":16.843823504927,"lon":"-88.765825","lat":"42.835174","theaterChainName":"Independent Chains","ticketType":"STANDARD"},{"id":"2506","tribuneTheaterId":"2232","providerTheaterId":"","name":"Wildwood Movies 16","address":"3100 Deerfield Dr.","city":"Janesville","state":"WI","zip":"53546","distance":18.857255895835,"lon":"-88.979709","lat":"42.720551","theaterChainName":"Independent Chains","ticketType":"STANDARD"},{"id":"1956","tribuneTheaterId":"1487","providerTheaterId":"","name":"Towne Cinema","address":"308 E. Main St.","city":"Watertown","state":"WI","zip":"53094","distance":20.607533504773,"lon":"-88.721536","lat":"43.194698","theaterChainName":"Independent Chains","ticketType":"STANDARD"},{"id":"2932","tribuneTheaterId":"3927","providerTheaterId":"6284","name":"AMC Star Fitchburg 18","address":"6091 McKee Rd.","city":"Fitchburg","state":"WI","zip":"53719","distance":22.564297466321,"lon":"-89.466358","lat":"43.014753","theaterChainName":"AMC Theatres","ticketType":"STANDARD"}]