[{"id":"2974","name":"Theatres of Whitewater","address":"151 E. Pearson Ln.","city":"Whitewater","state":"WI","zip":"53190","distance":"24.40322494506836","lon":"-88.765823","lat":"42.835175","theaterChainName":"Independent Chains","ticketType":"STANDARD"},{"id":"2506","name":"Wildwood Movies 16","address":"3100 Deerfield Dr.","city":"Janesville","state":"WI","zip":"53546","distance":"10.977851867675781","lon":"-88.979706","lat":"42.720551","theaterChainName":"Independent Chains","ticketType":"STANDARD"},{"id":"5089","name":"Stoughton Cinema Cafe","address":"124 W. Main St.","city":"Stoughton","state":"WI","zip":"53589","distance":"19.91046905517578","lon":"-89.220772","lat":"42.916908","theaterChainName":"Independent Chains","ticketType":"STANDARD"},{"id":"1631","name":"Wildwood Beloit Luxury 10","address":"2799 Cranston Rd.","city":"Beloit","state":"WI","zip":"53511","distance":"11.787755012512207","lon":"-88.983047","lat":"42.521671","theaterChainName":"Independent Chains","ticketType":"STANDARD"},{"id":"3988","name":"AMC Showplace Machesney Park 14","address":"1860 Anjali Way","city":"Machesney Park","state":"IL","zip":"61115","distance":"19.716354370117188","lon":"-89.004593","lat":"42.370781","theaterChainName":"AMC Theatres","ticketType":"STANDARD"},{"id":"2110","name":"Goetz Theatres 3","address":"1704 11th St.","city":"Monroe","state":"WI","zip":"53566","distance":"24.44084930419922","lon":"-89.638176","lat":"42.601032","theaterChainName":"Independent Chains","ticketType":"STANDARD"}]