[{"id":"2943","tribuneTheaterId":"495","providerTheaterId":"","name":"Dodge Theatre","address":"205 N. Iowa St.","city":"Dodgeville","state":"WI","zip":"53533","distance":12.431278689354,"lon":"-90.130281","lat":"42.961281","theaterChainName":"Independent Chains","ticketType":"STANDARD"},{"id":"2110","tribuneTheaterId":"1505","providerTheaterId":"","name":"Goetz Theatres 3","address":"1704 11th St.","city":"Monroe","state":"WI","zip":"53566","distance":23.64008598576,"lon":"-89.638173","lat":"42.601034","theaterChainName":"Independent Chains","ticketType":"STANDARD"},{"id":"1482","tribuneTheaterId":"5797","providerTheaterId":"","name":"Marcus Point Ultra Screen Cinemas","address":"7825 Big Sky Drive","city":"Madison","state":"WI","zip":"53719","distance":23.475045859201,"lon":"-89.519563","lat":"43.057726","theaterChainName":"Marcus Theaters","ticketType":"STANDARD"},{"id":"2932","tribuneTheaterId":"3927","providerTheaterId":"6284","name":"AMC Star Fitchburg 18","address":"6091 McKee Rd.","city":"Fitchburg","state":"WI","zip":"53719","distance":24.504532641129,"lon":"-89.466358","lat":"43.014753","theaterChainName":"AMC Theatres","ticketType":"STANDARD"}]