[{"id":"1958","tribuneTheaterId":"1488","providerTheaterId":"","name":"Bonham Theatre & Video","address":"564 Water St.","city":"Prairie du Sac","state":"WI","zip":"53578","distance":7.8806470680316,"lon":"-89.721281","lat":"43.29158","theaterChainName":"Independent Chains","ticketType":"STANDARD"},{"id":"2734","tribuneTheaterId":"7183","providerTheaterId":"","name":"Portage Theatre","address":"322 W. Wisconsin St.","city":"Portage","state":"WI","zip":"53901","distance":13.634247404484,"lon":"-89.462679","lat":"43.539715","theaterChainName":"Independent Chains","ticketType":"STANDARD"},{"id":"3012","tribuneTheaterId":"2363","providerTheaterId":"6496","name":"AMC Desert Star 15","address":"1301 Wisconsin Dells Pkwy. S.","city":"Lake Delton","state":"WI","zip":"53940","distance":14.750483393605,"lon":"-89.775445","lat":"43.572014","theaterChainName":"AMC Theatres","ticketType":"STANDARD"},{"id":"4987","tribuneTheaterId":"10354","providerTheaterId":"","name":"Star Cinema Reedsburg","address":"115 N Webb Ave","city":"Reedsburg","state":"WI","zip":"53959","distance":21.531933441268,"lon":"-90.010501","lat":"43.532994","theaterChainName":"Independent Chains","ticketType":"STANDARD"},{"id":"1482","tribuneTheaterId":"5797","providerTheaterId":"","name":"Marcus Point Ultra Screen Cinemas","address":"7825 Big Sky Drive","city":"Madison","state":"WI","zip":"53719","distance":23.347482698609,"lon":"-89.519563","lat":"43.057726","theaterChainName":"Marcus Theaters","ticketType":"STANDARD"},{"id":"1468","tribuneTheaterId":"5795","providerTheaterId":"","name":"Marcus Eastgate Cinemas","address":"5202 High Crossing Blvd","city":"Madison","state":"WI","zip":"53718","distance":24.26521909417,"lon":"-89.292519","lat":"43.13628","theaterChainName":"Marcus Theaters","ticketType":"STANDARD"},{"id":"5714","tribuneTheaterId":"11156","providerTheaterId":"","name":"Marcus Palace Cinema - Sun Prairie","address":"2830 Hoepker Road","city":"Sun Prairie","state":"WI","zip":"53590","distance":23.569594888765,"lon":"-89.271","lat":"43.1683","theaterChainName":"Marcus Theaters","ticketType":"STANDARD"}]