[{"id":"1468","name":"Marcus Eastgate Cinemas","address":"5202 High Crossing Blvd","city":"Madison","state":"WI","zip":"53718","distance":"24.484760284423828","lon":"-89.292519","lat":"43.136280","theaterChainName":"Marcus Theaters","ticketType":"STANDARD"},{"id":"2932","name":"AMC Star Fitchburg 18","address":"6091 McKee Rd.","city":"Fitchburg","state":"WI","zip":"53719","distance":"13.925459861755371","lon":"-89.466354","lat":"43.014751","theaterChainName":"AMC Theatres","ticketType":"STANDARD"},{"id":"1482","name":"Marcus Point Ultra Screen Cinemas","address":"7825 Big Sky Drive","city":"Madison","state":"WI","zip":"53719","distance":"11.848379135131836","lon":"-89.519562","lat":"43.057728","theaterChainName":"Marcus Theaters","ticketType":"STANDARD"},{"id":"2943","name":"Dodge Theatre","address":"205 N. Iowa St.","city":"Dodgeville","state":"WI","zip":"53533","distance":"19.858030319213867","lon":"-90.130280","lat":"42.961281","theaterChainName":"Independent Chains","ticketType":"STANDARD"},{"id":"1958","name":"Bonham Theatre & Video","address":"564 Water St.","city":"Prairie du Sac","state":"WI","zip":"53578","distance":"20.035057067871094","lon":"-89.721283","lat":"43.291580","theaterChainName":"Independent Chains","ticketType":"STANDARD"}]