[{"id":"5089","name":"Stoughton Cinema Cafe","address":"124 W. Main St.","city":"Stoughton","state":"WI","zip":"53589","distance":"8.455734252929688","lon":"-89.220772","lat":"42.916908","theaterChainName":"Independent Chains","ticketType":"STANDARD"},{"id":"5714","name":"Marcus Palace Cinema - Sun Prairie","address":"2830 Hoepker Road","city":"Sun Prairie","state":"WI","zip":"53590","distance":"17.509244918823242","lon":"-89.271004","lat":"43.168301","theaterChainName":"Marcus Theaters","ticketType":"STANDARD"},{"id":"1468","name":"Marcus Eastgate Cinemas","address":"5202 High Crossing Blvd","city":"Madison","state":"WI","zip":"53718","distance":"15.06381893157959","lon":"-89.292519","lat":"43.136280","theaterChainName":"Marcus Theaters","ticketType":"STANDARD"},{"id":"2932","name":"AMC Star Fitchburg 18","address":"6091 McKee Rd.","city":"Fitchburg","state":"WI","zip":"53719","distance":"7.127061367034912","lon":"-89.466354","lat":"43.014751","theaterChainName":"AMC Theatres","ticketType":"STANDARD"},{"id":"1482","name":"Marcus Point Ultra Screen Cinemas","address":"7825 Big Sky Drive","city":"Madison","state":"WI","zip":"53719","distance":"11.108009338378906","lon":"-89.519562","lat":"43.057728","theaterChainName":"Marcus Theaters","ticketType":"STANDARD"}]