[{"id":"2110","tribuneTheaterId":"1505","providerTheaterId":"","name":"Goetz Theatres 3","address":"1704 11th St.","city":"Monroe","state":"WI","zip":"53566","distance":14.737924012793,"lon":"-89.638173","lat":"42.601034","theaterChainName":"Independent Chains","ticketType":"STANDARD"},{"id":"2932","tribuneTheaterId":"3927","providerTheaterId":"6284","name":"AMC Star Fitchburg 18","address":"6091 McKee Rd.","city":"Fitchburg","state":"WI","zip":"53719","distance":16.503055714734,"lon":"-89.466358","lat":"43.014753","theaterChainName":"AMC Theatres","ticketType":"STANDARD"},{"id":"1482","tribuneTheaterId":"5797","providerTheaterId":"","name":"Marcus Point Ultra Screen Cinemas","address":"7825 Big Sky Drive","city":"Madison","state":"WI","zip":"53719","distance":17.953068559207,"lon":"-89.519563","lat":"43.057726","theaterChainName":"Marcus Theaters","ticketType":"STANDARD"},{"id":"5089","tribuneTheaterId":"10482","providerTheaterId":"","name":"Stoughton Cinema Cafe","address":"124 W. Main St.","city":"Stoughton","state":"WI","zip":"53589","distance":22.560663577252,"lon":"-89.220774","lat":"42.916908","theaterChainName":"Independent Chains","ticketType":"STANDARD"}]