[{"id":"2932","tribuneTheaterId":"3927","providerTheaterId":"6284","name":"AMC Star Fitchburg 18","address":"6091 McKee Rd.","city":"Fitchburg","state":"WI","zip":"53719","distance":7.1268749299193,"lon":"-89.466358","lat":"43.014753","theaterChainName":"AMC Theatres","ticketType":"STANDARD"},{"id":"5089","tribuneTheaterId":"10482","providerTheaterId":"","name":"Stoughton Cinema Cafe","address":"124 W. Main St.","city":"Stoughton","state":"WI","zip":"53589","distance":8.4550442740002,"lon":"-89.220774","lat":"42.916908","theaterChainName":"Independent Chains","ticketType":"STANDARD"},{"id":"1482","tribuneTheaterId":"5797","providerTheaterId":"","name":"Marcus Point Ultra Screen Cinemas","address":"7825 Big Sky Drive","city":"Madison","state":"WI","zip":"53719","distance":11.107322335427,"lon":"-89.519563","lat":"43.057726","theaterChainName":"Marcus Theaters","ticketType":"STANDARD"},{"id":"1468","tribuneTheaterId":"5795","providerTheaterId":"","name":"Marcus Eastgate Cinemas","address":"5202 High Crossing Blvd","city":"Madison","state":"WI","zip":"53718","distance":15.062896705729,"lon":"-89.292519","lat":"43.13628","theaterChainName":"Marcus Theaters","ticketType":"STANDARD"},{"id":"5714","tribuneTheaterId":"11156","providerTheaterId":"","name":"Marcus Palace Cinema - Sun Prairie","address":"2830 Hoepker Road","city":"Sun Prairie","state":"WI","zip":"53590","distance":17.508202816563,"lon":"-89.271","lat":"43.1683","theaterChainName":"Marcus Theaters","ticketType":"STANDARD"}]