[{"id":"5089","tribuneTheaterId":"10482","providerTheaterId":"","name":"Stoughton Cinema Cafe","address":"124 W. Main St.","city":"Stoughton","state":"WI","zip":"53589","distance":0.85127026486174,"lon":"-89.220774","lat":"42.916908","theaterChainName":"Independent Chains","ticketType":"STANDARD"},{"id":"2932","tribuneTheaterId":"3927","providerTheaterId":"6284","name":"AMC Star Fitchburg 18","address":"6091 McKee Rd.","city":"Fitchburg","state":"WI","zip":"53719","distance":13.609741070717,"lon":"-89.466358","lat":"43.014753","theaterChainName":"AMC Theatres","ticketType":"STANDARD"},{"id":"1468","tribuneTheaterId":"5795","providerTheaterId":"","name":"Marcus Eastgate Cinemas","address":"5202 High Crossing Blvd","city":"Madison","state":"WI","zip":"53718","distance":14.733811894549,"lon":"-89.292519","lat":"43.13628","theaterChainName":"Marcus Theaters","ticketType":"STANDARD"},{"id":"5714","tribuneTheaterId":"11156","providerTheaterId":"","name":"Marcus Palace Cinema - Sun Prairie","address":"2830 Hoepker Road","city":"Sun Prairie","state":"WI","zip":"53590","distance":16.703462575176,"lon":"-89.271","lat":"43.1683","theaterChainName":"Marcus Theaters","ticketType":"STANDARD"},{"id":"1482","tribuneTheaterId":"5797","providerTheaterId":"","name":"Marcus Point Ultra Screen Cinemas","address":"7825 Big Sky Drive","city":"Madison","state":"WI","zip":"53719","distance":17.384344165413,"lon":"-89.519563","lat":"43.057726","theaterChainName":"Marcus Theaters","ticketType":"STANDARD"},{"id":"2506","tribuneTheaterId":"2232","providerTheaterId":"","name":"Wildwood Movies 16","address":"3100 Deerfield Dr.","city":"Janesville","state":"WI","zip":"53546","distance":18.991658297031,"lon":"-88.979709","lat":"42.720551","theaterChainName":"Independent Chains","ticketType":"STANDARD"},{"id":"2974","tribuneTheaterId":"1720","providerTheaterId":"","name":"Theatres of Whitewater","address":"151 E. Pearson Ln.","city":"Whitewater","state":"WI","zip":"53190","distance":24.085513872145,"lon":"-88.765825","lat":"42.835174","theaterChainName":"Independent Chains","ticketType":"STANDARD"}]