[{"id":"2944","tribuneTheaterId":"496","providerTheaterId":"","name":"Grantland Theater","address":"218 S. Madison St.","city":"Lancaster","state":"WI","zip":"53813","distance":14.85103952087,"lon":"-90.70964","lat":"42.846945","theaterChainName":"Independent Chains","ticketType":"STANDARD"},{"id":"2791","tribuneTheaterId":"1945","providerTheaterId":"","name":"Prairie Cinema","address":"1205 E. Prairie St.","city":"Prairie du Chien","state":"WI","zip":"53821","distance":16.044017637749,"lon":"-91.131881","lat":"43.031743","theaterChainName":"Independent Chains","ticketType":"STANDARD"},{"id":"4508","tribuneTheaterId":"9614","providerTheaterId":"","name":"Elkader Cinema","address":"108 N Main Street","city":"Elkader","state":"IA","zip":"52043","distance":20.603875262547,"lon":"-91.404484","lat":"42.854608","theaterChainName":"Independent Chains","ticketType":"STANDARD"},{"id":"4324","tribuneTheaterId":"9288","providerTheaterId":"6235","name":"AMC Star Dubuque 14","address":"2835 N.W. Arterial","city":"Dubuque","state":"IA","zip":"52002","distance":24.61749519816,"lon":"-90.7376","lat":"42.5211","theaterChainName":"AMC Theatres","ticketType":"STANDARD"}]