[{"id":"2944","tribuneTheaterId":"496","providerTheaterId":"","name":"Grantland Theater","address":"218 S. Madison St.","city":"Lancaster","state":"WI","zip":"53813","distance":7.2797440542403,"lon":"-90.70964","lat":"42.846945","theaterChainName":"Independent Chains","ticketType":"STANDARD"},{"id":"2942","tribuneTheaterId":"1534","providerTheaterId":"","name":"Avalon Cinema","address":"95 E. Main St.","city":"Platteville","state":"WI","zip":"53818","distance":14.660140833041,"lon":"-90.4743","lat":"42.7332","theaterChainName":"Independent Chains","ticketType":"STANDARD"},{"id":"3348","tribuneTheaterId":"592","providerTheaterId":"","name":"Blaine Theatre","address":"102 E. Oak St.","city":"Boscobel","state":"WI","zip":"53805","distance":15.5462119403,"lon":"-90.705715","lat":"43.134739","theaterChainName":"Independent Chains","ticketType":"STANDARD"},{"id":"2943","tribuneTheaterId":"495","providerTheaterId":"","name":"Dodge Theatre","address":"205 N. Iowa St.","city":"Dodgeville","state":"WI","zip":"53533","distance":24.314510131671,"lon":"-90.130281","lat":"42.961281","theaterChainName":"Independent Chains","ticketType":"STANDARD"}]