[{"id":"1502","tribuneTheaterId":"1467","providerTheaterId":"","name":"Rogers Cinema 5","address":"236 Front Street","city":"Beaver Dam","state":"WI","zip":"53916","distance":7.2321523737622,"lon":"-88.84","lat":"43.4562","theaterChainName":"Independent Chains","ticketType":"STANDARD"},{"id":"1690","tribuneTheaterId":"2097","providerTheaterId":"","name":"Fond Du Lac Theatre 8","address":"1131 W. Scott Street","city":"Fond du Lac","state":"WI","zip":"54937","distance":22.527048815618,"lon":"-88.48903","lat":"43.792581","theaterChainName":"Independent Chains","ticketType":"STANDARD"},{"id":"1956","tribuneTheaterId":"1487","providerTheaterId":"","name":"Towne Cinema","address":"308 E. Main St.","city":"Watertown","state":"WI","zip":"53094","distance":21.896698746963,"lon":"-88.721536","lat":"43.194698","theaterChainName":"Independent Chains","ticketType":"STANDARD"},{"id":"4677","tribuneTheaterId":"9881","providerTheaterId":"","name":"Forest Mall Cinema","address":"755 W. Johnson Street","city":"North Fond du Lac","state":"WI","zip":"54935","distance":22.456219751083,"lon":"-88.47584","lat":"43.785519","theaterChainName":"Independent Chains","ticketType":"STANDARD"},{"id":"1450","tribuneTheaterId":"2092","providerTheaterId":"","name":"Schubert's Hartford Theatre","address":"2941 Highway 83 S.","city":"Hartford","state":"WI","zip":"53027","distance":22.562773225501,"lon":"-88.378354","lat":"43.297377","theaterChainName":"Independent Chains","ticketType":"STANDARD"},{"id":"1477","tribuneTheaterId":"4819","providerTheaterId":"","name":"Marcus Campus Theatre","address":"103 Watson St.","city":"Ripon","state":"WI","zip":"54971","distance":23.888750791296,"lon":"-88.838423","lat":"43.846122","theaterChainName":"Marcus Theaters","ticketType":"STANDARD"}]