[{"id":"4987","name":"Star Cinema Reedsburg","address":"115 N Webb Ave","city":"Reedsburg","state":"WI","zip":"53959","distance":"14.675313949584961","lon":"-90.010498","lat":"43.532993","theaterChainName":"Independent Chains","ticketType":"STANDARD"},{"id":"1958","name":"Bonham Theatre & Video","address":"564 Water St.","city":"Prairie du Sac","state":"WI","zip":"53578","distance":"24.924497604370117","lon":"-89.721283","lat":"43.291580","theaterChainName":"Independent Chains","ticketType":"STANDARD"},{"id":"3012","name":"AMC Desert Star 15","address":"1301 Wisconsin Dells Pkwy. S.","city":"Lake Delton","state":"WI","zip":"53940","distance":"5.462198257446289","lon":"-89.775444","lat":"43.572014","theaterChainName":"AMC Theatres","ticketType":"STANDARD"},{"id":"2734","name":"Portage Theatre","address":"322 W. Wisconsin St.","city":"Portage","state":"WI","zip":"53901","distance":"17.03178596496582","lon":"-89.462677","lat":"43.539715","theaterChainName":"Independent Chains","ticketType":"STANDARD"},{"id":"4089","name":"The Grand Theater","address":"144 North Main Street","city":"Wellsville","state":"NY","zip":"14895","distance":"21.28767967224121","lon":"-89.817993","lat":"43.956631","theaterChainName":"Independent Chains","ticketType":"STANDARD"}]