[{"id":"2734","tribuneTheaterId":"7183","providerTheaterId":"","name":"Portage Theatre","address":"322 W. Wisconsin St.","city":"Portage","state":"WI","zip":"53901","distance":13.955366698222,"lon":"-89.462679","lat":"43.539715","theaterChainName":"Independent Chains","ticketType":"STANDARD"},{"id":"5714","tribuneTheaterId":"11156","providerTheaterId":"","name":"Marcus Palace Cinema - Sun Prairie","address":"2830 Hoepker Road","city":"Sun Prairie","state":"WI","zip":"53590","distance":17.695763648102,"lon":"-89.271","lat":"43.1683","theaterChainName":"Marcus Theaters","ticketType":"STANDARD"},{"id":"1502","tribuneTheaterId":"1467","providerTheaterId":"","name":"Rogers Cinema 5","address":"236 Front Street","city":"Beaver Dam","state":"WI","zip":"53916","distance":19.968036122581,"lon":"-88.84","lat":"43.4562","theaterChainName":"Independent Chains","ticketType":"STANDARD"},{"id":"1468","tribuneTheaterId":"5795","providerTheaterId":"","name":"Marcus Eastgate Cinemas","address":"5202 High Crossing Blvd","city":"Madison","state":"WI","zip":"53718","distance":20.024532457937,"lon":"-89.292519","lat":"43.13628","theaterChainName":"Marcus Theaters","ticketType":"STANDARD"}]