[{"id":"1784","name":"New Richmond 8","address":"1261 Heritage Dr.","city":"New Richmond","state":"WI","zip":"54017","distance":"23.786556243896484","lon":"-92.537041","lat":"45.109013","theaterChainName":"Independent Chains","ticketType":"STANDARD"},{"id":"1948","name":"Hudson 12 Theatre","address":"520 Stage Line Rd","city":"Hudson","state":"WI","zip":"54016","distance":"18.01728630065918","lon":"-92.692711","lat":"44.959705","theaterChainName":"CEC Theatres","ticketType":"STANDARD"},{"id":"5974","name":"Falls Theatre","address":"105 South Main Street","city":"River Falls","state":"WI","zip":"54022","distance":"11.02806282043457","lon":"-92.626534","lat":"44.858318","theaterChainName":"Independent Chains","ticketType":"STANDARD"},{"id":"1851","name":"Red Wing Cinema 8","address":"140 Tyler Road North","city":"Red Wing","state":"MN","zip":"55066","distance":"15.823875427246094","lon":"-92.584900","lat":"44.568600","theaterChainName":"Independent Chains","ticketType":"STANDARD"},{"id":"811","name":"Marcus Cinema Hastings","address":"1325 S Frontage Rd","city":"Hastings","state":"MN","zip":"55033","distance":"21.762964248657227","lon":"-92.877953","lat":"44.736923","theaterChainName":"Marcus Theaters","ticketType":"STANDARD"}]