[{"id":"5974","tribuneTheaterId":"11410","providerTheaterId":"","name":"Falls Theatre","address":"105 South Main Street","city":"River Falls","state":"WI","zip":"54022","distance":11.027549350103,"lon":"-92.626535","lat":"44.85832","theaterChainName":"Independent Chains","ticketType":"STANDARD"},{"id":"1851","tribuneTheaterId":"2106","providerTheaterId":"","name":"Red Wing Cinema 8","address":"140 Tyler Road North","city":"Red Wing","state":"MN","zip":"55066","distance":15.82302367064,"lon":"-92.5849","lat":"44.5686","theaterChainName":"Independent Chains","ticketType":"STANDARD"},{"id":"1948","tribuneTheaterId":"6535","providerTheaterId":"","name":"Hudson 12 Theatre","address":"520 Stage Line Rd","city":"Hudson","state":"WI","zip":"54016","distance":18.01623455064,"lon":"-92.692713","lat":"44.959705","theaterChainName":"CEC Theatres","ticketType":"STANDARD"},{"id":"811","tribuneTheaterId":"7761","providerTheaterId":"","name":"Marcus Cinema Hastings","address":"1325 S Frontage Rd","city":"Hastings","state":"MN","zip":"55033","distance":21.76182569031,"lon":"-92.877954","lat":"44.736922","theaterChainName":"Marcus Theaters","ticketType":"STANDARD"},{"id":"1784","tribuneTheaterId":"3087","providerTheaterId":"","name":"New Richmond 8","address":"1261 Heritage Dr.","city":"New Richmond","state":"WI","zip":"54017","distance":23.78511631919,"lon":"-92.537042","lat":"45.109014","theaterChainName":"Independent Chains","ticketType":"STANDARD"}]