[{"id":"5974","tribuneTheaterId":"11410","providerTheaterId":"","name":"Falls Theatre","address":"105 South Main Street","city":"River Falls","state":"WI","zip":"54022","distance":0.32724133966391,"lon":"-92.626535","lat":"44.85832","theaterChainName":"Independent Chains","ticketType":"STANDARD"},{"id":"1948","tribuneTheaterId":"6535","providerTheaterId":"","name":"Hudson 12 Theatre","address":"520 Stage Line Rd","city":"Hudson","state":"WI","zip":"54016","distance":7.8337948082421,"lon":"-92.692713","lat":"44.959705","theaterChainName":"CEC Theatres","ticketType":"STANDARD"},{"id":"811","tribuneTheaterId":"7761","providerTheaterId":"","name":"Marcus Cinema Hastings","address":"1325 S Frontage Rd","city":"Hastings","state":"MN","zip":"55033","distance":14.588032407338,"lon":"-92.877954","lat":"44.736922","theaterChainName":"Marcus Theaters","ticketType":"STANDARD"},{"id":"2993","tribuneTheaterId":"5831","providerTheaterId":"","name":"Carmike Oakdale Stadium 20","address":"1188 Helmo Ave North","city":"Oakdale","state":"MN","zip":"55128","distance":17.662018539953,"lon":"-92.956545","lat":"44.965847","theaterChainName":"Carmike Cinemas","ticketType":"STANDARD"},{"id":"723","tribuneTheaterId":"5186","providerTheaterId":"","name":"Woodbury 10 Theatre","address":"1470 Queens Dr.","city":"Woodbury","state":"MN","zip":"55125","distance":16.739727821974,"lon":"-92.957243","lat":"44.928335","theaterChainName":"Independent Chains","ticketType":"STANDARD"},{"id":"1784","tribuneTheaterId":"3087","providerTheaterId":"","name":"New Richmond 8","address":"1261 Heritage Dr.","city":"New Richmond","state":"WI","zip":"54017","distance":18.145137624242,"lon":"-92.537042","lat":"45.109014","theaterChainName":"Independent Chains","ticketType":"STANDARD"},{"id":"1433","tribuneTheaterId":"8084","providerTheaterId":"6401","name":"AMC Showplace Inver Grove 16","address":"5567 Bishop Ave.","city":"Inver Grove Heights","state":"MN","zip":"55076","distance":20.950412010403,"lon":"-93.058673","lat":"44.868312","theaterChainName":"AMC Theatres","ticketType":"STANDARD"},{"id":"2981","tribuneTheaterId":"5800","providerTheaterId":"","name":"Marcus ULTRACINEMA Oakdale","address":"5677 Hadley Ave N.","city":"Oakdale","state":"MN","zip":"55128","distance":20.659164062265,"lon":"-92.972312","lat":"45.031476","theaterChainName":"Marcus Theaters","ticketType":"STANDARD"},{"id":"1851","tribuneTheaterId":"2106","providerTheaterId":"","name":"Red Wing Cinema 8","address":"140 Tyler Road North","city":"Red Wing","state":"MN","zip":"55066","distance":19.919044412396,"lon":"-92.5849","lat":"44.5686","theaterChainName":"Independent Chains","ticketType":"STANDARD"}]