[{"id":"1948","name":"Hudson 12 Theatre","address":"520 Stage Line Rd","city":"Hudson","state":"WI","zip":"54016","distance":"14.955381393432617","lon":"-92.692711","lat":"44.959705","theaterChainName":"CEC Theatres","ticketType":"STANDARD"},{"id":"5974","name":"Falls Theatre","address":"105 South Main Street","city":"River Falls","state":"WI","zip":"54022","distance":"9.862899780273438","lon":"-92.626534","lat":"44.858318","theaterChainName":"Independent Chains","ticketType":"STANDARD"},{"id":"1851","name":"Red Wing Cinema 8","address":"140 Tyler Road North","city":"Red Wing","state":"MN","zip":"55066","distance":"14.887955665588379","lon":"-92.584900","lat":"44.568600","theaterChainName":"Independent Chains","ticketType":"STANDARD"},{"id":"811","name":"Marcus Cinema Hastings","address":"1325 S Frontage Rd","city":"Hastings","state":"MN","zip":"55033","distance":"6.1522698402404785","lon":"-92.877953","lat":"44.736923","theaterChainName":"Marcus Theaters","ticketType":"STANDARD"},{"id":"723","name":"Woodbury 10 Theatre","address":"1470 Queens Dr.","city":"Woodbury","state":"MN","zip":"55125","distance":"15.98787784576416","lon":"-92.957245","lat":"44.928333","theaterChainName":"Independent Chains","ticketType":"STANDARD"},{"id":"2993","name":"Carmike Oakdale Stadium 20","address":"1188 Helmo Ave North","city":"Oakdale","state":"MN","zip":"55128","distance":"18.06440544128418","lon":"-92.956543","lat":"44.965847","theaterChainName":"Carmike Cinemas","ticketType":"STANDARD"},{"id":"2981","name":"Marcus ULTRACINEMA Oakdale","address":"5677 Hadley Ave N.","city":"Oakdale","state":"MN","zip":"55128","distance":"22.349193572998047","lon":"-92.972313","lat":"45.031475","theaterChainName":"Marcus Theaters","ticketType":"STANDARD"},{"id":"1433","name":"AMC Showplace Inver Grove 16","address":"5567 Bishop Ave.","city":"Inver Grove Heights","state":"MN","zip":"55076","distance":"17.1282958984375","lon":"-93.058670","lat":"44.868313","theaterChainName":"AMC Theatres","ticketType":"STANDARD"},{"id":"812","name":"Marcus Cinema Rosemount","address":"15280 Carrousel Way","city":"Rosemount","state":"MN","zip":"55068","distance":"18.7086181640625","lon":"-93.133675","lat":"44.728050","theaterChainName":"Marcus Theaters","ticketType":"STANDARD"},{"id":"2004","name":"Carmike 15 Apple Valley","address":"15630 Cedar Ave.","city":"Apple Valley","state":"MN","zip":"55124","distance":"22.798561096191406","lon":"-93.216667","lat":"44.722839","theaterChainName":"Carmike Cinemas","ticketType":"STANDARD"},{"id":"2318","name":"Regal Eagan Stadium 16","address":"2055 Cliff Road","city":"Eagan","state":"MN","zip":"55122","distance":"22.581832885742188","lon":"-93.209679","lat":"44.791416","theaterChainName":"Regal Cinemas","ticketType":"STANDARD"},{"id":"763","name":"Mann Grandview 2 Theatres","address":"1830 Grand Ave.","city":"Saint Paul","state":"MN","zip":"55105","distance":"24.662248611450195","lon":"-93.177696","lat":"44.939774","theaterChainName":"Mann Theatres MN","ticketType":"STANDARD"},{"id":"764","name":"Mann Highland Theatre","address":"760 Cleveland Ave.","city":"Saint Paul","state":"MN","zip":"55116","distance":"24.307350158691406","lon":"-93.187134","lat":"44.918438","theaterChainName":"Mann Theatres MN","ticketType":"STANDARD"}]