[{"id":"2779","tribuneTheaterId":"1528","providerTheaterId":"","name":"Shawano Cinema I, II, III, IV","address":"1494 E. Green Bay St.","city":"Shawano","state":"WI","zip":"54166","distance":14.788107202107,"lon":"-88.55981","lat":"44.780734","theaterChainName":"Independent Chains","ticketType":"STANDARD"},{"id":"1500","tribuneTheaterId":"4834","providerTheaterId":"","name":"Marcus Bay Park","address":"755 Willard Drive","city":"Ashwaubenon","state":"WI","zip":"54304","distance":21.619770871354,"lon":"-88.0597","lat":"44.4847","theaterChainName":"Marcus Theaters","ticketType":"STANDARD"},{"id":"5553","tribuneTheaterId":"10998","providerTheaterId":"","name":"De Pere Cinema","address":"417 George St.","city":"De Pere","state":"WI","zip":"54115","distance":23.836203931305,"lon":"-88.05961","lat":"44.44917","theaterChainName":"Get Reel Inc","ticketType":"STANDARD"},{"id":"4293","tribuneTheaterId":"4839","providerTheaterId":"","name":"Marcus Cinema Green Bay East","address":"1000 Kepler Drive","city":"Green Bay","state":"WI","zip":"54311","distance":24.976147446849,"lon":"-87.939886","lat":"44.482453","theaterChainName":"Marcus Theaters","ticketType":"STANDARD"}]