[{"id":"1483","tribuneTheaterId":"4825","providerTheaterId":"","name":"Marcus Valley Value Cinemas","address":"1401 Valley Fair Mall","city":"Appleton","state":"WI","zip":"54915","distance":6.0568012274354,"lon":"-88.353075","lat":"44.245545","theaterChainName":"Marcus Theaters","ticketType":"STANDARD"},{"id":"4953","tribuneTheaterId":"10309","providerTheaterId":"","name":"Marcus Cinema Appleton East","address":"W3091 Van Roy Road","city":"Appleton","state":"WI","zip":"54915","distance":6.3979382810994,"lon":"-88.343972","lat":"44.255974","theaterChainName":"Marcus Theaters","ticketType":"STANDARD"},{"id":"1972","tribuneTheaterId":"292","providerTheaterId":"","name":"Chilton Cinema Cafe","address":"26 N. Madison St.","city":"Chilton","state":"WI","zip":"53014","distance":11.663920299045,"lon":"-88.162804","lat":"44.029202","theaterChainName":"Get Reel Inc","ticketType":"STANDARD"},{"id":"1480","tribuneTheaterId":"4843","providerTheaterId":"","name":"Marcus Hollywood Cinemas","address":"513 North Westhill Blvd","city":"Grand Chute","state":"WI","zip":"54914","distance":11.005085542291,"lon":"-88.463352","lat":"44.264181","theaterChainName":"Marcus Theaters","ticketType":"STANDARD"},{"id":"1478","tribuneTheaterId":"4833","providerTheaterId":"","name":"Oshkosh Cinema","address":"340 South Koeller Road","city":"Oshkosh","state":"WI","zip":"54902","distance":18.706671159026,"lon":"-88.581431","lat":"44.015825","theaterChainName":"Marcus Theaters","ticketType":"STANDARD"},{"id":"5553","tribuneTheaterId":"10998","providerTheaterId":"","name":"De Pere Cinema","address":"417 George St.","city":"De Pere","state":"WI","zip":"54115","distance":21.717731563244,"lon":"-88.05961","lat":"44.44917","theaterChainName":"Get Reel Inc","ticketType":"STANDARD"},{"id":"1500","tribuneTheaterId":"4834","providerTheaterId":"","name":"Marcus Bay Park","address":"755 Willard Drive","city":"Ashwaubenon","state":"WI","zip":"54304","distance":23.875761648579,"lon":"-88.0597","lat":"44.4847","theaterChainName":"Marcus Theaters","ticketType":"STANDARD"}]