[{"id":"5299","tribuneTheaterId":"10733","providerTheaterId":"","name":"Sturgeon Bay Cinema 6","address":"1820 Alabama Street","city":"Sturgeon Bay","state":"WI","zip":"54235","distance":15.095128785898,"lon":"-87.3503","lat":"44.8497","theaterChainName":"Independent Chains","ticketType":"STANDARD"},{"id":"2529","tribuneTheaterId":"4981","providerTheaterId":"","name":"Carmike Pine Tree 9","address":"2727 Cahill Road","city":"Marinette","state":"WI","zip":"54143","distance":22.80667760826,"lon":"-87.656574","lat":"45.076802","theaterChainName":"Carmike Cinemas","ticketType":"STANDARD"},{"id":"5984","tribuneTheaterId":"4013","providerTheaterId":"","name":"Mariner 2","address":"2000 Ella Ct.","city":"Marinette","state":"WI","zip":"54143","distance":24.418016771199,"lon":"-87.634219","lat":"45.100909","theaterChainName":"Independent Chains","ticketType":"STANDARD"},{"id":"4293","tribuneTheaterId":"4839","providerTheaterId":"","name":"Marcus Cinema Green Bay East","address":"1000 Kepler Drive","city":"Green Bay","state":"WI","zip":"54311","distance":24.068507242402,"lon":"-87.939886","lat":"44.482453","theaterChainName":"Marcus Theaters","ticketType":"STANDARD"}]