[{"id":"1972","tribuneTheaterId":"292","providerTheaterId":"","name":"Chilton Cinema Cafe","address":"26 N. Madison St.","city":"Chilton","state":"WI","zip":"53014","distance":13.193866619853,"lon":"-88.162804","lat":"44.029202","theaterChainName":"Get Reel Inc","ticketType":"STANDARD"},{"id":"5527","tribuneTheaterId":"10956","providerTheaterId":"","name":"Carmike Manitowoc 10","address":"2555 S 44th Street","city":"Manitowoc","state":"WI","zip":"54220","distance":14.194231538458,"lon":"-87.70742","lat":"44.069635","theaterChainName":"Carmike Cinemas","ticketType":"STANDARD"},{"id":"5553","tribuneTheaterId":"10998","providerTheaterId":"","name":"De Pere Cinema","address":"417 George St.","city":"De Pere","state":"WI","zip":"54115","distance":20.670445253852,"lon":"-88.05961","lat":"44.44917","theaterChainName":"Get Reel Inc","ticketType":"STANDARD"},{"id":"4953","tribuneTheaterId":"10309","providerTheaterId":"","name":"Marcus Cinema Appleton East","address":"W3091 Van Roy Road","city":"Appleton","state":"WI","zip":"54915","distance":19.915924593997,"lon":"-88.343972","lat":"44.255974","theaterChainName":"Marcus Theaters","ticketType":"STANDARD"},{"id":"1483","tribuneTheaterId":"4825","providerTheaterId":"","name":"Marcus Valley Value Cinemas","address":"1401 Valley Fair Mall","city":"Appleton","state":"WI","zip":"54915","distance":20.112590291478,"lon":"-88.353075","lat":"44.245545","theaterChainName":"Marcus Theaters","ticketType":"STANDARD"},{"id":"4293","tribuneTheaterId":"4839","providerTheaterId":"","name":"Marcus Cinema Green Bay East","address":"1000 Kepler Drive","city":"Green Bay","state":"WI","zip":"54311","distance":22.482256914039,"lon":"-87.939886","lat":"44.482453","theaterChainName":"Marcus Theaters","ticketType":"STANDARD"},{"id":"1500","tribuneTheaterId":"4834","providerTheaterId":"","name":"Marcus Bay Park","address":"755 Willard Drive","city":"Ashwaubenon","state":"WI","zip":"54304","distance":23.070151455161,"lon":"-88.0597","lat":"44.4847","theaterChainName":"Marcus Theaters","ticketType":"STANDARD"}]