[{"id":"1972","name":"Chilton Cinema Cafe","address":"26 N. Madison St.","city":"Chilton","state":"WI","zip":"53014","distance":"13.194587707519531","lon":"-88.162804","lat":"44.029202","theaterChainName":"Get Reel Inc","ticketType":"STANDARD"},{"id":"5527","name":"Carmike Manitowoc 10","address":"2555 S 44th Street","city":"Manitowoc","state":"WI","zip":"54220","distance":"14.195305824279785","lon":"-87.707420","lat":"44.069633","theaterChainName":"Carmike Cinemas","ticketType":"STANDARD"},{"id":"1483","name":"Marcus Valley Value Cinemas","address":"1401 Valley Fair Mall","city":"Appleton","state":"WI","zip":"54915","distance":"20.113567352294922","lon":"-88.353073","lat":"44.245544","theaterChainName":"Marcus Theaters","ticketType":"STANDARD"},{"id":"4953","name":"Marcus Cinema Appleton East","address":"W3091 Van Roy Road","city":"Appleton","state":"WI","zip":"54915","distance":"19.916950225830078","lon":"-88.343971","lat":"44.255974","theaterChainName":"Marcus Theaters","ticketType":"STANDARD"},{"id":"1500","name":"Marcus Bay Park","address":"755 Willard Drive","city":"Ashwaubenon","state":"WI","zip":"54304","distance":"23.071470260620117","lon":"-88.059700","lat":"44.484699","theaterChainName":"Marcus Theaters","ticketType":"STANDARD"},{"id":"4293","name":"Marcus Cinema Green Bay East","address":"1000 Kepler Drive","city":"Green Bay","state":"WI","zip":"54311","distance":"22.483585357666016","lon":"-87.939888","lat":"44.482452","theaterChainName":"Marcus Theaters","ticketType":"STANDARD"},{"id":"5553","name":"De Pere Cinema","address":"417 George St.","city":"De Pere","state":"WI","zip":"54115","distance":"20.671586990356445","lon":"-88.059608","lat":"44.449169","theaterChainName":"Get Reel Inc","ticketType":"STANDARD"}]