[{"id":"1483","name":"Marcus Valley Value Cinemas","address":"1401 Valley Fair Mall","city":"Appleton","state":"WI","zip":"54915","distance":"23.169912338256836","lon":"-88.353073","lat":"44.245544","theaterChainName":"Marcus Theaters","ticketType":"STANDARD"},{"id":"4953","name":"Marcus Cinema Appleton East","address":"W3091 Van Roy Road","city":"Appleton","state":"WI","zip":"54915","distance":"22.3427677154541","lon":"-88.343971","lat":"44.255974","theaterChainName":"Marcus Theaters","ticketType":"STANDARD"},{"id":"1500","name":"Marcus Bay Park","address":"755 Willard Drive","city":"Ashwaubenon","state":"WI","zip":"54304","distance":"1.941461443901062","lon":"-88.059700","lat":"44.484699","theaterChainName":"Marcus Theaters","ticketType":"STANDARD"},{"id":"4293","name":"Marcus Cinema Green Bay East","address":"1000 Kepler Drive","city":"Green Bay","state":"WI","zip":"54311","distance":"3.9742159843444824","lon":"-87.939888","lat":"44.482452","theaterChainName":"Marcus Theaters","ticketType":"STANDARD"},{"id":"5553","name":"De Pere Cinema","address":"417 George St.","city":"De Pere","state":"WI","zip":"54115","distance":"2.9774208068847656","lon":"-88.059608","lat":"44.449169","theaterChainName":"Get Reel Inc","ticketType":"STANDARD"}]