[{"id":"1500","tribuneTheaterId":"4834","providerTheaterId":"","name":"Marcus Bay Park","address":"755 Willard Drive","city":"Ashwaubenon","state":"WI","zip":"54304","distance":3.0900182118813,"lon":"-88.0597","lat":"44.4847","theaterChainName":"Marcus Theaters","ticketType":"STANDARD"},{"id":"5553","tribuneTheaterId":"10998","providerTheaterId":"","name":"De Pere Cinema","address":"417 George St.","city":"De Pere","state":"WI","zip":"54115","distance":5.2214086060558,"lon":"-88.05961","lat":"44.44917","theaterChainName":"Get Reel Inc","ticketType":"STANDARD"},{"id":"4293","tribuneTheaterId":"4839","providerTheaterId":"","name":"Marcus Cinema Green Bay East","address":"1000 Kepler Drive","city":"Green Bay","state":"WI","zip":"54311","distance":4.6856776457208,"lon":"-87.939886","lat":"44.482453","theaterChainName":"Marcus Theaters","ticketType":"STANDARD"},{"id":"4953","tribuneTheaterId":"10309","providerTheaterId":"","name":"Marcus Cinema Appleton East","address":"W3091 Van Roy Road","city":"Appleton","state":"WI","zip":"54915","distance":24.227464800602,"lon":"-88.343972","lat":"44.255974","theaterChainName":"Marcus Theaters","ticketType":"STANDARD"}]