[{"id":"5553","tribuneTheaterId":"10998","providerTheaterId":"","name":"De Pere Cinema","address":"417 George St.","city":"De Pere","state":"WI","zip":"54115","distance":3.0482328441452,"lon":"-88.05961","lat":"44.44917","theaterChainName":"Get Reel Inc","ticketType":"STANDARD"},{"id":"1500","tribuneTheaterId":"4834","providerTheaterId":"","name":"Marcus Bay Park","address":"755 Willard Drive","city":"Ashwaubenon","state":"WI","zip":"54304","distance":4.8467370096786,"lon":"-88.0597","lat":"44.4847","theaterChainName":"Marcus Theaters","ticketType":"STANDARD"},{"id":"4293","tribuneTheaterId":"4839","providerTheaterId":"","name":"Marcus Cinema Green Bay East","address":"1000 Kepler Drive","city":"Green Bay","state":"WI","zip":"54311","distance":9.3397030841576,"lon":"-87.939886","lat":"44.482453","theaterChainName":"Marcus Theaters","ticketType":"STANDARD"},{"id":"1483","tribuneTheaterId":"4825","providerTheaterId":"","name":"Marcus Valley Value Cinemas","address":"1401 Valley Fair Mall","city":"Appleton","state":"WI","zip":"54915","distance":17.219303319785,"lon":"-88.353075","lat":"44.245545","theaterChainName":"Marcus Theaters","ticketType":"STANDARD"},{"id":"4953","tribuneTheaterId":"10309","providerTheaterId":"","name":"Marcus Cinema Appleton East","address":"W3091 Van Roy Road","city":"Appleton","state":"WI","zip":"54915","distance":16.388504968135,"lon":"-88.343972","lat":"44.255974","theaterChainName":"Marcus Theaters","ticketType":"STANDARD"},{"id":"1480","tribuneTheaterId":"4843","providerTheaterId":"","name":"Marcus Hollywood Cinemas","address":"513 North Westhill Blvd","city":"Grand Chute","state":"WI","zip":"54914","distance":20.641494100278,"lon":"-88.463352","lat":"44.264181","theaterChainName":"Marcus Theaters","ticketType":"STANDARD"}]