[{"id":"1483","name":"Marcus Valley Value Cinemas","address":"1401 Valley Fair Mall","city":"Appleton","state":"WI","zip":"54915","distance":"17.220378875732422","lon":"-88.353073","lat":"44.245544","theaterChainName":"Marcus Theaters","ticketType":"STANDARD"},{"id":"4953","name":"Marcus Cinema Appleton East","address":"W3091 Van Roy Road","city":"Appleton","state":"WI","zip":"54915","distance":"16.389549255371094","lon":"-88.343971","lat":"44.255974","theaterChainName":"Marcus Theaters","ticketType":"STANDARD"},{"id":"1480","name":"Marcus Hollywood Cinemas","address":"513 North Westhill Blvd","city":"Grand Chute","state":"WI","zip":"54914","distance":"20.64276123046875","lon":"-88.463348","lat":"44.264179","theaterChainName":"Marcus Theaters","ticketType":"STANDARD"},{"id":"1500","name":"Marcus Bay Park","address":"755 Willard Drive","city":"Ashwaubenon","state":"WI","zip":"54304","distance":"4.846975803375244","lon":"-88.059700","lat":"44.484699","theaterChainName":"Marcus Theaters","ticketType":"STANDARD"},{"id":"4293","name":"Marcus Cinema Green Bay East","address":"1000 Kepler Drive","city":"Green Bay","state":"WI","zip":"54311","distance":"9.34009075164795","lon":"-87.939888","lat":"44.482452","theaterChainName":"Marcus Theaters","ticketType":"STANDARD"},{"id":"5553","name":"De Pere Cinema","address":"417 George St.","city":"De Pere","state":"WI","zip":"54115","distance":"3.0483837127685547","lon":"-88.059608","lat":"44.449169","theaterChainName":"Get Reel Inc","ticketType":"STANDARD"}]