[{"id":"4069","tribuneTheaterId":"1439","providerTheaterId":"","name":"Cosmo Theatre","address":"813 E. Main Street","city":"Merrill","state":"WI","zip":"54452","distance":15.048812513682,"lon":"-89.68734","lat":"45.179776","theaterChainName":"Independent Chains","ticketType":"STANDARD"},{"id":"3154","tribuneTheaterId":"1541","providerTheaterId":"","name":"Rouman State Theater","address":"110 N. Brown","city":"Rhinelander","state":"WI","zip":"54501","distance":20.996870916502,"lon":"-89.412758","lat":"45.639112","theaterChainName":"Independent Chains","ticketType":"STANDARD"},{"id":"3152","tribuneTheaterId":"1951","providerTheaterId":"","name":"Rouman Cinema","address":"1205 Lincoln St.","city":"Rhinelander","state":"WI","zip":"54501","distance":20.807183354787,"lon":"-89.393778","lat":"45.634073","theaterChainName":"Independent Chains","ticketType":"STANDARD"},{"id":"2056","tribuneTheaterId":"313","providerTheaterId":"","name":"Palace Theatre - Antigo","address":"823 5th Ave","city":"Antigo","state":"WI","zip":"54409","distance":20.738925462038,"lon":"-89.1548","lat":"45.1405","theaterChainName":"Independent Chains","ticketType":"STANDARD"}]