[{"id":"1666","name":"Rogers Cinema-Wisconsin Rapids","address":"220 East Grand Ave.","city":"Wisconsin Rapids","state":"WI","zip":"54494","distance":"14.763310432434082","lon":"-89.824730","lat":"44.390587","theaterChainName":"Independent Chains","ticketType":"STANDARD"},{"id":"2245","name":"Rogers Cinemas 6","address":"2725 Church St.","city":"Stevens Point","state":"WI","zip":"54481","distance":"10.346221923828125","lon":"-89.571297","lat":"44.510799","theaterChainName":"Independent Chains","ticketType":"STANDARD"},{"id":"1476","name":"Rogers Campus 4","address":"1601 Sixth Avenue","city":"Stevens Point","state":"WI","zip":"54481","distance":"9.399514198303223","lon":"-89.575996","lat":"44.531399","theaterChainName":"Independent Chains","ticketType":"STANDARD"},{"id":"1878","name":"Marcus Cedar Creek Cinema","address":"10101 Market Street","city":"Rothschild","state":"WI","zip":"54474","distance":"19.327592849731445","lon":"-89.633141","lat":"44.864738","theaterChainName":"Marcus Theaters","ticketType":"STANDARD"},{"id":"1698","name":"Rogers Cinema 8","address":"419 South Central Avenue","city":"Marshfield","state":"WI","zip":"54449","distance":"21.765573501586914","lon":"-90.176178","lat":"44.663677","theaterChainName":"Independent Chains","ticketType":"STANDARD"}]