[{"id":"1878","tribuneTheaterId":"5796","providerTheaterId":"","name":"Marcus Cedar Creek Cinema","address":"10101 Market Street","city":"Rothschild","state":"WI","zip":"54474","distance":12.802293192792,"lon":"-89.633138","lat":"44.864738","theaterChainName":"Marcus Theaters","ticketType":"STANDARD"},{"id":"1476","tribuneTheaterId":"4822","providerTheaterId":"","name":"Rogers Campus 4","address":"1601 Sixth Avenue","city":"Stevens Point","state":"WI","zip":"54481","distance":22.541317941618,"lon":"-89.576","lat":"44.5314","theaterChainName":"Independent Chains","ticketType":"STANDARD"},{"id":"2245","tribuneTheaterId":"3944","providerTheaterId":"","name":"Rogers Cinemas 6","address":"2725 Church St.","city":"Stevens Point","state":"WI","zip":"54481","distance":23.739997440603,"lon":"-89.5713","lat":"44.5108","theaterChainName":"Independent Chains","ticketType":"STANDARD"},{"id":"2056","tribuneTheaterId":"313","providerTheaterId":"","name":"Palace Theatre - Antigo","address":"823 5th Ave","city":"Antigo","state":"WI","zip":"54409","distance":24.332091931315,"lon":"-89.1548","lat":"45.1405","theaterChainName":"Independent Chains","ticketType":"STANDARD"}]