[{"id":"2245","tribuneTheaterId":"3944","providerTheaterId":"","name":"Rogers Cinemas 6","address":"2725 Church St.","city":"Stevens Point","state":"WI","zip":"54481","distance":10.345602672455,"lon":"-89.5713","lat":"44.5108","theaterChainName":"Independent Chains","ticketType":"STANDARD"},{"id":"1476","tribuneTheaterId":"4822","providerTheaterId":"","name":"Rogers Campus 4","address":"1601 Sixth Avenue","city":"Stevens Point","state":"WI","zip":"54481","distance":9.3989110045028,"lon":"-89.576","lat":"44.5314","theaterChainName":"Independent Chains","ticketType":"STANDARD"},{"id":"1666","tribuneTheaterId":"3043","providerTheaterId":"","name":"Rogers Cinema-Wisconsin Rapids","address":"220 East Grand Ave.","city":"Wisconsin Rapids","state":"WI","zip":"54494","distance":14.762509160883,"lon":"-89.824728","lat":"44.390586","theaterChainName":"Independent Chains","ticketType":"STANDARD"},{"id":"1878","tribuneTheaterId":"5796","providerTheaterId":"","name":"Marcus Cedar Creek Cinema","address":"10101 Market Street","city":"Rothschild","state":"WI","zip":"54474","distance":19.326318161285,"lon":"-89.633138","lat":"44.864738","theaterChainName":"Marcus Theaters","ticketType":"STANDARD"},{"id":"1698","tribuneTheaterId":"2026","providerTheaterId":"","name":"Rogers Cinema 8","address":"419 South Central Avenue","city":"Marshfield","state":"WI","zip":"54449","distance":21.764224669827,"lon":"-90.176181","lat":"44.663678","theaterChainName":"Independent Chains","ticketType":"STANDARD"}]