[{"id":"1666","name":"Rogers Cinema-Wisconsin Rapids","address":"220 East Grand Ave.","city":"Wisconsin Rapids","state":"WI","zip":"54494","distance":"15.920991897583008","lon":"-89.824730","lat":"44.390587","theaterChainName":"Independent Chains","ticketType":"STANDARD"},{"id":"2245","name":"Rogers Cinemas 6","address":"2725 Church St.","city":"Stevens Point","state":"WI","zip":"54481","distance":"0.9462647438049316","lon":"-89.571297","lat":"44.510799","theaterChainName":"Independent Chains","ticketType":"STANDARD"},{"id":"1476","name":"Rogers Campus 4","address":"1601 Sixth Avenue","city":"Stevens Point","state":"WI","zip":"54481","distance":"1.1020090579986572","lon":"-89.575996","lat":"44.531399","theaterChainName":"Independent Chains","ticketType":"STANDARD"},{"id":"1878","name":"Marcus Cedar Creek Cinema","address":"10101 Market Street","city":"Rothschild","state":"WI","zip":"54474","distance":"24.017024993896484","lon":"-89.633141","lat":"44.864738","theaterChainName":"Marcus Theaters","ticketType":"STANDARD"}]