[{"id":"2919","tribuneTheaterId":"1949","providerTheaterId":"","name":"Rogers Cinemas 6 Sparta","address":"1010 Maple St.","city":"Sparta","state":"WI","zip":"54656","distance":13.651509754689,"lon":"-90.824812","lat":"43.93778","theaterChainName":"Independent Chains","ticketType":"STANDARD"},{"id":"3393","tribuneTheaterId":"1564","providerTheaterId":"","name":"Vernon Square Cinema","address":"1230 N. Main","city":"Viroqua","state":"WI","zip":"54665","distance":13.505039206132,"lon":"-90.890923","lat":"43.574143","theaterChainName":"Independent Chains","ticketType":"STANDARD"},{"id":"1501","tribuneTheaterId":"4823","providerTheaterId":"","name":"Marcus La Crosse Cinema","address":"2032 Ward Avenue","city":"La Crosse","state":"WI","zip":"54601","distance":23.282855464724,"lon":"-91.224969","lat":"43.782683","theaterChainName":"Marcus Theaters","ticketType":"STANDARD"},{"id":"3684","tribuneTheaterId":"4826","providerTheaterId":"","name":"Marcus Ho - Chunk Cinema","address":"135 Wittig Road","city":"Tomah","state":"WI","zip":"54660","distance":22.70582817044,"lon":"-90.502899","lat":"44.0164","theaterChainName":"Marcus Theaters","ticketType":"STANDARD"},{"id":"2844","tribuneTheaterId":"1530","providerTheaterId":"","name":"Rivoli Theatre","address":"117 N Fourth Street","city":"La Crosse","state":"WI","zip":"54601","distance":24.873168309324,"lon":"-91.250996","lat":"43.812952","theaterChainName":"Independent Chains","ticketType":"STANDARD"}]