[{"id":"5173","name":"Spring Grove Cinema","address":"167 W. Main St.","city":"Spring Grove","state":"MN","zip":"55974","distance":"24.659786224365234","lon":"-91.638588","lat":"43.560604","theaterChainName":"Independent Chains","ticketType":"STANDARD"},{"id":"1501","name":"Marcus La Crosse Cinema","address":"2032 Ward Avenue","city":"La Crosse","state":"WI","zip":"54601","distance":"15.609573364257812","lon":"-91.224968","lat":"43.782684","theaterChainName":"Marcus Theaters","ticketType":"STANDARD"},{"id":"2844","name":"Rivoli Theatre","address":"117 N Fourth Street","city":"La Crosse","state":"WI","zip":"54601","distance":"17.976078033447266","lon":"-91.250999","lat":"43.812950","theaterChainName":"Independent Chains","ticketType":"STANDARD"},{"id":"3393","name":"Vernon Square Cinema","address":"1230 N. Main","city":"Viroqua","state":"WI","zip":"54665","distance":"12.794233322143555","lon":"-90.890923","lat":"43.574142","theaterChainName":"Independent Chains","ticketType":"STANDARD"}]