[{"id":"5074","name":"Menomonie 7 Theatre","address":"2521 Hwy 25 North","city":"Menomonie","state":"WI","zip":"54751","distance":"13.114562034606934","lon":"-91.934792","lat":"44.913914","theaterChainName":"Independent Chains","ticketType":"STANDARD"},{"id":"2377","name":"Downtown Cinema","address":"315 S. Barstow St.","city":"Eau Claire","state":"WI","zip":"54701","distance":"9.485245704650879","lon":"-91.498833","lat":"44.810402","theaterChainName":"Independent Chains","ticketType":"STANDARD"},{"id":"2378","name":"Micon Cinemas Eau Claire","address":"3109 Mall Drive","city":"Eau Claire","state":"WI","zip":"54701","distance":"11.83922290802002","lon":"-91.461197","lat":"44.787498","theaterChainName":"Independent Chains","ticketType":"STANDARD"},{"id":"1749","name":"Carmike Oakwood 12","address":"4800 Golf Rd.","city":"Eau Claire","state":"WI","zip":"54701","distance":"13.129837989807129","lon":"-91.440590","lat":"44.775272","theaterChainName":"Carmike Cinemas","ticketType":"STANDARD"},{"id":"4134","name":"Micon Cinemas","address":"475 Chippewa Mall Drive","city":"Chippewa Falls","state":"WI","zip":"54729","distance":"14.951763153076172","lon":"-91.380806","lat":"44.924717","theaterChainName":"Independent Chains","ticketType":"STANDARD"}]