[{"id":"2377","tribuneTheaterId":"1182","providerTheaterId":"","name":"Downtown Cinema","address":"315 S. Barstow St.","city":"Eau Claire","state":"WI","zip":"54701","distance":9.4846071461239,"lon":"-91.498832","lat":"44.810402","theaterChainName":"Independent Chains","ticketType":"STANDARD"},{"id":"2378","tribuneTheaterId":"1939","providerTheaterId":"","name":"Micon Cinemas Eau Claire","address":"3109 Mall Drive","city":"Eau Claire","state":"WI","zip":"54701","distance":11.838225333855,"lon":"-91.4612","lat":"44.7875","theaterChainName":"Independent Chains","ticketType":"STANDARD"},{"id":"5074","tribuneTheaterId":"10460","providerTheaterId":"","name":"Menomonie 7 Theatre","address":"2521 Hwy 25 North","city":"Menomonie","state":"WI","zip":"54751","distance":13.114011369305,"lon":"-91.934795","lat":"44.913915","theaterChainName":"Independent Chains","ticketType":"STANDARD"},{"id":"1749","tribuneTheaterId":"4806","providerTheaterId":"","name":"Carmike Oakwood 12","address":"4800 Golf Rd.","city":"Eau Claire","state":"WI","zip":"54701","distance":13.12885692262,"lon":"-91.440593","lat":"44.775271","theaterChainName":"Carmike Cinemas","ticketType":"STANDARD"},{"id":"4134","tribuneTheaterId":"2168","providerTheaterId":"","name":"Micon Cinemas","address":"475 Chippewa Mall Drive","city":"Chippewa Falls","state":"WI","zip":"54729","distance":14.950620570163,"lon":"-91.380809","lat":"44.924716","theaterChainName":"Independent Chains","ticketType":"STANDARD"}]