[{"id":"5074","name":"Menomonie 7 Theatre","address":"2521 Hwy 25 North","city":"Menomonie","state":"WI","zip":"54751","distance":"18.061359405517578","lon":"-91.934792","lat":"44.913914","theaterChainName":"Independent Chains","ticketType":"STANDARD"},{"id":"2377","name":"Downtown Cinema","address":"315 S. Barstow St.","city":"Eau Claire","state":"WI","zip":"54701","distance":"11.318381309509277","lon":"-91.498833","lat":"44.810402","theaterChainName":"Independent Chains","ticketType":"STANDARD"},{"id":"2378","name":"Micon Cinemas Eau Claire","address":"3109 Mall Drive","city":"Eau Claire","state":"WI","zip":"54701","distance":"12.190495491027832","lon":"-91.461197","lat":"44.787498","theaterChainName":"Independent Chains","ticketType":"STANDARD"},{"id":"1749","name":"Carmike Oakwood 12","address":"4800 Golf Rd.","city":"Eau Claire","state":"WI","zip":"54701","distance":"12.846333503723145","lon":"-91.440590","lat":"44.775272","theaterChainName":"Carmike Cinemas","ticketType":"STANDARD"},{"id":"4134","name":"Micon Cinemas","address":"475 Chippewa Mall Drive","city":"Chippewa Falls","state":"WI","zip":"54729","distance":"20.79267692565918","lon":"-91.380806","lat":"44.924717","theaterChainName":"Independent Chains","ticketType":"STANDARD"}]