[{"id":"1483","name":"Marcus Valley Value Cinemas","address":"1401 Valley Fair Mall","city":"Appleton","state":"WI","zip":"54915","distance":"13.029311180114746","lon":"-88.353073","lat":"44.245544","theaterChainName":"Marcus Theaters","ticketType":"STANDARD"},{"id":"4953","name":"Marcus Cinema Appleton East","address":"W3091 Van Roy Road","city":"Appleton","state":"WI","zip":"54915","distance":"12.587518692016602","lon":"-88.343971","lat":"44.255974","theaterChainName":"Marcus Theaters","ticketType":"STANDARD"},{"id":"1480","name":"Marcus Hollywood Cinemas","address":"513 North Westhill Blvd","city":"Grand Chute","state":"WI","zip":"54914","distance":"10.511575698852539","lon":"-88.463348","lat":"44.264179","theaterChainName":"Marcus Theaters","ticketType":"STANDARD"},{"id":"1500","name":"Marcus Bay Park","address":"755 Willard Drive","city":"Ashwaubenon","state":"WI","zip":"54304","distance":"20.53778648376465","lon":"-88.059700","lat":"44.484699","theaterChainName":"Marcus Theaters","ticketType":"STANDARD"},{"id":"5553","name":"De Pere Cinema","address":"417 George St.","city":"De Pere","state":"WI","zip":"54115","distance":"20.125757217407227","lon":"-88.059608","lat":"44.449169","theaterChainName":"Get Reel Inc","ticketType":"STANDARD"},{"id":"2492","name":"Rogers Grand Theater","address":"208 Wolf River Plaza","city":"New London","state":"WI","zip":"54961","distance":"13.793730735778809","lon":"-88.742378","lat":"44.392788","theaterChainName":"Independent Chains","ticketType":"STANDARD"}]