[{"id":"1480","name":"Marcus Hollywood Cinemas","address":"513 North Westhill Blvd","city":"Grand Chute","state":"WI","zip":"54914","distance":"23.16778564453125","lon":"-88.463348","lat":"44.264179","theaterChainName":"Marcus Theaters","ticketType":"STANDARD"},{"id":"2779","name":"Shawano Cinema I, II, III, IV","address":"1494 E. Green Bay St.","city":"Shawano","state":"WI","zip":"54166","distance":"19.171977996826172","lon":"-88.559807","lat":"44.780735","theaterChainName":"Independent Chains","ticketType":"STANDARD"},{"id":"2492","name":"Rogers Grand Theater","address":"208 Wolf River Plaza","city":"New London","state":"WI","zip":"54961","distance":"9.813277244567871","lon":"-88.742378","lat":"44.392788","theaterChainName":"Independent Chains","ticketType":"STANDARD"},{"id":"2493","name":"Rogers Rosa Theatre","address":"218 S. Main","city":"Waupaca","state":"WI","zip":"54981","distance":"21.0015926361084","lon":"-89.085098","lat":"44.356411","theaterChainName":"Independent Chains","ticketType":"STANDARD"}]