[{"id":"4677","name":"Forest Mall Cinema","address":"755 W. Johnson Street","city":"North Fond du Lac","state":"WI","zip":"54935","distance":"23.664770126342773","lon":"-88.475838","lat":"43.785519","theaterChainName":"Independent Chains","ticketType":"STANDARD"},{"id":"1690","name":"Fond Du Lac Theatre 8","address":"1131 W. Scott Street","city":"Fond du Lac","state":"WI","zip":"54937","distance":"22.970447540283203","lon":"-88.489029","lat":"43.792580","theaterChainName":"Independent Chains","ticketType":"STANDARD"},{"id":"1478","name":"Oshkosh Cinema","address":"340 South Koeller Road","city":"Oshkosh","state":"WI","zip":"54902","distance":"7.022655963897705","lon":"-88.581429","lat":"44.015823","theaterChainName":"Marcus Theaters","ticketType":"STANDARD"},{"id":"1477","name":"Marcus Campus Theatre","address":"103 Watson St.","city":"Ripon","state":"WI","zip":"54971","distance":"19.987123489379883","lon":"-88.838425","lat":"43.846123","theaterChainName":"Marcus Theaters","ticketType":"STANDARD"},{"id":"1972","name":"Chilton Cinema Cafe","address":"26 N. Madison St.","city":"Chilton","state":"WI","zip":"53014","distance":"24.911436080932617","lon":"-88.162804","lat":"44.029202","theaterChainName":"Get Reel Inc","ticketType":"STANDARD"},{"id":"1483","name":"Marcus Valley Value Cinemas","address":"1401 Valley Fair Mall","city":"Appleton","state":"WI","zip":"54915","distance":"17.86446189880371","lon":"-88.353073","lat":"44.245544","theaterChainName":"Marcus Theaters","ticketType":"STANDARD"},{"id":"4953","name":"Marcus Cinema Appleton East","address":"W3091 Van Roy Road","city":"Appleton","state":"WI","zip":"54915","distance":"18.640161514282227","lon":"-88.343971","lat":"44.255974","theaterChainName":"Marcus Theaters","ticketType":"STANDARD"},{"id":"1480","name":"Marcus Hollywood Cinemas","address":"513 North Westhill Blvd","city":"Grand Chute","state":"WI","zip":"54914","distance":"14.595593452453613","lon":"-88.463348","lat":"44.264179","theaterChainName":"Marcus Theaters","ticketType":"STANDARD"},{"id":"2492","name":"Rogers Grand Theater","address":"208 Wolf River Plaza","city":"New London","state":"WI","zip":"54961","distance":"20.490211486816406","lon":"-88.742378","lat":"44.392788","theaterChainName":"Independent Chains","ticketType":"STANDARD"}]