[{"id":"4677","tribuneTheaterId":"9881","providerTheaterId":"","name":"Forest Mall Cinema","address":"755 W. Johnson Street","city":"North Fond du Lac","state":"WI","zip":"54935","distance":6.6319493057946,"lon":"-88.47584","lat":"43.785519","theaterChainName":"Independent Chains","ticketType":"STANDARD"},{"id":"1690","tribuneTheaterId":"2097","providerTheaterId":"","name":"Fond Du Lac Theatre 8","address":"1131 W. Scott Street","city":"Fond du Lac","state":"WI","zip":"54937","distance":6.1242909788092,"lon":"-88.48903","lat":"43.792581","theaterChainName":"Independent Chains","ticketType":"STANDARD"},{"id":"1477","tribuneTheaterId":"4819","providerTheaterId":"","name":"Marcus Campus Theatre","address":"103 Watson St.","city":"Ripon","state":"WI","zip":"54971","distance":12.887240246806,"lon":"-88.838423","lat":"43.846122","theaterChainName":"Marcus Theaters","ticketType":"STANDARD"},{"id":"1478","tribuneTheaterId":"4833","providerTheaterId":"","name":"Oshkosh Cinema","address":"340 South Koeller Road","city":"Oshkosh","state":"WI","zip":"54902","distance":17.372407959741,"lon":"-88.581431","lat":"44.015825","theaterChainName":"Marcus Theaters","ticketType":"STANDARD"},{"id":"1502","tribuneTheaterId":"1467","providerTheaterId":"","name":"Rogers Cinema 5","address":"236 Front Street","city":"Beaver Dam","state":"WI","zip":"53916","distance":24.343611403486,"lon":"-88.84","lat":"43.4562","theaterChainName":"Independent Chains","ticketType":"STANDARD"}]