[{"id":"4677","name":"Forest Mall Cinema","address":"755 W. Johnson Street","city":"North Fond du Lac","state":"WI","zip":"54935","distance":"8.999210357666016","lon":"-88.475838","lat":"43.785519","theaterChainName":"Independent Chains","ticketType":"STANDARD"},{"id":"1690","name":"Fond Du Lac Theatre 8","address":"1131 W. Scott Street","city":"Fond du Lac","state":"WI","zip":"54937","distance":"8.19675064086914","lon":"-88.489029","lat":"43.792580","theaterChainName":"Independent Chains","ticketType":"STANDARD"},{"id":"1478","name":"Oshkosh Cinema","address":"340 South Koeller Road","city":"Oshkosh","state":"WI","zip":"54902","distance":"12.37912368774414","lon":"-88.581429","lat":"44.015823","theaterChainName":"Marcus Theaters","ticketType":"STANDARD"},{"id":"1477","name":"Marcus Campus Theatre","address":"103 Watson St.","city":"Ripon","state":"WI","zip":"54971","distance":"9.953404426574707","lon":"-88.838425","lat":"43.846123","theaterChainName":"Marcus Theaters","ticketType":"STANDARD"}]