[{"id":"2492","name":"Rogers Grand Theater","address":"208 Wolf River Plaza","city":"New London","state":"WI","zip":"54961","distance":"21.727807998657227","lon":"-88.742378","lat":"44.392788","theaterChainName":"Independent Chains","ticketType":"STANDARD"},{"id":"2493","name":"Rogers Rosa Theatre","address":"218 S. Main","city":"Waupaca","state":"WI","zip":"54981","distance":"12.416547775268555","lon":"-89.085098","lat":"44.356411","theaterChainName":"Independent Chains","ticketType":"STANDARD"},{"id":"2245","name":"Rogers Cinemas 6","address":"2725 Church St.","city":"Stevens Point","state":"WI","zip":"54481","distance":"21.432270050048828","lon":"-89.571297","lat":"44.510799","theaterChainName":"Independent Chains","ticketType":"STANDARD"},{"id":"1476","name":"Rogers Campus 4","address":"1601 Sixth Avenue","city":"Stevens Point","state":"WI","zip":"54481","distance":"21.60898208618164","lon":"-89.575996","lat":"44.531399","theaterChainName":"Independent Chains","ticketType":"STANDARD"}]