[{"id":"1480","tribuneTheaterId":"4843","providerTheaterId":"","name":"Marcus Hollywood Cinemas","address":"513 North Westhill Blvd","city":"Grand Chute","state":"WI","zip":"54914","distance":5.4157301571456,"lon":"-88.463352","lat":"44.264181","theaterChainName":"Marcus Theaters","ticketType":"STANDARD"},{"id":"4953","tribuneTheaterId":"10309","providerTheaterId":"","name":"Marcus Cinema Appleton East","address":"W3091 Van Roy Road","city":"Appleton","state":"WI","zip":"54915","distance":7.6165843441934,"lon":"-88.343972","lat":"44.255974","theaterChainName":"Marcus Theaters","ticketType":"STANDARD"},{"id":"1483","tribuneTheaterId":"4825","providerTheaterId":"","name":"Marcus Valley Value Cinemas","address":"1401 Valley Fair Mall","city":"Appleton","state":"WI","zip":"54915","distance":6.8159466049266,"lon":"-88.353075","lat":"44.245545","theaterChainName":"Marcus Theaters","ticketType":"STANDARD"},{"id":"1478","tribuneTheaterId":"4833","providerTheaterId":"","name":"Oshkosh Cinema","address":"340 South Koeller Road","city":"Oshkosh","state":"WI","zip":"54902","distance":13.141076607083,"lon":"-88.581431","lat":"44.015825","theaterChainName":"Marcus Theaters","ticketType":"STANDARD"},{"id":"1972","tribuneTheaterId":"292","providerTheaterId":"","name":"Chilton Cinema Cafe","address":"26 N. Madison St.","city":"Chilton","state":"WI","zip":"53014","distance":18.392501545517,"lon":"-88.162804","lat":"44.029202","theaterChainName":"Get Reel Inc","ticketType":"STANDARD"},{"id":"2492","tribuneTheaterId":"1704","providerTheaterId":"","name":"Rogers Grand Theater","address":"208 Wolf River Plaza","city":"New London","state":"WI","zip":"54961","distance":19.899914162654,"lon":"-88.74238","lat":"44.392787","theaterChainName":"Independent Chains","ticketType":"STANDARD"}]