[{"id":"2493","tribuneTheaterId":"1705","providerTheaterId":"","name":"Rogers Rosa Theatre","address":"218 S. Main","city":"Waupaca","state":"WI","zip":"54981","distance":13.722419472071,"lon":"-89.085099","lat":"44.35641","theaterChainName":"Independent Chains","ticketType":"STANDARD"},{"id":"2492","tribuneTheaterId":"1704","providerTheaterId":"","name":"Rogers Grand Theater","address":"208 Wolf River Plaza","city":"New London","state":"WI","zip":"54961","distance":21.798104013024,"lon":"-88.74238","lat":"44.392787","theaterChainName":"Independent Chains","ticketType":"STANDARD"},{"id":"1477","tribuneTheaterId":"4819","providerTheaterId":"","name":"Marcus Campus Theatre","address":"103 Watson St.","city":"Ripon","state":"WI","zip":"54971","distance":23.922386551777,"lon":"-88.838423","lat":"43.846122","theaterChainName":"Marcus Theaters","ticketType":"STANDARD"},{"id":"1478","tribuneTheaterId":"4833","providerTheaterId":"","name":"Oshkosh Cinema","address":"340 South Koeller Road","city":"Oshkosh","state":"WI","zip":"54902","distance":24.871646863252,"lon":"-88.581431","lat":"44.015825","theaterChainName":"Marcus Theaters","ticketType":"STANDARD"}]