[{"id":"1483","name":"Marcus Valley Value Cinemas","address":"1401 Valley Fair Mall","city":"Appleton","state":"WI","zip":"54915","distance":"22.341188430786133","lon":"-88.353073","lat":"44.245544","theaterChainName":"Marcus Theaters","ticketType":"STANDARD"},{"id":"4953","name":"Marcus Cinema Appleton East","address":"W3091 Van Roy Road","city":"Appleton","state":"WI","zip":"54915","distance":"22.42791175842285","lon":"-88.343971","lat":"44.255974","theaterChainName":"Marcus Theaters","ticketType":"STANDARD"},{"id":"1480","name":"Marcus Hollywood Cinemas","address":"513 North Westhill Blvd","city":"Grand Chute","state":"WI","zip":"54914","distance":"16.952178955078125","lon":"-88.463348","lat":"44.264179","theaterChainName":"Marcus Theaters","ticketType":"STANDARD"},{"id":"2492","name":"Rogers Grand Theater","address":"208 Wolf River Plaza","city":"New London","state":"WI","zip":"54961","distance":"0.6430221199989319","lon":"-88.742378","lat":"44.392788","theaterChainName":"Independent Chains","ticketType":"STANDARD"},{"id":"2493","name":"Rogers Rosa Theatre","address":"218 S. Main","city":"Waupaca","state":"WI","zip":"54981","distance":"16.47660255432129","lon":"-89.085098","lat":"44.356411","theaterChainName":"Independent Chains","ticketType":"STANDARD"}]