[{"id":"4677","name":"Forest Mall Cinema","address":"755 W. Johnson Street","city":"North Fond du Lac","state":"WI","zip":"54935","distance":"20.32887077331543","lon":"-88.475838","lat":"43.785519","theaterChainName":"Independent Chains","ticketType":"STANDARD"},{"id":"1690","name":"Fond Du Lac Theatre 8","address":"1131 W. Scott Street","city":"Fond du Lac","state":"WI","zip":"54937","distance":"19.516441345214844","lon":"-88.489029","lat":"43.792580","theaterChainName":"Independent Chains","ticketType":"STANDARD"},{"id":"1478","name":"Oshkosh Cinema","address":"340 South Koeller Road","city":"Oshkosh","state":"WI","zip":"54902","distance":"9.61799144744873","lon":"-88.581429","lat":"44.015823","theaterChainName":"Marcus Theaters","ticketType":"STANDARD"},{"id":"1477","name":"Marcus Campus Theatre","address":"103 Watson St.","city":"Ripon","state":"WI","zip":"54971","distance":"10.397993087768555","lon":"-88.838425","lat":"43.846123","theaterChainName":"Marcus Theaters","ticketType":"STANDARD"},{"id":"1480","name":"Marcus Hollywood Cinemas","address":"513 North Westhill Blvd","city":"Grand Chute","state":"WI","zip":"54914","distance":"24.407625198364258","lon":"-88.463348","lat":"44.264179","theaterChainName":"Marcus Theaters","ticketType":"STANDARD"}]