[{"id":"1784","name":"New Richmond 8","address":"1261 Heritage Dr.","city":"New Richmond","state":"WI","zip":"54017","distance":"24.533306121826172","lon":"-92.537041","lat":"45.109013","theaterChainName":"Independent Chains","ticketType":"STANDARD"},{"id":"2183","name":"St. Croix Falls Cinema 8","address":"200 N. Washington Ave.","city":"Saint Croix Falls","state":"WI","zip":"54024","distance":"12.501201629638672","lon":"-92.644897","lat":"45.411999","theaterChainName":"Independent Chains","ticketType":"STANDARD"},{"id":"1388","name":"Forest Lake 5 Theatre","address":"1480 South Lake Drive","city":"Forest Lake","state":"MN","zip":"55025","distance":"8.083874702453613","lon":"-92.985275","lat":"45.264179","theaterChainName":"Independent Chains","ticketType":"STANDARD"},{"id":"2981","name":"Marcus ULTRACINEMA Oakdale","address":"5677 Hadley Ave N.","city":"Oakdale","state":"MN","zip":"55128","distance":"23.10870361328125","lon":"-92.972313","lat":"45.031475","theaterChainName":"Marcus Theaters","ticketType":"STANDARD"},{"id":"1439","name":"White Bear Township Theatre","address":"1180 County Road J","city":"White Bear Lake","state":"MN","zip":"55110","distance":"18.22892951965332","lon":"-93.053200","lat":"45.122917","theaterChainName":"Independent Chains","ticketType":"STANDARD"},{"id":"2475","name":"Carmike Wynnsong 15 Mounds View","address":"2430 Hwy. 10","city":"Mounds View","state":"MN","zip":"55112","distance":"23.55072021484375","lon":"-93.206299","lat":"45.101860","theaterChainName":"Carmike Cinemas","ticketType":"STANDARD"},{"id":"1432","name":"AMC Showplace Coon Rapids 16","address":"10051 Woodcrest Dr. NW","city":"Coon Rapids","state":"MN","zip":"55433","distance":"23.65625","lon":"-93.277863","lat":"45.152603","theaterChainName":"AMC Theatres","ticketType":"STANDARD"},{"id":"1249","name":"East Bethel 10 Theatres","address":"18635 NE Ulysses","city":"East Bethel","state":"MN","zip":"55011","distance":"17.13248062133789","lon":"-93.236633","lat":"45.308014","theaterChainName":"Muller Family Theatres","ticketType":"STANDARD"},{"id":"2470","name":"Andover Cinema 10","address":"1836 Bunker Lake Blvd.","city":"Andover","state":"MN","zip":"55304","distance":"22.702957153320312","lon":"-93.312675","lat":"45.218250","theaterChainName":"CEC Theatres","ticketType":"STANDARD"}]