[{"id":"1388","tribuneTheaterId":"2938","providerTheaterId":"","name":"Forest Lake 5 Theatre","address":"1480 South Lake Drive","city":"Forest Lake","state":"MN","zip":"55025","distance":8.0833510904245,"lon":"-92.985277","lat":"45.26418","theaterChainName":"Independent Chains","ticketType":"STANDARD"},{"id":"2183","tribuneTheaterId":"2949","providerTheaterId":"","name":"St. Croix Falls Cinema 8","address":"200 N. Washington Ave.","city":"Saint Croix Falls","state":"WI","zip":"54024","distance":12.500556310597,"lon":"-92.644897","lat":"45.411999","theaterChainName":"Independent Chains","ticketType":"STANDARD"},{"id":"1249","tribuneTheaterId":"3142","providerTheaterId":"","name":"East Bethel 10 Theatres","address":"18635 NE Ulysses","city":"East Bethel","state":"MN","zip":"55011","distance":17.131152390997,"lon":"-93.23663","lat":"45.308014","theaterChainName":"Muller Family Theatres","ticketType":"STANDARD"},{"id":"1439","tribuneTheaterId":"3234","providerTheaterId":"","name":"White Bear Township Theatre","address":"1180 County Road J","city":"White Bear Lake","state":"MN","zip":"55110","distance":18.227892648929,"lon":"-93.053201","lat":"45.122916","theaterChainName":"Independent Chains","ticketType":"STANDARD"},{"id":"2470","tribuneTheaterId":"3158","providerTheaterId":"","name":"Andover Cinema 10","address":"1836 Bunker Lake Blvd.","city":"Andover","state":"MN","zip":"55304","distance":22.701610916245,"lon":"-93.312678","lat":"45.218249","theaterChainName":"CEC Theatres","ticketType":"STANDARD"},{"id":"2981","tribuneTheaterId":"5800","providerTheaterId":"","name":"Marcus ULTRACINEMA Oakdale","address":"5677 Hadley Ave N.","city":"Oakdale","state":"MN","zip":"55128","distance":23.107230793797,"lon":"-92.972312","lat":"45.031476","theaterChainName":"Marcus Theaters","ticketType":"STANDARD"},{"id":"1432","tribuneTheaterId":"8083","providerTheaterId":"6181","name":"AMC Showplace Coon Rapids 16","address":"10051 Woodcrest Dr. NW","city":"Coon Rapids","state":"MN","zip":"55433","distance":23.654658267645,"lon":"-93.277863","lat":"45.152605","theaterChainName":"AMC Theatres","ticketType":"STANDARD"},{"id":"2475","tribuneTheaterId":"5830","providerTheaterId":"","name":"Carmike Wynnsong 15 Mounds View","address":"2430 Hwy. 10","city":"Mounds View","state":"MN","zip":"55112","distance":23.549375628477,"lon":"-93.206302","lat":"45.101859","theaterChainName":"Carmike Cinemas","ticketType":"STANDARD"},{"id":"1784","tribuneTheaterId":"3087","providerTheaterId":"","name":"New Richmond 8","address":"1261 Heritage Dr.","city":"New Richmond","state":"WI","zip":"54017","distance":24.531795904605,"lon":"-92.537042","lat":"45.109014","theaterChainName":"Independent Chains","ticketType":"STANDARD"}]