[{"id":"811","tribuneTheaterId":"7761","providerTheaterId":"","name":"Marcus Cinema Hastings","address":"1325 S Frontage Rd","city":"Hastings","state":"MN","zip":"55033","distance":1.8012296897162,"lon":"-92.877954","lat":"44.736922","theaterChainName":"Marcus Theaters","ticketType":"STANDARD"},{"id":"812","tribuneTheaterId":"7916","providerTheaterId":"","name":"Marcus Cinema Rosemount","address":"15280 Carrousel Way","city":"Rosemount","state":"MN","zip":"55068","distance":13.29535469498,"lon":"-93.133673","lat":"44.728051","theaterChainName":"Marcus Theaters","ticketType":"STANDARD"},{"id":"1433","tribuneTheaterId":"8084","providerTheaterId":"6401","name":"AMC Showplace Inver Grove 16","address":"5567 Bishop Ave.","city":"Inver Grove Heights","state":"MN","zip":"55076","distance":14.377218357364,"lon":"-93.058673","lat":"44.868312","theaterChainName":"AMC Theatres","ticketType":"STANDARD"},{"id":"723","tribuneTheaterId":"5186","providerTheaterId":"","name":"Woodbury 10 Theatre","address":"1470 Queens Dr.","city":"Woodbury","state":"MN","zip":"55125","distance":15.575101745258,"lon":"-92.957243","lat":"44.928335","theaterChainName":"Independent Chains","ticketType":"STANDARD"},{"id":"5974","tribuneTheaterId":"11410","providerTheaterId":"","name":"Falls Theatre","address":"105 South Main Street","city":"River Falls","state":"WI","zip":"54022","distance":15.369335697017,"lon":"-92.626535","lat":"44.85832","theaterChainName":"Independent Chains","ticketType":"STANDARD"},{"id":"2993","tribuneTheaterId":"5831","providerTheaterId":"","name":"Carmike Oakdale Stadium 20","address":"1188 Helmo Ave North","city":"Oakdale","state":"MN","zip":"55128","distance":18.059199763842,"lon":"-92.956545","lat":"44.965847","theaterChainName":"Carmike Cinemas","ticketType":"STANDARD"},{"id":"2318","tribuneTheaterId":"5657","providerTheaterId":"","name":"Regal Eagan Stadium 16","address":"2055 Cliff Road","city":"Eagan","state":"MN","zip":"55122","distance":17.822080916575,"lon":"-93.209682","lat":"44.791416","theaterChainName":"Regal Cinemas","ticketType":"STANDARD"},{"id":"1851","tribuneTheaterId":"2106","providerTheaterId":"","name":"Red Wing Cinema 8","address":"140 Tyler Road North","city":"Red Wing","state":"MN","zip":"55066","distance":16.948919284767,"lon":"-92.5849","lat":"44.5686","theaterChainName":"Independent Chains","ticketType":"STANDARD"},{"id":"2004","tribuneTheaterId":"7455","providerTheaterId":"","name":"Carmike 15 Apple Valley","address":"15630 Cedar Ave.","city":"Apple Valley","state":"MN","zip":"55124","distance":17.343018512641,"lon":"-93.216668","lat":"44.722839","theaterChainName":"Carmike Cinemas","ticketType":"STANDARD"},{"id":"1948","tribuneTheaterId":"6535","providerTheaterId":"","name":"Hudson 12 Theatre","address":"520 Stage Line Rd","city":"Hudson","state":"WI","zip":"54016","distance":18.999329068787,"lon":"-92.692713","lat":"44.959705","theaterChainName":"CEC Theatres","ticketType":"STANDARD"},{"id":"1251","tribuneTheaterId":"3237","providerTheaterId":"","name":"Lakeville 21","address":"20653 Keokuk Ave","city":"Lakeville","state":"MN","zip":"55044","distance":21.792546895637,"lon":"-93.2985","lat":"44.6504","theaterChainName":"Muller Family Theatres","ticketType":"STANDARD"},{"id":"4538","tribuneTheaterId":"9671","providerTheaterId":"","name":"Paragon Odyssey 15","address":"14401 Burnhaven Drive","city":"Burnsville","state":"MN","zip":"55306","distance":20.837215695436,"lon":"-93.286322","lat":"44.741105","theaterChainName":"Paragon Theaters","ticketType":"STANDARD"},{"id":"763","tribuneTheaterId":"5166","providerTheaterId":"","name":"Mann Grandview 2 Theatres","address":"1830 Grand Ave.","city":"Saint Paul","state":"MN","zip":"55105","distance":21.965523735138,"lon":"-93.1777","lat":"44.939772","theaterChainName":"Mann Theatres MN","ticketType":"STANDARD"},{"id":"764","tribuneTheaterId":"6178","providerTheaterId":"","name":"Mann Highland Theatre","address":"760 Cleveland Ave.","city":"Saint Paul","state":"MN","zip":"55116","distance":21.283113442129,"lon":"-93.18713","lat":"44.918437","theaterChainName":"Mann Theatres MN","ticketType":"STANDARD"},{"id":"2981","tribuneTheaterId":"5800","providerTheaterId":"","name":"Marcus ULTRACINEMA Oakdale","address":"5677 Hadley Ave N.","city":"Oakdale","state":"MN","zip":"55128","distance":22.644817915768,"lon":"-92.972312","lat":"45.031476","theaterChainName":"Marcus Theaters","ticketType":"STANDARD"}]