[{"id":"1251","tribuneTheaterId":"3237","providerTheaterId":"","name":"Lakeville 21","address":"20653 Keokuk Ave","city":"Lakeville","state":"MN","zip":"55044","distance":15.331870858405,"lon":"-93.2985","lat":"44.6504","theaterChainName":"Muller Family Theatres","ticketType":"STANDARD"},{"id":"4538","tribuneTheaterId":"9671","providerTheaterId":"","name":"Paragon Odyssey 15","address":"14401 Burnhaven Drive","city":"Burnsville","state":"MN","zip":"55306","distance":21.392885089636,"lon":"-93.286322","lat":"44.741105","theaterChainName":"Paragon Theaters","ticketType":"STANDARD"},{"id":"2004","tribuneTheaterId":"7455","providerTheaterId":"","name":"Carmike 15 Apple Valley","address":"15630 Cedar Ave.","city":"Apple Valley","state":"MN","zip":"55124","distance":21.60299589667,"lon":"-93.216668","lat":"44.722839","theaterChainName":"Carmike Cinemas","ticketType":"STANDARD"},{"id":"6079","tribuneTheaterId":"11486","providerTheaterId":"","name":"Soutbridge Crossing Cinema","address":"8380 Hansen Ave","city":"Shakopee","state":"MN","zip":"55379","distance":22.723904076913,"lon":"-93.410826","lat":"44.776428","theaterChainName":"Marcus Theaters","ticketType":"STANDARD"},{"id":"813","tribuneTheaterId":"8218","providerTheaterId":"","name":"Marcus Cinema Shakopee","address":"1116 Shakopee Town Sq","city":"Shakopee","state":"MN","zip":"55379","distance":24.140825001755,"lon":"-93.554181","lat":"44.784816","theaterChainName":"Marcus Theaters","ticketType":"STANDARD"},{"id":"812","tribuneTheaterId":"7916","providerTheaterId":"","name":"Marcus Cinema Rosemount","address":"15280 Carrousel Way","city":"Rosemount","state":"MN","zip":"55068","distance":24.103720115494,"lon":"-93.133673","lat":"44.728051","theaterChainName":"Marcus Theaters","ticketType":"STANDARD"}]