[{"id":"812","tribuneTheaterId":"7916","providerTheaterId":"","name":"Marcus Cinema Rosemount","address":"15280 Carrousel Way","city":"Rosemount","state":"MN","zip":"55068","distance":14.95541531111,"lon":"-93.133673","lat":"44.728051","theaterChainName":"Marcus Theaters","ticketType":"STANDARD"},{"id":"1251","tribuneTheaterId":"3237","providerTheaterId":"","name":"Lakeville 21","address":"20653 Keokuk Ave","city":"Lakeville","state":"MN","zip":"55044","distance":16.141769095718,"lon":"-93.2985","lat":"44.6504","theaterChainName":"Muller Family Theatres","ticketType":"STANDARD"},{"id":"811","tribuneTheaterId":"7761","providerTheaterId":"","name":"Marcus Cinema Hastings","address":"1325 S Frontage Rd","city":"Hastings","state":"MN","zip":"55033","distance":16.06475319174,"lon":"-92.877954","lat":"44.736922","theaterChainName":"Marcus Theaters","ticketType":"STANDARD"},{"id":"2004","tribuneTheaterId":"7455","providerTheaterId":"","name":"Carmike 15 Apple Valley","address":"15630 Cedar Ave.","city":"Apple Valley","state":"MN","zip":"55124","distance":16.620969233654,"lon":"-93.216668","lat":"44.722839","theaterChainName":"Carmike Cinemas","ticketType":"STANDARD"},{"id":"4538","tribuneTheaterId":"9671","providerTheaterId":"","name":"Paragon Odyssey 15","address":"14401 Burnhaven Drive","city":"Burnsville","state":"MN","zip":"55306","distance":19.748366847292,"lon":"-93.286322","lat":"44.741105","theaterChainName":"Paragon Theaters","ticketType":"STANDARD"},{"id":"2318","tribuneTheaterId":"5657","providerTheaterId":"","name":"Regal Eagan Stadium 16","address":"2055 Cliff Road","city":"Eagan","state":"MN","zip":"55122","distance":20.494600671547,"lon":"-93.209682","lat":"44.791416","theaterChainName":"Regal Cinemas","ticketType":"STANDARD"},{"id":"1851","tribuneTheaterId":"2106","providerTheaterId":"","name":"Red Wing Cinema 8","address":"140 Tyler Road North","city":"Red Wing","state":"MN","zip":"55066","distance":21.593165730274,"lon":"-92.5849","lat":"44.5686","theaterChainName":"Independent Chains","ticketType":"STANDARD"},{"id":"1433","tribuneTheaterId":"8084","providerTheaterId":"6401","name":"AMC Showplace Inver Grove 16","address":"5567 Bishop Ave.","city":"Inver Grove Heights","state":"MN","zip":"55076","distance":23.632776459763,"lon":"-93.058673","lat":"44.868312","theaterChainName":"AMC Theatres","ticketType":"STANDARD"}]