[{"id":"1388","tribuneTheaterId":"2938","providerTheaterId":"","name":"Forest Lake 5 Theatre","address":"1480 South Lake Drive","city":"Forest Lake","state":"MN","zip":"55025","distance":9.3451793742061,"lon":"-92.985277","lat":"45.26418","theaterChainName":"Independent Chains","ticketType":"STANDARD"},{"id":"1249","tribuneTheaterId":"3142","providerTheaterId":"","name":"East Bethel 10 Theatres","address":"18635 NE Ulysses","city":"East Bethel","state":"MN","zip":"55011","distance":12.297403311099,"lon":"-93.23663","lat":"45.308014","theaterChainName":"Muller Family Theatres","ticketType":"STANDARD"},{"id":"2183","tribuneTheaterId":"2949","providerTheaterId":"","name":"St. Croix Falls Cinema 8","address":"200 N. Washington Ave.","city":"Saint Croix Falls","state":"WI","zip":"54024","distance":18.11238059359,"lon":"-92.644897","lat":"45.411999","theaterChainName":"Independent Chains","ticketType":"STANDARD"},{"id":"1439","tribuneTheaterId":"3234","providerTheaterId":"","name":"White Bear Township Theatre","address":"1180 County Road J","city":"White Bear Lake","state":"MN","zip":"55110","distance":19.05031605768,"lon":"-93.053201","lat":"45.122916","theaterChainName":"Independent Chains","ticketType":"STANDARD"},{"id":"2470","tribuneTheaterId":"3158","providerTheaterId":"","name":"Andover Cinema 10","address":"1836 Bunker Lake Blvd.","city":"Andover","state":"MN","zip":"55304","distance":18.943311844994,"lon":"-93.312678","lat":"45.218249","theaterChainName":"CEC Theatres","ticketType":"STANDARD"},{"id":"1432","tribuneTheaterId":"8083","providerTheaterId":"6181","name":"AMC Showplace Coon Rapids 16","address":"10051 Woodcrest Dr. NW","city":"Coon Rapids","state":"MN","zip":"55433","distance":21.126151276242,"lon":"-93.277863","lat":"45.152605","theaterChainName":"AMC Theatres","ticketType":"STANDARD"},{"id":"2475","tribuneTheaterId":"5830","providerTheaterId":"","name":"Carmike Wynnsong 15 Mounds View","address":"2430 Hwy. 10","city":"Mounds View","state":"MN","zip":"55112","distance":22.392390700613,"lon":"-93.206302","lat":"45.101859","theaterChainName":"Carmike Cinemas","ticketType":"STANDARD"},{"id":"3488","tribuneTheaterId":"3214","providerTheaterId":"","name":"Mann Champlin Cinema 14","address":"11500 Theater Drive","city":"Champlin","state":"MN","zip":"55316","distance":24.48471497373,"lon":"-93.393752","lat":"45.161783","theaterChainName":"Mann Theatres MN","ticketType":"STANDARD"}]