[{"id":"2981","tribuneTheaterId":"5800","providerTheaterId":"","name":"Marcus ULTRACINEMA Oakdale","address":"5677 Hadley Ave N.","city":"Oakdale","state":"MN","zip":"55128","distance":6.4387771268292,"lon":"-92.972312","lat":"45.031476","theaterChainName":"Marcus Theaters","ticketType":"STANDARD"},{"id":"2993","tribuneTheaterId":"5831","providerTheaterId":"","name":"Carmike Oakdale Stadium 20","address":"1188 Helmo Ave North","city":"Oakdale","state":"MN","zip":"55128","distance":8.4857862831695,"lon":"-92.956545","lat":"44.965847","theaterChainName":"Carmike Cinemas","ticketType":"STANDARD"},{"id":"723","tribuneTheaterId":"5186","providerTheaterId":"","name":"Woodbury 10 Theatre","address":"1470 Queens Dr.","city":"Woodbury","state":"MN","zip":"55125","distance":10.645774833944,"lon":"-92.957243","lat":"44.928335","theaterChainName":"Independent Chains","ticketType":"STANDARD"},{"id":"1439","tribuneTheaterId":"3234","providerTheaterId":"","name":"White Bear Township Theatre","address":"1180 County Road J","city":"White Bear Lake","state":"MN","zip":"55110","distance":10.901228511345,"lon":"-93.053201","lat":"45.122916","theaterChainName":"Independent Chains","ticketType":"STANDARD"},{"id":"1948","tribuneTheaterId":"6535","providerTheaterId":"","name":"Hudson 12 Theatre","address":"520 Stage Line Rd","city":"Hudson","state":"WI","zip":"54016","distance":10.318173662315,"lon":"-92.692713","lat":"44.959705","theaterChainName":"CEC Theatres","ticketType":"STANDARD"},{"id":"1784","tribuneTheaterId":"3087","providerTheaterId":"","name":"New Richmond 8","address":"1261 Heritage Dr.","city":"New Richmond","state":"WI","zip":"54017","distance":15.493674019268,"lon":"-92.537042","lat":"45.109014","theaterChainName":"Independent Chains","ticketType":"STANDARD"},{"id":"1388","tribuneTheaterId":"2938","providerTheaterId":"","name":"Forest Lake 5 Theatre","address":"1480 South Lake Drive","city":"Forest Lake","state":"MN","zip":"55025","distance":15.537654909591,"lon":"-92.985277","lat":"45.26418","theaterChainName":"Independent Chains","ticketType":"STANDARD"},{"id":"4279","tribuneTheaterId":"8693","providerTheaterId":"651","name":"AMC Rosedale 14","address":"850 Rosedale Center","city":"Roseville","state":"MN","zip":"55113","distance":16.057610301032,"lon":"-93.169173","lat":"45.013331","theaterChainName":"AMC Theatres","ticketType":"STANDARD"},{"id":"763","tribuneTheaterId":"5166","providerTheaterId":"","name":"Mann Grandview 2 Theatres","address":"1830 Grand Ave.","city":"Saint Paul","state":"MN","zip":"55105","distance":18.194136488079,"lon":"-93.1777","lat":"44.939772","theaterChainName":"Mann Theatres MN","ticketType":"STANDARD"},{"id":"2475","tribuneTheaterId":"5830","providerTheaterId":"","name":"Carmike Wynnsong 15 Mounds View","address":"2430 Hwy. 10","city":"Mounds View","state":"MN","zip":"55112","distance":17.73136903444,"lon":"-93.206302","lat":"45.101859","theaterChainName":"Carmike Cinemas","ticketType":"STANDARD"},{"id":"1433","tribuneTheaterId":"8084","providerTheaterId":"6401","name":"AMC Showplace Inver Grove 16","address":"5567 Bishop Ave.","city":"Inver Grove Heights","state":"MN","zip":"55076","distance":16.871842919392,"lon":"-93.058673","lat":"44.868312","theaterChainName":"AMC Theatres","ticketType":"STANDARD"},{"id":"5974","tribuneTheaterId":"11410","providerTheaterId":"","name":"Falls Theatre","address":"105 South Main Street","city":"River Falls","state":"WI","zip":"54022","distance":17.705449472146,"lon":"-92.626535","lat":"44.85832","theaterChainName":"Independent Chains","ticketType":"STANDARD"},{"id":"1250","tribuneTheaterId":"6576","providerTheaterId":"","name":"Heights Theatre","address":"3951 NE  Central Ave","city":"Columbia Heights","state":"MN","zip":"55421","distance":19.572995825058,"lon":"-93.247206","lat":"45.039757","theaterChainName":"Independent Chains","ticketType":"STANDARD"},{"id":"764","tribuneTheaterId":"6178","providerTheaterId":"","name":"Mann Highland Theatre","address":"760 Cleveland Ave.","city":"Saint Paul","state":"MN","zip":"55116","distance":19.317325939756,"lon":"-93.18713","lat":"44.918437","theaterChainName":"Mann Theatres MN","ticketType":"STANDARD"},{"id":"3573","tribuneTheaterId":"2917","providerTheaterId":"","name":"Merrick Cinemas","address":"15 Fisher Ave.","city":"Merrick","state":"NY","zip":"11566","distance":20.630535014224,"lon":"-93.255702","lat":"44.984798","theaterChainName":"Independent Chains","ticketType":"STANDARD"},{"id":"1255","tribuneTheaterId":"4072","providerTheaterId":"","name":"St. Anthony Main","address":"115 SE Main Street","city":"Minneapolis","state":"MN","zip":"55414","distance":20.630841058392,"lon":"-93.25571","lat":"44.984802","theaterChainName":"Independent Chains","ticketType":"STANDARD"},{"id":"3083","tribuneTheaterId":"8591","providerTheaterId":"","name":"Regal Brooklyn Center Stadium 20","address":"6420 Camden Ave North","city":"Minneapolis","state":"MN","zip":"55430","distance":21.528218205402,"lon":"-93.288302","lat":"45.072007","theaterChainName":"Regal Cinemas","ticketType":"STANDARD"},{"id":"1432","tribuneTheaterId":"8083","providerTheaterId":"6181","name":"AMC Showplace Coon Rapids 16","address":"10051 Woodcrest Dr. NW","city":"Coon Rapids","state":"MN","zip":"55433","distance":21.91697944267,"lon":"-93.277863","lat":"45.152605","theaterChainName":"AMC Theatres","ticketType":"STANDARD"},{"id":"811","tribuneTheaterId":"7761","providerTheaterId":"","name":"Marcus Cinema Hastings","address":"1325 S Frontage Rd","city":"Hastings","state":"MN","zip":"55033","distance":22.469072367235,"lon":"-92.877954","lat":"44.736922","theaterChainName":"Marcus Theaters","ticketType":"STANDARD"}]