[{"id":"1851","tribuneTheaterId":"2106","providerTheaterId":"","name":"Red Wing Cinema 8","address":"140 Tyler Road North","city":"Red Wing","state":"MN","zip":"55066","distance":7.3527970388529,"lon":"-92.5849","lat":"44.5686","theaterChainName":"Independent Chains","ticketType":"STANDARD"},{"id":"811","tribuneTheaterId":"7761","providerTheaterId":"","name":"Marcus Cinema Hastings","address":"1325 S Frontage Rd","city":"Hastings","state":"MN","zip":"55033","distance":11.880637680773,"lon":"-92.877954","lat":"44.736922","theaterChainName":"Marcus Theaters","ticketType":"STANDARD"},{"id":"5974","tribuneTheaterId":"11410","providerTheaterId":"","name":"Falls Theatre","address":"105 South Main Street","city":"River Falls","state":"WI","zip":"54022","distance":18.30797616614,"lon":"-92.626535","lat":"44.85832","theaterChainName":"Independent Chains","ticketType":"STANDARD"},{"id":"812","tribuneTheaterId":"7916","providerTheaterId":"","name":"Marcus Cinema Rosemount","address":"15280 Carrousel Way","city":"Rosemount","state":"MN","zip":"55068","distance":21.803572103786,"lon":"-93.133673","lat":"44.728051","theaterChainName":"Marcus Theaters","ticketType":"STANDARD"},{"id":"1433","tribuneTheaterId":"8084","providerTheaterId":"6401","name":"AMC Showplace Inver Grove 16","address":"5567 Bishop Ave.","city":"Inver Grove Heights","state":"MN","zip":"55076","distance":24.538879807436,"lon":"-93.058673","lat":"44.868312","theaterChainName":"AMC Theatres","ticketType":"STANDARD"},{"id":"1948","tribuneTheaterId":"6535","providerTheaterId":"","name":"Hudson 12 Theatre","address":"520 Stage Line Rd","city":"Hudson","state":"WI","zip":"54016","distance":24.700908685063,"lon":"-92.692713","lat":"44.959705","theaterChainName":"CEC Theatres","ticketType":"STANDARD"}]