[{"id":"1784","name":"New Richmond 8","address":"1261 Heritage Dr.","city":"New Richmond","state":"WI","zip":"54017","distance":"20.845767974853516","lon":"-92.537041","lat":"45.109013","theaterChainName":"Independent Chains","ticketType":"STANDARD"},{"id":"1948","name":"Hudson 12 Theatre","address":"520 Stage Line Rd","city":"Hudson","state":"WI","zip":"54016","distance":"14.446866035461426","lon":"-92.692711","lat":"44.959705","theaterChainName":"CEC Theatres","ticketType":"STANDARD"},{"id":"5974","name":"Falls Theatre","address":"105 South Main Street","city":"River Falls","state":"WI","zip":"54022","distance":"21.047489166259766","lon":"-92.626534","lat":"44.858318","theaterChainName":"Independent Chains","ticketType":"STANDARD"},{"id":"1388","name":"Forest Lake 5 Theatre","address":"1480 South Lake Drive","city":"Forest Lake","state":"MN","zip":"55025","distance":"14.62238883972168","lon":"-92.985275","lat":"45.264179","theaterChainName":"Independent Chains","ticketType":"STANDARD"},{"id":"811","name":"Marcus Cinema Hastings","address":"1325 S Frontage Rd","city":"Hastings","state":"MN","zip":"55033","distance":"22.214338302612305","lon":"-92.877953","lat":"44.736923","theaterChainName":"Marcus Theaters","ticketType":"STANDARD"},{"id":"723","name":"Woodbury 10 Theatre","address":"1470 Queens Dr.","city":"Woodbury","state":"MN","zip":"55125","distance":"8.6488037109375","lon":"-92.957245","lat":"44.928333","theaterChainName":"Independent Chains","ticketType":"STANDARD"},{"id":"2993","name":"Carmike Oakdale Stadium 20","address":"1188 Helmo Ave North","city":"Oakdale","state":"MN","zip":"55128","distance":"6.056728839874268","lon":"-92.956543","lat":"44.965847","theaterChainName":"Carmike Cinemas","ticketType":"STANDARD"},{"id":"2981","name":"Marcus ULTRACINEMA Oakdale","address":"5677 Hadley Ave N.","city":"Oakdale","state":"MN","zip":"55128","distance":"1.6956456899642944","lon":"-92.972313","lat":"45.031475","theaterChainName":"Marcus Theaters","ticketType":"STANDARD"},{"id":"1433","name":"AMC Showplace Inver Grove 16","address":"5567 Bishop Ave.","city":"Inver Grove Heights","state":"MN","zip":"55076","distance":"13.727668762207031","lon":"-93.058670","lat":"44.868313","theaterChainName":"AMC Theatres","ticketType":"STANDARD"},{"id":"812","name":"Marcus Cinema Rosemount","address":"15280 Carrousel Way","city":"Rosemount","state":"MN","zip":"55068","distance":"24.093610763549805","lon":"-93.133675","lat":"44.728050","theaterChainName":"Marcus Theaters","ticketType":"STANDARD"},{"id":"2318","name":"Regal Eagan Stadium 16","address":"2055 Cliff Road","city":"Eagan","state":"MN","zip":"55122","distance":"21.926673889160156","lon":"-93.209679","lat":"44.791416","theaterChainName":"Regal Cinemas","ticketType":"STANDARD"},{"id":"1439","name":"White Bear Township Theatre","address":"1180 County Road J","city":"White Bear Lake","state":"MN","zip":"55110","distance":"6.7104620933532715","lon":"-93.053200","lat":"45.122917","theaterChainName":"Independent Chains","ticketType":"STANDARD"},{"id":"4279","name":"AMC Rosedale 14","address":"850 Rosedale Center","city":"Roseville","state":"MN","zip":"55113","distance":"10.725950241088867","lon":"-93.169174","lat":"45.013332","theaterChainName":"AMC Theatres","ticketType":"STANDARD"},{"id":"763","name":"Mann Grandview 2 Theatres","address":"1830 Grand Ave.","city":"Saint Paul","state":"MN","zip":"55105","distance":"13.343174934387207","lon":"-93.177696","lat":"44.939774","theaterChainName":"Mann Theatres MN","ticketType":"STANDARD"},{"id":"764","name":"Mann Highland Theatre","address":"760 Cleveland Ave.","city":"Saint Paul","state":"MN","zip":"55116","distance":"14.6146821975708","lon":"-93.187134","lat":"44.918438","theaterChainName":"Mann Theatres MN","ticketType":"STANDARD"},{"id":"2475","name":"Carmike Wynnsong 15 Mounds View","address":"2430 Hwy. 10","city":"Mounds View","state":"MN","zip":"55112","distance":"12.61462688446045","lon":"-93.206299","lat":"45.101860","theaterChainName":"Carmike Cinemas","ticketType":"STANDARD"},{"id":"1250","name":"Heights Theatre","address":"3951 NE  Central Ave","city":"Columbia Heights","state":"MN","zip":"55421","distance":"14.199569702148438","lon":"-93.247208","lat":"45.039757","theaterChainName":"Independent Chains","ticketType":"STANDARD"},{"id":"3573","name":"Merrick Cinemas","address":"15 Fisher Ave.","city":"Merrick","state":"NY","zip":"11566","distance":"15.342238426208496","lon":"-93.255699","lat":"44.984798","theaterChainName":"Independent Chains","ticketType":"STANDARD"},{"id":"1255","name":"St. Anthony Main","address":"115 SE Main Street","city":"Minneapolis","state":"MN","zip":"55414","distance":"15.342510223388672","lon":"-93.255707","lat":"44.984802","theaterChainName":"Independent Chains","ticketType":"STANDARD"},{"id":"3083","name":"Regal Brooklyn Center Stadium 20","address":"6420 Camden Ave North","city":"Minneapolis","state":"MN","zip":"55430","distance":"16.21978187561035","lon":"-93.288300","lat":"45.072006","theaterChainName":"Regal Cinemas","ticketType":"STANDARD"},{"id":"1432","name":"AMC Showplace Coon Rapids 16","address":"10051 Woodcrest Dr. NW","city":"Coon Rapids","state":"MN","zip":"55433","distance":"17.081514358520508","lon":"-93.277863","lat":"45.152603","theaterChainName":"AMC Theatres","ticketType":"STANDARD"},{"id":"3444","name":"AMC Southdale 16","address":"400 Southdale Center","city":"Edina","state":"MN","zip":"55435","distance":"21.669885635375977","lon":"-93.325935","lat":"44.879669","theaterChainName":"AMC Theatres","ticketType":"STANDARD"},{"id":"1249","name":"East Bethel 10 Theatres","address":"18635 NE Ulysses","city":"East Bethel","state":"MN","zip":"55011","distance":"22.243301391601562","lon":"-93.236633","lat":"45.308014","theaterChainName":"Muller Family Theatres","ticketType":"STANDARD"},{"id":"4773","name":"Showplace ICON Theatre - Reserved","address":"1625 West End Blvd","city":"Saint Louis Park","state":"MN","zip":"55416","distance":"19.95229148864746","lon":"-93.347099","lat":"44.967945","theaterChainName":"Kerasotes","ticketType":"STANDARD"},{"id":"768","name":"Mann St. Louis Park Cinema 6","address":"5400 Excelsior Blvd.","city":"Saint Louis Park","state":"MN","zip":"55416","distance":"20.878026962280273","lon":"-93.348030","lat":"44.931744","theaterChainName":"Mann Theatres MN","ticketType":"STANDARD"},{"id":"2470","name":"Andover Cinema 10","address":"1836 Bunker Lake Blvd.","city":"Andover","state":"MN","zip":"55304","distance":"20.740127563476562","lon":"-93.312675","lat":"45.218250","theaterChainName":"CEC Theatres","ticketType":"STANDARD"},{"id":"1437","name":"New Hope Cinema Grill","address":"2749 Winnetka Ave. N","city":"New Hope","state":"MN","zip":"55427","distance":"20.96303367614746","lon":"-93.381577","lat":"45.008701","theaterChainName":"Independent Chains","ticketType":"STANDARD"},{"id":"405","name":"Willow Creek 12","address":"9900 Shelard Parkway","city":"Plymouth","state":"MN","zip":"55441","distance":"22.523046493530273","lon":"-93.405960","lat":"44.979168","theaterChainName":"Muller Family Theatres","ticketType":"STANDARD"},{"id":"765","name":"Mann Hopkins Cinema 6","address":"1118 Main Street","city":"Hopkins","state":"MN","zip":"55343","distance":"24.101078033447266","lon":"-93.414841","lat":"44.923847","theaterChainName":"Mann Theatres MN","ticketType":"STANDARD"},{"id":"3488","name":"Mann Champlin Cinema 14","address":"11500 Theater Drive","city":"Champlin","state":"MN","zip":"55316","distance":"22.575162887573242","lon":"-93.393753","lat":"45.161781","theaterChainName":"Mann Theatres MN","ticketType":"STANDARD"},{"id":"3215","name":"AMC Arbor Lakes 16","address":"12575 Elm Creek Blvd","city":"Maple Grove","state":"MN","zip":"55369","distance":"23.71402931213379","lon":"-93.439835","lat":"45.092445","theaterChainName":"AMC Theatres","ticketType":"STANDARD"}]