[{"id":"2981","tribuneTheaterId":"5800","providerTheaterId":"","name":"Marcus ULTRACINEMA Oakdale","address":"5677 Hadley Ave N.","city":"Oakdale","state":"MN","zip":"55128","distance":3.1757964828054,"lon":"-92.972312","lat":"45.031476","theaterChainName":"Marcus Theaters","ticketType":"STANDARD"},{"id":"2993","tribuneTheaterId":"5831","providerTheaterId":"","name":"Carmike Oakdale Stadium 20","address":"1188 Helmo Ave North","city":"Oakdale","state":"MN","zip":"55128","distance":7.3151567700548,"lon":"-92.956545","lat":"44.965847","theaterChainName":"Carmike Cinemas","ticketType":"STANDARD"},{"id":"1439","tribuneTheaterId":"3234","providerTheaterId":"","name":"White Bear Township Theatre","address":"1180 County Road J","city":"White Bear Lake","state":"MN","zip":"55110","distance":6.6209830575504,"lon":"-93.053201","lat":"45.122916","theaterChainName":"Independent Chains","ticketType":"STANDARD"},{"id":"723","tribuneTheaterId":"5186","providerTheaterId":"","name":"Woodbury 10 Theatre","address":"1470 Queens Dr.","city":"Woodbury","state":"MN","zip":"55125","distance":9.896970613087,"lon":"-92.957243","lat":"44.928335","theaterChainName":"Independent Chains","ticketType":"STANDARD"},{"id":"4279","tribuneTheaterId":"8693","providerTheaterId":"651","name":"AMC Rosedale 14","address":"850 Rosedale Center","city":"Roseville","state":"MN","zip":"55113","distance":11.918048830996,"lon":"-93.169173","lat":"45.013331","theaterChainName":"AMC Theatres","ticketType":"STANDARD"},{"id":"2475","tribuneTheaterId":"5830","providerTheaterId":"","name":"Carmike Wynnsong 15 Mounds View","address":"2430 Hwy. 10","city":"Mounds View","state":"MN","zip":"55112","distance":13.208029418594,"lon":"-93.206302","lat":"45.101859","theaterChainName":"Carmike Cinemas","ticketType":"STANDARD"},{"id":"1948","tribuneTheaterId":"6535","providerTheaterId":"","name":"Hudson 12 Theatre","address":"520 Stage Line Rd","city":"Hudson","state":"WI","zip":"54016","distance":14.281357693978,"lon":"-92.692713","lat":"44.959705","theaterChainName":"CEC Theatres","ticketType":"STANDARD"},{"id":"1388","tribuneTheaterId":"2938","providerTheaterId":"","name":"Forest Lake 5 Theatre","address":"1480 South Lake Drive","city":"Forest Lake","state":"MN","zip":"55025","distance":13.53566351703,"lon":"-92.985277","lat":"45.26418","theaterChainName":"Independent Chains","ticketType":"STANDARD"},{"id":"1250","tribuneTheaterId":"6576","providerTheaterId":"","name":"Heights Theatre","address":"3951 NE  Central Ave","city":"Columbia Heights","state":"MN","zip":"55421","distance":15.192510318651,"lon":"-93.247206","lat":"45.039757","theaterChainName":"Independent Chains","ticketType":"STANDARD"},{"id":"1433","tribuneTheaterId":"8084","providerTheaterId":"6401","name":"AMC Showplace Inver Grove 16","address":"5567 Bishop Ave.","city":"Inver Grove Heights","state":"MN","zip":"55076","distance":15.175194975895,"lon":"-93.058673","lat":"44.868312","theaterChainName":"AMC Theatres","ticketType":"STANDARD"},{"id":"763","tribuneTheaterId":"5166","providerTheaterId":"","name":"Mann Grandview 2 Theatres","address":"1830 Grand Ave.","city":"Saint Paul","state":"MN","zip":"55105","distance":14.767284626754,"lon":"-93.1777","lat":"44.939772","theaterChainName":"Mann Theatres MN","ticketType":"STANDARD"},{"id":"3573","tribuneTheaterId":"2917","providerTheaterId":"","name":"Merrick Cinemas","address":"15 Fisher Ave.","city":"Merrick","state":"NY","zip":"11566","distance":16.568033487114,"lon":"-93.255702","lat":"44.984798","theaterChainName":"Independent Chains","ticketType":"STANDARD"},{"id":"1432","tribuneTheaterId":"8083","providerTheaterId":"6181","name":"AMC Showplace Coon Rapids 16","address":"10051 Woodcrest Dr. NW","city":"Coon Rapids","state":"MN","zip":"55433","distance":17.454164216006,"lon":"-93.277863","lat":"45.152605","theaterChainName":"AMC Theatres","ticketType":"STANDARD"},{"id":"3083","tribuneTheaterId":"8591","providerTheaterId":"","name":"Regal Brooklyn Center Stadium 20","address":"6420 Camden Ave North","city":"Minneapolis","state":"MN","zip":"55430","distance":17.039556902852,"lon":"-93.288302","lat":"45.072007","theaterChainName":"Regal Cinemas","ticketType":"STANDARD"},{"id":"1255","tribuneTheaterId":"4072","providerTheaterId":"","name":"St. Anthony Main","address":"115 SE Main Street","city":"Minneapolis","state":"MN","zip":"55414","distance":16.568298179967,"lon":"-93.25571","lat":"44.984802","theaterChainName":"Independent Chains","ticketType":"STANDARD"},{"id":"764","tribuneTheaterId":"6178","providerTheaterId":"","name":"Mann Highland Theatre","address":"760 Cleveland Ave.","city":"Saint Paul","state":"MN","zip":"55116","distance":16.061850012423,"lon":"-93.18713","lat":"44.918437","theaterChainName":"Mann Theatres MN","ticketType":"STANDARD"},{"id":"1784","tribuneTheaterId":"3087","providerTheaterId":"","name":"New Richmond 8","address":"1261 Heritage Dr.","city":"New Richmond","state":"WI","zip":"54017","distance":19.787273013399,"lon":"-92.537042","lat":"45.109014","theaterChainName":"Independent Chains","ticketType":"STANDARD"},{"id":"2470","tribuneTheaterId":"3158","providerTheaterId":"","name":"Andover Cinema 10","address":"1836 Bunker Lake Blvd.","city":"Andover","state":"MN","zip":"55304","distance":20.855419204425,"lon":"-93.312678","lat":"45.218249","theaterChainName":"CEC Theatres","ticketType":"STANDARD"},{"id":"4773","tribuneTheaterId":"10014","providerTheaterId":"","name":"Showplace ICON Theatre - Reserved","address":"1625 West End Blvd","city":"Saint Louis Park","state":"MN","zip":"55416","distance":21.160341981722,"lon":"-93.347096","lat":"44.967946","theaterChainName":"Kerasotes","ticketType":"STANDARD"},{"id":"1437","tribuneTheaterId":"2883","providerTheaterId":"","name":"New Hope Cinema Grill","address":"2749 Winnetka Ave. N","city":"New Hope","state":"MN","zip":"55427","distance":22.027367789155,"lon":"-93.381576","lat":"45.0087","theaterChainName":"Independent Chains","ticketType":"STANDARD"},{"id":"768","tribuneTheaterId":"6333","providerTheaterId":"","name":"Mann St. Louis Park Cinema 6","address":"5400 Excelsior Blvd.","city":"Saint Louis Park","state":"MN","zip":"55416","distance":22.174511365211,"lon":"-93.34803","lat":"44.931744","theaterChainName":"Mann Theatres MN","ticketType":"STANDARD"},{"id":"1249","tribuneTheaterId":"3142","providerTheaterId":"","name":"East Bethel 10 Theatres","address":"18635 NE Ulysses","city":"East Bethel","state":"MN","zip":"55011","distance":21.86501101327,"lon":"-93.23663","lat":"45.308014","theaterChainName":"Muller Family Theatres","ticketType":"STANDARD"},{"id":"5974","tribuneTheaterId":"11410","providerTheaterId":"","name":"Falls Theatre","address":"105 South Main Street","city":"River Falls","state":"WI","zip":"54022","distance":21.199509379324,"lon":"-92.626535","lat":"44.85832","theaterChainName":"Independent Chains","ticketType":"STANDARD"},{"id":"3488","tribuneTheaterId":"3214","providerTheaterId":"","name":"Mann Champlin Cinema 14","address":"11500 Theater Drive","city":"Champlin","state":"MN","zip":"55316","distance":23.037773875746,"lon":"-93.393752","lat":"45.161783","theaterChainName":"Mann Theatres MN","ticketType":"STANDARD"},{"id":"405","tribuneTheaterId":"6352","providerTheaterId":"","name":"Willow Creek 12","address":"9900 Shelard Parkway","city":"Plymouth","state":"MN","zip":"55441","distance":23.665407556172,"lon":"-93.405958","lat":"44.979167","theaterChainName":"Muller Family Theatres","ticketType":"STANDARD"},{"id":"811","tribuneTheaterId":"7761","providerTheaterId":"","name":"Marcus Cinema Hastings","address":"1325 S Frontage Rd","city":"Hastings","state":"MN","zip":"55033","distance":23.275704524322,"lon":"-92.877954","lat":"44.736922","theaterChainName":"Marcus Theaters","ticketType":"STANDARD"},{"id":"3444","tribuneTheaterId":"8862","providerTheaterId":"705","name":"AMC Southdale 16","address":"400 Southdale Center","city":"Edina","state":"MN","zip":"55435","distance":23.070724389004,"lon":"-93.325939","lat":"44.879669","theaterChainName":"AMC Theatres","ticketType":"STANDARD"},{"id":"2318","tribuneTheaterId":"5657","providerTheaterId":"","name":"Regal Eagan Stadium 16","address":"2055 Cliff Road","city":"Eagan","state":"MN","zip":"55122","distance":23.416626821832,"lon":"-93.209682","lat":"44.791416","theaterChainName":"Regal Cinemas","ticketType":"STANDARD"},{"id":"3215","tribuneTheaterId":"5327","providerTheaterId":"706","name":"AMC Arbor Lakes 16","address":"12575 Elm Creek Blvd","city":"Maple Grove","state":"MN","zip":"55369","distance":24.474117927412,"lon":"-93.439837","lat":"45.092446","theaterChainName":"AMC Theatres","ticketType":"STANDARD"}]