[{"id":"1391","tribuneTheaterId":"3221","providerTheaterId":"","name":"Monticello 15 Theatre","address":"9375 Deegan Avenue","city":"Monticello","state":"MN","zip":"55362","distance":5.5841320125095,"lon":"-93.808855","lat":"45.28594","theaterChainName":"Muller Family Theatres","ticketType":"STANDARD"},{"id":"810","tribuneTheaterId":"9159","providerTheaterId":"","name":"Marcus Cinema Elk River 17","address":"570 Freeport Ave","city":"Elk River","state":"MN","zip":"55330","distance":9.2587766887394,"lon":"-93.558711","lat":"45.308991","theaterChainName":"Marcus Theaters","ticketType":"STANDARD"},{"id":"5734","tribuneTheaterId":"11176","providerTheaterId":"","name":"St. Michael Cinema","address":"4300 O'Day Ave. N.E.","city":"Saint Michael","state":"MN","zip":"55376","distance":11.629570388784,"lon":"-93.595778","lat":"45.216258","theaterChainName":"Independent Chains","ticketType":"STANDARD"},{"id":"1389","tribuneTheaterId":"3040","providerTheaterId":"","name":"Buffalo Cinema","address":"100 First Ave. NE","city":"Buffalo","state":"MN","zip":"55313","distance":13.887426859262,"lon":"-93.8744","lat":"45.173296","theaterChainName":"Five Star Cinemas","ticketType":"STANDARD"},{"id":"4316","tribuneTheaterId":"3243","providerTheaterId":"","name":"Rogers 18 Theatre","address":"13692 Rogers Drive","city":"Rogers","state":"MN","zip":"55374","distance":13.854861621519,"lon":"-93.548305","lat":"45.202166","theaterChainName":"Muller Family Theatres","ticketType":"STANDARD"},{"id":"1440","tribuneTheaterId":"4073","providerTheaterId":"","name":"Delano Theatre","address":"W. Highway 12","city":"Delano","state":"MN","zip":"55328","distance":21.973510725563,"lon":"-93.802002","lat":"45.035599","theaterChainName":"Muller Family Theatres","ticketType":"STANDARD"},{"id":"3488","tribuneTheaterId":"3214","providerTheaterId":"","name":"Mann Champlin Cinema 14","address":"11500 Theater Drive","city":"Champlin","state":"MN","zip":"55316","distance":21.298790565798,"lon":"-93.393752","lat":"45.161783","theaterChainName":"Mann Theatres MN","ticketType":"STANDARD"},{"id":"3215","tribuneTheaterId":"5327","providerTheaterId":"706","name":"AMC Arbor Lakes 16","address":"12575 Elm Creek Blvd","city":"Maple Grove","state":"MN","zip":"55369","distance":23.052110673644,"lon":"-93.439837","lat":"45.092446","theaterChainName":"AMC Theatres","ticketType":"STANDARD"},{"id":"5032","tribuneTheaterId":"10406","providerTheaterId":"","name":"Brickhouse Cinema","address":"160 4th Ave N","city":"Foley","state":"MN","zip":"56329","distance":23.173032714024,"lon":"-93.9107","lat":"45.6639","theaterChainName":"Independent Chains","ticketType":"STANDARD"},{"id":"2470","tribuneTheaterId":"3158","providerTheaterId":"","name":"Andover Cinema 10","address":"1836 Bunker Lake Blvd.","city":"Andover","state":"MN","zip":"55304","distance":22.692674480896,"lon":"-93.312678","lat":"45.218249","theaterChainName":"CEC Theatres","ticketType":"STANDARD"},{"id":"1249","tribuneTheaterId":"3142","providerTheaterId":"","name":"East Bethel 10 Theatres","address":"18635 NE Ulysses","city":"East Bethel","state":"MN","zip":"55011","distance":24.622606770745,"lon":"-93.23663","lat":"45.308014","theaterChainName":"Muller Family Theatres","ticketType":"STANDARD"}]