[{"id":"1389","tribuneTheaterId":"3040","providerTheaterId":"","name":"Buffalo Cinema","address":"100 First Ave. NE","city":"Buffalo","state":"MN","zip":"55313","distance":0.77159639061503,"lon":"-93.8744","lat":"45.173296","theaterChainName":"Five Star Cinemas","ticketType":"STANDARD"},{"id":"1391","tribuneTheaterId":"3221","providerTheaterId":"","name":"Monticello 15 Theatre","address":"9375 Deegan Avenue","city":"Monticello","state":"MN","zip":"55362","distance":7.6968419338975,"lon":"-93.808855","lat":"45.28594","theaterChainName":"Muller Family Theatres","ticketType":"STANDARD"},{"id":"1440","tribuneTheaterId":"4073","providerTheaterId":"","name":"Delano Theatre","address":"W. Highway 12","city":"Delano","state":"MN","zip":"55328","distance":10.510762348584,"lon":"-93.802002","lat":"45.035599","theaterChainName":"Muller Family Theatres","ticketType":"STANDARD"},{"id":"5734","tribuneTheaterId":"11176","providerTheaterId":"","name":"St. Michael Cinema","address":"4300 O'Day Ave. N.E.","city":"Saint Michael","state":"MN","zip":"55376","distance":13.255087156349,"lon":"-93.595778","lat":"45.216258","theaterChainName":"Independent Chains","ticketType":"STANDARD"},{"id":"4316","tribuneTheaterId":"3243","providerTheaterId":"","name":"Rogers 18 Theatre","address":"13692 Rogers Drive","city":"Rogers","state":"MN","zip":"55374","distance":15.414554297915,"lon":"-93.548305","lat":"45.202166","theaterChainName":"Muller Family Theatres","ticketType":"STANDARD"},{"id":"810","tribuneTheaterId":"9159","providerTheaterId":"","name":"Marcus Cinema Elk River 17","address":"570 Freeport Ave","city":"Elk River","state":"MN","zip":"55330","distance":17.249811961181,"lon":"-93.558711","lat":"45.308991","theaterChainName":"Marcus Theaters","ticketType":"STANDARD"},{"id":"3215","tribuneTheaterId":"5327","providerTheaterId":"706","name":"AMC Arbor Lakes 16","address":"12575 Elm Creek Blvd","city":"Maple Grove","state":"MN","zip":"55369","distance":21.544347618624,"lon":"-93.439837","lat":"45.092446","theaterChainName":"AMC Theatres","ticketType":"STANDARD"},{"id":"3488","tribuneTheaterId":"3214","providerTheaterId":"","name":"Mann Champlin Cinema 14","address":"11500 Theater Drive","city":"Champlin","state":"MN","zip":"55316","distance":22.921411236332,"lon":"-93.393752","lat":"45.161783","theaterChainName":"Mann Theatres MN","ticketType":"STANDARD"},{"id":"1248","tribuneTheaterId":"5174","providerTheaterId":"","name":"Excelsior Dock Cinema 3","address":"26 Water Street","city":"Excelsior","state":"MN","zip":"55331","distance":24.053945742591,"lon":"-93.565842","lat":"44.903973","theaterChainName":"Five Star Cinemas","ticketType":"STANDARD"},{"id":"1438","tribuneTheaterId":"2988","providerTheaterId":"","name":"Waconia 6 Theatres","address":"101 W. 1st St.","city":"Waconia","state":"MN","zip":"55387","distance":23.257903722671,"lon":"-93.788055","lat":"44.849036","theaterChainName":"Muller Family Theatres","ticketType":"STANDARD"}]