[{"id":"810","name":"Marcus Cinema Elk River 17","address":"570 Freeport Ave","city":"Elk River","state":"MN","zip":"55330","distance":"24.242443084716797","lon":"-93.558708","lat":"45.308990","theaterChainName":"Marcus Theaters","ticketType":"STANDARD"},{"id":"5734","name":"St. Michael Cinema","address":"4300 O'Day Ave. N.E.","city":"Saint Michael","state":"MN","zip":"55376","distance":"24.847719192504883","lon":"-93.595779","lat":"45.216259","theaterChainName":"Independent Chains","ticketType":"STANDARD"},{"id":"1391","name":"Monticello 15 Theatre","address":"9375 Deegan Avenue","city":"Monticello","state":"MN","zip":"55362","distance":"13.4617919921875","lon":"-93.808853","lat":"45.285938","theaterChainName":"Muller Family Theatres","ticketType":"STANDARD"},{"id":"5032","name":"Brickhouse Cinema","address":"160 4th Ave N","city":"Foley","state":"MN","zip":"56329","distance":"20.164770126342773","lon":"-93.910698","lat":"45.663898","theaterChainName":"Independent Chains","ticketType":"STANDARD"},{"id":"1389","name":"Buffalo Cinema","address":"100 First Ave. NE","city":"Buffalo","state":"MN","zip":"55313","distance":"16.983280181884766","lon":"-93.874397","lat":"45.173298","theaterChainName":"Five Star Cinemas","ticketType":"STANDARD"},{"id":"1939","name":"Parkwood 18","address":"1533 Frontage Road North","city":"Waite Park","state":"MN","zip":"56387","distance":"14.850393295288086","lon":"-94.238068","lat":"45.554722","theaterChainName":"Marcus Theaters","ticketType":"STANDARD"},{"id":"5031","name":"Quarry Cinema","address":"111 East Highway 23","city":"Cold Spring","state":"MN","zip":"56320","distance":"19.147796630859375","lon":"-94.427101","lat":"45.458000","theaterChainName":"Independent Chains","ticketType":"STANDARD"}]