[{"id":"2613","tribuneTheaterId":"2845","providerTheaterId":"","name":"Hollywood Theater","address":"210 N. Sibley Ave","city":"Litchfield","state":"MN","zip":"55355","distance":12.603451564653,"lon":"-94.528","lat":"45.1276","theaterChainName":"Independent Chains","ticketType":"STANDARD"},{"id":"5031","tribuneTheaterId":"10405","providerTheaterId":"","name":"Quarry Cinema","address":"111 East Highway 23","city":"Cold Spring","state":"MN","zip":"56320","distance":13.776755579449,"lon":"-94.4271","lat":"45.458","theaterChainName":"Independent Chains","ticketType":"STANDARD"},{"id":"3204","tribuneTheaterId":"3978","providerTheaterId":"","name":"Spicer Cinema 4","address":"151 Progress Circle","city":"Spicer","state":"MN","zip":"56288","distance":17.149432566479,"lon":"-94.941002","lat":"45.229099","theaterChainName":"Independent Chains","ticketType":"STANDARD"},{"id":"1939","tribuneTheaterId":"4002","providerTheaterId":"","name":"Parkwood 18","address":"1533 Frontage Road North","city":"Waite Park","state":"MN","zip":"56387","distance":24.891307908353,"lon":"-94.238067","lat":"45.554723","theaterChainName":"Marcus Theaters","ticketType":"STANDARD"}]