[{"id":"2004","name":"Carmike 15 Apple Valley","address":"15630 Cedar Ave.","city":"Apple Valley","state":"MN","zip":"55124","distance":"23.736541748046875","lon":"-93.216667","lat":"44.722839","theaterChainName":"Carmike Cinemas","ticketType":"STANDARD"},{"id":"2318","name":"Regal Eagan Stadium 16","address":"2055 Cliff Road","city":"Eagan","state":"MN","zip":"55122","distance":"21.141460418701172","lon":"-93.209679","lat":"44.791416","theaterChainName":"Regal Cinemas","ticketType":"STANDARD"},{"id":"4279","name":"AMC Rosedale 14","address":"850 Rosedale Center","city":"Roseville","state":"MN","zip":"55113","distance":"20.329837799072266","lon":"-93.169174","lat":"45.013332","theaterChainName":"AMC Theatres","ticketType":"STANDARD"},{"id":"763","name":"Mann Grandview 2 Theatres","address":"1830 Grand Ave.","city":"Saint Paul","state":"MN","zip":"55105","distance":"19.51521110534668","lon":"-93.177696","lat":"44.939774","theaterChainName":"Mann Theatres MN","ticketType":"STANDARD"},{"id":"764","name":"Mann Highland Theatre","address":"760 Cleveland Ave.","city":"Saint Paul","state":"MN","zip":"55116","distance":"19.185007095336914","lon":"-93.187134","lat":"44.918438","theaterChainName":"Mann Theatres MN","ticketType":"STANDARD"},{"id":"2475","name":"Carmike Wynnsong 15 Mounds View","address":"2430 Hwy. 10","city":"Mounds View","state":"MN","zip":"55112","distance":"20.791919708251953","lon":"-93.206299","lat":"45.101860","theaterChainName":"Carmike Cinemas","ticketType":"STANDARD"},{"id":"1250","name":"Heights Theatre","address":"3951 NE  Central Ave","city":"Columbia Heights","state":"MN","zip":"55421","distance":"17.161401748657227","lon":"-93.247208","lat":"45.039757","theaterChainName":"Independent Chains","ticketType":"STANDARD"},{"id":"3573","name":"Merrick Cinemas","address":"15 Fisher Ave.","city":"Merrick","state":"NY","zip":"11566","distance":"15.826193809509277","lon":"-93.255699","lat":"44.984798","theaterChainName":"Independent Chains","ticketType":"STANDARD"},{"id":"1255","name":"St. Anthony Main","address":"115 SE Main Street","city":"Minneapolis","state":"MN","zip":"55414","distance":"15.825860977172852","lon":"-93.255707","lat":"44.984802","theaterChainName":"Independent Chains","ticketType":"STANDARD"},{"id":"3083","name":"Regal Brooklyn Center Stadium 20","address":"6420 Camden Ave North","city":"Minneapolis","state":"MN","zip":"55430","distance":"16.29547119140625","lon":"-93.288300","lat":"45.072006","theaterChainName":"Regal Cinemas","ticketType":"STANDARD"},{"id":"1432","name":"AMC Showplace Coon Rapids 16","address":"10051 Woodcrest Dr. NW","city":"Coon Rapids","state":"MN","zip":"55433","distance":"20.061206817626953","lon":"-93.277863","lat":"45.152603","theaterChainName":"AMC Theatres","ticketType":"STANDARD"},{"id":"4538","name":"Paragon Odyssey 15","address":"14401 Burnhaven Drive","city":"Burnsville","state":"MN","zip":"55306","distance":"20.40045166015625","lon":"-93.286324","lat":"44.741104","theaterChainName":"Paragon Theaters","ticketType":"STANDARD"},{"id":"3444","name":"AMC Southdale 16","address":"400 Southdale Center","city":"Edina","state":"MN","zip":"55435","distance":"13.257085800170898","lon":"-93.325935","lat":"44.879669","theaterChainName":"AMC Theatres","ticketType":"STANDARD"},{"id":"4773","name":"Showplace ICON Theatre - Reserved","address":"1625 West End Blvd","city":"Saint Louis Park","state":"MN","zip":"55416","distance":"11.253883361816406","lon":"-93.347099","lat":"44.967945","theaterChainName":"Kerasotes","ticketType":"STANDARD"},{"id":"768","name":"Mann St. Louis Park Cinema 6","address":"5400 Excelsior Blvd.","city":"Saint Louis Park","state":"MN","zip":"55416","distance":"11.260601043701172","lon":"-93.348030","lat":"44.931744","theaterChainName":"Mann Theatres MN","ticketType":"STANDARD"},{"id":"2470","name":"Andover Cinema 10","address":"1836 Bunker Lake Blvd.","city":"Andover","state":"MN","zip":"55304","distance":"22.390539169311523","lon":"-93.312675","lat":"45.218250","theaterChainName":"CEC Theatres","ticketType":"STANDARD"},{"id":"1437","name":"New Hope Cinema Grill","address":"2749 Winnetka Ave. N","city":"New Hope","state":"MN","zip":"55427","distance":"10.26612377166748","lon":"-93.381577","lat":"45.008701","theaterChainName":"Independent Chains","ticketType":"STANDARD"},{"id":"405","name":"Willow Creek 12","address":"9900 Shelard Parkway","city":"Plymouth","state":"MN","zip":"55441","distance":"8.521749496459961","lon":"-93.405960","lat":"44.979168","theaterChainName":"Muller Family Theatres","ticketType":"STANDARD"},{"id":"765","name":"Mann Hopkins Cinema 6","address":"1118 Main Street","city":"Hopkins","state":"MN","zip":"55343","distance":"8.150192260742188","lon":"-93.414841","lat":"44.923847","theaterChainName":"Mann Theatres MN","ticketType":"STANDARD"},{"id":"3499","name":"AMC Eden Prairie Mall 18","address":"4000 Flying Cloud Drive","city":"Eden Prairie","state":"MN","zip":"55344","distance":"10.046895027160645","lon":"-93.425720","lat":"44.854176","theaterChainName":"AMC Theatres","ticketType":"STANDARD"},{"id":"3488","name":"Mann Champlin Cinema 14","address":"11500 Theater Drive","city":"Champlin","state":"MN","zip":"55316","distance":"16.9561767578125","lon":"-93.393753","lat":"45.161781","theaterChainName":"Mann Theatres MN","ticketType":"STANDARD"},{"id":"3215","name":"AMC Arbor Lakes 16","address":"12575 Elm Creek Blvd","city":"Maple Grove","state":"MN","zip":"55369","distance":"11.715957641601562","lon":"-93.439835","lat":"45.092445","theaterChainName":"AMC Theatres","ticketType":"STANDARD"},{"id":"6079","name":"Soutbridge Crossing Cinema","address":"8380 Hansen Ave","city":"Shakopee","state":"MN","zip":"55379","distance":"14.646845817565918","lon":"-93.410828","lat":"44.776428","theaterChainName":"Marcus Theaters","ticketType":"STANDARD"},{"id":"1251","name":"Lakeville 21","address":"20653 Keokuk Ave","city":"Lakeville","state":"MN","zip":"55044","distance":"24.953779220581055","lon":"-93.298500","lat":"44.650398","theaterChainName":"Muller Family Theatres","ticketType":"STANDARD"},{"id":"1247","name":"Chanhassen Cinema","address":"570 Market St.","city":"Chanhassen","state":"MN","zip":"55317","distance":"6.669916152954102","lon":"-93.535690","lat":"44.860855","theaterChainName":"Five Star Cinemas","ticketType":"STANDARD"},{"id":"813","name":"Marcus Cinema Shakopee","address":"1116 Shakopee Town Sq","city":"Shakopee","state":"MN","zip":"55379","distance":"11.671361923217773","lon":"-93.554184","lat":"44.784817","theaterChainName":"Marcus Theaters","ticketType":"STANDARD"},{"id":"1248","name":"Excelsior Dock Cinema 3","address":"26 Water Street","city":"Excelsior","state":"MN","zip":"55331","distance":"3.4260404109954834","lon":"-93.565842","lat":"44.903973","theaterChainName":"Five Star Cinemas","ticketType":"STANDARD"},{"id":"810","name":"Marcus Cinema Elk River 17","address":"570 Freeport Ave","city":"Elk River","state":"MN","zip":"55330","distance":"24.61309051513672","lon":"-93.558708","lat":"45.308990","theaterChainName":"Marcus Theaters","ticketType":"STANDARD"},{"id":"4316","name":"Rogers 18 Theatre","address":"13692 Rogers Drive","city":"Rogers","state":"MN","zip":"55374","distance":"17.271055221557617","lon":"-93.548302","lat":"45.202168","theaterChainName":"Muller Family Theatres","ticketType":"STANDARD"},{"id":"5734","name":"St. Michael Cinema","address":"4300 O'Day Ave. N.E.","city":"Saint Michael","state":"MN","zip":"55376","distance":"18.215425491333008","lon":"-93.595779","lat":"45.216259","theaterChainName":"Independent Chains","ticketType":"STANDARD"},{"id":"1438","name":"Waconia 6 Theatres","address":"101 W. 1st St.","city":"Waconia","state":"MN","zip":"55387","distance":"12.610139846801758","lon":"-93.788055","lat":"44.849037","theaterChainName":"Muller Family Theatres","ticketType":"STANDARD"},{"id":"1389","name":"Buffalo Cinema","address":"100 First Ave. NE","city":"Buffalo","state":"MN","zip":"55313","distance":"21.056503295898438","lon":"-93.874397","lat":"45.173298","theaterChainName":"Five Star Cinemas","ticketType":"STANDARD"},{"id":"1440","name":"Delano Theatre","address":"W. Highway 12","city":"Delano","state":"MN","zip":"55328","distance":"12.417984962463379","lon":"-93.802002","lat":"45.035599","theaterChainName":"Muller Family Theatres","ticketType":"STANDARD"}]