[{"id":"1248","tribuneTheaterId":"5174","providerTheaterId":"","name":"Excelsior Dock Cinema 3","address":"26 Water Street","city":"Excelsior","state":"MN","zip":"55331","distance":3.4258492022983,"lon":"-93.565842","lat":"44.903973","theaterChainName":"Five Star Cinemas","ticketType":"STANDARD"},{"id":"1247","tribuneTheaterId":"3078","providerTheaterId":"","name":"Chanhassen Cinema","address":"570 Market St.","city":"Chanhassen","state":"MN","zip":"55317","distance":6.6696445799164,"lon":"-93.535688","lat":"44.860854","theaterChainName":"Five Star Cinemas","ticketType":"STANDARD"},{"id":"405","tribuneTheaterId":"6352","providerTheaterId":"","name":"Willow Creek 12","address":"9900 Shelard Parkway","city":"Plymouth","state":"MN","zip":"55441","distance":8.5212186270703,"lon":"-93.405958","lat":"44.979167","theaterChainName":"Muller Family Theatres","ticketType":"STANDARD"},{"id":"765","tribuneTheaterId":"6056","providerTheaterId":"","name":"Mann Hopkins Cinema 6","address":"1118 Main Street","city":"Hopkins","state":"MN","zip":"55343","distance":8.1497891327043,"lon":"-93.414837","lat":"44.923848","theaterChainName":"Mann Theatres MN","ticketType":"STANDARD"},{"id":"3499","tribuneTheaterId":"7653","providerTheaterId":"650","name":"AMC Eden Prairie Mall 18","address":"4000 Flying Cloud Drive","city":"Eden Prairie","state":"MN","zip":"55344","distance":10.046090137929,"lon":"-93.425723","lat":"44.854177","theaterChainName":"AMC Theatres","ticketType":"STANDARD"},{"id":"768","tribuneTheaterId":"6333","providerTheaterId":"","name":"Mann St. Louis Park Cinema 6","address":"5400 Excelsior Blvd.","city":"Saint Louis Park","state":"MN","zip":"55416","distance":11.259835371654,"lon":"-93.34803","lat":"44.931744","theaterChainName":"Mann Theatres MN","ticketType":"STANDARD"},{"id":"4773","tribuneTheaterId":"10014","providerTheaterId":"","name":"Showplace ICON Theatre - Reserved","address":"1625 West End Blvd","city":"Saint Louis Park","state":"MN","zip":"55416","distance":11.253270126205,"lon":"-93.347096","lat":"44.967946","theaterChainName":"Kerasotes","ticketType":"STANDARD"},{"id":"1437","tribuneTheaterId":"2883","providerTheaterId":"","name":"New Hope Cinema Grill","address":"2749 Winnetka Ave. N","city":"New Hope","state":"MN","zip":"55427","distance":10.265382955194,"lon":"-93.381576","lat":"45.0087","theaterChainName":"Independent Chains","ticketType":"STANDARD"},{"id":"3215","tribuneTheaterId":"5327","providerTheaterId":"706","name":"AMC Arbor Lakes 16","address":"12575 Elm Creek Blvd","city":"Maple Grove","state":"MN","zip":"55369","distance":11.715106413822,"lon":"-93.439837","lat":"45.092446","theaterChainName":"AMC Theatres","ticketType":"STANDARD"},{"id":"813","tribuneTheaterId":"8218","providerTheaterId":"","name":"Marcus Cinema Shakopee","address":"1116 Shakopee Town Sq","city":"Shakopee","state":"MN","zip":"55379","distance":11.670757061874,"lon":"-93.554181","lat":"44.784816","theaterChainName":"Marcus Theaters","ticketType":"STANDARD"},{"id":"3444","tribuneTheaterId":"8862","providerTheaterId":"705","name":"AMC Southdale 16","address":"400 Southdale Center","city":"Edina","state":"MN","zip":"55435","distance":13.256056978538,"lon":"-93.325939","lat":"44.879669","theaterChainName":"AMC Theatres","ticketType":"STANDARD"},{"id":"1438","tribuneTheaterId":"2988","providerTheaterId":"","name":"Waconia 6 Theatres","address":"101 W. 1st St.","city":"Waconia","state":"MN","zip":"55387","distance":12.609486111641,"lon":"-93.788055","lat":"44.849036","theaterChainName":"Muller Family Theatres","ticketType":"STANDARD"},{"id":"1440","tribuneTheaterId":"4073","providerTheaterId":"","name":"Delano Theatre","address":"W. Highway 12","city":"Delano","state":"MN","zip":"55328","distance":12.417265176752,"lon":"-93.802002","lat":"45.035599","theaterChainName":"Muller Family Theatres","ticketType":"STANDARD"},{"id":"6079","tribuneTheaterId":"11486","providerTheaterId":"","name":"Soutbridge Crossing Cinema","address":"8380 Hansen Ave","city":"Shakopee","state":"MN","zip":"55379","distance":14.646003605331,"lon":"-93.410826","lat":"44.776428","theaterChainName":"Marcus Theaters","ticketType":"STANDARD"},{"id":"3573","tribuneTheaterId":"2917","providerTheaterId":"","name":"Merrick Cinemas","address":"15 Fisher Ave.","city":"Merrick","state":"NY","zip":"11566","distance":15.824986752403,"lon":"-93.255702","lat":"44.984798","theaterChainName":"Independent Chains","ticketType":"STANDARD"},{"id":"1255","tribuneTheaterId":"4072","providerTheaterId":"","name":"St. Anthony Main","address":"115 SE Main Street","city":"Minneapolis","state":"MN","zip":"55414","distance":15.824637309204,"lon":"-93.25571","lat":"44.984802","theaterChainName":"Independent Chains","ticketType":"STANDARD"},{"id":"4316","tribuneTheaterId":"3243","providerTheaterId":"","name":"Rogers 18 Theatre","address":"13692 Rogers Drive","city":"Rogers","state":"MN","zip":"55374","distance":17.269800449892,"lon":"-93.548305","lat":"45.202166","theaterChainName":"Muller Family Theatres","ticketType":"STANDARD"},{"id":"3488","tribuneTheaterId":"3214","providerTheaterId":"","name":"Mann Champlin Cinema 14","address":"11500 Theater Drive","city":"Champlin","state":"MN","zip":"55316","distance":16.955159608831,"lon":"-93.393752","lat":"45.161783","theaterChainName":"Mann Theatres MN","ticketType":"STANDARD"},{"id":"1250","tribuneTheaterId":"6576","providerTheaterId":"","name":"Heights Theatre","address":"3951 NE  Central Ave","city":"Columbia Heights","state":"MN","zip":"55421","distance":17.160325304567,"lon":"-93.247206","lat":"45.039757","theaterChainName":"Independent Chains","ticketType":"STANDARD"},{"id":"3083","tribuneTheaterId":"8591","providerTheaterId":"","name":"Regal Brooklyn Center Stadium 20","address":"6420 Camden Ave North","city":"Minneapolis","state":"MN","zip":"55430","distance":16.294287866567,"lon":"-93.288302","lat":"45.072007","theaterChainName":"Regal Cinemas","ticketType":"STANDARD"},{"id":"764","tribuneTheaterId":"6178","providerTheaterId":"","name":"Mann Highland Theatre","address":"760 Cleveland Ave.","city":"Saint Paul","state":"MN","zip":"55116","distance":19.183940542357,"lon":"-93.18713","lat":"44.918437","theaterChainName":"Mann Theatres MN","ticketType":"STANDARD"},{"id":"5734","tribuneTheaterId":"11176","providerTheaterId":"","name":"St. Michael Cinema","address":"4300 O'Day Ave. N.E.","city":"Saint Michael","state":"MN","zip":"55376","distance":18.214167412039,"lon":"-93.595778","lat":"45.216258","theaterChainName":"Independent Chains","ticketType":"STANDARD"},{"id":"1432","tribuneTheaterId":"8083","providerTheaterId":"6181","name":"AMC Showplace Coon Rapids 16","address":"10051 Woodcrest Dr. NW","city":"Coon Rapids","state":"MN","zip":"55433","distance":20.059936890068,"lon":"-93.277863","lat":"45.152605","theaterChainName":"AMC Theatres","ticketType":"STANDARD"},{"id":"763","tribuneTheaterId":"5166","providerTheaterId":"","name":"Mann Grandview 2 Theatres","address":"1830 Grand Ave.","city":"Saint Paul","state":"MN","zip":"55105","distance":19.513748202533,"lon":"-93.1777","lat":"44.939772","theaterChainName":"Mann Theatres MN","ticketType":"STANDARD"},{"id":"4538","tribuneTheaterId":"9671","providerTheaterId":"","name":"Paragon Odyssey 15","address":"14401 Burnhaven Drive","city":"Burnsville","state":"MN","zip":"55306","distance":20.399186532605,"lon":"-93.286322","lat":"44.741105","theaterChainName":"Paragon Theaters","ticketType":"STANDARD"},{"id":"1389","tribuneTheaterId":"3040","providerTheaterId":"","name":"Buffalo Cinema","address":"100 First Ave. NE","city":"Buffalo","state":"MN","zip":"55313","distance":21.055204638883,"lon":"-93.8744","lat":"45.173296","theaterChainName":"Five Star Cinemas","ticketType":"STANDARD"},{"id":"2318","tribuneTheaterId":"5657","providerTheaterId":"","name":"Regal Eagan Stadium 16","address":"2055 Cliff Road","city":"Eagan","state":"MN","zip":"55122","distance":21.139983054192,"lon":"-93.209682","lat":"44.791416","theaterChainName":"Regal Cinemas","ticketType":"STANDARD"},{"id":"2475","tribuneTheaterId":"5830","providerTheaterId":"","name":"Carmike Wynnsong 15 Mounds View","address":"2430 Hwy. 10","city":"Mounds View","state":"MN","zip":"55112","distance":20.790363176852,"lon":"-93.206302","lat":"45.101859","theaterChainName":"Carmike Cinemas","ticketType":"STANDARD"},{"id":"4279","tribuneTheaterId":"8693","providerTheaterId":"651","name":"AMC Rosedale 14","address":"850 Rosedale Center","city":"Roseville","state":"MN","zip":"55113","distance":20.328527529558,"lon":"-93.169173","lat":"45.013331","theaterChainName":"AMC Theatres","ticketType":"STANDARD"},{"id":"2470","tribuneTheaterId":"3158","providerTheaterId":"","name":"Andover Cinema 10","address":"1836 Bunker Lake Blvd.","city":"Andover","state":"MN","zip":"55304","distance":22.388914191384,"lon":"-93.312678","lat":"45.218249","theaterChainName":"CEC Theatres","ticketType":"STANDARD"},{"id":"2004","tribuneTheaterId":"7455","providerTheaterId":"","name":"Carmike 15 Apple Valley","address":"15630 Cedar Ave.","city":"Apple Valley","state":"MN","zip":"55124","distance":23.735041644233,"lon":"-93.216668","lat":"44.722839","theaterChainName":"Carmike Cinemas","ticketType":"STANDARD"},{"id":"810","tribuneTheaterId":"9159","providerTheaterId":"","name":"Marcus Cinema Elk River 17","address":"570 Freeport Ave","city":"Elk River","state":"MN","zip":"55330","distance":24.611531906277,"lon":"-93.558711","lat":"45.308991","theaterChainName":"Marcus Theaters","ticketType":"STANDARD"},{"id":"1251","tribuneTheaterId":"3237","providerTheaterId":"","name":"Lakeville 21","address":"20653 Keokuk Ave","city":"Lakeville","state":"MN","zip":"55044","distance":24.952142728053,"lon":"-93.2985","lat":"44.6504","theaterChainName":"Muller Family Theatres","ticketType":"STANDARD"}]