[{"id":"3307","name":"Century Cinema 9","address":"766 Century Ave.,SW","city":"Hutchinson","state":"MN","zip":"55350","distance":"18.82085609436035","lon":"-94.382278","lat":"44.873817","theaterChainName":"Odyssey Entertainment\/CineMagic","ticketType":"STANDARD"},{"id":"3013","name":"Millennium Theater ","address":"560 1st St. NW","city":"Montevideo","state":"MN","zip":"56265","distance":"14.967350959777832","lon":"-94.374496","lat":"44.938324","theaterChainName":"Independent Chains","ticketType":"STANDARD"},{"id":"5031","name":"Quarry Cinema","address":"111 East Highway 23","city":"Cold Spring","state":"MN","zip":"56320","distance":"23.42641258239746","lon":"-94.427101","lat":"45.458000","theaterChainName":"Independent Chains","ticketType":"STANDARD"},{"id":"2613","name":"Hollywood Theater","address":"210 N. Sibley Ave","city":"Litchfield","state":"MN","zip":"55355","distance":"0.1071862056851387","lon":"-94.528000","lat":"45.127602","theaterChainName":"Independent Chains","ticketType":"STANDARD"},{"id":"3204","name":"Spicer Cinema 4","address":"151 Progress Circle","city":"Spicer","state":"MN","zip":"56288","distance":"21.388566970825195","lon":"-94.941002","lat":"45.229099","theaterChainName":"Independent Chains","ticketType":"STANDARD"}]