[{"id":"1391","name":"Monticello 15 Theatre","address":"9375 Deegan Avenue","city":"Monticello","state":"MN","zip":"55362","distance":"24.329559326171875","lon":"-93.808853","lat":"45.285938","theaterChainName":"Muller Family Theatres","ticketType":"STANDARD"},{"id":"1389","name":"Buffalo Cinema","address":"100 First Ave. NE","city":"Buffalo","state":"MN","zip":"55313","distance":"23.93018341064453","lon":"-93.874397","lat":"45.173298","theaterChainName":"Five Star Cinemas","ticketType":"STANDARD"},{"id":"1939","name":"Parkwood 18","address":"1533 Frontage Road North","city":"Waite Park","state":"MN","zip":"56387","distance":"14.921621322631836","lon":"-94.238068","lat":"45.554722","theaterChainName":"Marcus Theaters","ticketType":"STANDARD"},{"id":"5031","name":"Quarry Cinema","address":"111 East Highway 23","city":"Cold Spring","state":"MN","zip":"56320","distance":"9.942381858825684","lon":"-94.427101","lat":"45.458000","theaterChainName":"Independent Chains","ticketType":"STANDARD"},{"id":"2613","name":"Hollywood Theater","address":"210 N. Sibley Ave","city":"Litchfield","state":"MN","zip":"55355","distance":"18.51556968688965","lon":"-94.528000","lat":"45.127602","theaterChainName":"Independent Chains","ticketType":"STANDARD"}]