[{"id":"1440","tribuneTheaterId":"4073","providerTheaterId":"","name":"Delano Theatre","address":"W. Highway 12","city":"Delano","state":"MN","zip":"55328","distance":6.3392961142023,"lon":"-93.802002","lat":"45.035599","theaterChainName":"Muller Family Theatres","ticketType":"STANDARD"},{"id":"1248","tribuneTheaterId":"5174","providerTheaterId":"","name":"Excelsior Dock Cinema 3","address":"26 Water Street","city":"Excelsior","state":"MN","zip":"55331","distance":8.3567589676702,"lon":"-93.565842","lat":"44.903973","theaterChainName":"Five Star Cinemas","ticketType":"STANDARD"},{"id":"1438","tribuneTheaterId":"2988","providerTheaterId":"","name":"Waconia 6 Theatres","address":"101 W. 1st St.","city":"Waconia","state":"MN","zip":"55387","distance":9.9368563970639,"lon":"-93.788055","lat":"44.849036","theaterChainName":"Muller Family Theatres","ticketType":"STANDARD"},{"id":"1247","tribuneTheaterId":"3078","providerTheaterId":"","name":"Chanhassen Cinema","address":"570 Market St.","city":"Chanhassen","state":"MN","zip":"55317","distance":11.449001929418,"lon":"-93.535688","lat":"44.860854","theaterChainName":"Five Star Cinemas","ticketType":"STANDARD"},{"id":"405","tribuneTheaterId":"6352","providerTheaterId":"","name":"Willow Creek 12","address":"9900 Shelard Parkway","city":"Plymouth","state":"MN","zip":"55441","distance":14.380900997142,"lon":"-93.405958","lat":"44.979167","theaterChainName":"Muller Family Theatres","ticketType":"STANDARD"},{"id":"765","tribuneTheaterId":"6056","providerTheaterId":"","name":"Mann Hopkins Cinema 6","address":"1118 Main Street","city":"Hopkins","state":"MN","zip":"55343","distance":14.459160013244,"lon":"-93.414837","lat":"44.923848","theaterChainName":"Mann Theatres MN","ticketType":"STANDARD"},{"id":"1437","tribuneTheaterId":"2883","providerTheaterId":"","name":"New Hope Cinema Grill","address":"2749 Winnetka Ave. N","city":"New Hope","state":"MN","zip":"55427","distance":15.705884886478,"lon":"-93.381576","lat":"45.0087","theaterChainName":"Independent Chains","ticketType":"STANDARD"},{"id":"1389","tribuneTheaterId":"3040","providerTheaterId":"","name":"Buffalo Cinema","address":"100 First Ave. NE","city":"Buffalo","state":"MN","zip":"55313","distance":15.90648904577,"lon":"-93.8744","lat":"45.173296","theaterChainName":"Five Star Cinemas","ticketType":"STANDARD"},{"id":"3215","tribuneTheaterId":"5327","providerTheaterId":"706","name":"AMC Arbor Lakes 16","address":"12575 Elm Creek Blvd","city":"Maple Grove","state":"MN","zip":"55369","distance":14.945639522502,"lon":"-93.439837","lat":"45.092446","theaterChainName":"AMC Theatres","ticketType":"STANDARD"},{"id":"813","tribuneTheaterId":"8218","providerTheaterId":"","name":"Marcus Cinema Shakopee","address":"1116 Shakopee Town Sq","city":"Shakopee","state":"MN","zip":"55379","distance":15.184145425793,"lon":"-93.554181","lat":"44.784816","theaterChainName":"Marcus Theaters","ticketType":"STANDARD"},{"id":"3499","tribuneTheaterId":"7653","providerTheaterId":"650","name":"AMC Eden Prairie Mall 18","address":"4000 Flying Cloud Drive","city":"Eden Prairie","state":"MN","zip":"55344","distance":15.949118244174,"lon":"-93.425723","lat":"44.854177","theaterChainName":"AMC Theatres","ticketType":"STANDARD"},{"id":"5734","tribuneTheaterId":"11176","providerTheaterId":"","name":"St. Michael Cinema","address":"4300 O'Day Ave. N.E.","city":"Saint Michael","state":"MN","zip":"55376","distance":17.185658347425,"lon":"-93.595778","lat":"45.216258","theaterChainName":"Independent Chains","ticketType":"STANDARD"},{"id":"768","tribuneTheaterId":"6333","providerTheaterId":"","name":"Mann St. Louis Park Cinema 6","address":"5400 Excelsior Blvd.","city":"Saint Louis Park","state":"MN","zip":"55416","distance":17.522140087909,"lon":"-93.34803","lat":"44.931744","theaterChainName":"Mann Theatres MN","ticketType":"STANDARD"},{"id":"4773","tribuneTheaterId":"10014","providerTheaterId":"","name":"Showplace ICON Theatre - Reserved","address":"1625 West End Blvd","city":"Saint Louis Park","state":"MN","zip":"55416","distance":17.275373336844,"lon":"-93.347096","lat":"44.967946","theaterChainName":"Kerasotes","ticketType":"STANDARD"},{"id":"4316","tribuneTheaterId":"3243","providerTheaterId":"","name":"Rogers 18 Theatre","address":"13692 Rogers Drive","city":"Rogers","state":"MN","zip":"55374","distance":17.125750529004,"lon":"-93.548305","lat":"45.202166","theaterChainName":"Muller Family Theatres","ticketType":"STANDARD"},{"id":"3488","tribuneTheaterId":"3214","providerTheaterId":"","name":"Mann Champlin Cinema 14","address":"11500 Theater Drive","city":"Champlin","state":"MN","zip":"55316","distance":19.586364485028,"lon":"-93.393752","lat":"45.161783","theaterChainName":"Mann Theatres MN","ticketType":"STANDARD"},{"id":"6079","tribuneTheaterId":"11486","providerTheaterId":"","name":"Soutbridge Crossing Cinema","address":"8380 Hansen Ave","city":"Shakopee","state":"MN","zip":"55379","distance":19.900950906447,"lon":"-93.410826","lat":"44.776428","theaterChainName":"Marcus Theaters","ticketType":"STANDARD"},{"id":"3444","tribuneTheaterId":"8862","providerTheaterId":"705","name":"AMC Southdale 16","address":"400 Southdale Center","city":"Edina","state":"MN","zip":"55435","distance":19.544456603187,"lon":"-93.325939","lat":"44.879669","theaterChainName":"AMC Theatres","ticketType":"STANDARD"},{"id":"3083","tribuneTheaterId":"8591","providerTheaterId":"","name":"Regal Brooklyn Center Stadium 20","address":"6420 Camden Ave North","city":"Minneapolis","state":"MN","zip":"55430","distance":21.122766805322,"lon":"-93.288302","lat":"45.072007","theaterChainName":"Regal Cinemas","ticketType":"STANDARD"},{"id":"1391","tribuneTheaterId":"3221","providerTheaterId":"","name":"Monticello 15 Theatre","address":"9375 Deegan Avenue","city":"Monticello","state":"MN","zip":"55362","distance":21.878920976183,"lon":"-93.808855","lat":"45.28594","theaterChainName":"Muller Family Theatres","ticketType":"STANDARD"},{"id":"3573","tribuneTheaterId":"2917","providerTheaterId":"","name":"Merrick Cinemas","address":"15 Fisher Ave.","city":"Merrick","state":"NY","zip":"11566","distance":21.727521461036,"lon":"-93.255702","lat":"44.984798","theaterChainName":"Independent Chains","ticketType":"STANDARD"},{"id":"1250","tribuneTheaterId":"6576","providerTheaterId":"","name":"Heights Theatre","address":"3951 NE  Central Ave","city":"Columbia Heights","state":"MN","zip":"55421","distance":22.526576454777,"lon":"-93.247206","lat":"45.039757","theaterChainName":"Independent Chains","ticketType":"STANDARD"},{"id":"1255","tribuneTheaterId":"4072","providerTheaterId":"","name":"St. Anthony Main","address":"115 SE Main Street","city":"Minneapolis","state":"MN","zip":"55414","distance":21.727135164258,"lon":"-93.25571","lat":"44.984802","theaterChainName":"Independent Chains","ticketType":"STANDARD"},{"id":"1432","tribuneTheaterId":"8083","providerTheaterId":"6181","name":"AMC Showplace Coon Rapids 16","address":"10051 Woodcrest Dr. NW","city":"Coon Rapids","state":"MN","zip":"55433","distance":23.856943945019,"lon":"-93.277863","lat":"45.152605","theaterChainName":"AMC Theatres","ticketType":"STANDARD"},{"id":"810","tribuneTheaterId":"9159","providerTheaterId":"","name":"Marcus Cinema Elk River 17","address":"570 Freeport Ave","city":"Elk River","state":"MN","zip":"55330","distance":23.839826885102,"lon":"-93.558711","lat":"45.308991","theaterChainName":"Marcus Theaters","ticketType":"STANDARD"}]