[{"id":"1248","name":"Excelsior Dock Cinema 3","address":"26 Water Street","city":"Excelsior","state":"MN","zip":"55331","distance":"24.041046142578125","lon":"-93.565842","lat":"44.903973","theaterChainName":"Five Star Cinemas","ticketType":"STANDARD"},{"id":"1438","name":"Waconia 6 Theatres","address":"101 W. 1st St.","city":"Waconia","state":"MN","zip":"55387","distance":"13.191465377807617","lon":"-93.788055","lat":"44.849037","theaterChainName":"Muller Family Theatres","ticketType":"STANDARD"},{"id":"1389","name":"Buffalo Cinema","address":"100 First Ave. NE","city":"Buffalo","state":"MN","zip":"55313","distance":"22.491376876831055","lon":"-93.874397","lat":"45.173298","theaterChainName":"Five Star Cinemas","ticketType":"STANDARD"},{"id":"1440","name":"Delano Theatre","address":"W. Highway 12","city":"Delano","state":"MN","zip":"55328","distance":"16.673250198364258","lon":"-93.802002","lat":"45.035599","theaterChainName":"Muller Family Theatres","ticketType":"STANDARD"},{"id":"3307","name":"Century Cinema 9","address":"766 Century Ave.,SW","city":"Hutchinson","state":"MN","zip":"55350","distance":"16.020902633666992","lon":"-94.382278","lat":"44.873817","theaterChainName":"Odyssey Entertainment\/CineMagic","ticketType":"STANDARD"},{"id":"3013","name":"Millennium Theater ","address":"560 1st St. NW","city":"Montevideo","state":"MN","zip":"56265","distance":"16.2525634765625","lon":"-94.374496","lat":"44.938324","theaterChainName":"Independent Chains","ticketType":"STANDARD"}]