[{"id":"810","name":"Marcus Cinema Elk River 17","address":"570 Freeport Ave","city":"Elk River","state":"MN","zip":"55330","distance":"20.25327491760254","lon":"-93.558708","lat":"45.308990","theaterChainName":"Marcus Theaters","ticketType":"STANDARD"},{"id":"5734","name":"St. Michael Cinema","address":"4300 O'Day Ave. N.E.","city":"Saint Michael","state":"MN","zip":"55376","distance":"24.79198455810547","lon":"-93.595779","lat":"45.216259","theaterChainName":"Independent Chains","ticketType":"STANDARD"},{"id":"1391","name":"Monticello 15 Theatre","address":"9375 Deegan Avenue","city":"Monticello","state":"MN","zip":"55362","distance":"17.571691513061523","lon":"-93.808853","lat":"45.285938","theaterChainName":"Muller Family Theatres","ticketType":"STANDARD"},{"id":"5032","name":"Brickhouse Cinema","address":"160 4th Ave N","city":"Foley","state":"MN","zip":"56329","distance":"9.709867477416992","lon":"-93.910698","lat":"45.663898","theaterChainName":"Independent Chains","ticketType":"STANDARD"},{"id":"1939","name":"Parkwood 18","address":"1533 Frontage Road North","city":"Waite Park","state":"MN","zip":"56387","distance":"20.477630615234375","lon":"-94.238068","lat":"45.554722","theaterChainName":"Marcus Theaters","ticketType":"STANDARD"}]