[{"id":"1438","tribuneTheaterId":"2988","providerTheaterId":"","name":"Waconia 6 Theatres","address":"101 W. 1st St.","city":"Waconia","state":"MN","zip":"55387","distance":4.2580629451717,"lon":"-93.788055","lat":"44.849036","theaterChainName":"Muller Family Theatres","ticketType":"STANDARD"},{"id":"1440","tribuneTheaterId":"4073","providerTheaterId":"","name":"Delano Theatre","address":"W. Highway 12","city":"Delano","state":"MN","zip":"55328","distance":9.4478791492745,"lon":"-93.802002","lat":"45.035599","theaterChainName":"Muller Family Theatres","ticketType":"STANDARD"},{"id":"1248","tribuneTheaterId":"5174","providerTheaterId":"","name":"Excelsior Dock Cinema 3","address":"26 Water Street","city":"Excelsior","state":"MN","zip":"55331","distance":8.9634074293689,"lon":"-93.565842","lat":"44.903973","theaterChainName":"Five Star Cinemas","ticketType":"STANDARD"},{"id":"1247","tribuneTheaterId":"3078","providerTheaterId":"","name":"Chanhassen Cinema","address":"570 Market St.","city":"Chanhassen","state":"MN","zip":"55317","distance":10.862059553876,"lon":"-93.535688","lat":"44.860854","theaterChainName":"Five Star Cinemas","ticketType":"STANDARD"},{"id":"813","tribuneTheaterId":"8218","providerTheaterId":"","name":"Marcus Cinema Shakopee","address":"1116 Shakopee Town Sq","city":"Shakopee","state":"MN","zip":"55379","distance":12.610028004856,"lon":"-93.554181","lat":"44.784816","theaterChainName":"Marcus Theaters","ticketType":"STANDARD"},{"id":"3499","tribuneTheaterId":"7653","providerTheaterId":"650","name":"AMC Eden Prairie Mall 18","address":"4000 Flying Cloud Drive","city":"Eden Prairie","state":"MN","zip":"55344","distance":16.198907460018,"lon":"-93.425723","lat":"44.854177","theaterChainName":"AMC Theatres","ticketType":"STANDARD"},{"id":"765","tribuneTheaterId":"6056","providerTheaterId":"","name":"Mann Hopkins Cinema 6","address":"1118 Main Street","city":"Hopkins","state":"MN","zip":"55343","distance":16.407297703125,"lon":"-93.414837","lat":"44.923848","theaterChainName":"Mann Theatres MN","ticketType":"STANDARD"},{"id":"405","tribuneTheaterId":"6352","providerTheaterId":"","name":"Willow Creek 12","address":"9900 Shelard Parkway","city":"Plymouth","state":"MN","zip":"55441","distance":17.560266003589,"lon":"-93.405958","lat":"44.979167","theaterChainName":"Muller Family Theatres","ticketType":"STANDARD"},{"id":"1389","tribuneTheaterId":"3040","providerTheaterId":"","name":"Buffalo Cinema","address":"100 First Ave. NE","city":"Buffalo","state":"MN","zip":"55313","distance":19.581386499565,"lon":"-93.8744","lat":"45.173296","theaterChainName":"Five Star Cinemas","ticketType":"STANDARD"},{"id":"6079","tribuneTheaterId":"11486","providerTheaterId":"","name":"Soutbridge Crossing Cinema","address":"8380 Hansen Ave","city":"Shakopee","state":"MN","zip":"55379","distance":18.769945525835,"lon":"-93.410826","lat":"44.776428","theaterChainName":"Marcus Theaters","ticketType":"STANDARD"},{"id":"768","tribuneTheaterId":"6333","providerTheaterId":"","name":"Mann St. Louis Park Cinema 6","address":"5400 Excelsior Blvd.","city":"Saint Louis Park","state":"MN","zip":"55416","distance":19.710710984141,"lon":"-93.34803","lat":"44.931744","theaterChainName":"Mann Theatres MN","ticketType":"STANDARD"},{"id":"3444","tribuneTheaterId":"8862","providerTheaterId":"705","name":"AMC Southdale 16","address":"400 Southdale Center","city":"Edina","state":"MN","zip":"55435","distance":20.776839859259,"lon":"-93.325939","lat":"44.879669","theaterChainName":"AMC Theatres","ticketType":"STANDARD"},{"id":"4773","tribuneTheaterId":"10014","providerTheaterId":"","name":"Showplace ICON Theatre - Reserved","address":"1625 West End Blvd","city":"Saint Louis Park","state":"MN","zip":"55416","distance":20.146342653101,"lon":"-93.347096","lat":"44.967946","theaterChainName":"Kerasotes","ticketType":"STANDARD"},{"id":"3215","tribuneTheaterId":"5327","providerTheaterId":"706","name":"AMC Arbor Lakes 16","address":"12575 Elm Creek Blvd","city":"Maple Grove","state":"MN","zip":"55369","distance":19.937667996772,"lon":"-93.439837","lat":"45.092446","theaterChainName":"AMC Theatres","ticketType":"STANDARD"},{"id":"1437","tribuneTheaterId":"2883","providerTheaterId":"","name":"New Hope Cinema Grill","address":"2749 Winnetka Ave. N","city":"New Hope","state":"MN","zip":"55427","distance":19.363870854346,"lon":"-93.381576","lat":"45.0087","theaterChainName":"Independent Chains","ticketType":"STANDARD"},{"id":"5734","tribuneTheaterId":"11176","providerTheaterId":"","name":"St. Michael Cinema","address":"4300 O'Day Ave. N.E.","city":"Saint Michael","state":"MN","zip":"55376","distance":22.827608458531,"lon":"-93.595778","lat":"45.216258","theaterChainName":"Independent Chains","ticketType":"STANDARD"},{"id":"4316","tribuneTheaterId":"3243","providerTheaterId":"","name":"Rogers 18 Theatre","address":"13692 Rogers Drive","city":"Rogers","state":"MN","zip":"55374","distance":22.805504274902,"lon":"-93.548305","lat":"45.202166","theaterChainName":"Muller Family Theatres","ticketType":"STANDARD"},{"id":"1255","tribuneTheaterId":"4072","providerTheaterId":"","name":"St. Anthony Main","address":"115 SE Main Street","city":"Minneapolis","state":"MN","zip":"55414","distance":24.759687476411,"lon":"-93.25571","lat":"44.984802","theaterChainName":"Independent Chains","ticketType":"STANDARD"},{"id":"3573","tribuneTheaterId":"2917","providerTheaterId":"","name":"Merrick Cinemas","address":"15 Fisher Ave.","city":"Merrick","state":"NY","zip":"11566","distance":24.76000723603,"lon":"-93.255702","lat":"44.984798","theaterChainName":"Independent Chains","ticketType":"STANDARD"},{"id":"3488","tribuneTheaterId":"3214","providerTheaterId":"","name":"Mann Champlin Cinema 14","address":"11500 Theater Drive","city":"Champlin","state":"MN","zip":"55316","distance":24.857079305431,"lon":"-93.393752","lat":"45.161783","theaterChainName":"Mann Theatres MN","ticketType":"STANDARD"}]