[{"id":"2004","name":"Carmike 15 Apple Valley","address":"15630 Cedar Ave.","city":"Apple Valley","state":"MN","zip":"55124","distance":"23.49089813232422","lon":"-93.216667","lat":"44.722839","theaterChainName":"Carmike Cinemas","ticketType":"STANDARD"},{"id":"2318","name":"Regal Eagan Stadium 16","address":"2055 Cliff Road","city":"Eagan","state":"MN","zip":"55122","distance":"22.359663009643555","lon":"-93.209679","lat":"44.791416","theaterChainName":"Regal Cinemas","ticketType":"STANDARD"},{"id":"763","name":"Mann Grandview 2 Theatres","address":"1830 Grand Ave.","city":"Saint Paul","state":"MN","zip":"55105","distance":"24.084365844726562","lon":"-93.177696","lat":"44.939774","theaterChainName":"Mann Theatres MN","ticketType":"STANDARD"},{"id":"764","name":"Mann Highland Theatre","address":"760 Cleveland Ave.","city":"Saint Paul","state":"MN","zip":"55116","distance":"23.332115173339844","lon":"-93.187134","lat":"44.918438","theaterChainName":"Mann Theatres MN","ticketType":"STANDARD"},{"id":"1250","name":"Heights Theatre","address":"3951 NE  Central Ave","city":"Columbia Heights","state":"MN","zip":"55421","distance":"23.605365753173828","lon":"-93.247208","lat":"45.039757","theaterChainName":"Independent Chains","ticketType":"STANDARD"},{"id":"3573","name":"Merrick Cinemas","address":"15 Fisher Ave.","city":"Merrick","state":"NY","zip":"11566","distance":"21.454315185546875","lon":"-93.255699","lat":"44.984798","theaterChainName":"Independent Chains","ticketType":"STANDARD"},{"id":"1255","name":"St. Anthony Main","address":"115 SE Main Street","city":"Minneapolis","state":"MN","zip":"55414","distance":"21.45408058166504","lon":"-93.255707","lat":"44.984802","theaterChainName":"Independent Chains","ticketType":"STANDARD"},{"id":"3083","name":"Regal Brooklyn Center Stadium 20","address":"6420 Camden Ave North","city":"Minneapolis","state":"MN","zip":"55430","distance":"23.27190399169922","lon":"-93.288300","lat":"45.072006","theaterChainName":"Regal Cinemas","ticketType":"STANDARD"},{"id":"4538","name":"Paragon Odyssey 15","address":"14401 Burnhaven Drive","city":"Burnsville","state":"MN","zip":"55306","distance":"19.853471755981445","lon":"-93.286324","lat":"44.741104","theaterChainName":"Paragon Theaters","ticketType":"STANDARD"},{"id":"3444","name":"AMC Southdale 16","address":"400 Southdale Center","city":"Edina","state":"MN","zip":"55435","distance":"16.236268997192383","lon":"-93.325935","lat":"44.879669","theaterChainName":"AMC Theatres","ticketType":"STANDARD"},{"id":"4773","name":"Showplace ICON Theatre - Reserved","address":"1625 West End Blvd","city":"Saint Louis Park","state":"MN","zip":"55416","distance":"16.915313720703125","lon":"-93.347099","lat":"44.967945","theaterChainName":"Kerasotes","ticketType":"STANDARD"},{"id":"768","name":"Mann St. Louis Park Cinema 6","address":"5400 Excelsior Blvd.","city":"Saint Louis Park","state":"MN","zip":"55416","distance":"15.912752151489258","lon":"-93.348030","lat":"44.931744","theaterChainName":"Mann Theatres MN","ticketType":"STANDARD"},{"id":"1437","name":"New Hope Cinema Grill","address":"2749 Winnetka Ave. N","city":"New Hope","state":"MN","zip":"55427","distance":"16.98436164855957","lon":"-93.381577","lat":"45.008701","theaterChainName":"Independent Chains","ticketType":"STANDARD"},{"id":"405","name":"Willow Creek 12","address":"9900 Shelard Parkway","city":"Plymouth","state":"MN","zip":"55441","distance":"14.820795059204102","lon":"-93.405960","lat":"44.979168","theaterChainName":"Muller Family Theatres","ticketType":"STANDARD"},{"id":"765","name":"Mann Hopkins Cinema 6","address":"1118 Main Street","city":"Hopkins","state":"MN","zip":"55343","distance":"12.651203155517578","lon":"-93.414841","lat":"44.923847","theaterChainName":"Mann Theatres MN","ticketType":"STANDARD"},{"id":"3499","name":"AMC Eden Prairie Mall 18","address":"4000 Flying Cloud Drive","city":"Eden Prairie","state":"MN","zip":"55344","distance":"11.287724494934082","lon":"-93.425720","lat":"44.854176","theaterChainName":"AMC Theatres","ticketType":"STANDARD"},{"id":"3488","name":"Mann Champlin Cinema 14","address":"11500 Theater Drive","city":"Champlin","state":"MN","zip":"55316","distance":"24.581798553466797","lon":"-93.393753","lat":"45.161781","theaterChainName":"Mann Theatres MN","ticketType":"STANDARD"},{"id":"3215","name":"AMC Arbor Lakes 16","address":"12575 Elm Creek Blvd","city":"Maple Grove","state":"MN","zip":"55369","distance":"19.33197593688965","lon":"-93.439835","lat":"45.092445","theaterChainName":"AMC Theatres","ticketType":"STANDARD"},{"id":"6079","name":"Soutbridge Crossing Cinema","address":"8380 Hansen Ave","city":"Shakopee","state":"MN","zip":"55379","distance":"13.283466339111328","lon":"-93.410828","lat":"44.776428","theaterChainName":"Marcus Theaters","ticketType":"STANDARD"},{"id":"1251","name":"Lakeville 21","address":"20653 Keokuk Ave","city":"Lakeville","state":"MN","zip":"55044","distance":"22.672801971435547","lon":"-93.298500","lat":"44.650398","theaterChainName":"Muller Family Theatres","ticketType":"STANDARD"},{"id":"1247","name":"Chanhassen Cinema","address":"570 Market St.","city":"Chanhassen","state":"MN","zip":"55317","distance":"5.900273323059082","lon":"-93.535690","lat":"44.860855","theaterChainName":"Five Star Cinemas","ticketType":"STANDARD"},{"id":"813","name":"Marcus Cinema Shakopee","address":"1116 Shakopee Town Sq","city":"Shakopee","state":"MN","zip":"55379","distance":"7.1176018714904785","lon":"-93.554184","lat":"44.784817","theaterChainName":"Marcus Theaters","ticketType":"STANDARD"},{"id":"1248","name":"Excelsior Dock Cinema 3","address":"26 Water Street","city":"Excelsior","state":"MN","zip":"55331","distance":"5.434199333190918","lon":"-93.565842","lat":"44.903973","theaterChainName":"Five Star Cinemas","ticketType":"STANDARD"},{"id":"4316","name":"Rogers 18 Theatre","address":"13692 Rogers Drive","city":"Rogers","state":"MN","zip":"55374","distance":"24.34328269958496","lon":"-93.548302","lat":"45.202168","theaterChainName":"Muller Family Theatres","ticketType":"STANDARD"},{"id":"5734","name":"St. Michael Cinema","address":"4300 O'Day Ave. N.E.","city":"Saint Michael","state":"MN","zip":"55376","distance":"24.915685653686523","lon":"-93.595779","lat":"45.216259","theaterChainName":"Independent Chains","ticketType":"STANDARD"},{"id":"1438","name":"Waconia 6 Theatres","address":"101 W. 1st St.","city":"Waconia","state":"MN","zip":"55387","distance":"6.494769096374512","lon":"-93.788055","lat":"44.849037","theaterChainName":"Muller Family Theatres","ticketType":"STANDARD"},{"id":"1389","name":"Buffalo Cinema","address":"100 First Ave. NE","city":"Buffalo","state":"MN","zip":"55313","distance":"24.243377685546875","lon":"-93.874397","lat":"45.173298","theaterChainName":"Five Star Cinemas","ticketType":"STANDARD"},{"id":"1440","name":"Delano Theatre","address":"W. Highway 12","city":"Delano","state":"MN","zip":"55328","distance":"14.183371543884277","lon":"-93.802002","lat":"45.035599","theaterChainName":"Muller Family Theatres","ticketType":"STANDARD"}]