[{"id":"2318","name":"Regal Eagan Stadium 16","address":"2055 Cliff Road","city":"Eagan","state":"MN","zip":"55122","distance":"23.05057716369629","lon":"-93.209679","lat":"44.791416","theaterChainName":"Regal Cinemas","ticketType":"STANDARD"},{"id":"4279","name":"AMC Rosedale 14","address":"850 Rosedale Center","city":"Roseville","state":"MN","zip":"55113","distance":"23.352235794067383","lon":"-93.169174","lat":"45.013332","theaterChainName":"AMC Theatres","ticketType":"STANDARD"},{"id":"763","name":"Mann Grandview 2 Theatres","address":"1830 Grand Ave.","city":"Saint Paul","state":"MN","zip":"55105","distance":"22.325763702392578","lon":"-93.177696","lat":"44.939774","theaterChainName":"Mann Theatres MN","ticketType":"STANDARD"},{"id":"764","name":"Mann Highland Theatre","address":"760 Cleveland Ave.","city":"Saint Paul","state":"MN","zip":"55116","distance":"21.898483276367188","lon":"-93.187134","lat":"44.918438","theaterChainName":"Mann Theatres MN","ticketType":"STANDARD"},{"id":"2475","name":"Carmike Wynnsong 15 Mounds View","address":"2430 Hwy. 10","city":"Mounds View","state":"MN","zip":"55112","distance":"23.84514808654785","lon":"-93.206299","lat":"45.101860","theaterChainName":"Carmike Cinemas","ticketType":"STANDARD"},{"id":"1250","name":"Heights Theatre","address":"3951 NE  Central Ave","city":"Columbia Heights","state":"MN","zip":"55421","distance":"20.23086166381836","lon":"-93.247208","lat":"45.039757","theaterChainName":"Independent Chains","ticketType":"STANDARD"},{"id":"3573","name":"Merrick Cinemas","address":"15 Fisher Ave.","city":"Merrick","state":"NY","zip":"11566","distance":"18.811058044433594","lon":"-93.255699","lat":"44.984798","theaterChainName":"Independent Chains","ticketType":"STANDARD"},{"id":"1255","name":"St. Anthony Main","address":"115 SE Main Street","city":"Minneapolis","state":"MN","zip":"55414","distance":"18.810739517211914","lon":"-93.255707","lat":"44.984802","theaterChainName":"Independent Chains","ticketType":"STANDARD"},{"id":"3083","name":"Regal Brooklyn Center Stadium 20","address":"6420 Camden Ave North","city":"Minneapolis","state":"MN","zip":"55430","distance":"19.345849990844727","lon":"-93.288300","lat":"45.072006","theaterChainName":"Regal Cinemas","ticketType":"STANDARD"},{"id":"1432","name":"AMC Showplace Coon Rapids 16","address":"10051 Woodcrest Dr. NW","city":"Coon Rapids","state":"MN","zip":"55433","distance":"22.963424682617188","lon":"-93.277863","lat":"45.152603","theaterChainName":"AMC Theatres","ticketType":"STANDARD"},{"id":"4538","name":"Paragon Odyssey 15","address":"14401 Burnhaven Drive","city":"Burnsville","state":"MN","zip":"55306","distance":"21.701982498168945","lon":"-93.286324","lat":"44.741104","theaterChainName":"Paragon Theaters","ticketType":"STANDARD"},{"id":"3444","name":"AMC Southdale 16","address":"400 Southdale Center","city":"Edina","state":"MN","zip":"55435","distance":"15.568378448486328","lon":"-93.325935","lat":"44.879669","theaterChainName":"AMC Theatres","ticketType":"STANDARD"},{"id":"4773","name":"Showplace ICON Theatre - Reserved","address":"1625 West End Blvd","city":"Saint Louis Park","state":"MN","zip":"55416","distance":"14.211394309997559","lon":"-93.347099","lat":"44.967945","theaterChainName":"Kerasotes","ticketType":"STANDARD"},{"id":"768","name":"Mann St. Louis Park Cinema 6","address":"5400 Excelsior Blvd.","city":"Saint Louis Park","state":"MN","zip":"55416","distance":"13.995987892150879","lon":"-93.348030","lat":"44.931744","theaterChainName":"Mann Theatres MN","ticketType":"STANDARD"},{"id":"1437","name":"New Hope Cinema Grill","address":"2749 Winnetka Ave. N","city":"New Hope","state":"MN","zip":"55427","distance":"13.337666511535645","lon":"-93.381577","lat":"45.008701","theaterChainName":"Independent Chains","ticketType":"STANDARD"},{"id":"405","name":"Willow Creek 12","address":"9900 Shelard Parkway","city":"Plymouth","state":"MN","zip":"55441","distance":"11.554217338562012","lon":"-93.405960","lat":"44.979168","theaterChainName":"Muller Family Theatres","ticketType":"STANDARD"},{"id":"765","name":"Mann Hopkins Cinema 6","address":"1118 Main Street","city":"Hopkins","state":"MN","zip":"55343","distance":"10.756791114807129","lon":"-93.414841","lat":"44.923847","theaterChainName":"Mann Theatres MN","ticketType":"STANDARD"},{"id":"3499","name":"AMC Eden Prairie Mall 18","address":"4000 Flying Cloud Drive","city":"Eden Prairie","state":"MN","zip":"55344","distance":"11.64885139465332","lon":"-93.425720","lat":"44.854176","theaterChainName":"AMC Theatres","ticketType":"STANDARD"},{"id":"3488","name":"Mann Champlin Cinema 14","address":"11500 Theater Drive","city":"Champlin","state":"MN","zip":"55316","distance":"19.542816162109375","lon":"-93.393753","lat":"45.161781","theaterChainName":"Mann Theatres MN","ticketType":"STANDARD"},{"id":"3215","name":"AMC Arbor Lakes 16","address":"12575 Elm Creek Blvd","city":"Maple Grove","state":"MN","zip":"55369","distance":"14.40497875213623","lon":"-93.439835","lat":"45.092445","theaterChainName":"AMC Theatres","ticketType":"STANDARD"},{"id":"6079","name":"Soutbridge Crossing Cinema","address":"8380 Hansen Ave","city":"Shakopee","state":"MN","zip":"55379","distance":"15.5103120803833","lon":"-93.410828","lat":"44.776428","theaterChainName":"Marcus Theaters","ticketType":"STANDARD"},{"id":"1247","name":"Chanhassen Cinema","address":"570 Market St.","city":"Chanhassen","state":"MN","zip":"55317","distance":"7.062320232391357","lon":"-93.535690","lat":"44.860855","theaterChainName":"Five Star Cinemas","ticketType":"STANDARD"},{"id":"813","name":"Marcus Cinema Shakopee","address":"1116 Shakopee Town Sq","city":"Shakopee","state":"MN","zip":"55379","distance":"11.129793167114258","lon":"-93.554184","lat":"44.784817","theaterChainName":"Marcus Theaters","ticketType":"STANDARD"},{"id":"1248","name":"Excelsior Dock Cinema 3","address":"26 Water Street","city":"Excelsior","state":"MN","zip":"55331","distance":"3.9912803173065186","lon":"-93.565842","lat":"44.903973","theaterChainName":"Five Star Cinemas","ticketType":"STANDARD"},{"id":"4316","name":"Rogers 18 Theatre","address":"13692 Rogers Drive","city":"Rogers","state":"MN","zip":"55374","distance":"18.889066696166992","lon":"-93.548302","lat":"45.202168","theaterChainName":"Muller Family Theatres","ticketType":"STANDARD"},{"id":"5734","name":"St. Michael Cinema","address":"4300 O'Day Ave. N.E.","city":"Saint Michael","state":"MN","zip":"55376","distance":"19.4827823638916","lon":"-93.595779","lat":"45.216259","theaterChainName":"Independent Chains","ticketType":"STANDARD"},{"id":"1438","name":"Waconia 6 Theatres","address":"101 W. 1st St.","city":"Waconia","state":"MN","zip":"55387","distance":"9.621339797973633","lon":"-93.788055","lat":"44.849037","theaterChainName":"Muller Family Theatres","ticketType":"STANDARD"},{"id":"1389","name":"Buffalo Cinema","address":"100 First Ave. NE","city":"Buffalo","state":"MN","zip":"55313","distance":"20.182649612426758","lon":"-93.874397","lat":"45.173298","theaterChainName":"Five Star Cinemas","ticketType":"STANDARD"},{"id":"1440","name":"Delano Theatre","address":"W. Highway 12","city":"Delano","state":"MN","zip":"55328","distance":"10.727270126342773","lon":"-93.802002","lat":"45.035599","theaterChainName":"Muller Family Theatres","ticketType":"STANDARD"}]