[{"id":"1249","name":"East Bethel 10 Theatres","address":"18635 NE Ulysses","city":"East Bethel","state":"MN","zip":"55011","distance":"19.85451889038086","lon":"-93.236633","lat":"45.308014","theaterChainName":"Muller Family Theatres","ticketType":"STANDARD"},{"id":"2470","name":"Andover Cinema 10","address":"1836 Bunker Lake Blvd.","city":"Andover","state":"MN","zip":"55304","distance":"21.142120361328125","lon":"-93.312675","lat":"45.218250","theaterChainName":"CEC Theatres","ticketType":"STANDARD"},{"id":"3488","name":"Mann Champlin Cinema 14","address":"11500 Theater Drive","city":"Champlin","state":"MN","zip":"55316","distance":"22.368404388427734","lon":"-93.393753","lat":"45.161781","theaterChainName":"Mann Theatres MN","ticketType":"STANDARD"},{"id":"810","name":"Marcus Cinema Elk River 17","address":"570 Freeport Ave","city":"Elk River","state":"MN","zip":"55330","distance":"10.208368301391602","lon":"-93.558708","lat":"45.308990","theaterChainName":"Marcus Theaters","ticketType":"STANDARD"},{"id":"4316","name":"Rogers 18 Theatre","address":"13692 Rogers Drive","city":"Rogers","state":"MN","zip":"55374","distance":"17.596250534057617","lon":"-93.548302","lat":"45.202168","theaterChainName":"Muller Family Theatres","ticketType":"STANDARD"},{"id":"5734","name":"St. Michael Cinema","address":"4300 O'Day Ave. N.E.","city":"Saint Michael","state":"MN","zip":"55376","distance":"16.521547317504883","lon":"-93.595779","lat":"45.216259","theaterChainName":"Independent Chains","ticketType":"STANDARD"},{"id":"1391","name":"Monticello 15 Theatre","address":"9375 Deegan Avenue","city":"Monticello","state":"MN","zip":"55362","distance":"15.87408447265625","lon":"-93.808853","lat":"45.285938","theaterChainName":"Muller Family Theatres","ticketType":"STANDARD"},{"id":"5032","name":"Brickhouse Cinema","address":"160 4th Ave N","city":"Foley","state":"MN","zip":"56329","distance":"21.25191307067871","lon":"-93.910698","lat":"45.663898","theaterChainName":"Independent Chains","ticketType":"STANDARD"},{"id":"1389","name":"Buffalo Cinema","address":"100 First Ave. NE","city":"Buffalo","state":"MN","zip":"55313","distance":"23.94757843017578","lon":"-93.874397","lat":"45.173298","theaterChainName":"Five Star Cinemas","ticketType":"STANDARD"}]