[{"id":"1440","tribuneTheaterId":"4073","providerTheaterId":"","name":"Delano Theatre","address":"W. Highway 12","city":"Delano","state":"MN","zip":"55328","distance":8.3056654824085,"lon":"-93.802002","lat":"45.035599","theaterChainName":"Muller Family Theatres","ticketType":"STANDARD"},{"id":"1389","tribuneTheaterId":"3040","providerTheaterId":"","name":"Buffalo Cinema","address":"100 First Ave. NE","city":"Buffalo","state":"MN","zip":"55313","distance":8.6292837986961,"lon":"-93.8744","lat":"45.173296","theaterChainName":"Five Star Cinemas","ticketType":"STANDARD"},{"id":"1438","tribuneTheaterId":"2988","providerTheaterId":"","name":"Waconia 6 Theatres","address":"101 W. 1st St.","city":"Waconia","state":"MN","zip":"55387","distance":17.378153451466,"lon":"-93.788055","lat":"44.849036","theaterChainName":"Muller Family Theatres","ticketType":"STANDARD"},{"id":"1391","tribuneTheaterId":"3221","providerTheaterId":"","name":"Monticello 15 Theatre","address":"9375 Deegan Avenue","city":"Monticello","state":"MN","zip":"55362","distance":16.986813669571,"lon":"-93.808855","lat":"45.28594","theaterChainName":"Muller Family Theatres","ticketType":"STANDARD"},{"id":"5734","tribuneTheaterId":"11176","providerTheaterId":"","name":"St. Michael Cinema","address":"4300 O'Day Ave. N.E.","city":"Saint Michael","state":"MN","zip":"55376","distance":20.812861050682,"lon":"-93.595778","lat":"45.216258","theaterChainName":"Independent Chains","ticketType":"STANDARD"},{"id":"3013","tribuneTheaterId":"4128","providerTheaterId":"","name":"Millennium Theater ","address":"560 1st St. NW","city":"Montevideo","state":"MN","zip":"56265","distance":21.818439032038,"lon":"-94.374496","lat":"44.938324","theaterChainName":"Independent Chains","ticketType":"STANDARD"},{"id":"4316","tribuneTheaterId":"3243","providerTheaterId":"","name":"Rogers 18 Theatre","address":"13692 Rogers Drive","city":"Rogers","state":"MN","zip":"55374","distance":22.428149089442,"lon":"-93.548305","lat":"45.202166","theaterChainName":"Muller Family Theatres","ticketType":"STANDARD"},{"id":"1248","tribuneTheaterId":"5174","providerTheaterId":"","name":"Excelsior Dock Cinema 3","address":"26 Water Street","city":"Excelsior","state":"MN","zip":"55331","distance":22.570543360918,"lon":"-93.565842","lat":"44.903973","theaterChainName":"Five Star Cinemas","ticketType":"STANDARD"},{"id":"3307","tribuneTheaterId":"2191","providerTheaterId":"","name":"Century Cinema 9","address":"766 Century Ave.,SW","city":"Hutchinson","state":"MN","zip":"55350","distance":24.304030333784,"lon":"-94.382279","lat":"44.873816","theaterChainName":"Odyssey Entertainment\/CineMagic","ticketType":"STANDARD"}]