[{"id":"1388","name":"Forest Lake 5 Theatre","address":"1480 South Lake Drive","city":"Forest Lake","state":"MN","zip":"55025","distance":"14.512301445007324","lon":"-92.985275","lat":"45.264179","theaterChainName":"Independent Chains","ticketType":"STANDARD"},{"id":"723","name":"Woodbury 10 Theatre","address":"1470 Queens Dr.","city":"Woodbury","state":"MN","zip":"55125","distance":"21.892457962036133","lon":"-92.957245","lat":"44.928333","theaterChainName":"Independent Chains","ticketType":"STANDARD"},{"id":"2993","name":"Carmike Oakdale Stadium 20","address":"1188 Helmo Ave North","city":"Oakdale","state":"MN","zip":"55128","distance":"20.02393913269043","lon":"-92.956543","lat":"44.965847","theaterChainName":"Carmike Cinemas","ticketType":"STANDARD"},{"id":"2981","name":"Marcus ULTRACINEMA Oakdale","address":"5677 Hadley Ave N.","city":"Oakdale","state":"MN","zip":"55128","distance":"16.525226593017578","lon":"-92.972313","lat":"45.031475","theaterChainName":"Marcus Theaters","ticketType":"STANDARD"},{"id":"1433","name":"AMC Showplace Inver Grove 16","address":"5567 Bishop Ave.","city":"Inver Grove Heights","state":"MN","zip":"55076","distance":"22.732908248901367","lon":"-93.058670","lat":"44.868313","theaterChainName":"AMC Theatres","ticketType":"STANDARD"},{"id":"1439","name":"White Bear Township Theatre","address":"1180 County Road J","city":"White Bear Lake","state":"MN","zip":"55110","distance":"10.104774475097656","lon":"-93.053200","lat":"45.122917","theaterChainName":"Independent Chains","ticketType":"STANDARD"},{"id":"4279","name":"AMC Rosedale 14","address":"850 Rosedale Center","city":"Roseville","state":"MN","zip":"55113","distance":"11.404375076293945","lon":"-93.169174","lat":"45.013332","theaterChainName":"AMC Theatres","ticketType":"STANDARD"},{"id":"763","name":"Mann Grandview 2 Theatres","address":"1830 Grand Ave.","city":"Saint Paul","state":"MN","zip":"55105","distance":"16.170894622802734","lon":"-93.177696","lat":"44.939774","theaterChainName":"Mann Theatres MN","ticketType":"STANDARD"},{"id":"764","name":"Mann Highland Theatre","address":"760 Cleveland Ave.","city":"Saint Paul","state":"MN","zip":"55116","distance":"17.52525520324707","lon":"-93.187134","lat":"44.918438","theaterChainName":"Mann Theatres MN","ticketType":"STANDARD"},{"id":"2475","name":"Carmike Wynnsong 15 Mounds View","address":"2430 Hwy. 10","city":"Mounds View","state":"MN","zip":"55112","distance":"5.056535243988037","lon":"-93.206299","lat":"45.101860","theaterChainName":"Carmike Cinemas","ticketType":"STANDARD"},{"id":"1250","name":"Heights Theatre","address":"3951 NE  Central Ave","city":"Columbia Heights","state":"MN","zip":"55421","distance":"8.869463920593262","lon":"-93.247208","lat":"45.039757","theaterChainName":"Independent Chains","ticketType":"STANDARD"},{"id":"3573","name":"Merrick Cinemas","address":"15 Fisher Ave.","city":"Merrick","state":"NY","zip":"11566","distance":"12.668231010437012","lon":"-93.255699","lat":"44.984798","theaterChainName":"Independent Chains","ticketType":"STANDARD"},{"id":"1255","name":"St. Anthony Main","address":"115 SE Main Street","city":"Minneapolis","state":"MN","zip":"55414","distance":"12.667975425720215","lon":"-93.255707","lat":"44.984802","theaterChainName":"Independent Chains","ticketType":"STANDARD"},{"id":"3083","name":"Regal Brooklyn Center Stadium 20","address":"6420 Camden Ave North","city":"Minneapolis","state":"MN","zip":"55430","distance":"6.8921217918396","lon":"-93.288300","lat":"45.072006","theaterChainName":"Regal Cinemas","ticketType":"STANDARD"},{"id":"1432","name":"AMC Showplace Coon Rapids 16","address":"10051 Woodcrest Dr. NW","city":"Coon Rapids","state":"MN","zip":"55433","distance":"1.7138134241104126","lon":"-93.277863","lat":"45.152603","theaterChainName":"AMC Theatres","ticketType":"STANDARD"},{"id":"3444","name":"AMC Southdale 16","address":"400 Southdale Center","city":"Edina","state":"MN","zip":"55435","distance":"20.268346786499023","lon":"-93.325935","lat":"44.879669","theaterChainName":"AMC Theatres","ticketType":"STANDARD"},{"id":"1249","name":"East Bethel 10 Theatres","address":"18635 NE Ulysses","city":"East Bethel","state":"MN","zip":"55011","distance":"9.690986633300781","lon":"-93.236633","lat":"45.308014","theaterChainName":"Muller Family Theatres","ticketType":"STANDARD"},{"id":"4773","name":"Showplace ICON Theatre - Reserved","address":"1625 West End Blvd","city":"Saint Louis Park","state":"MN","zip":"55416","distance":"14.613107681274414","lon":"-93.347099","lat":"44.967945","theaterChainName":"Kerasotes","ticketType":"STANDARD"},{"id":"768","name":"Mann St. Louis Park Cinema 6","address":"5400 Excelsior Blvd.","city":"Saint Louis Park","state":"MN","zip":"55416","distance":"17.01280403137207","lon":"-93.348030","lat":"44.931744","theaterChainName":"Mann Theatres MN","ticketType":"STANDARD"},{"id":"2470","name":"Andover Cinema 10","address":"1836 Bunker Lake Blvd.","city":"Andover","state":"MN","zip":"55304","distance":"4.604953289031982","lon":"-93.312675","lat":"45.218250","theaterChainName":"CEC Theatres","ticketType":"STANDARD"},{"id":"1437","name":"New Hope Cinema Grill","address":"2749 Winnetka Ave. N","city":"New Hope","state":"MN","zip":"55427","distance":"12.738142967224121","lon":"-93.381577","lat":"45.008701","theaterChainName":"Independent Chains","ticketType":"STANDARD"},{"id":"405","name":"Willow Creek 12","address":"9900 Shelard Parkway","city":"Plymouth","state":"MN","zip":"55441","distance":"15.101192474365234","lon":"-93.405960","lat":"44.979168","theaterChainName":"Muller Family Theatres","ticketType":"STANDARD"},{"id":"765","name":"Mann Hopkins Cinema 6","address":"1118 Main Street","city":"Hopkins","state":"MN","zip":"55343","distance":"18.689306259155273","lon":"-93.414841","lat":"44.923847","theaterChainName":"Mann Theatres MN","ticketType":"STANDARD"},{"id":"3499","name":"AMC Eden Prairie Mall 18","address":"4000 Flying Cloud Drive","city":"Eden Prairie","state":"MN","zip":"55344","distance":"23.320880889892578","lon":"-93.425720","lat":"44.854176","theaterChainName":"AMC Theatres","ticketType":"STANDARD"},{"id":"3488","name":"Mann Champlin Cinema 14","address":"11500 Theater Drive","city":"Champlin","state":"MN","zip":"55316","distance":"6.997733116149902","lon":"-93.393753","lat":"45.161781","theaterChainName":"Mann Theatres MN","ticketType":"STANDARD"},{"id":"3215","name":"AMC Arbor Lakes 16","address":"12575 Elm Creek Blvd","city":"Maple Grove","state":"MN","zip":"55369","distance":"10.611627578735352","lon":"-93.439835","lat":"45.092445","theaterChainName":"AMC Theatres","ticketType":"STANDARD"},{"id":"1248","name":"Excelsior Dock Cinema 3","address":"26 Water Street","city":"Excelsior","state":"MN","zip":"55331","distance":"23.881410598754883","lon":"-93.565842","lat":"44.903973","theaterChainName":"Five Star Cinemas","ticketType":"STANDARD"},{"id":"810","name":"Marcus Cinema Elk River 17","address":"570 Freeport Ave","city":"Elk River","state":"MN","zip":"55330","distance":"17.883148193359375","lon":"-93.558708","lat":"45.308990","theaterChainName":"Marcus Theaters","ticketType":"STANDARD"},{"id":"4316","name":"Rogers 18 Theatre","address":"13692 Rogers Drive","city":"Rogers","state":"MN","zip":"55374","distance":"14.698077201843262","lon":"-93.548302","lat":"45.202168","theaterChainName":"Muller Family Theatres","ticketType":"STANDARD"},{"id":"5734","name":"St. Michael Cinema","address":"4300 O'Day Ave. N.E.","city":"Saint Michael","state":"MN","zip":"55376","distance":"17.144533157348633","lon":"-93.595779","lat":"45.216259","theaterChainName":"Independent Chains","ticketType":"STANDARD"}]