[{"id":"4792","tribuneTheaterId":"10045","providerTheaterId":"","name":"Zinema 2","address":"222 E. Superior St.","city":"Duluth","state":"MN","zip":"55802","distance":1.9998511942131,"lon":"-92.094685","lat":"46.7894","theaterChainName":"Independent Chains","ticketType":"STANDARD"},{"id":"1953","tribuneTheaterId":"2228","providerTheaterId":"","name":"Duluth 10","address":"300 Harbor Drive","city":"Duluth","state":"MN","zip":"55802","distance":1.5794183080463,"lon":"-92.098643","lat":"46.782504","theaterChainName":"Marcus Theaters","ticketType":"STANDARD"},{"id":"1743","tribuneTheaterId":"4028","providerTheaterId":"","name":"Superior 7","address":"69  N. 28th St.","city":"Superior","state":"WI","zip":"54880","distance":5.0725695884407,"lon":"-92.074131","lat":"46.708001","theaterChainName":"Marcus Theaters","ticketType":"STANDARD"},{"id":"1952","tribuneTheaterId":"6145","providerTheaterId":"","name":"Lakes 10","address":"4351 Stebner Road","city":"Hermantown","state":"MN","zip":"55811","distance":5.0073291863299,"lon":"-92.197212","lat":"46.82628","theaterChainName":"Marcus Theaters","ticketType":"STANDARD"},{"id":"2434","tribuneTheaterId":"3005","providerTheaterId":"","name":"Premiere Theatres","address":"904 Highway 33 S.","city":"Cloquet","state":"MN","zip":"55720","distance":16.173868261922,"lon":"-92.457617","lat":"46.710332","theaterChainName":"Independent Chains","ticketType":"STANDARD"}]