[{"id":"4708","name":"CineMagic 7 Theatres","address":"1302 18th Ave. N.W.","city":"Austin","state":"MN","zip":"55912","distance":"16.712839126586914","lon":"-92.991028","lat":"43.685394","theaterChainName":"Odyssey Entertainment\/CineMagic","ticketType":"STANDARD"},{"id":"4417","name":"Wehrenberg Rochester Galaxy 14","address":"4340 Maine Ave. SE","city":"Rochester","state":"MN","zip":"55904","distance":"18.65800666809082","lon":"-92.455101","lat":"43.961498","theaterChainName":"Wehrenberg Theatres","ticketType":"STANDARD"},{"id":"3603","name":"Paragon Chateau 14","address":"3450 E. Circle Drive NE","city":"Rochester","state":"MN","zip":"55906","distance":"21.588346481323242","lon":"-92.450516","lat":"44.059242","theaterChainName":"Paragon Theaters","ticketType":"STANDARD"},{"id":"4440","name":"CineMagic Hollywood Stadium 12","address":"2171 Superior Drive N.W.","city":"Rochester","state":"MN","zip":"55901","distance":"18.035423278808594","lon":"-92.523468","lat":"44.045094","theaterChainName":"Odyssey Entertainment\/CineMagic","ticketType":"STANDARD"},{"id":"3938","name":"Northwoods Cinema 10","address":"300 Allan Ave.","city":"Owatonna","state":"MN","zip":"55060","distance":"24.98384666442871","lon":"-93.245430","lat":"44.081867","theaterChainName":"CEC Theatres","ticketType":"STANDARD"}]