[{"id":"5587","tribuneTheaterId":"11040","providerTheaterId":"","name":"Cine Grand Mankato 4","address":"12 Civic Center Plaza Suite 1640","city":"Mankato","state":"MN","zip":"56001","distance":0.43174394690445,"lon":"-94.005938","lat":"44.164894","theaterChainName":"Independent Chains","ticketType":"STANDARD"},{"id":"2523","tribuneTheaterId":"4740","providerTheaterId":"","name":"Carmike Stadium 6","address":"220 Stadium Road","city":"Mankato","state":"MN","zip":"56001","distance":1.2427507127257,"lon":"-93.992854","lat":"44.145463","theaterChainName":"Carmike Cinemas","ticketType":"STANDARD"},{"id":"1326","tribuneTheaterId":"7194","providerTheaterId":"","name":"Cinemark River Hills Movies 8","address":"1850 Adams St. #15","city":"Mankato","state":"MN","zip":"56001","distance":2.9662038047065,"lon":"-93.952932","lat":"44.173726","theaterChainName":"Cinemark","ticketType":"STANDARD"},{"id":"2208","tribuneTheaterId":"4739","providerTheaterId":"","name":"Carmike 3","address":"1 N. German St","city":"New Ulm","state":"MN","zip":"56073","distance":24.647111224949,"lon":"-94.457703","lat":"44.313999","theaterChainName":"Carmike Cinemas","ticketType":"STANDARD"}]