[{"id":"2523","tribuneTheaterId":"4740","providerTheaterId":"","name":"Carmike Stadium 6","address":"220 Stadium Road","city":"Mankato","state":"MN","zip":"56001","distance":20.176967993704,"lon":"-93.992854","lat":"44.145463","theaterChainName":"Carmike Cinemas","ticketType":"STANDARD"},{"id":"1326","tribuneTheaterId":"7194","providerTheaterId":"","name":"Cinemark River Hills Movies 8","address":"1850 Adams St. #15","city":"Mankato","state":"MN","zip":"56001","distance":20.332785021959,"lon":"-93.952932","lat":"44.173726","theaterChainName":"Cinemark","ticketType":"STANDARD"},{"id":"5587","tribuneTheaterId":"11040","providerTheaterId":"","name":"Cine Grand Mankato 4","address":"12 Civic Center Plaza Suite 1640","city":"Mankato","state":"MN","zip":"56001","distance":21.587569136863,"lon":"-94.005938","lat":"44.164894","theaterChainName":"Independent Chains","ticketType":"STANDARD"},{"id":"3938","tribuneTheaterId":"2264","providerTheaterId":"","name":"Northwoods Cinema 10","address":"300 Allan Ave.","city":"Owatonna","state":"MN","zip":"55060","distance":24.8226315815,"lon":"-93.24543","lat":"44.081868","theaterChainName":"CEC Theatres","ticketType":"STANDARD"},{"id":"1935","tribuneTheaterId":"2036","providerTheaterId":"","name":"CEC Mall Cinema 7","address":"2550 Bridge Ave.","city":"Albert Lea","state":"MN","zip":"56007","distance":24.829311954642,"lon":"-93.358803","lat":"43.681099","theaterChainName":"CEC Theatres","ticketType":"STANDARD"}]