[{"id":"2613","tribuneTheaterId":"2845","providerTheaterId":"","name":"Hollywood Theater","address":"210 N. Sibley Ave","city":"Litchfield","state":"MN","zip":"55355","distance":14.297497011876,"lon":"-94.528","lat":"45.1276","theaterChainName":"Independent Chains","ticketType":"STANDARD"},{"id":"3013","tribuneTheaterId":"4128","providerTheaterId":"","name":"Millennium Theater ","address":"560 1st St. NW","city":"Montevideo","state":"MN","zip":"56265","distance":15.873999501274,"lon":"-94.374496","lat":"44.938324","theaterChainName":"Independent Chains","ticketType":"STANDARD"},{"id":"3307","tribuneTheaterId":"2191","providerTheaterId":"","name":"Century Cinema 9","address":"766 Century Ave.,SW","city":"Hutchinson","state":"MN","zip":"55350","distance":16.521566659981,"lon":"-94.382279","lat":"44.873816","theaterChainName":"Odyssey Entertainment\/CineMagic","ticketType":"STANDARD"},{"id":"1672","tribuneTheaterId":"6716","providerTheaterId":"","name":"Carmike Kandi 6","address":"1605 S. 1st St","city":"Willmar","state":"MN","zip":"56201","distance":19.563964311841,"lon":"-95.040461","lat":"45.105744","theaterChainName":"Carmike Cinemas","ticketType":"STANDARD"},{"id":"3204","tribuneTheaterId":"3978","providerTheaterId":"","name":"Spicer Cinema 4","address":"151 Progress Circle","city":"Spicer","state":"MN","zip":"56288","distance":22.113067996537,"lon":"-94.941002","lat":"45.229099","theaterChainName":"Independent Chains","ticketType":"STANDARD"}]