[{"id":"2368","name":"Rialto Theatre Aitkin","address":"220 N. Minnesota Ave.","city":"Aitkin","state":"MN","zip":"56431","distance":"22.64152717590332","lon":"-93.706512","lat":"46.534187","theaterChainName":"Independent Chains","ticketType":"STANDARD"},{"id":"5795","name":"Queensgate 12","address":"2871 Duportail St","city":"Richland","state":"WA","zip":"99352","distance":"9.025866508483887","lon":"-94.226974","lat":"46.253414","theaterChainName":"Independent Chains","ticketType":"STANDARD"},{"id":"4308","name":"Grand Makwa Cinema","address":"16550 Ataage Drive","city":"Onamia","state":"MN","zip":"56359","distance":"20.040145874023438","lon":"-93.757675","lat":"46.182533","theaterChainName":"Independent Chains","ticketType":"STANDARD"},{"id":"766","name":"Mann Lakes 12","address":"1180 Excelsior Rd","city":"Baxter","state":"MN","zip":"56425","distance":"6.075664043426514","lon":"-94.226906","lat":"46.357895","theaterChainName":"Mann Theatres MN","ticketType":"STANDARD"},{"id":"5637","name":"Sunset Cinemas","address":"33040 Aspenwood Dr.","city":"Pequot Lakes","state":"MN","zip":"56472","distance":"22.07321548461914","lon":"-94.319366","lat":"46.631695","theaterChainName":"Independent Chains","ticketType":"STANDARD"}]