[{"id":"4308","tribuneTheaterId":"1809","providerTheaterId":"","name":"Grand Makwa Cinema","address":"16550 Ataage Drive","city":"Onamia","state":"MN","zip":"56359","distance":4.9753401078945,"lon":"-93.757676","lat":"46.182533","theaterChainName":"Independent Chains","ticketType":"STANDARD"},{"id":"5795","tribuneTheaterId":"11235","providerTheaterId":"","name":"Queensgate 12","address":"2871 Duportail St","city":"Richland","state":"WA","zip":"99352","distance":18.835183907062,"lon":"-94.226974","lat":"46.253413","theaterChainName":"Independent Chains","ticketType":"STANDARD"},{"id":"766","tribuneTheaterId":"4090","providerTheaterId":"","name":"Mann Lakes 12","address":"1180 Excelsior Rd","city":"Baxter","state":"MN","zip":"56425","distance":20.689358285798,"lon":"-94.226909","lat":"46.357895","theaterChainName":"Mann Theatres MN","ticketType":"STANDARD"},{"id":"2368","tribuneTheaterId":"386","providerTheaterId":"","name":"Rialto Theatre Aitkin","address":"220 N. Minnesota Ave.","city":"Aitkin","state":"MN","zip":"56431","distance":21.786612308389,"lon":"-93.706512","lat":"46.534189","theaterChainName":"Independent Chains","ticketType":"STANDARD"}]