[{"id":"1937","tribuneTheaterId":"6144","providerTheaterId":"","name":"Century 10 Fargo","address":"4101 17th Ave SW","city":"Fargo","state":"ND","zip":"58103","distance":12.741507954644,"lon":"-96.8461","lat":"46.8667","theaterChainName":"Marcus Theaters","ticketType":"STANDARD"},{"id":"1951","tribuneTheaterId":"6077","providerTheaterId":"","name":"West Acres 14","address":"3931 9th Avenue SW","city":"Fargo","state":"ND","zip":"58103","distance":12.608122483074,"lon":"-96.849","lat":"46.8551","theaterChainName":"Marcus Theaters","ticketType":"STANDARD"},{"id":"2909","tribuneTheaterId":"3931","providerTheaterId":"","name":"Fargo Theatre","address":"314 Broadway","city":"Fargo","state":"ND","zip":"58102","distance":15.52339084646,"lon":"-96.788142","lat":"46.879597","theaterChainName":"Independent Chains","ticketType":"STANDARD"},{"id":"1950","tribuneTheaterId":"6060","providerTheaterId":"","name":"Safari 7","address":"925 30th Avenue S.","city":"Moorhead","state":"MN","zip":"56560","distance":16.605076545865,"lon":"-96.765261","lat":"46.843462","theaterChainName":"Marcus Theaters","ticketType":"STANDARD"}]