[{"id":"1447","tribuneTheaterId":"264","providerTheaterId":"","name":"Catlow Theatre","address":"116 W. Main St.","city":"Barrington","state":"IL","zip":"60010","distance":0.49116512401344,"lon":"-88.136533","lat":"42.154413","theaterChainName":"Independent Chains","ticketType":"STANDARD"},{"id":"1198","tribuneTheaterId":"8995","providerTheaterId":"","name":"Regal Lake Zurich 12","address":"755 S. Rand Road","city":"Lake Zurich","state":"IL","zip":"60047","distance":2.7342780709984,"lon":"-88.094192","lat":"42.183704","theaterChainName":"Regal Cinemas","ticketType":"STANDARD"},{"id":"3813","tribuneTheaterId":"8071","providerTheaterId":"","name":"Century 16 Deer Park","address":"21600 Field Parkway","city":"Deer Park","state":"IL","zip":"60010","distance":4.2766079515669,"lon":"-88.054862","lat":"42.159015","theaterChainName":"Cinemark","ticketType":"STANDARD"},{"id":"446","tribuneTheaterId":"8109","providerTheaterId":"471","name":"AMC South Barrington 30","address":"170 Studio Drive","city":"South Barrington","state":"IL","zip":"60010","distance":6.3235442444375,"lon":"-88.148557","lat":"42.070195","theaterChainName":"AMC Theatres","ticketType":"STANDARD"},{"id":"789","tribuneTheaterId":"6747","providerTheaterId":"","name":"CC Cinema 12 Theatre","address":"100 Besinger Dr.","city":"Carpentersville","state":"IL","zip":"60110","distance":7.0524470028195,"lon":"-88.260587","lat":"42.114541","theaterChainName":"Classic Cinemas","ticketType":"STANDARD"},{"id":"6049","tribuneTheaterId":"11452","providerTheaterId":"","name":"Cinemark Spring Hill Mall and XD","address":"2000 Spring Hill Mall","city":"West Dundee","state":"IL","zip":"60118","distance":9.071023653374,"lon":"-88.296658","lat":"42.102711","theaterChainName":"Cinemark","ticketType":"STANDARD"},{"id":"1195","tribuneTheaterId":"5932","providerTheaterId":"6501","name":"AMC Lake In The Hills 12","address":"311 N. Randall Road","city":"Lake in the Hills","state":"IL","zip":"60156","distance":10.120239332372,"lon":"-88.334399","lat":"42.179585","theaterChainName":"AMC Theatres","ticketType":"STANDARD"},{"id":"1850","tribuneTheaterId":"4647","providerTheaterId":"","name":"Regal Showplace 16","address":"5000 Northwest Highway","city":"Crystal Lake","state":"IL","zip":"60014","distance":9.1877335760505,"lon":"-88.29482","lat":"42.22648","theaterChainName":"Regal Cinemas","ticketType":"STANDARD"},{"id":"2859","tribuneTheaterId":"5192","providerTheaterId":"2591","name":"AMC Loews Streets of Woodfield 20","address":"601 N. Martingale Road","city":"Schaumburg","state":"IL","zip":"60173","distance":9.8733040643459,"lon":"-88.033695","lat":"42.041416","theaterChainName":"AMC Theatres","ticketType":"STANDARD"},{"id":"1191","tribuneTheaterId":"2936","providerTheaterId":"","name":"Buffalo Grove Theater","address":"120 McHenry Road","city":"Buffalo Grove","state":"IL","zip":"60089","distance":8.9960266709128,"lon":"-87.9628","lat":"42.1669","theaterChainName":"Independent Chains","ticketType":"STANDARD"},{"id":"5381","tribuneTheaterId":"10818","providerTheaterId":"","name":"Star Cinema Grill","address":"53 S Evergreen Ave","city":"Arlington Heights","state":"IL","zip":"60005","distance":9.7535620681463,"lon":"-87.981138","lat":"42.081783","theaterChainName":"Independent Chains","ticketType":"STANDARD"},{"id":"5036","tribuneTheaterId":"10412","providerTheaterId":"130","name":"AMC Randhurst 12","address":"200 Randhurst Village Drive","city":"Mount Prospect","state":"IL","zip":"60056","distance":11.818333891519,"lon":"-87.931609","lat":"42.085532","theaterChainName":"AMC Theatres","ticketType":"STANDARD"},{"id":"1197","tribuneTheaterId":"5927","providerTheaterId":"6951","name":"AMC Showplace Vernon Hills 8","address":"555 N. Lakeview Parkway","city":"Vernon Hills","state":"IL","zip":"60061","distance":11.097391912255,"lon":"-87.946852","lat":"42.236779","theaterChainName":"AMC Theatres","ticketType":"STANDARD"},{"id":"5700","tribuneTheaterId":"11137","providerTheaterId":"134","name":"AMC Hawthorn 12","address":"675 Hawthorn Center","city":"Vernon Hills","state":"IL","zip":"60061","distance":11.374843177155,"lon":"-87.9459","lat":"42.2438","theaterChainName":"AMC Theatres","ticketType":"STANDARD"},{"id":"1582","tribuneTheaterId":"5639","providerTheaterId":"","name":"Regal Lincolnshire Stadium 20 & IMAX","address":"300 Parkway Drive","city":"Lincolnshire","state":"IL","zip":"60069","distance":10.652499875846,"lon":"-87.931749","lat":"42.179704","theaterChainName":"Regal Cinemas","ticketType":"STANDARD"},{"id":"790","tribuneTheaterId":"2977","providerTheaterId":"","name":"CC Elk Grove Theatre","address":"1050 Arlington Heights Rd.","city":"Elk Grove Village","state":"IL","zip":"60007","distance":13.069025522501,"lon":"-88.004721","lat":"42.000314","theaterChainName":"Classic Cinemas","ticketType":"STANDARD"},{"id":"1200","tribuneTheaterId":"5791","providerTheaterId":"","name":"Marcus Elgin Cinema","address":"111 S. Randall Road","city":"Elgin","state":"IL","zip":"60123","distance":13.618640326985,"lon":"-88.336109","lat":"42.029847","theaterChainName":"Marcus Theaters","ticketType":"STANDARD"},{"id":"2268","tribuneTheaterId":"2727","providerTheaterId":"","name":"Golden Age Cinemas The Liberty 1 & 2 Theaters","address":"708 N. Milwaukee Ave.","city":"Libertyville","state":"IL","zip":"60048","distance":12.920664466244,"lon":"-87.95455","lat":"42.28968","theaterChainName":"Independent Chains","ticketType":"STANDARD"},{"id":"4812","tribuneTheaterId":"10073","providerTheaterId":"","name":"Picture Show  Bloomingdale","address":"324 W. Army Trail Road","city":"Bloomingdale","state":"IL","zip":"60108","distance":15.559201309659,"lon":"-88.106275","lat":"41.937468","theaterChainName":"Picture Show Entertainment","ticketType":"STANDARD"},{"id":"1488","tribuneTheaterId":"5638","providerTheaterId":"","name":"Regal Round Lake Beach Stadium 18","address":"550 East Rollins Road","city":"Round Lake Beach","state":"IL","zip":"60073","distance":15.608277090234,"lon":"-88.068796","lat":"42.381369","theaterChainName":"Regal Cinemas","ticketType":"STANDARD"},{"id":"4343","tribuneTheaterId":"9330","providerTheaterId":"","name":"Century Stratford Square","address":"804 Stratford Square","city":"Bloomingdale","state":"IL","zip":"60108","distance":14.712930258214,"lon":"-88.114268","lat":"41.949206","theaterChainName":"Cinemark","ticketType":"STANDARD"},{"id":"742","tribuneTheaterId":"7760","providerTheaterId":"","name":"Marcus Addison","address":"1555 W. Lake St.","city":"Addison","state":"IL","zip":"60101","distance":15.938595038453,"lon":"-88.026329","lat":"41.946221","theaterChainName":"Marcus Theaters","ticketType":"STANDARD"},{"id":"4242","tribuneTheaterId":"4954","providerTheaterId":"6693","name":"AMC Showplace Niles 12","address":"301 Golf Mill Center","city":"Niles","state":"IL","zip":"60714","distance":17.211466148653,"lon":"-87.837292","lat":"42.051028","theaterChainName":"AMC Theatres","ticketType":"STANDARD"},{"id":"791","tribuneTheaterId":"6190","providerTheaterId":"","name":"CC Fox Lake Theatre","address":"115 Town Centre Lane","city":"Fox Lake","state":"IL","zip":"60020","distance":16.301817350007,"lon":"-88.179153","lat":"42.395395","theaterChainName":"Classic Cinemas","ticketType":"STANDARD"},{"id":"308","tribuneTheaterId":"8556","providerTheaterId":"829","name":"AMC Northbrook Court 14","address":"1525 Lake Cook Road","city":"Northbrook","state":"IL","zip":"60062","distance":16.487113315399,"lon":"-87.816811","lat":"42.14958","theaterChainName":"AMC Theatres","ticketType":"STANDARD"},{"id":"3414","tribuneTheaterId":"2402","providerTheaterId":"","name":"CC Charlestowne 18","address":"3740 E. Main St.","city":"Saint Charles","state":"IL","zip":"60174","distance":17.768708938455,"lon":"-88.269138","lat":"41.923293","theaterChainName":"Classic Cinemas","ticketType":"STANDARD"},{"id":"1404","tribuneTheaterId":"2705","providerTheaterId":"","name":"Bensenville 2 Theater","address":"9 S. Center St.","city":"Bensenville","state":"IL","zip":"60106","distance":17.421014502006,"lon":"-87.940886","lat":"41.956241","theaterChainName":"Independent Chains","ticketType":"STANDARD"},{"id":"1202","tribuneTheaterId":"1658","providerTheaterId":"","name":"Pickwick Theatre","address":"5 S. Prospect Ave.","city":"Park Ridge","state":"IL","zip":"60068","distance":18.951606669888,"lon":"-87.829441","lat":"42.010751","theaterChainName":"Independent Chains","ticketType":"STANDARD"},{"id":"745","tribuneTheaterId":"7291","providerTheaterId":"","name":"Marcus Gurnee Cinema","address":"6144 Grand Ave.","city":"Gurnee","state":"IL","zip":"60031","distance":18.306483122961,"lon":"-87.960362","lat":"42.391327","theaterChainName":"Marcus Theaters","ticketType":"STANDARD"},{"id":"4406","tribuneTheaterId":"9465","providerTheaterId":"","name":"Muvico Rosemont 18","address":"9701 Bryn Mawr Ave.","city":"Rosemont","state":"IL","zip":"60018","distance":18.716373962183,"lon":"-87.867608","lat":"41.979735","theaterChainName":"Carmike Cinemas","ticketType":"STANDARD"},{"id":"798","tribuneTheaterId":"4120","providerTheaterId":"","name":"CC Woodstock Theatre","address":"209 Main St.","city":"Woodstock","state":"IL","zip":"60098","distance":19.082435444246,"lon":"-88.447742","lat":"42.315648","theaterChainName":"Classic Cinemas","ticketType":"STANDARD"},{"id":"1193","tribuneTheaterId":"2876","providerTheaterId":"","name":"Glen Ellyn Art Theatre","address":"540 Crescent Blvd.","city":"Glen Ellyn","state":"IL","zip":"60137","distance":20.025370518664,"lon":"-88.065572","lat":"41.87665","theaterChainName":"Independent Chains","ticketType":"STANDARD"},{"id":"799","tribuneTheaterId":"6257","providerTheaterId":"","name":"CC York Theatre","address":"150 N. York Road","city":"Elmhurst","state":"IL","zip":"60126","distance":20.637154383764,"lon":"-87.9399","lat":"41.9016","theaterChainName":"Classic Cinemas","ticketType":"STANDARD"},{"id":"3201","tribuneTheaterId":"5889","providerTheaterId":"6878","name":"AMC Showplace Village Crossing 18","address":"7000 Carpenter Rd.","city":"Skokie","state":"IL","zip":"60077","distance":21.83459928688,"lon":"-87.765049","lat":"42.009303","theaterChainName":"AMC Theatres","ticketType":"STANDARD"},{"id":"5188","tribuneTheaterId":"10603","providerTheaterId":"","name":"Studio Movie Grill Wheaton","address":"301 Rice Lake Square","city":"Wheaton","state":"IL","zip":"60189","distance":22.86921343712,"lon":"-88.098335","lat":"41.831745","theaterChainName":"Studio Movie Grill","ticketType":"SELECT_SEATING"},{"id":"1449","tribuneTheaterId":"5842","providerTheaterId":"","name":"Goodrich Randall 16","address":"550 N. Randall Road","city":"Batavia","state":"IL","zip":"60510","distance":23.199386782112,"lon":"-88.338879","lat":"41.860518","theaterChainName":"Goodrich Theatres","ticketType":"E_TICKET"},{"id":"5981","tribuneTheaterId":"11417","providerTheaterId":"","name":"AMC Oakbrook Center 12","address":"600 Oakbrook Center","city":"Oak Brook","state":"IL","zip":"60523","distance":23.69143352294,"lon":"-87.952177","lat":"41.84764","theaterChainName":"AMC Theatres","ticketType":"STANDARD"},{"id":"1203","tribuneTheaterId":"7178","providerTheaterId":"","name":"Wilmette Theatre","address":"1122 Central Ave.","city":"Wilmette","state":"IL","zip":"60091","distance":22.90718230198,"lon":"-87.7062","lat":"42.076599","theaterChainName":"Independent Chains","ticketType":"STANDARD"},{"id":"212","tribuneTheaterId":"8250","providerTheaterId":"825","name":"AMC Yorktown","address":"80 Yorktown Center","city":"Lombard","state":"IL","zip":"60148","distance":23.277000560989,"lon":"-88.001829","lat":"41.840135","theaterChainName":"AMC Theatres","ticketType":"STANDARD"},{"id":"2301","tribuneTheaterId":"5204","providerTheaterId":"","name":"Cinemark Melrose Park","address":"1001 W. North Ave.","city":"Melrose Park","state":"IL","zip":"60160","distance":22.958174417946,"lon":"-87.846143","lat":"41.90976","theaterChainName":"Cinemark","ticketType":"STANDARD"},{"id":"357","tribuneTheaterId":"7806","providerTheaterId":"","name":"Regal Cantera Stadium 17 & RPX","address":"28250 Diehl Rd.","city":"Warrenville","state":"IL","zip":"60555","distance":24.701233292213,"lon":"-88.171259","lat":"41.804735","theaterChainName":"Regal Cinemas","ticketType":"STANDARD"},{"id":"3079","tribuneTheaterId":"7158","providerTheaterId":"","name":"Evanston Century 12\/CineArts 6","address":"1715 Maple Ave.","city":"Evanston","state":"IL","zip":"60201","distance":24.521372987123,"lon":"-87.6847","lat":"42.0487","theaterChainName":"Cinemark","ticketType":"STANDARD"},{"id":"5706","tribuneTheaterId":"11145","providerTheaterId":"473","name":"Oakbrook Center 4","address":"300 Oakbrook Center","city":"Oak Brook","state":"IL","zip":"60523","distance":23.619326893448,"lon":"-87.9555","lat":"41.8477","theaterChainName":"AMC Theatres","ticketType":"STANDARD"}]