[{"id":"791","name":"CC Fox Lake Theatre","address":"115 Town Centre Lane","city":"Fox Lake","state":"IL","zip":"60020","distance":"14.102667808532715","lon":"-88.179153","lat":"42.395393","theaterChainName":"Classic Cinemas","ticketType":"STANDARD"},{"id":"1488","name":"Regal Round Lake Beach Stadium 18","address":"550 East Rollins Road","city":"Round Lake Beach","state":"IL","zip":"60073","distance":"15.115264892578125","lon":"-88.068794","lat":"42.381371","theaterChainName":"Regal Cinemas","ticketType":"STANDARD"},{"id":"798","name":"CC Woodstock Theatre","address":"209 Main St.","city":"Woodstock","state":"IL","zip":"60098","distance":"14.359236717224121","lon":"-88.447739","lat":"42.315647","theaterChainName":"Classic Cinemas","ticketType":"STANDARD"},{"id":"745","name":"Marcus Gurnee Cinema","address":"6144 Grand Ave.","city":"Gurnee","state":"IL","zip":"60031","distance":"19.064313888549805","lon":"-87.960365","lat":"42.391327","theaterChainName":"Marcus Theaters","ticketType":"STANDARD"},{"id":"1850","name":"Regal Showplace 16","address":"5000 Northwest Highway","city":"Crystal Lake","state":"IL","zip":"60014","distance":"4.430733680725098","lon":"-88.294823","lat":"42.226479","theaterChainName":"Regal Cinemas","ticketType":"STANDARD"},{"id":"2268","name":"Golden Age Cinemas The Liberty 1 & 2 Theaters","address":"708 N. Milwaukee Ave.","city":"Libertyville","state":"IL","zip":"60048","distance":"15.137679100036621","lon":"-87.954552","lat":"42.289680","theaterChainName":"Independent Chains","ticketType":"STANDARD"},{"id":"1195","name":"AMC Lake In The Hills 12","address":"311 N. Randall Road","city":"Lake in the Hills","state":"IL","zip":"60156","distance":"5.911352634429932","lon":"-88.334396","lat":"42.179585","theaterChainName":"AMC Theatres","ticketType":"STANDARD"},{"id":"1198","name":"Regal Lake Zurich 12","address":"755 S. Rand Road","city":"Lake Zurich","state":"IL","zip":"60047","distance":"6.502465724945068","lon":"-88.094193","lat":"42.183704","theaterChainName":"Regal Cinemas","ticketType":"STANDARD"},{"id":"5700","name":"AMC Hawthorn 12","address":"675 Hawthorn Center","city":"Vernon Hills","state":"IL","zip":"60061","distance":"14.473675727844238","lon":"-87.945900","lat":"42.243801","theaterChainName":"AMC Theatres","ticketType":"STANDARD"},{"id":"1197","name":"AMC Showplace Vernon Hills 8","address":"555 N. Lakeview Parkway","city":"Vernon Hills","state":"IL","zip":"60061","distance":"14.318132400512695","lon":"-87.946854","lat":"42.236778","theaterChainName":"AMC Theatres","ticketType":"STANDARD"},{"id":"1447","name":"Catlow Theatre","address":"116 W. Main St.","city":"Barrington","state":"IL","zip":"60010","distance":"5.081202507019043","lon":"-88.136536","lat":"42.154411","theaterChainName":"Independent Chains","ticketType":"STANDARD"},{"id":"3813","name":"Century 16 Deer Park","address":"21600 Field Parkway","city":"Deer Park","state":"IL","zip":"60010","distance":"8.811840057373047","lon":"-88.054863","lat":"42.159016","theaterChainName":"Cinemark","ticketType":"STANDARD"},{"id":"1582","name":"Regal Lincolnshire Stadium 20 & IMAX","address":"300 Parkway Drive","city":"Lincolnshire","state":"IL","zip":"60069","distance":"14.81473159790039","lon":"-87.931747","lat":"42.179703","theaterChainName":"Regal Cinemas","ticketType":"STANDARD"},{"id":"1191","name":"Buffalo Grove Theater","address":"120 McHenry Road","city":"Buffalo Grove","state":"IL","zip":"60089","distance":"13.323457717895508","lon":"-87.962799","lat":"42.166901","theaterChainName":"Independent Chains","ticketType":"STANDARD"},{"id":"789","name":"CC Cinema 12 Theatre","address":"100 Besinger Dr.","city":"Carpentersville","state":"IL","zip":"60110","distance":"5.836121559143066","lon":"-88.260590","lat":"42.114540","theaterChainName":"Classic Cinemas","ticketType":"STANDARD"},{"id":"6049","name":"Cinemark Spring Hill Mall and XD","address":"2000 Spring Hill Mall","city":"West Dundee","state":"IL","zip":"60118","distance":"7.393623352050781","lon":"-88.296661","lat":"42.102711","theaterChainName":"Cinemark","ticketType":"STANDARD"},{"id":"446","name":"AMC South Barrington 30","address":"170 Studio Drive","city":"South Barrington","state":"IL","zip":"60010","distance":"9.289713859558105","lon":"-88.148560","lat":"42.070194","theaterChainName":"AMC Theatres","ticketType":"STANDARD"},{"id":"5381","name":"Star Cinema Grill","address":"53 S Evergreen Ave","city":"Arlington Heights","state":"IL","zip":"60005","distance":"14.495034217834473","lon":"-87.981140","lat":"42.081783","theaterChainName":"Independent Chains","ticketType":"STANDARD"},{"id":"5036","name":"AMC Randhurst 12","address":"200 Randhurst Village Drive","city":"Mount Prospect","state":"IL","zip":"60056","distance":"16.57847785949707","lon":"-87.931610","lat":"42.085533","theaterChainName":"AMC Theatres","ticketType":"STANDARD"},{"id":"308","name":"AMC Northbrook Court 14","address":"1525 Lake Cook Road","city":"Northbrook","state":"IL","zip":"60062","distance":"20.89567756652832","lon":"-87.816811","lat":"42.149578","theaterChainName":"AMC Theatres","ticketType":"STANDARD"},{"id":"2859","name":"AMC Loews Streets of Woodfield 20","address":"601 N. Martingale Road","city":"Schaumburg","state":"IL","zip":"60173","distance":"14.221453666687012","lon":"-88.033691","lat":"42.041416","theaterChainName":"AMC Theatres","ticketType":"STANDARD"},{"id":"1200","name":"Marcus Elgin Cinema","address":"111 S. Randall Road","city":"Elgin","state":"IL","zip":"60123","distance":"12.772856712341309","lon":"-88.336105","lat":"42.029846","theaterChainName":"Marcus Theaters","ticketType":"STANDARD"},{"id":"790","name":"CC Elk Grove Theatre","address":"1050 Arlington Heights Rd.","city":"Elk Grove Village","state":"IL","zip":"60007","distance":"17.3425350189209","lon":"-88.004723","lat":"42.000313","theaterChainName":"Classic Cinemas","ticketType":"STANDARD"},{"id":"742","name":"Marcus Addison","address":"1555 W. Lake St.","city":"Addison","state":"IL","zip":"60101","distance":"19.78312110900879","lon":"-88.026329","lat":"41.946220","theaterChainName":"Marcus Theaters","ticketType":"STANDARD"},{"id":"1404","name":"Bensenville 2 Theater","address":"9 S. Center St.","city":"Bensenville","state":"IL","zip":"60106","distance":"21.78643798828125","lon":"-87.940887","lat":"41.956242","theaterChainName":"Independent Chains","ticketType":"STANDARD"},{"id":"799","name":"CC York Theatre","address":"150 N. York Road","city":"Elmhurst","state":"IL","zip":"60126","distance":"24.786666870117188","lon":"-87.939903","lat":"41.901600","theaterChainName":"Classic Cinemas","ticketType":"STANDARD"},{"id":"4406","name":"Muvico Rosemont 18","address":"9701 Bryn Mawr Ave.","city":"Rosemont","state":"IL","zip":"60018","distance":"23.363161087036133","lon":"-87.867607","lat":"41.979736","theaterChainName":"Carmike Cinemas","ticketType":"STANDARD"},{"id":"4812","name":"Picture Show  Bloomingdale","address":"324 W. Army Trail Road","city":"Bloomingdale","state":"IL","zip":"60108","distance":"18.642614364624023","lon":"-88.106277","lat":"41.937469","theaterChainName":"Picture Show Entertainment","ticketType":"STANDARD"},{"id":"4343","name":"Century Stratford Square","address":"804 Stratford Square","city":"Bloomingdale","state":"IL","zip":"60108","distance":"17.744230270385742","lon":"-88.114265","lat":"41.949207","theaterChainName":"Cinemark","ticketType":"STANDARD"},{"id":"1193","name":"Glen Ellyn Art Theatre","address":"540 Crescent Blvd.","city":"Glen Ellyn","state":"IL","zip":"60137","distance":"23.298913955688477","lon":"-88.065575","lat":"41.876652","theaterChainName":"Independent Chains","ticketType":"STANDARD"},{"id":"1202","name":"Pickwick Theatre","address":"5 S. Prospect Ave.","city":"Park Ridge","state":"IL","zip":"60068","distance":"23.69744873046875","lon":"-87.829437","lat":"42.010750","theaterChainName":"Independent Chains","ticketType":"STANDARD"},{"id":"4242","name":"AMC Showplace Niles 12","address":"301 Golf Mill Center","city":"Niles","state":"IL","zip":"60714","distance":"21.97157859802246","lon":"-87.837296","lat":"42.051029","theaterChainName":"AMC Theatres","ticketType":"STANDARD"},{"id":"3414","name":"CC Charlestowne 18","address":"3740 E. Main St.","city":"Saint Charles","state":"IL","zip":"60174","distance":"18.843400955200195","lon":"-88.269135","lat":"41.923294","theaterChainName":"Classic Cinemas","ticketType":"STANDARD"},{"id":"1449","name":"Goodrich Randall 16","address":"550 N. Randall Road","city":"Batavia","state":"IL","zip":"60510","distance":"23.80367660522461","lon":"-88.338882","lat":"41.860519","theaterChainName":"Goodrich Theatres","ticketType":"E_TICKET"}]