[{"id":"745","tribuneTheaterId":"7291","providerTheaterId":"","name":"Marcus Gurnee Cinema","address":"6144 Grand Ave.","city":"Gurnee","state":"IL","zip":"60031","distance":5.4977483871957,"lon":"-87.960362","lat":"42.391327","theaterChainName":"Marcus Theaters","ticketType":"STANDARD"},{"id":"2268","tribuneTheaterId":"2727","providerTheaterId":"","name":"Golden Age Cinemas The Liberty 1 & 2 Theaters","address":"708 N. Milwaukee Ave.","city":"Libertyville","state":"IL","zip":"60048","distance":6.3839085143321,"lon":"-87.95455","lat":"42.28968","theaterChainName":"Independent Chains","ticketType":"STANDARD"},{"id":"1197","tribuneTheaterId":"5927","providerTheaterId":"6951","name":"AMC Showplace Vernon Hills 8","address":"555 N. Lakeview Parkway","city":"Vernon Hills","state":"IL","zip":"60061","distance":9.125649849908,"lon":"-87.946852","lat":"42.236779","theaterChainName":"AMC Theatres","ticketType":"STANDARD"},{"id":"5700","tribuneTheaterId":"11137","providerTheaterId":"134","name":"AMC Hawthorn 12","address":"675 Hawthorn Center","city":"Vernon Hills","state":"IL","zip":"60061","distance":8.6738349124861,"lon":"-87.9459","lat":"42.2438","theaterChainName":"AMC Theatres","ticketType":"STANDARD"},{"id":"1488","tribuneTheaterId":"5638","providerTheaterId":"","name":"Regal Round Lake Beach Stadium 18","address":"550 East Rollins Road","city":"Round Lake Beach","state":"IL","zip":"60073","distance":10.566458261152,"lon":"-88.068796","lat":"42.381369","theaterChainName":"Regal Cinemas","ticketType":"STANDARD"},{"id":"1582","tribuneTheaterId":"5639","providerTheaterId":"","name":"Regal Lincolnshire Stadium 20 & IMAX","address":"300 Parkway Drive","city":"Lincolnshire","state":"IL","zip":"60069","distance":12.528858623454,"lon":"-87.931749","lat":"42.179704","theaterChainName":"Regal Cinemas","ticketType":"STANDARD"},{"id":"1191","tribuneTheaterId":"2936","providerTheaterId":"","name":"Buffalo Grove Theater","address":"120 McHenry Road","city":"Buffalo Grove","state":"IL","zip":"60089","distance":13.872036797958,"lon":"-87.9628","lat":"42.1669","theaterChainName":"Independent Chains","ticketType":"STANDARD"},{"id":"308","tribuneTheaterId":"8556","providerTheaterId":"829","name":"AMC Northbrook Court 14","address":"1525 Lake Cook Road","city":"Northbrook","state":"IL","zip":"60062","distance":14.351948808134,"lon":"-87.816811","lat":"42.14958","theaterChainName":"AMC Theatres","ticketType":"STANDARD"},{"id":"1376","tribuneTheaterId":"4239","providerTheaterId":"","name":"Tinseltown Kenosha","address":"7101 70th Court","city":"Kenosha","state":"WI","zip":"53142","distance":14.993529445265,"lon":"-87.892159","lat":"42.570284","theaterChainName":"Cinemark","ticketType":"STANDARD"},{"id":"3813","tribuneTheaterId":"8071","providerTheaterId":"","name":"Century 16 Deer Park","address":"21600 Field Parkway","city":"Deer Park","state":"IL","zip":"60010","distance":16.614528606027,"lon":"-88.054862","lat":"42.159015","theaterChainName":"Cinemark","ticketType":"STANDARD"},{"id":"1198","tribuneTheaterId":"8995","providerTheaterId":"","name":"Regal Lake Zurich 12","address":"755 S. Rand Road","city":"Lake Zurich","state":"IL","zip":"60047","distance":16.612339113345,"lon":"-88.094192","lat":"42.183704","theaterChainName":"Regal Cinemas","ticketType":"STANDARD"},{"id":"791","tribuneTheaterId":"6190","providerTheaterId":"","name":"CC Fox Lake Theatre","address":"115 Town Centre Lane","city":"Fox Lake","state":"IL","zip":"60020","distance":16.280868672753,"lon":"-88.179153","lat":"42.395395","theaterChainName":"Classic Cinemas","ticketType":"STANDARD"},{"id":"5381","tribuneTheaterId":"10818","providerTheaterId":"","name":"Star Cinema Grill","address":"53 S Evergreen Ave","city":"Arlington Heights","state":"IL","zip":"60005","distance":19.736528373973,"lon":"-87.981138","lat":"42.081783","theaterChainName":"Independent Chains","ticketType":"STANDARD"},{"id":"5036","tribuneTheaterId":"10412","providerTheaterId":"130","name":"AMC Randhurst 12","address":"200 Randhurst Village Drive","city":"Mount Prospect","state":"IL","zip":"60056","distance":18.872529533954,"lon":"-87.931609","lat":"42.085532","theaterChainName":"AMC Theatres","ticketType":"STANDARD"},{"id":"1447","tribuneTheaterId":"264","providerTheaterId":"","name":"Catlow Theatre","address":"116 W. Main St.","city":"Barrington","state":"IL","zip":"60010","distance":19.576445000782,"lon":"-88.136533","lat":"42.154413","theaterChainName":"Independent Chains","ticketType":"STANDARD"},{"id":"1203","tribuneTheaterId":"7178","providerTheaterId":"","name":"Wilmette Theatre","address":"1122 Central Ave.","city":"Wilmette","state":"IL","zip":"60091","distance":20.83274950288,"lon":"-87.7062","lat":"42.076599","theaterChainName":"Independent Chains","ticketType":"STANDARD"},{"id":"4242","tribuneTheaterId":"4954","providerTheaterId":"6693","name":"AMC Showplace Niles 12","address":"301 Golf Mill Center","city":"Niles","state":"IL","zip":"60714","distance":20.995452199887,"lon":"-87.837292","lat":"42.051028","theaterChainName":"AMC Theatres","ticketType":"STANDARD"},{"id":"2859","tribuneTheaterId":"5192","providerTheaterId":"2591","name":"AMC Loews Streets of Woodfield 20","address":"601 N. Martingale Road","city":"Schaumburg","state":"IL","zip":"60173","distance":23.270576376201,"lon":"-88.033695","lat":"42.041416","theaterChainName":"AMC Theatres","ticketType":"STANDARD"},{"id":"3201","tribuneTheaterId":"5889","providerTheaterId":"6878","name":"AMC Showplace Village Crossing 18","address":"7000 Carpenter Rd.","city":"Skokie","state":"IL","zip":"60077","distance":24.37442595602,"lon":"-87.765049","lat":"42.009303","theaterChainName":"AMC Theatres","ticketType":"STANDARD"},{"id":"1202","tribuneTheaterId":"1658","providerTheaterId":"","name":"Pickwick Theatre","address":"5 S. Prospect Ave.","city":"Park Ridge","state":"IL","zip":"60068","distance":23.800152606312,"lon":"-87.829441","lat":"42.010751","theaterChainName":"Independent Chains","ticketType":"STANDARD"},{"id":"3079","tribuneTheaterId":"7158","providerTheaterId":"","name":"Evanston Century 12\/CineArts 6","address":"1715 Maple Ave.","city":"Evanston","state":"IL","zip":"60201","distance":23.039196123645,"lon":"-87.6847","lat":"42.0487","theaterChainName":"Cinemark","ticketType":"STANDARD"},{"id":"1850","tribuneTheaterId":"4647","providerTheaterId":"","name":"Regal Showplace 16","address":"5000 Northwest Highway","city":"Crystal Lake","state":"IL","zip":"60014","distance":23.670044398825,"lon":"-88.29482","lat":"42.22648","theaterChainName":"Regal Cinemas","ticketType":"STANDARD"},{"id":"446","tribuneTheaterId":"8109","providerTheaterId":"471","name":"AMC South Barrington 30","address":"170 Studio Drive","city":"South Barrington","state":"IL","zip":"60010","distance":24.402331082562,"lon":"-88.148557","lat":"42.070195","theaterChainName":"AMC Theatres","ticketType":"STANDARD"}]