[{"id":"1871","name":"Showboat of Lyons","address":"2565 Highway 120","city":"Lake Geneva","state":"WI","zip":"53147","distance":"20.346763610839844","lon":"-88.414589","lat":"42.613251","theaterChainName":"Nova Cinemas","ticketType":"STANDARD"},{"id":"791","name":"CC Fox Lake Theatre","address":"115 Town Centre Lane","city":"Fox Lake","state":"IL","zip":"60020","distance":"14.673130989074707","lon":"-88.179153","lat":"42.395393","theaterChainName":"Classic Cinemas","ticketType":"STANDARD"},{"id":"1488","name":"Regal Round Lake Beach Stadium 18","address":"550 East Rollins Road","city":"Round Lake Beach","state":"IL","zip":"60073","distance":"19.811248779296875","lon":"-88.068794","lat":"42.381371","theaterChainName":"Regal Cinemas","ticketType":"STANDARD"},{"id":"798","name":"CC Woodstock Theatre","address":"209 Main St.","city":"Woodstock","state":"IL","zip":"60098","distance":"0.287052184343338","lon":"-88.447739","lat":"42.315647","theaterChainName":"Classic Cinemas","ticketType":"STANDARD"},{"id":"1850","name":"Regal Showplace 16","address":"5000 Northwest Highway","city":"Crystal Lake","state":"IL","zip":"60014","distance":"10.133008003234863","lon":"-88.294823","lat":"42.226479","theaterChainName":"Regal Cinemas","ticketType":"STANDARD"},{"id":"1195","name":"AMC Lake In The Hills 12","address":"311 N. Randall Road","city":"Lake in the Hills","state":"IL","zip":"60156","distance":"11.289571762084961","lon":"-88.334396","lat":"42.179585","theaterChainName":"AMC Theatres","ticketType":"STANDARD"},{"id":"1198","name":"Regal Lake Zurich 12","address":"755 S. Rand Road","city":"Lake Zurich","state":"IL","zip":"60047","distance":"20.37982177734375","lon":"-88.094193","lat":"42.183704","theaterChainName":"Regal Cinemas","ticketType":"STANDARD"},{"id":"1447","name":"Catlow Theatre","address":"116 W. Main St.","city":"Barrington","state":"IL","zip":"60010","distance":"19.595861434936523","lon":"-88.136536","lat":"42.154411","theaterChainName":"Independent Chains","ticketType":"STANDARD"},{"id":"3813","name":"Century 16 Deer Park","address":"21600 Field Parkway","city":"Deer Park","state":"IL","zip":"60010","distance":"22.96247673034668","lon":"-88.054863","lat":"42.159016","theaterChainName":"Cinemark","ticketType":"STANDARD"},{"id":"789","name":"CC Cinema 12 Theatre","address":"100 Besinger Dr.","city":"Carpentersville","state":"IL","zip":"60110","distance":"17.11265754699707","lon":"-88.260590","lat":"42.114540","theaterChainName":"Classic Cinemas","ticketType":"STANDARD"},{"id":"6049","name":"Cinemark Spring Hill Mall and XD","address":"2000 Spring Hill Mall","city":"West Dundee","state":"IL","zip":"60118","distance":"16.874996185302734","lon":"-88.296661","lat":"42.102711","theaterChainName":"Cinemark","ticketType":"STANDARD"},{"id":"446","name":"AMC South Barrington 30","address":"170 Studio Drive","city":"South Barrington","state":"IL","zip":"60010","distance":"23.064512252807617","lon":"-88.148560","lat":"42.070194","theaterChainName":"AMC Theatres","ticketType":"STANDARD"},{"id":"1200","name":"Marcus Elgin Cinema","address":"111 S. Randall Road","city":"Elgin","state":"IL","zip":"60123","distance":"20.834238052368164","lon":"-88.336105","lat":"42.029846","theaterChainName":"Marcus Theaters","ticketType":"STANDARD"}]