[{"id":"6049","name":"Cinemark Spring Hill Mall and XD","address":"2000 Spring Hill Mall","city":"West Dundee","state":"IL","zip":"60118","distance":"23.759132385253906","lon":"-88.296661","lat":"42.102711","theaterChainName":"Cinemark","ticketType":"STANDARD"},{"id":"1200","name":"Marcus Elgin Cinema","address":"111 S. Randall Road","city":"Elgin","state":"IL","zip":"60123","distance":"19.638648986816406","lon":"-88.336105","lat":"42.029846","theaterChainName":"Marcus Theaters","ticketType":"STANDARD"},{"id":"3414","name":"CC Charlestowne 18","address":"3740 E. Main St.","city":"Saint Charles","state":"IL","zip":"60174","distance":"21.572059631347656","lon":"-88.269135","lat":"41.923294","theaterChainName":"Classic Cinemas","ticketType":"STANDARD"},{"id":"1449","name":"Goodrich Randall 16","address":"550 N. Randall Road","city":"Batavia","state":"IL","zip":"60510","distance":"18.457162857055664","lon":"-88.338882","lat":"41.860519","theaterChainName":"Goodrich Theatres","ticketType":"E_TICKET"},{"id":"1407","name":"Cinemark Tinseltown USA North Aurora","address":"320 S. Lincoln Way","city":"North Aurora","state":"IL","zip":"60542","distance":"20.72222328186035","lon":"-88.324692","lat":"41.791809","theaterChainName":"Cinemark","ticketType":"STANDARD"},{"id":"1614","name":"Sycamore Theatre","address":"420 W. State St.","city":"Sycamore","state":"IL","zip":"60178","distance":"4.765443801879883","lon":"-88.689186","lat":"41.988964","theaterChainName":"Independent Chains","ticketType":"STANDARD"},{"id":"2203","name":"Carmike Market Square 10","address":"2160 Sycamore Rd.","city":"DeKalb","state":"IL","zip":"60115","distance":"2.8934760093688965","lon":"-88.728104","lat":"41.949902","theaterChainName":"Carmike Cinemas","ticketType":"STANDARD"},{"id":"1448","name":"Goodrich Kendall 11","address":"95 5th St.","city":"Oswego","state":"IL","zip":"60543","distance":"23.83026695251465","lon":"-88.314003","lat":"41.717602","theaterChainName":"Goodrich Theatres","ticketType":"SELECT_SEATING"},{"id":"5442","name":"NCG Yorkville Cinemas","address":"1505 N. Bridge St.","city":"Yorkville","state":"IL","zip":"60560","distance":"21.98600959777832","lon":"-88.442497","lat":"41.660099","theaterChainName":"NCG Cinemas","ticketType":"STANDARD"},{"id":"2300","name":"WoW 7 Cinema","address":"101 Duvick Ave.","city":"Sandwich","state":"IL","zip":"60548","distance":"19.434911727905273","lon":"-88.600166","lat":"41.646587","theaterChainName":"Independent Chains","ticketType":"STANDARD"}]