[{"id":"1200","tribuneTheaterId":"5791","providerTheaterId":"","name":"Marcus Elgin Cinema","address":"111 S. Randall Road","city":"Elgin","state":"IL","zip":"60123","distance":3.9198324410485,"lon":"-88.336109","lat":"42.029847","theaterChainName":"Marcus Theaters","ticketType":"STANDARD"},{"id":"789","tribuneTheaterId":"6747","providerTheaterId":"","name":"CC Cinema 12 Theatre","address":"100 Besinger Dr.","city":"Carpentersville","state":"IL","zip":"60110","distance":5.260833208003,"lon":"-88.260587","lat":"42.114541","theaterChainName":"Classic Cinemas","ticketType":"STANDARD"},{"id":"6049","tribuneTheaterId":"11452","providerTheaterId":"","name":"Cinemark Spring Hill Mall and XD","address":"2000 Spring Hill Mall","city":"West Dundee","state":"IL","zip":"60118","distance":4.8129595755373,"lon":"-88.296658","lat":"42.102711","theaterChainName":"Cinemark","ticketType":"STANDARD"},{"id":"446","tribuneTheaterId":"8109","providerTheaterId":"471","name":"AMC South Barrington 30","address":"170 Studio Drive","city":"South Barrington","state":"IL","zip":"60010","distance":6.1535764150807,"lon":"-88.148557","lat":"42.070195","theaterChainName":"AMC Theatres","ticketType":"STANDARD"},{"id":"3414","tribuneTheaterId":"2402","providerTheaterId":"","name":"CC Charlestowne 18","address":"3740 E. Main St.","city":"Saint Charles","state":"IL","zip":"60174","distance":7.9652035700578,"lon":"-88.269138","lat":"41.923293","theaterChainName":"Classic Cinemas","ticketType":"STANDARD"},{"id":"1447","tribuneTheaterId":"264","providerTheaterId":"","name":"Catlow Theatre","address":"116 W. Main St.","city":"Barrington","state":"IL","zip":"60010","distance":10.23281751172,"lon":"-88.136533","lat":"42.154413","theaterChainName":"Independent Chains","ticketType":"STANDARD"},{"id":"4812","tribuneTheaterId":"10073","providerTheaterId":"","name":"Picture Show  Bloomingdale","address":"324 W. Army Trail Road","city":"Bloomingdale","state":"IL","zip":"60108","distance":10.556832587424,"lon":"-88.106275","lat":"41.937468","theaterChainName":"Picture Show Entertainment","ticketType":"STANDARD"},{"id":"4343","tribuneTheaterId":"9330","providerTheaterId":"","name":"Century Stratford Square","address":"804 Stratford Square","city":"Bloomingdale","state":"IL","zip":"60108","distance":9.7182440194299,"lon":"-88.114268","lat":"41.949206","theaterChainName":"Cinemark","ticketType":"STANDARD"},{"id":"1195","tribuneTheaterId":"5932","providerTheaterId":"6501","name":"AMC Lake In The Hills 12","address":"311 N. Randall Road","city":"Lake in the Hills","state":"IL","zip":"60156","distance":10.462716879465,"lon":"-88.334399","lat":"42.179585","theaterChainName":"AMC Theatres","ticketType":"STANDARD"},{"id":"2859","tribuneTheaterId":"5192","providerTheaterId":"2591","name":"AMC Loews Streets of Woodfield 20","address":"601 N. Martingale Road","city":"Schaumburg","state":"IL","zip":"60173","distance":11.645290659839,"lon":"-88.033695","lat":"42.041416","theaterChainName":"AMC Theatres","ticketType":"STANDARD"},{"id":"1449","tribuneTheaterId":"5842","providerTheaterId":"","name":"Goodrich Randall 16","address":"550 N. Randall Road","city":"Batavia","state":"IL","zip":"60510","distance":12.931975288015,"lon":"-88.338879","lat":"41.860518","theaterChainName":"Goodrich Theatres","ticketType":"E_TICKET"},{"id":"1850","tribuneTheaterId":"4647","providerTheaterId":"","name":"Regal Showplace 16","address":"5000 Northwest Highway","city":"Crystal Lake","state":"IL","zip":"60014","distance":13.112827249363,"lon":"-88.29482","lat":"42.22648","theaterChainName":"Regal Cinemas","ticketType":"STANDARD"},{"id":"790","tribuneTheaterId":"2977","providerTheaterId":"","name":"CC Elk Grove Theatre","address":"1050 Arlington Heights Rd.","city":"Elk Grove Village","state":"IL","zip":"60007","distance":13.39546043856,"lon":"-88.004721","lat":"42.000314","theaterChainName":"Classic Cinemas","ticketType":"STANDARD"},{"id":"1198","tribuneTheaterId":"8995","providerTheaterId":"","name":"Regal Lake Zurich 12","address":"755 S. Rand Road","city":"Lake Zurich","state":"IL","zip":"60047","distance":13.173634805718,"lon":"-88.094192","lat":"42.183704","theaterChainName":"Regal Cinemas","ticketType":"STANDARD"},{"id":"3813","tribuneTheaterId":"8071","providerTheaterId":"","name":"Century 16 Deer Park","address":"21600 Field Parkway","city":"Deer Park","state":"IL","zip":"60010","distance":13.442458762863,"lon":"-88.054862","lat":"42.159015","theaterChainName":"Cinemark","ticketType":"STANDARD"},{"id":"742","tribuneTheaterId":"7760","providerTheaterId":"","name":"Marcus Addison","address":"1555 W. Lake St.","city":"Addison","state":"IL","zip":"60101","distance":13.612277655685,"lon":"-88.026329","lat":"41.946221","theaterChainName":"Marcus Theaters","ticketType":"STANDARD"},{"id":"1193","tribuneTheaterId":"2876","providerTheaterId":"","name":"Glen Ellyn Art Theatre","address":"540 Crescent Blvd.","city":"Glen Ellyn","state":"IL","zip":"60137","distance":15.010418587144,"lon":"-88.065572","lat":"41.87665","theaterChainName":"Independent Chains","ticketType":"STANDARD"},{"id":"5381","tribuneTheaterId":"10818","providerTheaterId":"","name":"Star Cinema Grill","address":"53 S Evergreen Ave","city":"Arlington Heights","state":"IL","zip":"60005","distance":14.645801559973,"lon":"-87.981138","lat":"42.081783","theaterChainName":"Independent Chains","ticketType":"STANDARD"},{"id":"357","tribuneTheaterId":"7806","providerTheaterId":"","name":"Regal Cantera Stadium 17 & RPX","address":"28250 Diehl Rd.","city":"Warrenville","state":"IL","zip":"60555","distance":16.785299836757,"lon":"-88.171259","lat":"41.804735","theaterChainName":"Regal Cinemas","ticketType":"STANDARD"},{"id":"1404","tribuneTheaterId":"2705","providerTheaterId":"","name":"Bensenville 2 Theater","address":"9 S. Center St.","city":"Bensenville","state":"IL","zip":"60106","distance":17.370552745013,"lon":"-87.940886","lat":"41.956241","theaterChainName":"Independent Chains","ticketType":"STANDARD"},{"id":"5188","tribuneTheaterId":"10603","providerTheaterId":"","name":"Studio Movie Grill Wheaton","address":"301 Rice Lake Square","city":"Wheaton","state":"IL","zip":"60189","distance":16.535830283944,"lon":"-88.098335","lat":"41.831745","theaterChainName":"Studio Movie Grill","ticketType":"SELECT_SEATING"},{"id":"795","tribuneTheaterId":"6334","providerTheaterId":"","name":"CC Ogden 6 Theatre","address":"1227 E. Ogden Ave.","city":"Naperville","state":"IL","zip":"60563","distance":17.998606271726,"lon":"-88.124481","lat":"41.7984","theaterChainName":"Classic Cinemas","ticketType":"STANDARD"},{"id":"1407","tribuneTheaterId":"5205","providerTheaterId":"","name":"Cinemark Tinseltown USA North Aurora","address":"320 S. Lincoln Way","city":"North Aurora","state":"IL","zip":"60542","distance":17.353460858437,"lon":"-88.324692","lat":"41.79181","theaterChainName":"Cinemark","ticketType":"STANDARD"},{"id":"1191","tribuneTheaterId":"2936","providerTheaterId":"","name":"Buffalo Grove Theater","address":"120 McHenry Road","city":"Buffalo Grove","state":"IL","zip":"60089","distance":17.660273862998,"lon":"-87.9628","lat":"42.1669","theaterChainName":"Independent Chains","ticketType":"STANDARD"},{"id":"5036","tribuneTheaterId":"10412","providerTheaterId":"130","name":"AMC Randhurst 12","address":"200 Randhurst Village Drive","city":"Mount Prospect","state":"IL","zip":"60056","distance":17.187335526152,"lon":"-87.931609","lat":"42.085532","theaterChainName":"AMC Theatres","ticketType":"STANDARD"},{"id":"212","tribuneTheaterId":"8250","providerTheaterId":"825","name":"AMC Yorktown","address":"80 Yorktown Center","city":"Lombard","state":"IL","zip":"60148","distance":19.092817905688,"lon":"-88.001829","lat":"41.840135","theaterChainName":"AMC Theatres","ticketType":"STANDARD"},{"id":"799","tribuneTheaterId":"6257","providerTheaterId":"","name":"CC York Theatre","address":"150 N. York Road","city":"Elmhurst","state":"IL","zip":"60126","distance":18.993392871921,"lon":"-87.9399","lat":"41.9016","theaterChainName":"Classic Cinemas","ticketType":"STANDARD"},{"id":"4817","tribuneTheaterId":"10079","providerTheaterId":"","name":"Hollywood Palms Cinema","address":"352 South Route 59","city":"Naperville","state":"IL","zip":"60540","distance":19.089878918474,"lon":"-88.202523","lat":"41.765511","theaterChainName":"Independent Chains","ticketType":"STANDARD"},{"id":"1582","tribuneTheaterId":"5639","providerTheaterId":"","name":"Regal Lincolnshire Stadium 20 & IMAX","address":"300 Parkway Drive","city":"Lincolnshire","state":"IL","zip":"60069","distance":19.479582018863,"lon":"-87.931749","lat":"42.179704","theaterChainName":"Regal Cinemas","ticketType":"STANDARD"},{"id":"5706","tribuneTheaterId":"11145","providerTheaterId":"473","name":"Oakbrook Center 4","address":"300 Oakbrook Center","city":"Oak Brook","state":"IL","zip":"60523","distance":20.480816054425,"lon":"-87.9555","lat":"41.8477","theaterChainName":"AMC Theatres","ticketType":"STANDARD"},{"id":"797","tribuneTheaterId":"6166","providerTheaterId":"","name":"CC Tivoli Theatre","address":"5021 Highland Ave.","city":"Downers Grove","state":"IL","zip":"60515","distance":21.160750463606,"lon":"-88.009144","lat":"41.79594","theaterChainName":"Classic Cinemas","ticketType":"STANDARD"},{"id":"4406","tribuneTheaterId":"9465","providerTheaterId":"","name":"Muvico Rosemont 18","address":"9701 Bryn Mawr Ave.","city":"Rosemont","state":"IL","zip":"60018","distance":20.578937055795,"lon":"-87.867608","lat":"41.979735","theaterChainName":"Carmike Cinemas","ticketType":"STANDARD"},{"id":"5981","tribuneTheaterId":"11417","providerTheaterId":"","name":"AMC Oakbrook Center 12","address":"600 Oakbrook Center","city":"Oak Brook","state":"IL","zip":"60523","distance":20.614507888517,"lon":"-87.952177","lat":"41.84764","theaterChainName":"AMC Theatres","ticketType":"STANDARD"},{"id":"1197","tribuneTheaterId":"5927","providerTheaterId":"6951","name":"AMC Showplace Vernon Hills 8","address":"555 N. Lakeview Parkway","city":"Vernon Hills","state":"IL","zip":"60061","distance":21.125214779113,"lon":"-87.946852","lat":"42.236779","theaterChainName":"AMC Theatres","ticketType":"STANDARD"},{"id":"2951","tribuneTheaterId":"9089","providerTheaterId":"","name":"Cinemark  Seven Bridges","address":"6500 Route 53","city":"Woodridge","state":"IL","zip":"60517","distance":21.103178959458,"lon":"-88.0685","lat":"41.7685","theaterChainName":"Cinemark","ticketType":"STANDARD"},{"id":"1448","tribuneTheaterId":"5839","providerTheaterId":"","name":"Goodrich Kendall 11","address":"95 5th St.","city":"Oswego","state":"IL","zip":"60543","distance":22.334721666973,"lon":"-88.314","lat":"41.7176","theaterChainName":"Goodrich Theatres","ticketType":"SELECT_SEATING"},{"id":"4164","tribuneTheaterId":"4962","providerTheaterId":"6675","name":"AMC Showplace Naperville 16","address":"2815 Showplace Drive","city":"Naperville","state":"IL","zip":"60564","distance":22.641867572308,"lon":"-88.209242","lat":"41.712939","theaterChainName":"AMC Theatres","ticketType":"STANDARD"},{"id":"1614","tribuneTheaterId":"1470","providerTheaterId":"","name":"Sycamore Theatre","address":"420 W. State St.","city":"Sycamore","state":"IL","zip":"60178","distance":22.265122039801,"lon":"-88.689186","lat":"41.988964","theaterChainName":"Independent Chains","ticketType":"STANDARD"},{"id":"1202","tribuneTheaterId":"1658","providerTheaterId":"","name":"Pickwick Theatre","address":"5 S. Prospect Ave.","city":"Park Ridge","state":"IL","zip":"60068","distance":22.212159282129,"lon":"-87.829441","lat":"42.010751","theaterChainName":"Independent Chains","ticketType":"STANDARD"},{"id":"798","tribuneTheaterId":"4120","providerTheaterId":"","name":"CC Woodstock Theatre","address":"209 Main St.","city":"Woodstock","state":"IL","zip":"60098","distance":21.41893911014,"lon":"-88.447742","lat":"42.315648","theaterChainName":"Classic Cinemas","ticketType":"STANDARD"},{"id":"5700","tribuneTheaterId":"11137","providerTheaterId":"134","name":"AMC Hawthorn 12","address":"675 Hawthorn Center","city":"Vernon Hills","state":"IL","zip":"60061","distance":21.479058606287,"lon":"-87.9459","lat":"42.2438","theaterChainName":"AMC Theatres","ticketType":"STANDARD"},{"id":"4242","tribuneTheaterId":"4954","providerTheaterId":"6693","name":"AMC Showplace Niles 12","address":"301 Golf Mill Center","city":"Niles","state":"IL","zip":"60714","distance":21.737528172884,"lon":"-87.837292","lat":"42.051028","theaterChainName":"AMC Theatres","ticketType":"STANDARD"},{"id":"2301","tribuneTheaterId":"5204","providerTheaterId":"","name":"Cinemark Melrose Park","address":"1001 W. North Ave.","city":"Melrose Park","state":"IL","zip":"60160","distance":23.070353893838,"lon":"-87.846143","lat":"41.90976","theaterChainName":"Cinemark","ticketType":"STANDARD"},{"id":"3610","tribuneTheaterId":"1874","providerTheaterId":"","name":"Hollywood Blvd. Cinema","address":"1001 W. 75th St.","city":"Woodridge","state":"IL","zip":"60517","distance":23.698190518845,"lon":"-88.0085","lat":"41.7513","theaterChainName":"Independent Chains","ticketType":"STANDARD"},{"id":"2268","tribuneTheaterId":"2727","providerTheaterId":"","name":"Golden Age Cinemas The Liberty 1 & 2 Theaters","address":"708 N. Milwaukee Ave.","city":"Libertyville","state":"IL","zip":"60048","distance":23.390224200067,"lon":"-87.95455","lat":"42.28968","theaterChainName":"Independent Chains","ticketType":"STANDARD"},{"id":"2203","tribuneTheaterId":"4977","providerTheaterId":"","name":"Carmike Market Square 10","address":"2160 Sycamore Rd.","city":"DeKalb","state":"IL","zip":"60115","distance":24.773091266858,"lon":"-88.7281","lat":"41.9499","theaterChainName":"Carmike Cinemas","ticketType":"STANDARD"},{"id":"308","tribuneTheaterId":"8556","providerTheaterId":"829","name":"AMC Northbrook Court 14","address":"1525 Lake Cook Road","city":"Northbrook","state":"IL","zip":"60062","distance":24.014964947242,"lon":"-87.816811","lat":"42.14958","theaterChainName":"AMC Theatres","ticketType":"STANDARD"},{"id":"1196","tribuneTheaterId":"5933","providerTheaterId":"","name":"Regal Bolingbrook Stadium 12","address":"1221 W. Boughton Road","city":"Bolingbrook","state":"IL","zip":"60440","distance":24.345975592033,"lon":"-88.122556","lat":"41.701364","theaterChainName":"Regal Cinemas","ticketType":"STANDARD"}]