[{"id":"1614","tribuneTheaterId":"1470","providerTheaterId":"","name":"Sycamore Theatre","address":"420 W. State St.","city":"Sycamore","state":"IL","zip":"60178","distance":9.057360023199,"lon":"-88.689186","lat":"41.988964","theaterChainName":"Independent Chains","ticketType":"STANDARD"},{"id":"2203","tribuneTheaterId":"4977","providerTheaterId":"","name":"Carmike Market Square 10","address":"2160 Sycamore Rd.","city":"DeKalb","state":"IL","zip":"60115","distance":10.972436269011,"lon":"-88.7281","lat":"41.9499","theaterChainName":"Carmike Cinemas","ticketType":"STANDARD"},{"id":"1510","tribuneTheaterId":"5937","providerTheaterId":"6831","name":"AMC Showplace Rockford 16","address":"8301 E. State St.","city":"Rockford","state":"IL","zip":"61108","distance":14.79938403188,"lon":"-88.953799","lat":"42.270721","theaterChainName":"AMC Theatres","ticketType":"STANDARD"},{"id":"3988","tribuneTheaterId":"4956","providerTheaterId":"6832","name":"AMC Showplace Machesney Park 14","address":"1860 Anjali Way","city":"Machesney Park","state":"IL","zip":"61115","distance":21.910503183374,"lon":"-89.004594","lat":"42.37078","theaterChainName":"AMC Theatres","ticketType":"STANDARD"},{"id":"1200","tribuneTheaterId":"5791","providerTheaterId":"","name":"Marcus Elgin Cinema","address":"111 S. Randall Road","city":"Elgin","state":"IL","zip":"60123","distance":22.838756563155,"lon":"-88.336109","lat":"42.029847","theaterChainName":"Marcus Theaters","ticketType":"STANDARD"},{"id":"798","tribuneTheaterId":"4120","providerTheaterId":"","name":"CC Woodstock Theatre","address":"209 Main St.","city":"Woodstock","state":"IL","zip":"60098","distance":21.944502470761,"lon":"-88.447742","lat":"42.315648","theaterChainName":"Classic Cinemas","ticketType":"STANDARD"},{"id":"1195","tribuneTheaterId":"5932","providerTheaterId":"6501","name":"AMC Lake In The Hills 12","address":"311 N. Randall Road","city":"Lake in the Hills","state":"IL","zip":"60156","distance":22.867754151989,"lon":"-88.334399","lat":"42.179585","theaterChainName":"AMC Theatres","ticketType":"STANDARD"},{"id":"6049","tribuneTheaterId":"11452","providerTheaterId":"","name":"Cinemark Spring Hill Mall and XD","address":"2000 Spring Hill Mall","city":"West Dundee","state":"IL","zip":"60118","distance":24.239751702201,"lon":"-88.296658","lat":"42.102711","theaterChainName":"Cinemark","ticketType":"STANDARD"}]