[{"id":"791","name":"CC Fox Lake Theatre","address":"115 Town Centre Lane","city":"Fox Lake","state":"IL","zip":"60020","distance":"24.24547576904297","lon":"-88.179153","lat":"42.395393","theaterChainName":"Classic Cinemas","ticketType":"STANDARD"},{"id":"798","name":"CC Woodstock Theatre","address":"209 Main St.","city":"Woodstock","state":"IL","zip":"60098","distance":"9.539102554321289","lon":"-88.447739","lat":"42.315647","theaterChainName":"Classic Cinemas","ticketType":"STANDARD"},{"id":"1850","name":"Regal Showplace 16","address":"5000 Northwest Highway","city":"Crystal Lake","state":"IL","zip":"60014","distance":"16.0379581451416","lon":"-88.294823","lat":"42.226479","theaterChainName":"Regal Cinemas","ticketType":"STANDARD"},{"id":"1195","name":"AMC Lake In The Hills 12","address":"311 N. Randall Road","city":"Lake in the Hills","state":"IL","zip":"60156","distance":"14.667839050292969","lon":"-88.334396","lat":"42.179585","theaterChainName":"AMC Theatres","ticketType":"STANDARD"},{"id":"1447","name":"Catlow Theatre","address":"116 W. Main St.","city":"Barrington","state":"IL","zip":"60010","distance":"24.888408660888672","lon":"-88.136536","lat":"42.154411","theaterChainName":"Independent Chains","ticketType":"STANDARD"},{"id":"789","name":"CC Cinema 12 Theatre","address":"100 Besinger Dr.","city":"Carpentersville","state":"IL","zip":"60110","distance":"19.89025115966797","lon":"-88.260590","lat":"42.114540","theaterChainName":"Classic Cinemas","ticketType":"STANDARD"},{"id":"6049","name":"Cinemark Spring Hill Mall and XD","address":"2000 Spring Hill Mall","city":"West Dundee","state":"IL","zip":"60118","distance":"18.67606544494629","lon":"-88.296661","lat":"42.102711","theaterChainName":"Cinemark","ticketType":"STANDARD"},{"id":"3988","name":"AMC Showplace Machesney Park 14","address":"1860 Anjali Way","city":"Machesney Park","state":"IL","zip":"61115","distance":"22.101119995117188","lon":"-89.004593","lat":"42.370781","theaterChainName":"AMC Theatres","ticketType":"STANDARD"},{"id":"1510","name":"AMC Showplace Rockford 16","address":"8301 E. State St.","city":"Rockford","state":"IL","zip":"61108","distance":"17.80970001220703","lon":"-88.953796","lat":"42.270721","theaterChainName":"AMC Theatres","ticketType":"STANDARD"},{"id":"1200","name":"Marcus Elgin Cinema","address":"111 S. Randall Road","city":"Elgin","state":"IL","zip":"60123","distance":"20.312780380249023","lon":"-88.336105","lat":"42.029846","theaterChainName":"Marcus Theaters","ticketType":"STANDARD"},{"id":"1614","name":"Sycamore Theatre","address":"420 W. State St.","city":"Sycamore","state":"IL","zip":"60178","distance":"18.127660751342773","lon":"-88.689186","lat":"41.988964","theaterChainName":"Independent Chains","ticketType":"STANDARD"},{"id":"2203","name":"Carmike Market Square 10","address":"2160 Sycamore Rd.","city":"DeKalb","state":"IL","zip":"60115","distance":"21.256263732910156","lon":"-88.728104","lat":"41.949902","theaterChainName":"Carmike Cinemas","ticketType":"STANDARD"}]