[{"id":"1404","tribuneTheaterId":"2705","providerTheaterId":"","name":"Bensenville 2 Theater","address":"9 S. Center St.","city":"Bensenville","state":"IL","zip":"60106","distance":0.20314787874475,"lon":"-87.940886","lat":"41.956241","theaterChainName":"Independent Chains","ticketType":"STANDARD"},{"id":"4406","tribuneTheaterId":"9465","providerTheaterId":"","name":"Muvico Rosemont 18","address":"9701 Bryn Mawr Ave.","city":"Rosemont","state":"IL","zip":"60018","distance":4.0007477040316,"lon":"-87.867608","lat":"41.979735","theaterChainName":"Carmike Cinemas","ticketType":"STANDARD"},{"id":"799","tribuneTheaterId":"6257","providerTheaterId":"","name":"CC York Theatre","address":"150 N. York Road","city":"Elmhurst","state":"IL","zip":"60126","distance":3.65678483549,"lon":"-87.9399","lat":"41.9016","theaterChainName":"Classic Cinemas","ticketType":"STANDARD"},{"id":"790","tribuneTheaterId":"2977","providerTheaterId":"","name":"CC Elk Grove Theatre","address":"1050 Arlington Heights Rd.","city":"Elk Grove Village","state":"IL","zip":"60007","distance":4.6766275056228,"lon":"-88.004721","lat":"42.000314","theaterChainName":"Classic Cinemas","ticketType":"STANDARD"},{"id":"742","tribuneTheaterId":"7760","providerTheaterId":"","name":"Marcus Addison","address":"1555 W. Lake St.","city":"Addison","state":"IL","zip":"60101","distance":4.5901045296767,"lon":"-88.026329","lat":"41.946221","theaterChainName":"Marcus Theaters","ticketType":"STANDARD"},{"id":"2301","tribuneTheaterId":"5204","providerTheaterId":"","name":"Cinemark Melrose Park","address":"1001 W. North Ave.","city":"Melrose Park","state":"IL","zip":"60160","distance":5.6305730829455,"lon":"-87.846143","lat":"41.90976","theaterChainName":"Cinemark","ticketType":"STANDARD"},{"id":"2859","tribuneTheaterId":"5192","providerTheaterId":"2591","name":"AMC Loews Streets of Woodfield 20","address":"601 N. Martingale Road","city":"Schaumburg","state":"IL","zip":"60173","distance":7.769188062664,"lon":"-88.033695","lat":"42.041416","theaterChainName":"AMC Theatres","ticketType":"STANDARD"},{"id":"1202","tribuneTheaterId":"1658","providerTheaterId":"","name":"Pickwick Theatre","address":"5 S. Prospect Ave.","city":"Park Ridge","state":"IL","zip":"60068","distance":6.783910262036,"lon":"-87.829441","lat":"42.010751","theaterChainName":"Independent Chains","ticketType":"STANDARD"},{"id":"5981","tribuneTheaterId":"11417","providerTheaterId":"","name":"AMC Oakbrook Center 12","address":"600 Oakbrook Center","city":"Oak Brook","state":"IL","zip":"60523","distance":7.4207509254673,"lon":"-87.952177","lat":"41.84764","theaterChainName":"AMC Theatres","ticketType":"STANDARD"},{"id":"4812","tribuneTheaterId":"10073","providerTheaterId":"","name":"Picture Show  Bloomingdale","address":"324 W. Army Trail Road","city":"Bloomingdale","state":"IL","zip":"60108","distance":8.7426130740087,"lon":"-88.106275","lat":"41.937468","theaterChainName":"Picture Show Entertainment","ticketType":"STANDARD"},{"id":"5036","tribuneTheaterId":"10412","providerTheaterId":"130","name":"AMC Randhurst 12","address":"200 Randhurst Village Drive","city":"Mount Prospect","state":"IL","zip":"60056","distance":9.0588306091932,"lon":"-87.931609","lat":"42.085532","theaterChainName":"AMC Theatres","ticketType":"STANDARD"},{"id":"4343","tribuneTheaterId":"9330","providerTheaterId":"","name":"Century Stratford Square","address":"804 Stratford Square","city":"Bloomingdale","state":"IL","zip":"60108","distance":9.0803440344459,"lon":"-88.114268","lat":"41.949206","theaterChainName":"Cinemark","ticketType":"STANDARD"},{"id":"5381","tribuneTheaterId":"10818","providerTheaterId":"","name":"Star Cinema Grill","address":"53 S Evergreen Ave","city":"Arlington Heights","state":"IL","zip":"60005","distance":9.0726667154264,"lon":"-87.981138","lat":"42.081783","theaterChainName":"Independent Chains","ticketType":"STANDARD"},{"id":"4361","tribuneTheaterId":"9387","providerTheaterId":"6148","name":"AMC Showplace Galewood 14","address":"5530 W. Homer St.","city":"Chicago","state":"IL","zip":"60639","distance":9.3006256854129,"lon":"-87.764432","lat":"41.915693","theaterChainName":"AMC Theatres","ticketType":"STANDARD"},{"id":"4242","tribuneTheaterId":"4954","providerTheaterId":"6693","name":"AMC Showplace Niles 12","address":"301 Golf Mill Center","city":"Niles","state":"IL","zip":"60714","distance":8.429656175254,"lon":"-87.837292","lat":"42.051028","theaterChainName":"AMC Theatres","ticketType":"STANDARD"},{"id":"792","tribuneTheaterId":"6059","providerTheaterId":"","name":"CC Lake Theatre","address":"1022 Lake St.","city":"Oak Park","state":"IL","zip":"60301","distance":8.3437918469008,"lon":"-87.801508","lat":"41.888815","theaterChainName":"Classic Cinemas","ticketType":"STANDARD"},{"id":"5706","tribuneTheaterId":"11145","providerTheaterId":"473","name":"Oakbrook Center 4","address":"300 Oakbrook Center","city":"Oak Brook","state":"IL","zip":"60523","distance":7.4357245033549,"lon":"-87.9555","lat":"41.8477","theaterChainName":"AMC Theatres","ticketType":"STANDARD"},{"id":"1193","tribuneTheaterId":"2876","providerTheaterId":"","name":"Glen Ellyn Art Theatre","address":"540 Crescent Blvd.","city":"Glen Ellyn","state":"IL","zip":"60137","distance":8.4944823334905,"lon":"-88.065572","lat":"41.87665","theaterChainName":"Independent Chains","ticketType":"STANDARD"},{"id":"212","tribuneTheaterId":"8250","providerTheaterId":"825","name":"AMC Yorktown","address":"80 Yorktown Center","city":"Lombard","state":"IL","zip":"60148","distance":8.5625202020397,"lon":"-88.001829","lat":"41.840135","theaterChainName":"AMC Theatres","ticketType":"STANDARD"},{"id":"4600","tribuneTheaterId":"9769","providerTheaterId":"","name":"CC North Riverside Mall Theatre","address":"7501 W. Cermak Road","city":"North Riverside","state":"IL","zip":"60546","distance":9.8228383449839,"lon":"-87.811262","lat":"41.847938","theaterChainName":"Classic Cinemas","ticketType":"STANDARD"},{"id":"1431","tribuneTheaterId":"2882","providerTheaterId":"","name":"La Grange Theatres","address":"80 S. La Grange Road","city":"La Grange","state":"IL","zip":"60525","distance":10.402428293198,"lon":"-87.869703","lat":"41.81271","theaterChainName":"Independent Chains","ticketType":"STANDARD"},{"id":"3201","tribuneTheaterId":"5889","providerTheaterId":"6878","name":"AMC Showplace Village Crossing 18","address":"7000 Carpenter Rd.","city":"Skokie","state":"IL","zip":"60077","distance":9.642122819146,"lon":"-87.765049","lat":"42.009303","theaterChainName":"AMC Theatres","ticketType":"STANDARD"},{"id":"1199","tribuneTheaterId":"2877","providerTheaterId":"","name":"Logan Theatre","address":"2646 N. Milwaukee Ave.","city":"Chicago","state":"IL","zip":"60647","distance":11.880582336491,"lon":"-87.70892","lat":"41.929831","theaterChainName":"Independent Chains","ticketType":"STANDARD"},{"id":"797","tribuneTheaterId":"6166","providerTheaterId":"","name":"CC Tivoli Theatre","address":"5021 Highland Ave.","city":"Downers Grove","state":"IL","zip":"60515","distance":11.555575922535,"lon":"-88.009144","lat":"41.79594","theaterChainName":"Classic Cinemas","ticketType":"STANDARD"},{"id":"5188","tribuneTheaterId":"10603","providerTheaterId":"","name":"Studio Movie Grill Wheaton","address":"301 Rice Lake Square","city":"Wheaton","state":"IL","zip":"60189","distance":11.840389737512,"lon":"-88.098335","lat":"41.831745","theaterChainName":"Studio Movie Grill","ticketType":"SELECT_SEATING"},{"id":"4241","tribuneTheaterId":"4958","providerTheaterId":"6149","name":"AMC Showplace Cicero 14","address":"4779 W. Cermak Road","city":"Cicero","state":"IL","zip":"60804","distance":12.386554712981,"lon":"-87.742825","lat":"41.849138","theaterChainName":"AMC Theatres","ticketType":"STANDARD"},{"id":"2826","tribuneTheaterId":"5936","providerTheaterId":"","name":"Regal City North Stadium 14","address":"2600 N. Western Ave.","city":"Chicago","state":"IL","zip":"60647","distance":12.940101864477,"lon":"-87.688045","lat":"41.930173","theaterChainName":"Regal Cinemas","ticketType":"STANDARD"},{"id":"446","tribuneTheaterId":"8109","providerTheaterId":"471","name":"AMC South Barrington 30","address":"170 Studio Drive","city":"South Barrington","state":"IL","zip":"60010","distance":13.456318146166,"lon":"-88.148557","lat":"42.070195","theaterChainName":"AMC Theatres","ticketType":"STANDARD"},{"id":"1192","tribuneTheaterId":"8902","providerTheaterId":"","name":"Davis Theater","address":"4614 N. Lincoln Ave.","city":"Chicago","state":"IL","zip":"60625","distance":12.920793153277,"lon":"-87.686639","lat":"41.965313","theaterChainName":"Independent Chains","ticketType":"STANDARD"},{"id":"697","tribuneTheaterId":"8545","providerTheaterId":"2571","name":"AMC Loews Quarry Cinemas 14","address":"9201 63rd St.","city":"Hodgkins","state":"IL","zip":"60525","distance":12.949056511517,"lon":"-87.859216","lat":"41.776433","theaterChainName":"AMC Theatres","ticketType":"STANDARD"},{"id":"2951","tribuneTheaterId":"9089","providerTheaterId":"","name":"Cinemark  Seven Bridges","address":"6500 Route 53","city":"Woodridge","state":"IL","zip":"60517","distance":14.507221003329,"lon":"-88.0685","lat":"41.7685","theaterChainName":"Cinemark","ticketType":"STANDARD"},{"id":"3610","tribuneTheaterId":"1874","providerTheaterId":"","name":"Hollywood Blvd. Cinema","address":"1001 W. 75th St.","city":"Woodridge","state":"IL","zip":"60517","distance":14.504875884013,"lon":"-88.0085","lat":"41.7513","theaterChainName":"Independent Chains","ticketType":"STANDARD"},{"id":"308","tribuneTheaterId":"8556","providerTheaterId":"829","name":"AMC Northbrook Court 14","address":"1525 Lake Cook Road","city":"Northbrook","state":"IL","zip":"60062","distance":14.837189312253,"lon":"-87.816811","lat":"42.14958","theaterChainName":"AMC Theatres","ticketType":"STANDARD"},{"id":"1201","tribuneTheaterId":"8236","providerTheaterId":"","name":"Music Box","address":"3733 N. Southport Ave.","city":"Chicago","state":"IL","zip":"60613","distance":14.070828017788,"lon":"-87.663939","lat":"41.94986","theaterChainName":"Independent Chains","ticketType":"STANDARD"},{"id":"2419","tribuneTheaterId":"2536","providerTheaterId":"","name":"Facets Cinematheque","address":"1517 W. Fullerton Ave.","city":"Chicago","state":"IL","zip":"60614","distance":14.096820732575,"lon":"-87.666298","lat":"41.924999","theaterChainName":"Independent Chains","ticketType":"STANDARD"},{"id":"795","tribuneTheaterId":"6334","providerTheaterId":"","name":"CC Ogden 6 Theatre","address":"1227 E. Ogden Ave.","city":"Naperville","state":"IL","zip":"60563","distance":14.445108287668,"lon":"-88.124481","lat":"41.7984","theaterChainName":"Classic Cinemas","ticketType":"STANDARD"},{"id":"1191","tribuneTheaterId":"2936","providerTheaterId":"","name":"Buffalo Grove Theater","address":"120 McHenry Road","city":"Buffalo Grove","state":"IL","zip":"60089","distance":14.731791825702,"lon":"-87.9628","lat":"42.1669","theaterChainName":"Independent Chains","ticketType":"STANDARD"},{"id":"54","tribuneTheaterId":"8082","providerTheaterId":"","name":"Regal Webster Place 11","address":"1471 W. Webster Ave.","city":"Chicago","state":"IL","zip":"60614","distance":14.213924989575,"lon":"-87.664796","lat":"41.921184","theaterChainName":"Regal Cinemas","ticketType":"STANDARD"},{"id":"357","tribuneTheaterId":"7806","providerTheaterId":"","name":"Regal Cantera Stadium 17 & RPX","address":"28250 Diehl Rd.","city":"Warrenville","state":"IL","zip":"60555","distance":15.856776668386,"lon":"-88.171259","lat":"41.804735","theaterChainName":"Regal Cinemas","ticketType":"STANDARD"},{"id":"3813","tribuneTheaterId":"8071","providerTheaterId":"","name":"Century 16 Deer Park","address":"21600 Field Parkway","city":"Deer Park","state":"IL","zip":"60010","distance":15.355778838155,"lon":"-88.054862","lat":"42.159015","theaterChainName":"Cinemark","ticketType":"STANDARD"},{"id":"1203","tribuneTheaterId":"7178","providerTheaterId":"","name":"Wilmette Theatre","address":"1122 Central Ave.","city":"Wilmette","state":"IL","zip":"60091","distance":14.573729488108,"lon":"-87.7062","lat":"42.076599","theaterChainName":"Independent Chains","ticketType":"STANDARD"},{"id":"4781","tribuneTheaterId":"10027","providerTheaterId":"","name":"New 400 Theaters","address":"6746 N. Sheridan Road","city":"Chicago","state":"IL","zip":"60626","distance":14.624661229076,"lon":"-87.661138","lat":"42.004844","theaterChainName":"Independent Chains","ticketType":"STANDARD"},{"id":"3079","tribuneTheaterId":"7158","providerTheaterId":"","name":"Evanston Century 12\/CineArts 6","address":"1715 Maple Ave.","city":"Evanston","state":"IL","zip":"60201","distance":14.529598828966,"lon":"-87.6847","lat":"42.0487","theaterChainName":"Cinemark","ticketType":"STANDARD"},{"id":"1582","tribuneTheaterId":"5639","providerTheaterId":"","name":"Regal Lincolnshire Stadium 20 & IMAX","address":"300 Parkway Drive","city":"Lincolnshire","state":"IL","zip":"60069","distance":15.563081770766,"lon":"-87.931749","lat":"42.179704","theaterChainName":"Regal Cinemas","ticketType":"STANDARD"},{"id":"1397","tribuneTheaterId":"2702","providerTheaterId":"","name":"Gene Siskel Film Center","address":"164 State St.","city":"Chicago","state":"IL","zip":"60601","distance":16.617940084763,"lon":"-87.628309","lat":"41.884861","theaterChainName":"Independent Chains","ticketType":"STANDARD"},{"id":"3414","tribuneTheaterId":"2402","providerTheaterId":"","name":"CC Charlestowne 18","address":"3740 E. Main St.","city":"Saint Charles","state":"IL","zip":"60174","distance":17.17036725757,"lon":"-88.269138","lat":"41.923293","theaterChainName":"Classic Cinemas","ticketType":"STANDARD"},{"id":"211","tribuneTheaterId":"7650","providerTheaterId":"827","name":"AMC Ford City 14","address":"7601 S. Cicero Ave.","city":"Chicago","state":"IL","zip":"60652","distance":17.437839407561,"lon":"-87.733212","lat":"41.753261","theaterChainName":"AMC Theatres","ticketType":"STANDARD"},{"id":"3569","tribuneTheaterId":"5316","providerTheaterId":"133","name":"AMC River East 21","address":"322 E. Illinois St.","city":"Chicago","state":"IL","zip":"60611","distance":16.952290403235,"lon":"-87.61902","lat":"41.891441","theaterChainName":"AMC Theatres","ticketType":"STANDARD"},{"id":"215","tribuneTheaterId":"5193","providerTheaterId":"2565","name":"AMC Loews 600 North Michigan 9","address":"600 N. Michigan Ave.","city":"Chicago","state":"IL","zip":"60611","distance":16.631192564064,"lon":"-87.625153","lat":"41.892359","theaterChainName":"AMC Theatres","ticketType":"STANDARD"},{"id":"2289","tribuneTheaterId":"5194","providerTheaterId":"2585","name":"AMC Loews Woodridge 18","address":"10000 Woodward Ave.","city":"Woodridge","state":"IL","zip":"60517","distance":17.831721596633,"lon":"-88.02386","lat":"41.704531","theaterChainName":"AMC Theatres","ticketType":"STANDARD"},{"id":"1198","tribuneTheaterId":"8995","providerTheaterId":"","name":"Regal Lake Zurich 12","address":"755 S. Rand Road","city":"Lake Zurich","state":"IL","zip":"60047","distance":17.754403180993,"lon":"-88.094192","lat":"42.183704","theaterChainName":"Regal Cinemas","ticketType":"STANDARD"},{"id":"1447","tribuneTheaterId":"264","providerTheaterId":"","name":"Catlow Theatre","address":"116 W. Main St.","city":"Barrington","state":"IL","zip":"60010","distance":17.170940046663,"lon":"-88.136533","lat":"42.154413","theaterChainName":"Independent Chains","ticketType":"STANDARD"},{"id":"30","tribuneTheaterId":"8904","providerTheaterId":"2539","name":"AMC Loews Chicago Ridge 6","address":"500 Chicago Ridge Mall","city":"Chicago Ridge","state":"IL","zip":"60415","distance":18.345025792605,"lon":"-87.78368","lat":"41.715069","theaterChainName":"AMC Theatres","ticketType":"STANDARD"},{"id":"4817","tribuneTheaterId":"10079","providerTheaterId":"","name":"Hollywood Palms Cinema","address":"352 South Route 59","city":"Naperville","state":"IL","zip":"60540","distance":18.873734441736,"lon":"-88.202523","lat":"41.765511","theaterChainName":"Independent Chains","ticketType":"STANDARD"},{"id":"1197","tribuneTheaterId":"5927","providerTheaterId":"6951","name":"AMC Showplace Vernon Hills 8","address":"555 N. Lakeview Parkway","city":"Vernon Hills","state":"IL","zip":"60061","distance":19.509231706651,"lon":"-87.946852","lat":"42.236779","theaterChainName":"AMC Theatres","ticketType":"STANDARD"},{"id":"789","tribuneTheaterId":"6747","providerTheaterId":"","name":"CC Cinema 12 Theatre","address":"100 Besinger Dr.","city":"Carpentersville","state":"IL","zip":"60110","distance":19.920848848474,"lon":"-88.260587","lat":"42.114541","theaterChainName":"Classic Cinemas","ticketType":"STANDARD"},{"id":"1196","tribuneTheaterId":"5933","providerTheaterId":"","name":"Regal Bolingbrook Stadium 12","address":"1221 W. Boughton Road","city":"Bolingbrook","state":"IL","zip":"60440","distance":19.911771658553,"lon":"-88.122556","lat":"41.701364","theaterChainName":"Regal Cinemas","ticketType":"STANDARD"},{"id":"5700","tribuneTheaterId":"11137","providerTheaterId":"134","name":"AMC Hawthorn 12","address":"675 Hawthorn Center","city":"Vernon Hills","state":"IL","zip":"60061","distance":19.993112519507,"lon":"-87.9459","lat":"42.2438","theaterChainName":"AMC Theatres","ticketType":"STANDARD"},{"id":"1200","tribuneTheaterId":"5791","providerTheaterId":"","name":"Marcus Elgin Cinema","address":"111 S. Randall Road","city":"Elgin","state":"IL","zip":"60123","distance":21.111287096877,"lon":"-88.336109","lat":"42.029847","theaterChainName":"Marcus Theaters","ticketType":"STANDARD"},{"id":"1449","tribuneTheaterId":"5842","providerTheaterId":"","name":"Goodrich Randall 16","address":"550 N. Randall Road","city":"Batavia","state":"IL","zip":"60510","distance":21.626829215167,"lon":"-88.338879","lat":"41.860518","theaterChainName":"Goodrich Theatres","ticketType":"E_TICKET"},{"id":"4164","tribuneTheaterId":"4962","providerTheaterId":"6675","name":"AMC Showplace Naperville 16","address":"2815 Showplace Drive","city":"Naperville","state":"IL","zip":"60564","distance":21.771020400922,"lon":"-88.209242","lat":"41.712939","theaterChainName":"AMC Theatres","ticketType":"STANDARD"},{"id":"3622","tribuneTheaterId":"1311","providerTheaterId":"","name":"Crest Theatre","address":"106 E.5th Street","city":"Superior","state":"NE","zip":"68978","distance":21.029426071089,"lon":"-87.595534","lat":"41.788014","theaterChainName":"Independent Chains","ticketType":"STANDARD"},{"id":"6049","tribuneTheaterId":"11452","providerTheaterId":"","name":"Cinemark Spring Hill Mall and XD","address":"2000 Spring Hill Mall","city":"West Dundee","state":"IL","zip":"60118","distance":21.077646962574,"lon":"-88.296658","lat":"42.102711","theaterChainName":"Cinemark","ticketType":"STANDARD"},{"id":"3647","tribuneTheaterId":"681","providerTheaterId":"","name":"Doc Films","address":"1212 E. 59th St.","city":"Chicago","state":"IL","zip":"60637","distance":21.029426071089,"lon":"-87.595534","lat":"41.788014","theaterChainName":"Independent Chains","ticketType":"STANDARD"},{"id":"5471","tribuneTheaterId":"10912","providerTheaterId":"","name":"Studio Movie Grill Chatham","address":"210 W 87th St.","city":"Chicago","state":"IL","zip":"60620","distance":21.716765840021,"lon":"-87.63055","lat":"41.739002","theaterChainName":"Studio Movie Grill","ticketType":"SELECT_SEATING"},{"id":"5296","tribuneTheaterId":"10730","providerTheaterId":"","name":"Harper Theater","address":"5238 S. Harper Ave.","city":"Chicago","state":"IL","zip":"60615","distance":20.877517871983,"lon":"-87.5891","lat":"41.7998","theaterChainName":"Independent Chains","ticketType":"STANDARD"},{"id":"2268","tribuneTheaterId":"2727","providerTheaterId":"","name":"Golden Age Cinemas The Liberty 1 & 2 Theaters","address":"708 N. Milwaukee Ave.","city":"Libertyville","state":"IL","zip":"60048","distance":23.1747866775,"lon":"-87.95455","lat":"42.28968","theaterChainName":"Independent Chains","ticketType":"STANDARD"},{"id":"1407","tribuneTheaterId":"5205","providerTheaterId":"","name":"Cinemark Tinseltown USA North Aurora","address":"320 S. Lincoln Way","city":"North Aurora","state":"IL","zip":"60542","distance":22.864142899044,"lon":"-88.324692","lat":"41.79181","theaterChainName":"Cinemark","ticketType":"STANDARD"},{"id":"53","tribuneTheaterId":"9198","providerTheaterId":"2520","name":"AMC Loews Crestwood 18","address":"13221 Rivercrest Drive","city":"Crestwood","state":"IL","zip":"60445","distance":23.179057487569,"lon":"-87.744262","lat":"41.651596","theaterChainName":"AMC Theatres","ticketType":"STANDARD"}]