[{"id":"2111","tribuneTheaterId":"1156","providerTheaterId":"","name":"Crescent Cinemas","address":"313 W. Madison St.","city":"Pontiac","state":"IL","zip":"61764","distance":18.257165139097,"lon":"-88.631104","lat":"40.880299","theaterChainName":"Independent Chains","ticketType":"STANDARD"},{"id":"1592","tribuneTheaterId":"1109","providerTheaterId":"","name":"Mar Theatre","address":"121 S. Main St.","city":"Wilmington","state":"IL","zip":"60481","distance":20.66028009332,"lon":"-88.145599","lat":"41.307899","theaterChainName":"Independent Chains","ticketType":"STANDARD"},{"id":"2211","tribuneTheaterId":"5943","providerTheaterId":"","name":"Carmike Orpheum Cinema 10","address":"515 W Gore Road","city":"Morris","state":"IL","zip":"60450","distance":20.561561455768,"lon":"-88.429046","lat":"41.386127","theaterChainName":"Carmike Cinemas","ticketType":"STANDARD"},{"id":"4365","tribuneTheaterId":"9395","providerTheaterId":"","name":"The Majestic Theatre","address":"119 N. Vermillion St.","city":"Streator","state":"IL","zip":"61364","distance":21.743070014369,"lon":"-88.831222","lat":"41.121797","theaterChainName":"Independent Chains","ticketType":"STANDARD"}]