[{"id":"3810","name":"AMC Showplace Schererville 12","address":"1400 Eagle Ridge Drive","city":"Schererville","state":"IN","zip":"46375","distance":"12.095898628234863","lon":"-87.475357","lat":"41.496071","theaterChainName":"AMC Theatres","ticketType":"STANDARD"},{"id":"1395","name":"AMC Showplace Schererville 16","address":"875 Deercreek Drive","city":"Schererville","state":"IN","zip":"46375","distance":"11.974451065063477","lon":"-87.475914","lat":"41.499226","theaterChainName":"AMC Theatres","ticketType":"STANDARD"},{"id":"4163","name":"AMC Showplace Hobart 12","address":"2590 Southlake Mall Drive","city":"Merrillville","state":"IN","zip":"46410","distance":"20.950313568115234","lon":"-87.305290","lat":"41.468204","theaterChainName":"AMC Theatres","ticketType":"STANDARD"},{"id":"2918","name":"Art Theatre","address":"230 Main St.","city":"Hobart","state":"IN","zip":"46342","distance":"22.403907775878906","lon":"-87.255188","lat":"41.532307","theaterChainName":"Independent Chains","ticketType":"STANDARD"},{"id":"55","name":"Lansing Cinema 8","address":"16621 Torrence Ave.","city":"Lansing","state":"IL","zip":"60438","distance":"6.819149017333984","lon":"-87.555588","lat":"41.593399","theaterChainName":"Independent Chains","ticketType":"STANDARD"},{"id":"744","name":"Marcus Chicago Heights","address":"1301 Hilltop Ave.","city":"Chicago Heights","state":"IL","zip":"60411","distance":"4.625341892242432","lon":"-87.668358","lat":"41.508015","theaterChainName":"Marcus Theaters","ticketType":"STANDARD"},{"id":"2420","name":"Hoosier Theatre","address":"1335 119th St.","city":"Whiting","state":"IN","zip":"46394","distance":"12.173177719116211","lon":"-87.496246","lat":"41.679401","theaterChainName":"Independent Chains","ticketType":"STANDARD"},{"id":"5962","name":"Marcus Country Club Hills Cinema","address":"4201 W. 167th Street","city":"Country Club Hills","state":"IL","zip":"60478","distance":"1.900574803352356","lon":"-87.717781","lat":"41.586109","theaterChainName":"Marcus Theaters","ticketType":"STANDARD"},{"id":"3212","name":"AMC Loews Country Club Hills 16","address":"4201 W. 167th St.","city":"Country Club Hills","state":"IL","zip":"60478","distance":"2.0309362411499023","lon":"-87.721764","lat":"41.583969","theaterChainName":"AMC Theatres","ticketType":"STANDARD"},{"id":"5471","name":"Studio Movie Grill Chatham","address":"210 W 87th St.","city":"Chicago","state":"IL","zip":"60620","distance":"11.754942893981934","lon":"-87.630547","lat":"41.739002","theaterChainName":"Studio Movie Grill","ticketType":"SELECT_SEATING"},{"id":"53","name":"AMC Loews Crestwood 18","address":"13221 Rivercrest Drive","city":"Crestwood","state":"IL","zip":"60445","distance":"6.188877105712891","lon":"-87.744263","lat":"41.651596","theaterChainName":"AMC Theatres","ticketType":"STANDARD"},{"id":"6042","name":"Emagine Frankfort 10","address":"19965 South La Grange Rd","city":"Frankfort","state":"IL","zip":"60423","distance":"9.013923645019531","lon":"-87.847633","lat":"41.527046","theaterChainName":"Emagine Entertainment","ticketType":"STANDARD"},{"id":"3622","name":"Crest Theatre","address":"106 E.5th Street","city":"Superior","state":"NE","zip":"68978","distance":"15.503474235534668","lon":"-87.595535","lat":"41.788013","theaterChainName":"Independent Chains","ticketType":"STANDARD"},{"id":"3647","name":"Doc Films","address":"1212 E. 59th St.","city":"Chicago","state":"IL","zip":"60637","distance":"15.503474235534668","lon":"-87.595535","lat":"41.788013","theaterChainName":"Independent Chains","ticketType":"STANDARD"},{"id":"5296","name":"Harper Theater","address":"5238 S. Harper Ave.","city":"Chicago","state":"IL","zip":"60615","distance":"16.379850387573242","lon":"-87.589104","lat":"41.799801","theaterChainName":"Independent Chains","ticketType":"STANDARD"},{"id":"2514","name":"Marcus Orland Park Cinemas","address":"16350 S. La Grange Road","city":"Orland Park","state":"IL","zip":"60467","distance":"8.813508987426758","lon":"-87.853706","lat":"41.591850","theaterChainName":"Marcus Theaters","ticketType":"STANDARD"},{"id":"211","name":"AMC Ford City 14","address":"7601 S. Cicero Ave.","city":"Chicago","state":"IL","zip":"60652","distance":"12.648758888244629","lon":"-87.733215","lat":"41.753262","theaterChainName":"AMC Theatres","ticketType":"STANDARD"},{"id":"30","name":"AMC Loews Chicago Ridge 6","address":"500 Chicago Ridge Mall","city":"Chicago Ridge","state":"IL","zip":"60415","distance":"11.013773918151855","lon":"-87.783684","lat":"41.715069","theaterChainName":"AMC Theatres","ticketType":"STANDARD"},{"id":"3811","name":"AMC Showplace New Lenox 14","address":"1320 W. Maple St.","city":"New Lenox","state":"IL","zip":"60451","distance":"16.304325103759766","lon":"-87.990707","lat":"41.516418","theaterChainName":"AMC Theatres","ticketType":"STANDARD"},{"id":"3569","name":"AMC River East 21","address":"322 E. Illinois St.","city":"Chicago","state":"IL","zip":"60611","distance":"22.209644317626953","lon":"-87.619019","lat":"41.891441","theaterChainName":"AMC Theatres","ticketType":"STANDARD"},{"id":"1397","name":"Gene Siskel Film Center","address":"164 State St.","city":"Chicago","state":"IL","zip":"60601","distance":"21.690799713134766","lon":"-87.628311","lat":"41.884861","theaterChainName":"Independent Chains","ticketType":"STANDARD"},{"id":"215","name":"AMC Loews 600 North Michigan 9","address":"600 N. Michigan Ave.","city":"Chicago","state":"IL","zip":"60611","distance":"22.226375579833984","lon":"-87.625153","lat":"41.892361","theaterChainName":"AMC Theatres","ticketType":"STANDARD"},{"id":"54","name":"Regal Webster Place 11","address":"1471 W. Webster Ave.","city":"Chicago","state":"IL","zip":"60614","distance":"24.025856018066406","lon":"-87.664795","lat":"41.921185","theaterChainName":"Regal Cinemas","ticketType":"STANDARD"},{"id":"2419","name":"Facets Cinematheque","address":"1517 W. Fullerton Ave.","city":"Chicago","state":"IL","zip":"60614","distance":"24.2860164642334","lon":"-87.666298","lat":"41.924999","theaterChainName":"Independent Chains","ticketType":"STANDARD"},{"id":"4241","name":"AMC Showplace Cicero 14","address":"4779 W. Cermak Road","city":"Cicero","state":"IL","zip":"60804","distance":"19.258365631103516","lon":"-87.742828","lat":"41.849136","theaterChainName":"AMC Theatres","ticketType":"STANDARD"},{"id":"2826","name":"Regal City North Stadium 14","address":"2600 N. Western Ave.","city":"Chicago","state":"IL","zip":"60647","distance":"24.62503433227539","lon":"-87.688042","lat":"41.930172","theaterChainName":"Regal Cinemas","ticketType":"STANDARD"},{"id":"1199","name":"Logan Theatre","address":"2646 N. Milwaukee Ave.","city":"Chicago","state":"IL","zip":"60647","distance":"24.6321964263916","lon":"-87.708923","lat":"41.929832","theaterChainName":"Independent Chains","ticketType":"STANDARD"},{"id":"4361","name":"AMC Showplace Galewood 14","address":"5530 W. Homer St.","city":"Chicago","state":"IL","zip":"60639","distance":"23.977153778076172","lon":"-87.764435","lat":"41.915691","theaterChainName":"AMC Theatres","ticketType":"STANDARD"},{"id":"4600","name":"CC North Riverside Mall Theatre","address":"7501 W. Cermak Road","city":"North Riverside","state":"IL","zip":"60546","distance":"20.032480239868164","lon":"-87.811264","lat":"41.847939","theaterChainName":"Classic Cinemas","ticketType":"STANDARD"},{"id":"792","name":"CC Lake Theatre","address":"1022 Lake St.","city":"Oak Park","state":"IL","zip":"60301","distance":"22.58220672607422","lon":"-87.801506","lat":"41.888817","theaterChainName":"Classic Cinemas","ticketType":"STANDARD"},{"id":"697","name":"AMC Loews Quarry Cinemas 14","address":"9201 63rd St.","city":"Hodgkins","state":"IL","zip":"60525","distance":"16.6426944732666","lon":"-87.859215","lat":"41.776432","theaterChainName":"AMC Theatres","ticketType":"STANDARD"},{"id":"1431","name":"La Grange Theatres","address":"80 S. La Grange Road","city":"La Grange","state":"IL","zip":"60525","distance":"19.06414031982422","lon":"-87.869705","lat":"41.812710","theaterChainName":"Independent Chains","ticketType":"STANDARD"},{"id":"2301","name":"Cinemark Melrose Park","address":"1001 W. North Ave.","city":"Melrose Park","state":"IL","zip":"60160","distance":"24.65776824951172","lon":"-87.846146","lat":"41.909760","theaterChainName":"Cinemark","ticketType":"STANDARD"},{"id":"5706","name":"Oakbrook Center 4","address":"300 Oakbrook Center","city":"Oak Brook","state":"IL","zip":"60523","distance":"23.516218185424805","lon":"-87.955498","lat":"41.847698","theaterChainName":"AMC Theatres","ticketType":"STANDARD"},{"id":"5981","name":"AMC Oakbrook Center 12","address":"600 Oakbrook Center","city":"Oak Brook","state":"IL","zip":"60523","distance":"23.411821365356445","lon":"-87.952179","lat":"41.847641","theaterChainName":"AMC Theatres","ticketType":"STANDARD"},{"id":"212","name":"AMC Yorktown","address":"80 Yorktown Center","city":"Lombard","state":"IL","zip":"60148","distance":"24.61631965637207","lon":"-88.001831","lat":"41.840134","theaterChainName":"AMC Theatres","ticketType":"STANDARD"},{"id":"797","name":"CC Tivoli Theatre","address":"5021 Highland Ave.","city":"Downers Grove","state":"IL","zip":"60515","distance":"22.706195831298828","lon":"-88.009148","lat":"41.795940","theaterChainName":"Classic Cinemas","ticketType":"STANDARD"},{"id":"2951","name":"Cinemark  Seven Bridges","address":"6500 Route 53","city":"Woodridge","state":"IL","zip":"60517","distance":"23.937334060668945","lon":"-88.068497","lat":"41.768501","theaterChainName":"Cinemark","ticketType":"STANDARD"},{"id":"3610","name":"Hollywood Blvd. Cinema","address":"1001 W. 75th St.","city":"Woodridge","state":"IL","zip":"60517","distance":"20.72366714477539","lon":"-88.008499","lat":"41.751301","theaterChainName":"Independent Chains","ticketType":"STANDARD"},{"id":"2289","name":"AMC Loews Woodridge 18","address":"10000 Woodward Ave.","city":"Woodridge","state":"IL","zip":"60517","distance":"19.697235107421875","lon":"-88.023857","lat":"41.704533","theaterChainName":"AMC Theatres","ticketType":"STANDARD"},{"id":"1196","name":"Regal Bolingbrook Stadium 12","address":"1221 W. Boughton Road","city":"Bolingbrook","state":"IL","zip":"60440","distance":"24.259103775024414","lon":"-88.122559","lat":"41.701363","theaterChainName":"Regal Cinemas","ticketType":"STANDARD"},{"id":"4712","name":"Cinemark Louis Joliet Mall","address":"3340 Mall Loop Drive","city":"Joliet","state":"IL","zip":"60431","distance":"24.93307113647461","lon":"-88.167236","lat":"41.576176","theaterChainName":"Cinemark","ticketType":"STANDARD"},{"id":"1366","name":"Cinemark Movies 10 Joliet","address":"2601 Plainfield Rd.","city":"Joliet","state":"IL","zip":"60435","distance":"24.184770584106445","lon":"-88.152763","lat":"41.574539","theaterChainName":"Cinemark","ticketType":"STANDARD"}]