[{"id":"3811","tribuneTheaterId":"4955","providerTheaterId":"6691","name":"AMC Showplace New Lenox 14","address":"1320 W. Maple St.","city":"New Lenox","state":"IL","zip":"60451","distance":4.8763040657331,"lon":"-87.990704","lat":"41.516418","theaterChainName":"AMC Theatres","ticketType":"STANDARD"},{"id":"1366","tribuneTheaterId":"5203","providerTheaterId":"","name":"Cinemark Movies 10 Joliet","address":"2601 Plainfield Rd.","city":"Joliet","state":"IL","zip":"60435","distance":4.9087938360769,"lon":"-88.152765","lat":"41.574538","theaterChainName":"Cinemark","ticketType":"STANDARD"},{"id":"4712","tribuneTheaterId":"9926","providerTheaterId":"","name":"Cinemark Louis Joliet Mall","address":"3340 Mall Loop Drive","city":"Joliet","state":"IL","zip":"60431","distance":5.5446535658938,"lon":"-88.167236","lat":"41.576177","theaterChainName":"Cinemark","ticketType":"STANDARD"},{"id":"1196","tribuneTheaterId":"5933","providerTheaterId":"","name":"Regal Bolingbrook Stadium 12","address":"1221 W. Boughton Road","city":"Bolingbrook","state":"IL","zip":"60440","distance":12.318325251926,"lon":"-88.122556","lat":"41.701364","theaterChainName":"Regal Cinemas","ticketType":"STANDARD"},{"id":"2514","tribuneTheaterId":"5792","providerTheaterId":"","name":"Marcus Orland Park Cinemas","address":"16350 S. La Grange Road","city":"Orland Park","state":"IL","zip":"60467","distance":12.770494423512,"lon":"-87.853709","lat":"41.591851","theaterChainName":"Marcus Theaters","ticketType":"STANDARD"},{"id":"2289","tribuneTheaterId":"5194","providerTheaterId":"2585","name":"AMC Loews Woodridge 18","address":"10000 Woodward Ave.","city":"Woodridge","state":"IL","zip":"60517","distance":12.763194291568,"lon":"-88.02386","lat":"41.704531","theaterChainName":"AMC Theatres","ticketType":"STANDARD"},{"id":"6042","tribuneTheaterId":"11446","providerTheaterId":"","name":"Emagine Frankfort 10","address":"19965 South La Grange Rd","city":"Frankfort","state":"IL","zip":"60423","distance":12.237550257707,"lon":"-87.84763","lat":"41.527048","theaterChainName":"Emagine Entertainment","ticketType":"STANDARD"},{"id":"4164","tribuneTheaterId":"4962","providerTheaterId":"6675","name":"AMC Showplace Naperville 16","address":"2815 Showplace Drive","city":"Naperville","state":"IL","zip":"60564","distance":14.478148001244,"lon":"-88.209242","lat":"41.712939","theaterChainName":"AMC Theatres","ticketType":"STANDARD"},{"id":"3610","tribuneTheaterId":"1874","providerTheaterId":"","name":"Hollywood Blvd. Cinema","address":"1001 W. 75th St.","city":"Woodridge","state":"IL","zip":"60517","distance":16.090210083118,"lon":"-88.0085","lat":"41.7513","theaterChainName":"Independent Chains","ticketType":"STANDARD"},{"id":"1592","tribuneTheaterId":"1109","providerTheaterId":"","name":"Mar Theatre","address":"121 S. Main St.","city":"Wilmington","state":"IL","zip":"60481","distance":15.360911440361,"lon":"-88.145599","lat":"41.307899","theaterChainName":"Independent Chains","ticketType":"STANDARD"},{"id":"1448","tribuneTheaterId":"5839","providerTheaterId":"","name":"Goodrich Kendall 11","address":"95 5th St.","city":"Oswego","state":"IL","zip":"60543","distance":17.810990083544,"lon":"-88.314","lat":"41.7176","theaterChainName":"Goodrich Theatres","ticketType":"SELECT_SEATING"},{"id":"4817","tribuneTheaterId":"10079","providerTheaterId":"","name":"Hollywood Palms Cinema","address":"352 South Route 59","city":"Naperville","state":"IL","zip":"60540","distance":17.679143595432,"lon":"-88.202523","lat":"41.765511","theaterChainName":"Independent Chains","ticketType":"STANDARD"},{"id":"2951","tribuneTheaterId":"9089","providerTheaterId":"","name":"Cinemark  Seven Bridges","address":"6500 Route 53","city":"Woodridge","state":"IL","zip":"60517","distance":16.816129874562,"lon":"-88.0685","lat":"41.7685","theaterChainName":"Cinemark","ticketType":"STANDARD"},{"id":"5962","tribuneTheaterId":"11393","providerTheaterId":"","name":"Marcus Country Club Hills Cinema","address":"4201 W. 167th Street","city":"Country Club Hills","state":"IL","zip":"60478","distance":19.403888199044,"lon":"-87.71778","lat":"41.586109","theaterChainName":"Marcus Theaters","ticketType":"STANDARD"},{"id":"797","tribuneTheaterId":"6166","providerTheaterId":"","name":"CC Tivoli Theatre","address":"5021 Highland Ave.","city":"Downers Grove","state":"IL","zip":"60515","distance":19.089787852146,"lon":"-88.009144","lat":"41.79594","theaterChainName":"Classic Cinemas","ticketType":"STANDARD"},{"id":"795","tribuneTheaterId":"6334","providerTheaterId":"","name":"CC Ogden 6 Theatre","address":"1227 E. Ogden Ave.","city":"Naperville","state":"IL","zip":"60563","distance":18.976723278523,"lon":"-88.124481","lat":"41.7984","theaterChainName":"Classic Cinemas","ticketType":"STANDARD"},{"id":"357","tribuneTheaterId":"7806","providerTheaterId":"","name":"Regal Cantera Stadium 17 & RPX","address":"28250 Diehl Rd.","city":"Warrenville","state":"IL","zip":"60555","distance":19.816389034779,"lon":"-88.171259","lat":"41.804735","theaterChainName":"Regal Cinemas","ticketType":"STANDARD"},{"id":"3212","tribuneTheaterId":"8818","providerTheaterId":"","name":"AMC Loews Country Club Hills 16","address":"4201 W. 167th St.","city":"Country Club Hills","state":"IL","zip":"60478","distance":19.171373623723,"lon":"-87.721764","lat":"41.583969","theaterChainName":"AMC Theatres","ticketType":"STANDARD"},{"id":"30","tribuneTheaterId":"8904","providerTheaterId":"2539","name":"AMC Loews Chicago Ridge 6","address":"500 Chicago Ridge Mall","city":"Chicago Ridge","state":"IL","zip":"60415","distance":20.314518210141,"lon":"-87.78368","lat":"41.715069","theaterChainName":"AMC Theatres","ticketType":"STANDARD"},{"id":"697","tribuneTheaterId":"8545","providerTheaterId":"2571","name":"AMC Loews Quarry Cinemas 14","address":"9201 63rd St.","city":"Hodgkins","state":"IL","zip":"60525","distance":20.874675388427,"lon":"-87.859216","lat":"41.776433","theaterChainName":"AMC Theatres","ticketType":"STANDARD"},{"id":"2211","tribuneTheaterId":"5943","providerTheaterId":"","name":"Carmike Orpheum Cinema 10","address":"515 W Gore Road","city":"Morris","state":"IL","zip":"60450","distance":20.284921631668,"lon":"-88.429046","lat":"41.386127","theaterChainName":"Carmike Cinemas","ticketType":"STANDARD"},{"id":"53","tribuneTheaterId":"9198","providerTheaterId":"2520","name":"AMC Loews Crestwood 18","address":"13221 Rivercrest Drive","city":"Crestwood","state":"IL","zip":"60445","distance":19.611847523405,"lon":"-87.744262","lat":"41.651596","theaterChainName":"AMC Theatres","ticketType":"STANDARD"},{"id":"5442","tribuneTheaterId":"10883","providerTheaterId":"","name":"NCG Yorkville Cinemas","address":"1505 N. Bridge St.","city":"Yorkville","state":"IL","zip":"60560","distance":20.722201813621,"lon":"-88.4425","lat":"41.6601","theaterChainName":"NCG Cinemas","ticketType":"STANDARD"},{"id":"212","tribuneTheaterId":"8250","providerTheaterId":"825","name":"AMC Yorktown","address":"80 Yorktown Center","city":"Lombard","state":"IL","zip":"60148","distance":22.157580043441,"lon":"-88.001829","lat":"41.840135","theaterChainName":"AMC Theatres","ticketType":"STANDARD"},{"id":"744","tribuneTheaterId":"7597","providerTheaterId":"","name":"Marcus Chicago Heights","address":"1301 Hilltop Ave.","city":"Chicago Heights","state":"IL","zip":"60411","distance":21.546952292481,"lon":"-87.668356","lat":"41.508016","theaterChainName":"Marcus Theaters","ticketType":"STANDARD"},{"id":"5188","tribuneTheaterId":"10603","providerTheaterId":"","name":"Studio Movie Grill Wheaton","address":"301 Rice Lake Square","city":"Wheaton","state":"IL","zip":"60189","distance":21.178952881873,"lon":"-88.098335","lat":"41.831745","theaterChainName":"Studio Movie Grill","ticketType":"SELECT_SEATING"},{"id":"1407","tribuneTheaterId":"5205","providerTheaterId":"","name":"Cinemark Tinseltown USA North Aurora","address":"320 S. Lincoln Way","city":"North Aurora","state":"IL","zip":"60542","distance":22.202243784636,"lon":"-88.324692","lat":"41.79181","theaterChainName":"Cinemark","ticketType":"STANDARD"},{"id":"5981","tribuneTheaterId":"11417","providerTheaterId":"","name":"AMC Oakbrook Center 12","address":"600 Oakbrook Center","city":"Oak Brook","state":"IL","zip":"60523","distance":23.283450722081,"lon":"-87.952177","lat":"41.84764","theaterChainName":"AMC Theatres","ticketType":"STANDARD"},{"id":"1431","tribuneTheaterId":"2882","providerTheaterId":"","name":"La Grange Theatres","address":"80 S. La Grange Road","city":"La Grange","state":"IL","zip":"60525","distance":22.729499285904,"lon":"-87.869703","lat":"41.81271","theaterChainName":"Independent Chains","ticketType":"STANDARD"},{"id":"5706","tribuneTheaterId":"11145","providerTheaterId":"473","name":"Oakbrook Center 4","address":"300 Oakbrook Center","city":"Oak Brook","state":"IL","zip":"60523","distance":23.237835806734,"lon":"-87.9555","lat":"41.8477","theaterChainName":"AMC Theatres","ticketType":"STANDARD"},{"id":"211","tribuneTheaterId":"7650","providerTheaterId":"827","name":"AMC Ford City 14","address":"7601 S. Cicero Ave.","city":"Chicago","state":"IL","zip":"60652","distance":24.006894393233,"lon":"-87.733212","lat":"41.753261","theaterChainName":"AMC Theatres","ticketType":"STANDARD"},{"id":"1193","tribuneTheaterId":"2876","providerTheaterId":"","name":"Glen Ellyn Art Theatre","address":"540 Crescent Blvd.","city":"Glen Ellyn","state":"IL","zip":"60137","distance":24.288040116764,"lon":"-88.065572","lat":"41.87665","theaterChainName":"Independent Chains","ticketType":"STANDARD"}]