[{"id":"1592","tribuneTheaterId":"1109","providerTheaterId":"","name":"Mar Theatre","address":"121 S. Main St.","city":"Wilmington","state":"IL","zip":"60481","distance":0.057551025240515,"lon":"-88.145599","lat":"41.307899","theaterChainName":"Independent Chains","ticketType":"STANDARD"},{"id":"3811","tribuneTheaterId":"4955","providerTheaterId":"6691","name":"AMC Showplace New Lenox 14","address":"1320 W. Maple St.","city":"New Lenox","state":"IL","zip":"60451","distance":16.525966310213,"lon":"-87.990704","lat":"41.516418","theaterChainName":"AMC Theatres","ticketType":"STANDARD"},{"id":"2211","tribuneTheaterId":"5943","providerTheaterId":"","name":"Carmike Orpheum Cinema 10","address":"515 W Gore Road","city":"Morris","state":"IL","zip":"60450","distance":15.613194954249,"lon":"-88.429046","lat":"41.386127","theaterChainName":"Carmike Cinemas","ticketType":"STANDARD"},{"id":"4712","tribuneTheaterId":"9926","providerTheaterId":"","name":"Cinemark Louis Joliet Mall","address":"3340 Mall Loop Drive","city":"Joliet","state":"IL","zip":"60431","distance":18.57353384362,"lon":"-88.167236","lat":"41.576177","theaterChainName":"Cinemark","ticketType":"STANDARD"},{"id":"1366","tribuneTheaterId":"5203","providerTheaterId":"","name":"Cinemark Movies 10 Joliet","address":"2601 Plainfield Rd.","city":"Joliet","state":"IL","zip":"60435","distance":18.432486396804,"lon":"-88.152765","lat":"41.574538","theaterChainName":"Cinemark","ticketType":"STANDARD"},{"id":"794","tribuneTheaterId":"6250","providerTheaterId":"","name":"CC Meadowview Theatre","address":"55 Meadowview Center","city":"Kankakee","state":"IL","zip":"60901","distance":18.639860935624,"lon":"-87.8716","lat":"41.1347","theaterChainName":"Classic Cinemas","ticketType":"STANDARD"},{"id":"1372","tribuneTheaterId":"6489","providerTheaterId":"","name":"Cinemark Movies 10 Bourbonnais","address":"1600 N State Route 50","city":"Bourbonnais","state":"IL","zip":"60914","distance":17.935333779945,"lon":"-87.8512","lat":"41.1736","theaterChainName":"Cinemark","ticketType":"STANDARD"},{"id":"796","tribuneTheaterId":"6466","providerTheaterId":"","name":"CC Paramount","address":"213 N. Schuyler Ave.","city":"Kankakee","state":"IL","zip":"60901","distance":19.507631081306,"lon":"-87.863963","lat":"41.122115","theaterChainName":"Classic Cinemas","ticketType":"STANDARD"},{"id":"6042","tribuneTheaterId":"11446","providerTheaterId":"","name":"Emagine Frankfort 10","address":"19965 South La Grange Rd","city":"Frankfort","state":"IL","zip":"60423","distance":21.670303281428,"lon":"-87.84763","lat":"41.527048","theaterChainName":"Emagine Entertainment","ticketType":"STANDARD"},{"id":"2514","tribuneTheaterId":"5792","providerTheaterId":"","name":"Marcus Orland Park Cinemas","address":"16350 S. La Grange Road","city":"Orland Park","state":"IL","zip":"60467","distance":24.807471219399,"lon":"-87.853709","lat":"41.591851","theaterChainName":"Marcus Theaters","ticketType":"STANDARD"}]