[{"id":"6042","name":"Emagine Frankfort 10","address":"19965 South La Grange Rd","city":"Frankfort","state":"IL","zip":"60423","distance":"24.89725112915039","lon":"-87.847633","lat":"41.527046","theaterChainName":"Emagine Entertainment","ticketType":"STANDARD"},{"id":"2514","name":"Marcus Orland Park Cinemas","address":"16350 S. La Grange Road","city":"Orland Park","state":"IL","zip":"60467","distance":"22.517961502075195","lon":"-87.853706","lat":"41.591850","theaterChainName":"Marcus Theaters","ticketType":"STANDARD"},{"id":"30","name":"AMC Loews Chicago Ridge 6","address":"500 Chicago Ridge Mall","city":"Chicago Ridge","state":"IL","zip":"60415","distance":"24.300901412963867","lon":"-87.783684","lat":"41.715069","theaterChainName":"AMC Theatres","ticketType":"STANDARD"},{"id":"3811","name":"AMC Showplace New Lenox 14","address":"1320 W. Maple St.","city":"New Lenox","state":"IL","zip":"60451","distance":"19.590482711791992","lon":"-87.990707","lat":"41.516418","theaterChainName":"AMC Theatres","ticketType":"STANDARD"},{"id":"4600","name":"CC North Riverside Mall Theatre","address":"7501 W. Cermak Road","city":"North Riverside","state":"IL","zip":"60546","distance":"24.505264282226562","lon":"-87.811264","lat":"41.847939","theaterChainName":"Classic Cinemas","ticketType":"STANDARD"},{"id":"697","name":"AMC Loews Quarry Cinemas 14","address":"9201 63rd St.","city":"Hodgkins","state":"IL","zip":"60525","distance":"20.763988494873047","lon":"-87.859215","lat":"41.776432","theaterChainName":"AMC Theatres","ticketType":"STANDARD"},{"id":"1431","name":"La Grange Theatres","address":"80 S. La Grange Road","city":"La Grange","state":"IL","zip":"60525","distance":"20.857206344604492","lon":"-87.869705","lat":"41.812710","theaterChainName":"Independent Chains","ticketType":"STANDARD"},{"id":"2301","name":"Cinemark Melrose Park","address":"1001 W. North Ave.","city":"Melrose Park","state":"IL","zip":"60160","distance":"24.799213409423828","lon":"-87.846146","lat":"41.909760","theaterChainName":"Cinemark","ticketType":"STANDARD"},{"id":"446","name":"AMC South Barrington 30","address":"170 Studio Drive","city":"South Barrington","state":"IL","zip":"60010","distance":"24.813739776611328","lon":"-88.148560","lat":"42.070194","theaterChainName":"AMC Theatres","ticketType":"STANDARD"},{"id":"2859","name":"AMC Loews Streets of Woodfield 20","address":"601 N. Martingale Road","city":"Schaumburg","state":"IL","zip":"60173","distance":"24.958881378173828","lon":"-88.033691","lat":"42.041416","theaterChainName":"AMC Theatres","ticketType":"STANDARD"},{"id":"1200","name":"Marcus Elgin Cinema","address":"111 S. Randall Road","city":"Elgin","state":"IL","zip":"60123","distance":"21.821378707885742","lon":"-88.336105","lat":"42.029846","theaterChainName":"Marcus Theaters","ticketType":"STANDARD"},{"id":"790","name":"CC Elk Grove Theatre","address":"1050 Arlington Heights Rd.","city":"Elk Grove Village","state":"IL","zip":"60007","distance":"23.260496139526367","lon":"-88.004723","lat":"42.000313","theaterChainName":"Classic Cinemas","ticketType":"STANDARD"},{"id":"742","name":"Marcus Addison","address":"1555 W. Lake St.","city":"Addison","state":"IL","zip":"60101","distance":"19.568180084228516","lon":"-88.026329","lat":"41.946220","theaterChainName":"Marcus Theaters","ticketType":"STANDARD"},{"id":"1404","name":"Bensenville 2 Theater","address":"9 S. Center St.","city":"Bensenville","state":"IL","zip":"60106","distance":"22.97482681274414","lon":"-87.940887","lat":"41.956242","theaterChainName":"Independent Chains","ticketType":"STANDARD"},{"id":"799","name":"CC York Theatre","address":"150 N. York Road","city":"Elmhurst","state":"IL","zip":"60126","distance":"20.5096492767334","lon":"-87.939903","lat":"41.901600","theaterChainName":"Classic Cinemas","ticketType":"STANDARD"},{"id":"4812","name":"Picture Show  Bloomingdale","address":"324 W. Army Trail Road","city":"Bloomingdale","state":"IL","zip":"60108","distance":"16.866741180419922","lon":"-88.106277","lat":"41.937469","theaterChainName":"Picture Show Entertainment","ticketType":"STANDARD"},{"id":"4343","name":"Century Stratford Square","address":"804 Stratford Square","city":"Bloomingdale","state":"IL","zip":"60108","distance":"17.418394088745117","lon":"-88.114265","lat":"41.949207","theaterChainName":"Cinemark","ticketType":"STANDARD"},{"id":"1193","name":"Glen Ellyn Art Theatre","address":"540 Crescent Blvd.","city":"Glen Ellyn","state":"IL","zip":"60137","distance":"14.571436882019043","lon":"-88.065575","lat":"41.876652","theaterChainName":"Independent Chains","ticketType":"STANDARD"},{"id":"5706","name":"Oakbrook Center 4","address":"300 Oakbrook Center","city":"Oak Brook","state":"IL","zip":"60523","distance":"17.770475387573242","lon":"-87.955498","lat":"41.847698","theaterChainName":"AMC Theatres","ticketType":"STANDARD"},{"id":"5981","name":"AMC Oakbrook Center 12","address":"600 Oakbrook Center","city":"Oak Brook","state":"IL","zip":"60523","distance":"17.91712188720703","lon":"-87.952179","lat":"41.847641","theaterChainName":"AMC Theatres","ticketType":"STANDARD"},{"id":"212","name":"AMC Yorktown","address":"80 Yorktown Center","city":"Lombard","state":"IL","zip":"60148","distance":"15.457120895385742","lon":"-88.001831","lat":"41.840134","theaterChainName":"AMC Theatres","ticketType":"STANDARD"},{"id":"5188","name":"Studio Movie Grill Wheaton","address":"301 Rice Lake Square","city":"Wheaton","state":"IL","zip":"60189","distance":"11.168367385864258","lon":"-88.098335","lat":"41.831745","theaterChainName":"Studio Movie Grill","ticketType":"SELECT_SEATING"},{"id":"797","name":"CC Tivoli Theatre","address":"5021 Highland Ave.","city":"Downers Grove","state":"IL","zip":"60515","distance":"13.708854675292969","lon":"-88.009148","lat":"41.795940","theaterChainName":"Classic Cinemas","ticketType":"STANDARD"},{"id":"795","name":"CC Ogden 6 Theatre","address":"1227 E. Ogden Ave.","city":"Naperville","state":"IL","zip":"60563","distance":"8.633760452270508","lon":"-88.124481","lat":"41.798401","theaterChainName":"Classic Cinemas","ticketType":"STANDARD"},{"id":"2951","name":"Cinemark  Seven Bridges","address":"6500 Route 53","city":"Woodridge","state":"IL","zip":"60517","distance":"10.175085067749023","lon":"-88.068497","lat":"41.768501","theaterChainName":"Cinemark","ticketType":"STANDARD"},{"id":"3610","name":"Hollywood Blvd. Cinema","address":"1001 W. 75th St.","city":"Woodridge","state":"IL","zip":"60517","distance":"12.88381576538086","lon":"-88.008499","lat":"41.751301","theaterChainName":"Independent Chains","ticketType":"STANDARD"},{"id":"357","name":"Regal Cantera Stadium 17 & RPX","address":"28250 Diehl Rd.","city":"Warrenville","state":"IL","zip":"60555","distance":"7.273370742797852","lon":"-88.171257","lat":"41.804733","theaterChainName":"Regal Cinemas","ticketType":"STANDARD"},{"id":"3414","name":"CC Charlestowne 18","address":"3740 E. Main St.","city":"Saint Charles","state":"IL","zip":"60174","distance":"14.073534965515137","lon":"-88.269135","lat":"41.923294","theaterChainName":"Classic Cinemas","ticketType":"STANDARD"},{"id":"1449","name":"Goodrich Randall 16","address":"550 N. Randall Road","city":"Batavia","state":"IL","zip":"60510","distance":"10.638465881347656","lon":"-88.338882","lat":"41.860519","theaterChainName":"Goodrich Theatres","ticketType":"E_TICKET"},{"id":"1407","name":"Cinemark Tinseltown USA North Aurora","address":"320 S. Lincoln Way","city":"North Aurora","state":"IL","zip":"60542","distance":"6.137515544891357","lon":"-88.324692","lat":"41.791809","theaterChainName":"Cinemark","ticketType":"STANDARD"},{"id":"4817","name":"Hollywood Palms Cinema","address":"352 South Route 59","city":"Naperville","state":"IL","zip":"60540","distance":"4.146969795227051","lon":"-88.202522","lat":"41.765511","theaterChainName":"Independent Chains","ticketType":"STANDARD"},{"id":"2289","name":"AMC Loews Woodridge 18","address":"10000 Woodward Ave.","city":"Woodridge","state":"IL","zip":"60517","distance":"11.959446907043457","lon":"-88.023857","lat":"41.704533","theaterChainName":"AMC Theatres","ticketType":"STANDARD"},{"id":"1196","name":"Regal Bolingbrook Stadium 12","address":"1221 W. Boughton Road","city":"Bolingbrook","state":"IL","zip":"60440","distance":"6.940464019775391","lon":"-88.122559","lat":"41.701363","theaterChainName":"Regal Cinemas","ticketType":"STANDARD"},{"id":"4164","name":"AMC Showplace Naperville 16","address":"2815 Showplace Drive","city":"Naperville","state":"IL","zip":"60564","distance":"2.398313283920288","lon":"-88.209244","lat":"41.712940","theaterChainName":"AMC Theatres","ticketType":"STANDARD"},{"id":"1448","name":"Goodrich Kendall 11","address":"95 5th St.","city":"Oswego","state":"IL","zip":"60543","distance":"3.057621955871582","lon":"-88.314003","lat":"41.717602","theaterChainName":"Goodrich Theatres","ticketType":"SELECT_SEATING"},{"id":"5442","name":"NCG Yorkville Cinemas","address":"1505 N. Bridge St.","city":"Yorkville","state":"IL","zip":"60560","distance":"10.529626846313477","lon":"-88.442497","lat":"41.660099","theaterChainName":"NCG Cinemas","ticketType":"STANDARD"},{"id":"2300","name":"WoW 7 Cinema","address":"101 Duvick Ave.","city":"Sandwich","state":"IL","zip":"60548","distance":"18.528348922729492","lon":"-88.600166","lat":"41.646587","theaterChainName":"Independent Chains","ticketType":"STANDARD"},{"id":"4712","name":"Cinemark Louis Joliet Mall","address":"3340 Mall Loop Drive","city":"Joliet","state":"IL","zip":"60431","distance":"10.911576271057129","lon":"-88.167236","lat":"41.576176","theaterChainName":"Cinemark","ticketType":"STANDARD"},{"id":"1366","name":"Cinemark Movies 10 Joliet","address":"2601 Plainfield Rd.","city":"Joliet","state":"IL","zip":"60435","distance":"11.341839790344238","lon":"-88.152763","lat":"41.574539","theaterChainName":"Cinemark","ticketType":"STANDARD"},{"id":"2211","name":"Carmike Orpheum Cinema 10","address":"515 W Gore Road","city":"Morris","state":"IL","zip":"60450","distance":"24.760290145874023","lon":"-88.429047","lat":"41.386127","theaterChainName":"Carmike Cinemas","ticketType":"STANDARD"}]