[{"id":"2300","tribuneTheaterId":"6195","providerTheaterId":"","name":"WoW 7 Cinema","address":"101 Duvick Ave.","city":"Sandwich","state":"IL","zip":"60548","distance":5.8876007490998,"lon":"-88.600166","lat":"41.646589","theaterChainName":"Independent Chains","ticketType":"STANDARD"},{"id":"5442","tribuneTheaterId":"10883","providerTheaterId":"","name":"NCG Yorkville Cinemas","address":"1505 N. Bridge St.","city":"Yorkville","state":"IL","zip":"60560","distance":10.51763183823,"lon":"-88.4425","lat":"41.6601","theaterChainName":"NCG Cinemas","ticketType":"STANDARD"},{"id":"2211","tribuneTheaterId":"5943","providerTheaterId":"","name":"Carmike Orpheum Cinema 10","address":"515 W Gore Road","city":"Morris","state":"IL","zip":"60450","distance":14.923350081525,"lon":"-88.429046","lat":"41.386127","theaterChainName":"Carmike Cinemas","ticketType":"STANDARD"},{"id":"1448","tribuneTheaterId":"5839","providerTheaterId":"","name":"Goodrich Kendall 11","address":"95 5th St.","city":"Oswego","state":"IL","zip":"60543","distance":18.187111277651,"lon":"-88.314","lat":"41.7176","theaterChainName":"Goodrich Theatres","ticketType":"SELECT_SEATING"},{"id":"2214","tribuneTheaterId":"1933","providerTheaterId":"","name":"Roxy Cinema - Ottawa","address":"827 LaSalle St.","city":"Ottawa","state":"IL","zip":"61350","distance":19.421649474868,"lon":"-88.84282","lat":"41.348777","theaterChainName":"Independent Chains","ticketType":"STANDARD"},{"id":"1407","tribuneTheaterId":"5205","providerTheaterId":"","name":"Cinemark Tinseltown USA North Aurora","address":"320 S. Lincoln Way","city":"North Aurora","state":"IL","zip":"60542","distance":21.25199094188,"lon":"-88.324692","lat":"41.79181","theaterChainName":"Cinemark","ticketType":"STANDARD"},{"id":"4164","tribuneTheaterId":"4962","providerTheaterId":"6675","name":"AMC Showplace Naperville 16","address":"2815 Showplace Drive","city":"Naperville","state":"IL","zip":"60564","distance":22.618233394757,"lon":"-88.209242","lat":"41.712939","theaterChainName":"AMC Theatres","ticketType":"STANDARD"},{"id":"1366","tribuneTheaterId":"5203","providerTheaterId":"","name":"Cinemark Movies 10 Joliet","address":"2601 Plainfield Rd.","city":"Joliet","state":"IL","zip":"60435","distance":23.007786937797,"lon":"-88.152765","lat":"41.574538","theaterChainName":"Cinemark","ticketType":"STANDARD"},{"id":"4712","tribuneTheaterId":"9926","providerTheaterId":"","name":"Cinemark Louis Joliet Mall","address":"3340 Mall Loop Drive","city":"Joliet","state":"IL","zip":"60431","distance":22.264958623035,"lon":"-88.167236","lat":"41.576177","theaterChainName":"Cinemark","ticketType":"STANDARD"},{"id":"1449","tribuneTheaterId":"5842","providerTheaterId":"","name":"Goodrich Randall 16","address":"550 N. Randall Road","city":"Batavia","state":"IL","zip":"60510","distance":24.59806401718,"lon":"-88.338879","lat":"41.860518","theaterChainName":"Goodrich Theatres","ticketType":"E_TICKET"},{"id":"4817","tribuneTheaterId":"10079","providerTheaterId":"","name":"Hollywood Palms Cinema","address":"352 South Route 59","city":"Naperville","state":"IL","zip":"60540","distance":24.789823989847,"lon":"-88.202523","lat":"41.765511","theaterChainName":"Independent Chains","ticketType":"STANDARD"}]