[{"id":"1449","name":"Goodrich Randall 16","address":"550 N. Randall Road","city":"Batavia","state":"IL","zip":"60510","distance":"24.59959602355957","lon":"-88.338882","lat":"41.860519","theaterChainName":"Goodrich Theatres","ticketType":"E_TICKET"},{"id":"1407","name":"Cinemark Tinseltown USA North Aurora","address":"320 S. Lincoln Way","city":"North Aurora","state":"IL","zip":"60542","distance":"21.25332260131836","lon":"-88.324692","lat":"41.791809","theaterChainName":"Cinemark","ticketType":"STANDARD"},{"id":"4817","name":"Hollywood Palms Cinema","address":"352 South Route 59","city":"Naperville","state":"IL","zip":"60540","distance":"24.791475296020508","lon":"-88.202522","lat":"41.765511","theaterChainName":"Independent Chains","ticketType":"STANDARD"},{"id":"4164","name":"AMC Showplace Naperville 16","address":"2815 Showplace Drive","city":"Naperville","state":"IL","zip":"60564","distance":"22.61971664428711","lon":"-88.209244","lat":"41.712940","theaterChainName":"AMC Theatres","ticketType":"STANDARD"},{"id":"1448","name":"Goodrich Kendall 11","address":"95 5th St.","city":"Oswego","state":"IL","zip":"60543","distance":"18.188282012939453","lon":"-88.314003","lat":"41.717602","theaterChainName":"Goodrich Theatres","ticketType":"SELECT_SEATING"},{"id":"5442","name":"NCG Yorkville Cinemas","address":"1505 N. Bridge St.","city":"Yorkville","state":"IL","zip":"60560","distance":"10.518430709838867","lon":"-88.442497","lat":"41.660099","theaterChainName":"NCG Cinemas","ticketType":"STANDARD"},{"id":"2300","name":"WoW 7 Cinema","address":"101 Duvick Ave.","city":"Sandwich","state":"IL","zip":"60548","distance":"5.887754917144775","lon":"-88.600166","lat":"41.646587","theaterChainName":"Independent Chains","ticketType":"STANDARD"},{"id":"4712","name":"Cinemark Louis Joliet Mall","address":"3340 Mall Loop Drive","city":"Joliet","state":"IL","zip":"60431","distance":"22.266502380371094","lon":"-88.167236","lat":"41.576176","theaterChainName":"Cinemark","ticketType":"STANDARD"},{"id":"1366","name":"Cinemark Movies 10 Joliet","address":"2601 Plainfield Rd.","city":"Joliet","state":"IL","zip":"60435","distance":"23.009485244750977","lon":"-88.152763","lat":"41.574539","theaterChainName":"Cinemark","ticketType":"STANDARD"},{"id":"2211","name":"Carmike Orpheum Cinema 10","address":"515 W Gore Road","city":"Morris","state":"IL","zip":"60450","distance":"14.924416542053223","lon":"-88.429047","lat":"41.386127","theaterChainName":"Carmike Cinemas","ticketType":"STANDARD"},{"id":"2214","name":"Roxy Cinema - Ottawa","address":"827 LaSalle St.","city":"Ottawa","state":"IL","zip":"61350","distance":"19.422733306884766","lon":"-88.842819","lat":"41.348778","theaterChainName":"Independent Chains","ticketType":"STANDARD"}]