[{"id":"5442","name":"NCG Yorkville Cinemas","address":"1505 N. Bridge St.","city":"Yorkville","state":"IL","zip":"60560","distance":"19.422706604003906","lon":"-88.442497","lat":"41.660099","theaterChainName":"NCG Cinemas","ticketType":"STANDARD"},{"id":"2300","name":"WoW 7 Cinema","address":"101 Duvick Ave.","city":"Sandwich","state":"IL","zip":"60548","distance":"12.806501388549805","lon":"-88.600166","lat":"41.646587","theaterChainName":"Independent Chains","ticketType":"STANDARD"},{"id":"2211","name":"Carmike Orpheum Cinema 10","address":"515 W Gore Road","city":"Morris","state":"IL","zip":"60450","distance":"18.419782638549805","lon":"-88.429047","lat":"41.386127","theaterChainName":"Carmike Cinemas","ticketType":"STANDARD"},{"id":"2214","name":"Roxy Cinema - Ottawa","address":"827 LaSalle St.","city":"Ottawa","state":"IL","zip":"61350","distance":"11.451818466186523","lon":"-88.842819","lat":"41.348778","theaterChainName":"Independent Chains","ticketType":"STANDARD"},{"id":"2216","name":"Carmike Peru Mall 8","address":"3940 State Route 251","city":"Peru","state":"IL","zip":"61354","distance":"21.737316131591797","lon":"-89.125298","lat":"41.357498","theaterChainName":"Carmike Cinemas","ticketType":"STANDARD"}]