[{"id":"5962","name":"Marcus Country Club Hills Cinema","address":"4201 W. 167th Street","city":"Country Club Hills","state":"IL","zip":"60478","distance":"24.909292221069336","lon":"-87.717781","lat":"41.586109","theaterChainName":"Marcus Theaters","ticketType":"STANDARD"},{"id":"3212","name":"AMC Loews Country Club Hills 16","address":"4201 W. 167th St.","city":"Country Club Hills","state":"IL","zip":"60478","distance":"24.71063232421875","lon":"-87.721764","lat":"41.583969","theaterChainName":"AMC Theatres","ticketType":"STANDARD"},{"id":"53","name":"AMC Loews Crestwood 18","address":"13221 Rivercrest Drive","city":"Crestwood","state":"IL","zip":"60445","distance":"23.76749038696289","lon":"-87.744263","lat":"41.651596","theaterChainName":"AMC Theatres","ticketType":"STANDARD"},{"id":"6042","name":"Emagine Frankfort 10","address":"19965 South La Grange Rd","city":"Frankfort","state":"IL","zip":"60423","distance":"18.88875389099121","lon":"-87.847633","lat":"41.527046","theaterChainName":"Emagine Entertainment","ticketType":"STANDARD"},{"id":"2514","name":"Marcus Orland Park Cinemas","address":"16350 S. La Grange Road","city":"Orland Park","state":"IL","zip":"60467","distance":"17.87437629699707","lon":"-87.853706","lat":"41.591850","theaterChainName":"Marcus Theaters","ticketType":"STANDARD"},{"id":"30","name":"AMC Loews Chicago Ridge 6","address":"500 Chicago Ridge Mall","city":"Chicago Ridge","state":"IL","zip":"60415","distance":"22.86524200439453","lon":"-87.783684","lat":"41.715069","theaterChainName":"AMC Theatres","ticketType":"STANDARD"},{"id":"3811","name":"AMC Showplace New Lenox 14","address":"1320 W. Maple St.","city":"New Lenox","state":"IL","zip":"60451","distance":"12.268125534057617","lon":"-87.990707","lat":"41.516418","theaterChainName":"AMC Theatres","ticketType":"STANDARD"},{"id":"697","name":"AMC Loews Quarry Cinemas 14","address":"9201 63rd St.","city":"Hodgkins","state":"IL","zip":"60525","distance":"21.33635902404785","lon":"-87.859215","lat":"41.776432","theaterChainName":"AMC Theatres","ticketType":"STANDARD"},{"id":"1431","name":"La Grange Theatres","address":"80 S. La Grange Road","city":"La Grange","state":"IL","zip":"60525","distance":"22.43784523010254","lon":"-87.869705","lat":"41.812710","theaterChainName":"Independent Chains","ticketType":"STANDARD"},{"id":"799","name":"CC York Theatre","address":"150 N. York Road","city":"Elmhurst","state":"IL","zip":"60126","distance":"24.711511611938477","lon":"-87.939903","lat":"41.901600","theaterChainName":"Classic Cinemas","ticketType":"STANDARD"},{"id":"4812","name":"Picture Show  Bloomingdale","address":"324 W. Army Trail Road","city":"Bloomingdale","state":"IL","zip":"60108","distance":"23.746244430541992","lon":"-88.106277","lat":"41.937469","theaterChainName":"Picture Show Entertainment","ticketType":"STANDARD"},{"id":"4343","name":"Century Stratford Square","address":"804 Stratford Square","city":"Bloomingdale","state":"IL","zip":"60108","distance":"24.463865280151367","lon":"-88.114265","lat":"41.949207","theaterChainName":"Cinemark","ticketType":"STANDARD"},{"id":"1193","name":"Glen Ellyn Art Theatre","address":"540 Crescent Blvd.","city":"Glen Ellyn","state":"IL","zip":"60137","distance":"20.2647705078125","lon":"-88.065575","lat":"41.876652","theaterChainName":"Independent Chains","ticketType":"STANDARD"},{"id":"5706","name":"Oakbrook Center 4","address":"300 Oakbrook Center","city":"Oak Brook","state":"IL","zip":"60523","distance":"21.190336227416992","lon":"-87.955498","lat":"41.847698","theaterChainName":"AMC Theatres","ticketType":"STANDARD"},{"id":"5981","name":"AMC Oakbrook Center 12","address":"600 Oakbrook Center","city":"Oak Brook","state":"IL","zip":"60523","distance":"21.289215087890625","lon":"-87.952179","lat":"41.847641","theaterChainName":"AMC Theatres","ticketType":"STANDARD"},{"id":"212","name":"AMC Yorktown","address":"80 Yorktown Center","city":"Lombard","state":"IL","zip":"60148","distance":"19.418720245361328","lon":"-88.001831","lat":"41.840134","theaterChainName":"AMC Theatres","ticketType":"STANDARD"},{"id":"5188","name":"Studio Movie Grill Wheaton","address":"301 Rice Lake Square","city":"Wheaton","state":"IL","zip":"60189","distance":"16.781097412109375","lon":"-88.098335","lat":"41.831745","theaterChainName":"Studio Movie Grill","ticketType":"SELECT_SEATING"},{"id":"797","name":"CC Tivoli Theatre","address":"5021 Highland Ave.","city":"Downers Grove","state":"IL","zip":"60515","distance":"16.672529220581055","lon":"-88.009148","lat":"41.795940","theaterChainName":"Classic Cinemas","ticketType":"STANDARD"},{"id":"795","name":"CC Ogden 6 Theatre","address":"1227 E. Ogden Ave.","city":"Naperville","state":"IL","zip":"60563","distance":"14.183740615844727","lon":"-88.124481","lat":"41.798401","theaterChainName":"Classic Cinemas","ticketType":"STANDARD"},{"id":"2951","name":"Cinemark  Seven Bridges","address":"6500 Route 53","city":"Woodridge","state":"IL","zip":"60517","distance":"13.407068252563477","lon":"-88.068497","lat":"41.768501","theaterChainName":"Cinemark","ticketType":"STANDARD"},{"id":"3610","name":"Hollywood Blvd. Cinema","address":"1001 W. 75th St.","city":"Woodridge","state":"IL","zip":"60517","distance":"14.320403099060059","lon":"-88.008499","lat":"41.751301","theaterChainName":"Independent Chains","ticketType":"STANDARD"},{"id":"357","name":"Regal Cantera Stadium 17 & RPX","address":"28250 Diehl Rd.","city":"Warrenville","state":"IL","zip":"60555","distance":"14.1591157913208","lon":"-88.171257","lat":"41.804733","theaterChainName":"Regal Cinemas","ticketType":"STANDARD"},{"id":"3414","name":"CC Charlestowne 18","address":"3740 E. Main St.","city":"Saint Charles","state":"IL","zip":"60174","distance":"22.56480598449707","lon":"-88.269135","lat":"41.923294","theaterChainName":"Classic Cinemas","ticketType":"STANDARD"},{"id":"1449","name":"Goodrich Randall 16","address":"550 N. Randall Road","city":"Batavia","state":"IL","zip":"60510","distance":"19.327316284179688","lon":"-88.338882","lat":"41.860519","theaterChainName":"Goodrich Theatres","ticketType":"E_TICKET"},{"id":"1407","name":"Cinemark Tinseltown USA North Aurora","address":"320 S. Lincoln Way","city":"North Aurora","state":"IL","zip":"60542","distance":"14.690123558044434","lon":"-88.324692","lat":"41.791809","theaterChainName":"Cinemark","ticketType":"STANDARD"},{"id":"4817","name":"Hollywood Palms Cinema","address":"352 South Route 59","city":"Naperville","state":"IL","zip":"60540","distance":"11.375418663024902","lon":"-88.202522","lat":"41.765511","theaterChainName":"Independent Chains","ticketType":"STANDARD"},{"id":"2289","name":"AMC Loews Woodridge 18","address":"10000 Woodward Ave.","city":"Woodridge","state":"IL","zip":"60517","distance":"11.550700187683105","lon":"-88.023857","lat":"41.704533","theaterChainName":"AMC Theatres","ticketType":"STANDARD"},{"id":"1196","name":"Regal Bolingbrook Stadium 12","address":"1221 W. Boughton Road","city":"Bolingbrook","state":"IL","zip":"60440","distance":"7.995572090148926","lon":"-88.122559","lat":"41.701363","theaterChainName":"Regal Cinemas","ticketType":"STANDARD"},{"id":"4164","name":"AMC Showplace Naperville 16","address":"2815 Showplace Drive","city":"Naperville","state":"IL","zip":"60564","distance":"7.758450508117676","lon":"-88.209244","lat":"41.712940","theaterChainName":"AMC Theatres","ticketType":"STANDARD"},{"id":"1448","name":"Goodrich Kendall 11","address":"95 5th St.","city":"Oswego","state":"IL","zip":"60543","distance":"10.001343727111816","lon":"-88.314003","lat":"41.717602","theaterChainName":"Goodrich Theatres","ticketType":"SELECT_SEATING"},{"id":"5442","name":"NCG Yorkville Cinemas","address":"1505 N. Bridge St.","city":"Yorkville","state":"IL","zip":"60560","distance":"13.204628944396973","lon":"-88.442497","lat":"41.660099","theaterChainName":"NCG Cinemas","ticketType":"STANDARD"},{"id":"2300","name":"WoW 7 Cinema","address":"101 Duvick Ave.","city":"Sandwich","state":"IL","zip":"60548","distance":"20.939626693725586","lon":"-88.600166","lat":"41.646587","theaterChainName":"Independent Chains","ticketType":"STANDARD"},{"id":"4712","name":"Cinemark Louis Joliet Mall","address":"3340 Mall Loop Drive","city":"Joliet","state":"IL","zip":"60431","distance":"2.383613348007202","lon":"-88.167236","lat":"41.576176","theaterChainName":"Cinemark","ticketType":"STANDARD"},{"id":"1366","name":"Cinemark Movies 10 Joliet","address":"2601 Plainfield Rd.","city":"Joliet","state":"IL","zip":"60435","distance":"3.0211029052734375","lon":"-88.152763","lat":"41.574539","theaterChainName":"Cinemark","ticketType":"STANDARD"},{"id":"2211","name":"Carmike Orpheum Cinema 10","address":"515 W Gore Road","city":"Morris","state":"IL","zip":"60450","distance":"19.013057708740234","lon":"-88.429047","lat":"41.386127","theaterChainName":"Carmike Cinemas","ticketType":"STANDARD"},{"id":"1592","name":"Mar Theatre","address":"121 S. Main St.","city":"Wilmington","state":"IL","zip":"60481","distance":"20.436372756958008","lon":"-88.145599","lat":"41.307899","theaterChainName":"Independent Chains","ticketType":"STANDARD"}]