[{"id":"1448","name":"Goodrich Kendall 11","address":"95 5th St.","city":"Oswego","state":"IL","zip":"60543","distance":"23.078372955322266","lon":"-88.314003","lat":"41.717602","theaterChainName":"Goodrich Theatres","ticketType":"SELECT_SEATING"},{"id":"5442","name":"NCG Yorkville Cinemas","address":"1505 N. Bridge St.","city":"Yorkville","state":"IL","zip":"60560","distance":"15.412960052490234","lon":"-88.442497","lat":"41.660099","theaterChainName":"NCG Cinemas","ticketType":"STANDARD"},{"id":"2300","name":"WoW 7 Cinema","address":"101 Duvick Ave.","city":"Sandwich","state":"IL","zip":"60548","distance":"9.704390525817871","lon":"-88.600166","lat":"41.646587","theaterChainName":"Independent Chains","ticketType":"STANDARD"},{"id":"2211","name":"Carmike Orpheum Cinema 10","address":"515 W Gore Road","city":"Morris","state":"IL","zip":"60450","distance":"15.411957740783691","lon":"-88.429047","lat":"41.386127","theaterChainName":"Carmike Cinemas","ticketType":"STANDARD"},{"id":"2214","name":"Roxy Cinema - Ottawa","address":"827 LaSalle St.","city":"Ottawa","state":"IL","zip":"61350","distance":"14.620049476623535","lon":"-88.842819","lat":"41.348778","theaterChainName":"Independent Chains","ticketType":"STANDARD"}]