[{"id":"2203","tribuneTheaterId":"4977","providerTheaterId":"","name":"Carmike Market Square 10","address":"2160 Sycamore Rd.","city":"DeKalb","state":"IL","zip":"60115","distance":14.921121094933,"lon":"-88.7281","lat":"41.9499","theaterChainName":"Carmike Cinemas","ticketType":"STANDARD"},{"id":"2300","tribuneTheaterId":"6195","providerTheaterId":"","name":"WoW 7 Cinema","address":"101 Duvick Ave.","city":"Sandwich","state":"IL","zip":"60548","distance":16.335928554202,"lon":"-88.600166","lat":"41.646589","theaterChainName":"Independent Chains","ticketType":"STANDARD"},{"id":"1614","tribuneTheaterId":"1470","providerTheaterId":"","name":"Sycamore Theatre","address":"420 W. State St.","city":"Sycamore","state":"IL","zip":"60178","distance":18.264951782817,"lon":"-88.689186","lat":"41.988964","theaterChainName":"Independent Chains","ticketType":"STANDARD"},{"id":"5442","tribuneTheaterId":"10883","providerTheaterId":"","name":"NCG Yorkville Cinemas","address":"1505 N. Bridge St.","city":"Yorkville","state":"IL","zip":"60560","distance":23.439746665868,"lon":"-88.4425","lat":"41.6601","theaterChainName":"NCG Cinemas","ticketType":"STANDARD"}]