[{"id":"55","name":"Lansing Cinema 8","address":"16621 Torrence Ave.","city":"Lansing","state":"IL","zip":"60438","distance":"19.965810775756836","lon":"-87.555588","lat":"41.593399","theaterChainName":"Independent Chains","ticketType":"STANDARD"},{"id":"2420","name":"Hoosier Theatre","address":"1335 119th St.","city":"Whiting","state":"IN","zip":"46394","distance":"15.703285217285156","lon":"-87.496246","lat":"41.679401","theaterChainName":"Independent Chains","ticketType":"STANDARD"},{"id":"5962","name":"Marcus Country Club Hills Cinema","address":"4201 W. 167th Street","city":"Country Club Hills","state":"IL","zip":"60478","distance":"20.001943588256836","lon":"-87.717781","lat":"41.586109","theaterChainName":"Marcus Theaters","ticketType":"STANDARD"},{"id":"3212","name":"AMC Loews Country Club Hills 16","address":"4201 W. 167th St.","city":"Country Club Hills","state":"IL","zip":"60478","distance":"20.180606842041016","lon":"-87.721764","lat":"41.583969","theaterChainName":"AMC Theatres","ticketType":"STANDARD"},{"id":"5471","name":"Studio Movie Grill Chatham","address":"210 W 87th St.","city":"Chicago","state":"IL","zip":"60620","distance":"9.303291320800781","lon":"-87.630547","lat":"41.739002","theaterChainName":"Studio Movie Grill","ticketType":"SELECT_SEATING"},{"id":"53","name":"AMC Loews Crestwood 18","address":"13221 Rivercrest Drive","city":"Crestwood","state":"IL","zip":"60445","distance":"15.874702453613281","lon":"-87.744263","lat":"41.651596","theaterChainName":"AMC Theatres","ticketType":"STANDARD"},{"id":"3622","name":"Crest Theatre","address":"106 E.5th Street","city":"Superior","state":"NE","zip":"68978","distance":"6.635923862457275","lon":"-87.595535","lat":"41.788013","theaterChainName":"Independent Chains","ticketType":"STANDARD"},{"id":"3647","name":"Doc Films","address":"1212 E. 59th St.","city":"Chicago","state":"IL","zip":"60637","distance":"6.635923862457275","lon":"-87.595535","lat":"41.788013","theaterChainName":"Independent Chains","ticketType":"STANDARD"},{"id":"5296","name":"Harper Theater","address":"5238 S. Harper Ave.","city":"Chicago","state":"IL","zip":"60615","distance":"6.12083625793457","lon":"-87.589104","lat":"41.799801","theaterChainName":"Independent Chains","ticketType":"STANDARD"},{"id":"2514","name":"Marcus Orland Park Cinemas","address":"16350 S. La Grange Road","city":"Orland Park","state":"IL","zip":"60467","distance":"21.841228485107422","lon":"-87.853706","lat":"41.591850","theaterChainName":"Marcus Theaters","ticketType":"STANDARD"},{"id":"211","name":"AMC Ford City 14","address":"7601 S. Cicero Ave.","city":"Chicago","state":"IL","zip":"60652","distance":"9.08372974395752","lon":"-87.733215","lat":"41.753262","theaterChainName":"AMC Theatres","ticketType":"STANDARD"},{"id":"30","name":"AMC Loews Chicago Ridge 6","address":"500 Chicago Ridge Mall","city":"Chicago Ridge","state":"IL","zip":"60415","distance":"12.640806198120117","lon":"-87.783684","lat":"41.715069","theaterChainName":"AMC Theatres","ticketType":"STANDARD"},{"id":"3569","name":"AMC River East 21","address":"322 E. Illinois St.","city":"Chicago","state":"IL","zip":"60611","distance":"2.4012718200683594","lon":"-87.619019","lat":"41.891441","theaterChainName":"AMC Theatres","ticketType":"STANDARD"},{"id":"1397","name":"Gene Siskel Film Center","address":"164 State St.","city":"Chicago","state":"IL","zip":"60601","distance":"1.7546701431274414","lon":"-87.628311","lat":"41.884861","theaterChainName":"Independent Chains","ticketType":"STANDARD"},{"id":"215","name":"AMC Loews 600 North Michigan 9","address":"600 N. Michigan Ave.","city":"Chicago","state":"IL","zip":"60611","distance":"2.186398983001709","lon":"-87.625153","lat":"41.892361","theaterChainName":"AMC Theatres","ticketType":"STANDARD"},{"id":"54","name":"Regal Webster Place 11","address":"1471 W. Webster Ave.","city":"Chicago","state":"IL","zip":"60614","distance":"3.4106009006500244","lon":"-87.664795","lat":"41.921185","theaterChainName":"Regal Cinemas","ticketType":"STANDARD"},{"id":"2419","name":"Facets Cinematheque","address":"1517 W. Fullerton Ave.","city":"Chicago","state":"IL","zip":"60614","distance":"3.681197166442871","lon":"-87.666298","lat":"41.924999","theaterChainName":"Independent Chains","ticketType":"STANDARD"},{"id":"4241","name":"AMC Showplace Cicero 14","address":"4779 W. Cermak Road","city":"Cicero","state":"IL","zip":"60804","distance":"4.654604911804199","lon":"-87.742828","lat":"41.849136","theaterChainName":"AMC Theatres","ticketType":"STANDARD"},{"id":"1201","name":"Music Box","address":"3733 N. Southport Ave.","city":"Chicago","state":"IL","zip":"60613","distance":"5.382217884063721","lon":"-87.663940","lat":"41.949860","theaterChainName":"Independent Chains","ticketType":"STANDARD"},{"id":"2826","name":"Regal City North Stadium 14","address":"2600 N. Western Ave.","city":"Chicago","state":"IL","zip":"60647","distance":"4.303479194641113","lon":"-87.688042","lat":"41.930172","theaterChainName":"Regal Cinemas","ticketType":"STANDARD"},{"id":"1199","name":"Logan Theatre","address":"2646 N. Milwaukee Ave.","city":"Chicago","state":"IL","zip":"60647","distance":"4.77768611907959","lon":"-87.708923","lat":"41.929832","theaterChainName":"Independent Chains","ticketType":"STANDARD"},{"id":"1192","name":"Davis Theater","address":"4614 N. Lincoln Ave.","city":"Chicago","state":"IL","zip":"60625","distance":"6.609208106994629","lon":"-87.686638","lat":"41.965313","theaterChainName":"Independent Chains","ticketType":"STANDARD"},{"id":"4781","name":"New 400 Theaters","address":"6746 N. Sheridan Road","city":"Chicago","state":"IL","zip":"60626","distance":"9.1738862991333","lon":"-87.661140","lat":"42.004845","theaterChainName":"Independent Chains","ticketType":"STANDARD"},{"id":"4361","name":"AMC Showplace Galewood 14","address":"5530 W. Homer St.","city":"Chicago","state":"IL","zip":"60639","distance":"6.2574357986450195","lon":"-87.764435","lat":"41.915691","theaterChainName":"AMC Theatres","ticketType":"STANDARD"},{"id":"4600","name":"CC North Riverside Mall Theatre","address":"7501 W. Cermak Road","city":"North Riverside","state":"IL","zip":"60546","distance":"8.072218894958496","lon":"-87.811264","lat":"41.847939","theaterChainName":"Classic Cinemas","ticketType":"STANDARD"},{"id":"792","name":"CC Lake Theatre","address":"1022 Lake St.","city":"Oak Park","state":"IL","zip":"60301","distance":"7.482826232910156","lon":"-87.801506","lat":"41.888817","theaterChainName":"Classic Cinemas","ticketType":"STANDARD"},{"id":"697","name":"AMC Loews Quarry Cinemas 14","address":"9201 63rd St.","city":"Hodgkins","state":"IL","zip":"60525","distance":"12.298725128173828","lon":"-87.859215","lat":"41.776432","theaterChainName":"AMC Theatres","ticketType":"STANDARD"},{"id":"1431","name":"La Grange Theatres","address":"80 S. La Grange Road","city":"La Grange","state":"IL","zip":"60525","distance":"11.654600143432617","lon":"-87.869705","lat":"41.812710","theaterChainName":"Independent Chains","ticketType":"STANDARD"},{"id":"2301","name":"Cinemark Melrose Park","address":"1001 W. North Ave.","city":"Melrose Park","state":"IL","zip":"60160","distance":"10.031444549560547","lon":"-87.846146","lat":"41.909760","theaterChainName":"Cinemark","ticketType":"STANDARD"},{"id":"5381","name":"Star Cinema Grill","address":"53 S Evergreen Ave","city":"Arlington Heights","state":"IL","zip":"60005","distance":"22.040647506713867","lon":"-87.981140","lat":"42.081783","theaterChainName":"Independent Chains","ticketType":"STANDARD"},{"id":"5036","name":"AMC Randhurst 12","address":"200 Randhurst Village Drive","city":"Mount Prospect","state":"IL","zip":"60056","distance":"20.379152297973633","lon":"-87.931610","lat":"42.085533","theaterChainName":"AMC Theatres","ticketType":"STANDARD"},{"id":"308","name":"AMC Northbrook Court 14","address":"1525 Lake Cook Road","city":"Northbrook","state":"IL","zip":"60062","distance":"20.838695526123047","lon":"-87.816811","lat":"42.149578","theaterChainName":"AMC Theatres","ticketType":"STANDARD"},{"id":"2859","name":"AMC Loews Streets of Woodfield 20","address":"601 N. Martingale Road","city":"Schaumburg","state":"IL","zip":"60173","distance":"22.58188247680664","lon":"-88.033691","lat":"42.041416","theaterChainName":"AMC Theatres","ticketType":"STANDARD"},{"id":"790","name":"CC Elk Grove Theatre","address":"1050 Arlington Heights Rd.","city":"Elk Grove Village","state":"IL","zip":"60007","distance":"19.911590576171875","lon":"-88.004723","lat":"42.000313","theaterChainName":"Classic Cinemas","ticketType":"STANDARD"},{"id":"742","name":"Marcus Addison","address":"1555 W. Lake St.","city":"Addison","state":"IL","zip":"60101","distance":"19.63067054748535","lon":"-88.026329","lat":"41.946220","theaterChainName":"Marcus Theaters","ticketType":"STANDARD"},{"id":"1404","name":"Bensenville 2 Theater","address":"9 S. Center St.","city":"Bensenville","state":"IL","zip":"60106","distance":"15.674188613891602","lon":"-87.940887","lat":"41.956242","theaterChainName":"Independent Chains","ticketType":"STANDARD"},{"id":"799","name":"CC York Theatre","address":"150 N. York Road","city":"Elmhurst","state":"IL","zip":"60126","distance":"14.65410327911377","lon":"-87.939903","lat":"41.901600","theaterChainName":"Classic Cinemas","ticketType":"STANDARD"},{"id":"4406","name":"Muvico Rosemont 18","address":"9701 Bryn Mawr Ave.","city":"Rosemont","state":"IL","zip":"60018","distance":"13.10167121887207","lon":"-87.867607","lat":"41.979736","theaterChainName":"Carmike Cinemas","ticketType":"STANDARD"},{"id":"4812","name":"Picture Show  Bloomingdale","address":"324 W. Army Trail Road","city":"Bloomingdale","state":"IL","zip":"60108","distance":"23.50168800354004","lon":"-88.106277","lat":"41.937469","theaterChainName":"Picture Show Entertainment","ticketType":"STANDARD"},{"id":"4343","name":"Century Stratford Square","address":"804 Stratford Square","city":"Bloomingdale","state":"IL","zip":"60108","distance":"24.069272994995117","lon":"-88.114265","lat":"41.949207","theaterChainName":"Cinemark","ticketType":"STANDARD"},{"id":"1193","name":"Glen Ellyn Art Theatre","address":"540 Crescent Blvd.","city":"Glen Ellyn","state":"IL","zip":"60137","distance":"20.982717514038086","lon":"-88.065575","lat":"41.876652","theaterChainName":"Independent Chains","ticketType":"STANDARD"},{"id":"5706","name":"Oakbrook Center 4","address":"300 Oakbrook Center","city":"Oak Brook","state":"IL","zip":"60523","distance":"15.412810325622559","lon":"-87.955498","lat":"41.847698","theaterChainName":"AMC Theatres","ticketType":"STANDARD"},{"id":"5981","name":"AMC Oakbrook Center 12","address":"600 Oakbrook Center","city":"Oak Brook","state":"IL","zip":"60523","distance":"15.243499755859375","lon":"-87.952179","lat":"41.847641","theaterChainName":"AMC Theatres","ticketType":"STANDARD"},{"id":"212","name":"AMC Yorktown","address":"80 Yorktown Center","city":"Lombard","state":"IL","zip":"60148","distance":"17.843015670776367","lon":"-88.001831","lat":"41.840134","theaterChainName":"AMC Theatres","ticketType":"STANDARD"},{"id":"1202","name":"Pickwick Theatre","address":"5 S. Prospect Ave.","city":"Park Ridge","state":"IL","zip":"60068","distance":"13.023205757141113","lon":"-87.829437","lat":"42.010750","theaterChainName":"Independent Chains","ticketType":"STANDARD"},{"id":"4242","name":"AMC Showplace Niles 12","address":"301 Golf Mill Center","city":"Niles","state":"IL","zip":"60714","distance":"15.424440383911133","lon":"-87.837296","lat":"42.051029","theaterChainName":"AMC Theatres","ticketType":"STANDARD"},{"id":"5188","name":"Studio Movie Grill Wheaton","address":"301 Rice Lake Square","city":"Wheaton","state":"IL","zip":"60189","distance":"22.844696044921875","lon":"-88.098335","lat":"41.831745","theaterChainName":"Studio Movie Grill","ticketType":"SELECT_SEATING"},{"id":"797","name":"CC Tivoli Theatre","address":"5021 Highland Ave.","city":"Downers Grove","state":"IL","zip":"60515","distance":"18.83852195739746","lon":"-88.009148","lat":"41.795940","theaterChainName":"Classic Cinemas","ticketType":"STANDARD"},{"id":"3201","name":"AMC Showplace Village Crossing 18","address":"7000 Carpenter Rd.","city":"Skokie","state":"IL","zip":"60077","distance":"10.966611862182617","lon":"-87.765053","lat":"42.009304","theaterChainName":"AMC Theatres","ticketType":"STANDARD"},{"id":"795","name":"CC Ogden 6 Theatre","address":"1227 E. Ogden Ave.","city":"Naperville","state":"IL","zip":"60563","distance":"24.559595108032227","lon":"-88.124481","lat":"41.798401","theaterChainName":"Classic Cinemas","ticketType":"STANDARD"},{"id":"2951","name":"Cinemark  Seven Bridges","address":"6500 Route 53","city":"Woodridge","state":"IL","zip":"60517","distance":"22.327234268188477","lon":"-88.068497","lat":"41.768501","theaterChainName":"Cinemark","ticketType":"STANDARD"},{"id":"3610","name":"Hollywood Blvd. Cinema","address":"1001 W. 75th St.","city":"Woodridge","state":"IL","zip":"60517","distance":"19.896949768066406","lon":"-88.008499","lat":"41.751301","theaterChainName":"Independent Chains","ticketType":"STANDARD"},{"id":"1203","name":"Wilmette Theatre","address":"1122 Central Ave.","city":"Wilmette","state":"IL","zip":"60091","distance":"14.347418785095215","lon":"-87.706200","lat":"42.076599","theaterChainName":"Independent Chains","ticketType":"STANDARD"},{"id":"3079","name":"Evanston Century 12\/CineArts 6","address":"1715 Maple Ave.","city":"Evanston","state":"IL","zip":"60201","distance":"12.280503273010254","lon":"-87.684700","lat":"42.048698","theaterChainName":"Cinemark","ticketType":"STANDARD"},{"id":"2289","name":"AMC Loews Woodridge 18","address":"10000 Woodward Ave.","city":"Woodridge","state":"IL","zip":"60517","distance":"22.129968643188477","lon":"-88.023857","lat":"41.704533","theaterChainName":"AMC Theatres","ticketType":"STANDARD"}]