[{"id":"2420","name":"Hoosier Theatre","address":"1335 119th St.","city":"Whiting","state":"IN","zip":"46394","distance":"24.38749885559082","lon":"-87.496246","lat":"41.679401","theaterChainName":"Independent Chains","ticketType":"STANDARD"},{"id":"5471","name":"Studio Movie Grill Chatham","address":"210 W 87th St.","city":"Chicago","state":"IL","zip":"60620","distance":"16.936195373535156","lon":"-87.630547","lat":"41.739002","theaterChainName":"Studio Movie Grill","ticketType":"SELECT_SEATING"},{"id":"53","name":"AMC Loews Crestwood 18","address":"13221 Rivercrest Drive","city":"Crestwood","state":"IL","zip":"60445","distance":"20.610980987548828","lon":"-87.744263","lat":"41.651596","theaterChainName":"AMC Theatres","ticketType":"STANDARD"},{"id":"3622","name":"Crest Theatre","address":"106 E.5th Street","city":"Superior","state":"NE","zip":"68978","distance":"15.3953857421875","lon":"-87.595535","lat":"41.788013","theaterChainName":"Independent Chains","ticketType":"STANDARD"},{"id":"3647","name":"Doc Films","address":"1212 E. 59th St.","city":"Chicago","state":"IL","zip":"60637","distance":"15.3953857421875","lon":"-87.595535","lat":"41.788013","theaterChainName":"Independent Chains","ticketType":"STANDARD"},{"id":"5296","name":"Harper Theater","address":"5238 S. Harper Ave.","city":"Chicago","state":"IL","zip":"60615","distance":"15.070600509643555","lon":"-87.589104","lat":"41.799801","theaterChainName":"Independent Chains","ticketType":"STANDARD"},{"id":"2514","name":"Marcus Orland Park Cinemas","address":"16350 S. La Grange Road","city":"Orland Park","state":"IL","zip":"60467","distance":"24.614234924316406","lon":"-87.853706","lat":"41.591850","theaterChainName":"Marcus Theaters","ticketType":"STANDARD"},{"id":"211","name":"AMC Ford City 14","address":"7601 S. Cicero Ave.","city":"Chicago","state":"IL","zip":"60652","distance":"13.856005668640137","lon":"-87.733215","lat":"41.753262","theaterChainName":"AMC Theatres","ticketType":"STANDARD"},{"id":"30","name":"AMC Loews Chicago Ridge 6","address":"500 Chicago Ridge Mall","city":"Chicago Ridge","state":"IL","zip":"60415","distance":"16.019176483154297","lon":"-87.783684","lat":"41.715069","theaterChainName":"AMC Theatres","ticketType":"STANDARD"},{"id":"3569","name":"AMC River East 21","address":"322 E. Illinois St.","city":"Chicago","state":"IL","zip":"60611","distance":"10.338700294494629","lon":"-87.619019","lat":"41.891441","theaterChainName":"AMC Theatres","ticketType":"STANDARD"},{"id":"1397","name":"Gene Siskel Film Center","address":"164 State St.","city":"Chicago","state":"IL","zip":"60601","distance":"10.079097747802734","lon":"-87.628311","lat":"41.884861","theaterChainName":"Independent Chains","ticketType":"STANDARD"},{"id":"215","name":"AMC Loews 600 North Michigan 9","address":"600 N. Michigan Ave.","city":"Chicago","state":"IL","zip":"60611","distance":"10.022089004516602","lon":"-87.625153","lat":"41.892361","theaterChainName":"AMC Theatres","ticketType":"STANDARD"},{"id":"54","name":"Regal Webster Place 11","address":"1471 W. Webster Ave.","city":"Chicago","state":"IL","zip":"60614","distance":"7.467889785766602","lon":"-87.664795","lat":"41.921185","theaterChainName":"Regal Cinemas","ticketType":"STANDARD"},{"id":"2419","name":"Facets Cinematheque","address":"1517 W. Fullerton Ave.","city":"Chicago","state":"IL","zip":"60614","distance":"7.33515739440918","lon":"-87.666298","lat":"41.924999","theaterChainName":"Independent Chains","ticketType":"STANDARD"},{"id":"4241","name":"AMC Showplace Cicero 14","address":"4779 W. Cermak Road","city":"Cicero","state":"IL","zip":"60804","distance":"7.460869789123535","lon":"-87.742828","lat":"41.849136","theaterChainName":"AMC Theatres","ticketType":"STANDARD"},{"id":"1201","name":"Music Box","address":"3733 N. Southport Ave.","city":"Chicago","state":"IL","zip":"60613","distance":"7.3098602294921875","lon":"-87.663940","lat":"41.949860","theaterChainName":"Independent Chains","ticketType":"STANDARD"},{"id":"2826","name":"Regal City North Stadium 14","address":"2600 N. Western Ave.","city":"Chicago","state":"IL","zip":"60647","distance":"6.169551372528076","lon":"-87.688042","lat":"41.930172","theaterChainName":"Regal Cinemas","ticketType":"STANDARD"},{"id":"1199","name":"Logan Theatre","address":"2646 N. Milwaukee Ave.","city":"Chicago","state":"IL","zip":"60647","distance":"5.122751235961914","lon":"-87.708923","lat":"41.929832","theaterChainName":"Independent Chains","ticketType":"STANDARD"},{"id":"1192","name":"Davis Theater","address":"4614 N. Lincoln Ave.","city":"Chicago","state":"IL","zip":"60625","distance":"6.277526378631592","lon":"-87.686638","lat":"41.965313","theaterChainName":"Independent Chains","ticketType":"STANDARD"},{"id":"4781","name":"New 400 Theaters","address":"6746 N. Sheridan Road","city":"Chicago","state":"IL","zip":"60626","distance":"8.474257469177246","lon":"-87.661140","lat":"42.004845","theaterChainName":"Independent Chains","ticketType":"STANDARD"},{"id":"4361","name":"AMC Showplace Galewood 14","address":"5530 W. Homer St.","city":"Chicago","state":"IL","zip":"60639","distance":"3.0100486278533936","lon":"-87.764435","lat":"41.915691","theaterChainName":"AMC Theatres","ticketType":"STANDARD"},{"id":"4600","name":"CC North Riverside Mall Theatre","address":"7501 W. Cermak Road","city":"North Riverside","state":"IL","zip":"60546","distance":"6.801764488220215","lon":"-87.811264","lat":"41.847939","theaterChainName":"Classic Cinemas","ticketType":"STANDARD"},{"id":"792","name":"CC Lake Theatre","address":"1022 Lake St.","city":"Oak Park","state":"IL","zip":"60301","distance":"3.978996753692627","lon":"-87.801506","lat":"41.888817","theaterChainName":"Classic Cinemas","ticketType":"STANDARD"},{"id":"697","name":"AMC Loews Quarry Cinemas 14","address":"9201 63rd St.","city":"Hodgkins","state":"IL","zip":"60525","distance":"12.051573753356934","lon":"-87.859215","lat":"41.776432","theaterChainName":"AMC Theatres","ticketType":"STANDARD"},{"id":"1431","name":"La Grange Theatres","address":"80 S. La Grange Road","city":"La Grange","state":"IL","zip":"60525","distance":"9.793655395507812","lon":"-87.869705","lat":"41.812710","theaterChainName":"Independent Chains","ticketType":"STANDARD"},{"id":"2301","name":"Cinemark Melrose Park","address":"1001 W. North Ave.","city":"Melrose Park","state":"IL","zip":"60160","distance":"3.257812738418579","lon":"-87.846146","lat":"41.909760","theaterChainName":"Cinemark","ticketType":"STANDARD"},{"id":"2268","name":"Golden Age Cinemas The Liberty 1 & 2 Theaters","address":"708 N. Milwaukee Ave.","city":"Libertyville","state":"IL","zip":"60048","distance":"24.916885375976562","lon":"-87.954552","lat":"42.289680","theaterChainName":"Independent Chains","ticketType":"STANDARD"},{"id":"1198","name":"Regal Lake Zurich 12","address":"755 S. Rand Road","city":"Lake Zurich","state":"IL","zip":"60047","distance":"22.079187393188477","lon":"-88.094193","lat":"42.183704","theaterChainName":"Regal Cinemas","ticketType":"STANDARD"},{"id":"5700","name":"AMC Hawthorn 12","address":"675 Hawthorn Center","city":"Vernon Hills","state":"IL","zip":"60061","distance":"21.770444869995117","lon":"-87.945900","lat":"42.243801","theaterChainName":"AMC Theatres","ticketType":"STANDARD"},{"id":"1197","name":"AMC Showplace Vernon Hills 8","address":"555 N. Lakeview Parkway","city":"Vernon Hills","state":"IL","zip":"60061","distance":"21.329469680786133","lon":"-87.946854","lat":"42.236778","theaterChainName":"AMC Theatres","ticketType":"STANDARD"},{"id":"1447","name":"Catlow Theatre","address":"116 W. Main St.","city":"Barrington","state":"IL","zip":"60010","distance":"22.231306076049805","lon":"-88.136536","lat":"42.154411","theaterChainName":"Independent Chains","ticketType":"STANDARD"},{"id":"3813","name":"Century 16 Deer Park","address":"21600 Field Parkway","city":"Deer Park","state":"IL","zip":"60010","distance":"19.466283798217773","lon":"-88.054863","lat":"42.159016","theaterChainName":"Cinemark","ticketType":"STANDARD"},{"id":"1582","name":"Regal Lincolnshire Stadium 20 & IMAX","address":"300 Parkway Drive","city":"Lincolnshire","state":"IL","zip":"60069","distance":"17.36786651611328","lon":"-87.931747","lat":"42.179703","theaterChainName":"Regal Cinemas","ticketType":"STANDARD"},{"id":"1191","name":"Buffalo Grove Theater","address":"120 McHenry Road","city":"Buffalo Grove","state":"IL","zip":"60089","distance":"17.2330322265625","lon":"-87.962799","lat":"42.166901","theaterChainName":"Independent Chains","ticketType":"STANDARD"},{"id":"446","name":"AMC South Barrington 30","address":"170 Studio Drive","city":"South Barrington","state":"IL","zip":"60010","distance":"19.556184768676758","lon":"-88.148560","lat":"42.070194","theaterChainName":"AMC Theatres","ticketType":"STANDARD"},{"id":"5381","name":"Star Cinema Grill","address":"53 S Evergreen Ave","city":"Arlington Heights","state":"IL","zip":"60005","distance":"12.976581573486328","lon":"-87.981140","lat":"42.081783","theaterChainName":"Independent Chains","ticketType":"STANDARD"},{"id":"5036","name":"AMC Randhurst 12","address":"200 Randhurst Village Drive","city":"Mount Prospect","state":"IL","zip":"60056","distance":"11.578991889953613","lon":"-87.931610","lat":"42.085533","theaterChainName":"AMC Theatres","ticketType":"STANDARD"},{"id":"308","name":"AMC Northbrook Court 14","address":"1525 Lake Cook Road","city":"Northbrook","state":"IL","zip":"60062","distance":"14.056739807128906","lon":"-87.816811","lat":"42.149578","theaterChainName":"AMC Theatres","ticketType":"STANDARD"},{"id":"2859","name":"AMC Loews Streets of Woodfield 20","address":"601 N. Martingale Road","city":"Schaumburg","state":"IL","zip":"60173","distance":"13.408997535705566","lon":"-88.033691","lat":"42.041416","theaterChainName":"AMC Theatres","ticketType":"STANDARD"},{"id":"790","name":"CC Elk Grove Theatre","address":"1050 Arlington Heights Rd.","city":"Elk Grove Village","state":"IL","zip":"60007","distance":"10.864628791809082","lon":"-88.004723","lat":"42.000313","theaterChainName":"Classic Cinemas","ticketType":"STANDARD"},{"id":"742","name":"Marcus Addison","address":"1555 W. Lake St.","city":"Addison","state":"IL","zip":"60101","distance":"11.318252563476562","lon":"-88.026329","lat":"41.946220","theaterChainName":"Marcus Theaters","ticketType":"STANDARD"},{"id":"1404","name":"Bensenville 2 Theater","address":"9 S. Center St.","city":"Bensenville","state":"IL","zip":"60106","distance":"6.960597991943359","lon":"-87.940887","lat":"41.956242","theaterChainName":"Independent Chains","ticketType":"STANDARD"},{"id":"799","name":"CC York Theatre","address":"150 N. York Road","city":"Elmhurst","state":"IL","zip":"60126","distance":"7.540597915649414","lon":"-87.939903","lat":"41.901600","theaterChainName":"Classic Cinemas","ticketType":"STANDARD"},{"id":"4406","name":"Muvico Rosemont 18","address":"9701 Bryn Mawr Ave.","city":"Rosemont","state":"IL","zip":"60018","distance":"3.9146933555603027","lon":"-87.867607","lat":"41.979736","theaterChainName":"Carmike Cinemas","ticketType":"STANDARD"},{"id":"4812","name":"Picture Show  Bloomingdale","address":"324 W. Army Trail Road","city":"Bloomingdale","state":"IL","zip":"60108","distance":"15.440145492553711","lon":"-88.106277","lat":"41.937469","theaterChainName":"Picture Show Entertainment","ticketType":"STANDARD"},{"id":"4343","name":"Century Stratford Square","address":"804 Stratford Square","city":"Bloomingdale","state":"IL","zip":"60108","distance":"15.83845043182373","lon":"-88.114265","lat":"41.949207","theaterChainName":"Cinemark","ticketType":"STANDARD"},{"id":"1193","name":"Glen Ellyn Art Theatre","address":"540 Crescent Blvd.","city":"Glen Ellyn","state":"IL","zip":"60137","distance":"14.183865547180176","lon":"-88.065575","lat":"41.876652","theaterChainName":"Independent Chains","ticketType":"STANDARD"},{"id":"5706","name":"Oakbrook Center 4","address":"300 Oakbrook Center","city":"Oak Brook","state":"IL","zip":"60523","distance":"10.269499778747559","lon":"-87.955498","lat":"41.847698","theaterChainName":"AMC Theatres","ticketType":"STANDARD"},{"id":"5981","name":"AMC Oakbrook Center 12","address":"600 Oakbrook Center","city":"Oak Brook","state":"IL","zip":"60523","distance":"10.145071983337402","lon":"-87.952179","lat":"41.847641","theaterChainName":"AMC Theatres","ticketType":"STANDARD"},{"id":"212","name":"AMC Yorktown","address":"80 Yorktown Center","city":"Lombard","state":"IL","zip":"60148","distance":"12.456781387329102","lon":"-88.001831","lat":"41.840134","theaterChainName":"AMC Theatres","ticketType":"STANDARD"},{"id":"1202","name":"Pickwick Theatre","address":"5 S. Prospect Ave.","city":"Park Ridge","state":"IL","zip":"60068","distance":"4.611828804016113","lon":"-87.829437","lat":"42.010750","theaterChainName":"Independent Chains","ticketType":"STANDARD"},{"id":"4242","name":"AMC Showplace Niles 12","address":"301 Golf Mill Center","city":"Niles","state":"IL","zip":"60714","distance":"7.4116950035095215","lon":"-87.837296","lat":"42.051029","theaterChainName":"AMC Theatres","ticketType":"STANDARD"},{"id":"5188","name":"Studio Movie Grill Wheaton","address":"301 Rice Lake Square","city":"Wheaton","state":"IL","zip":"60189","distance":"16.988988876342773","lon":"-88.098335","lat":"41.831745","theaterChainName":"Studio Movie Grill","ticketType":"SELECT_SEATING"},{"id":"797","name":"CC Tivoli Theatre","address":"5021 Highland Ave.","city":"Downers Grove","state":"IL","zip":"60515","distance":"14.734076499938965","lon":"-88.009148","lat":"41.795940","theaterChainName":"Classic Cinemas","ticketType":"STANDARD"},{"id":"3201","name":"AMC Showplace Village Crossing 18","address":"7000 Carpenter Rd.","city":"Skokie","state":"IL","zip":"60077","distance":"4.837098121643066","lon":"-87.765053","lat":"42.009304","theaterChainName":"AMC Theatres","ticketType":"STANDARD"},{"id":"795","name":"CC Ogden 6 Theatre","address":"1227 E. Ogden Ave.","city":"Naperville","state":"IL","zip":"60563","distance":"19.307823181152344","lon":"-88.124481","lat":"41.798401","theaterChainName":"Classic Cinemas","ticketType":"STANDARD"},{"id":"2951","name":"Cinemark  Seven Bridges","address":"6500 Route 53","city":"Woodridge","state":"IL","zip":"60517","distance":"18.256364822387695","lon":"-88.068497","lat":"41.768501","theaterChainName":"Cinemark","ticketType":"STANDARD"},{"id":"3610","name":"Hollywood Blvd. Cinema","address":"1001 W. 75th St.","city":"Woodridge","state":"IL","zip":"60517","distance":"17.031713485717773","lon":"-88.008499","lat":"41.751301","theaterChainName":"Independent Chains","ticketType":"STANDARD"},{"id":"357","name":"Regal Cantera Stadium 17 & RPX","address":"28250 Diehl Rd.","city":"Warrenville","state":"IL","zip":"60555","distance":"21.181339263916016","lon":"-88.171257","lat":"41.804733","theaterChainName":"Regal Cinemas","ticketType":"STANDARD"},{"id":"3414","name":"CC Charlestowne 18","address":"3740 E. Main St.","city":"Saint Charles","state":"IL","zip":"60174","distance":"23.8539981842041","lon":"-88.269135","lat":"41.923294","theaterChainName":"Classic Cinemas","ticketType":"STANDARD"},{"id":"1203","name":"Wilmette Theatre","address":"1122 Central Ave.","city":"Wilmette","state":"IL","zip":"60091","distance":"10.361702919006348","lon":"-87.706200","lat":"42.076599","theaterChainName":"Independent Chains","ticketType":"STANDARD"},{"id":"3079","name":"Evanston Century 12\/CineArts 6","address":"1715 Maple Ave.","city":"Evanston","state":"IL","zip":"60201","distance":"9.430002212524414","lon":"-87.684700","lat":"42.048698","theaterChainName":"Cinemark","ticketType":"STANDARD"},{"id":"4817","name":"Hollywood Palms Cinema","address":"352 South Route 59","city":"Naperville","state":"IL","zip":"60540","distance":"23.922805786132812","lon":"-88.202522","lat":"41.765511","theaterChainName":"Independent Chains","ticketType":"STANDARD"},{"id":"2289","name":"AMC Loews Woodridge 18","address":"10000 Woodward Ave.","city":"Woodridge","state":"IL","zip":"60517","distance":"20.119482040405273","lon":"-88.023857","lat":"41.704533","theaterChainName":"AMC Theatres","ticketType":"STANDARD"},{"id":"1196","name":"Regal Bolingbrook Stadium 12","address":"1221 W. Boughton Road","city":"Bolingbrook","state":"IL","zip":"60440","distance":"23.493972778320312","lon":"-88.122559","lat":"41.701363","theaterChainName":"Regal Cinemas","ticketType":"STANDARD"}]