[{"id":"1372","name":"Cinemark Movies 10 Bourbonnais","address":"1600 N State Route 50","city":"Bourbonnais","state":"IL","zip":"60914","distance":"11.017853736877441","lon":"-87.851196","lat":"41.173599","theaterChainName":"Cinemark","ticketType":"STANDARD"},{"id":"796","name":"CC Paramount","address":"213 N. Schuyler Ave.","city":"Kankakee","state":"IL","zip":"60901","distance":"10.58322811126709","lon":"-87.863960","lat":"41.122116","theaterChainName":"Classic Cinemas","ticketType":"STANDARD"},{"id":"794","name":"CC Meadowview Theatre","address":"55 Meadowview Center","city":"Kankakee","state":"IL","zip":"60901","distance":"10.024227142333984","lon":"-87.871597","lat":"41.134701","theaterChainName":"Classic Cinemas","ticketType":"STANDARD"},{"id":"2211","name":"Carmike Orpheum Cinema 10","address":"515 W Gore Road","city":"Morris","state":"IL","zip":"60450","distance":"24.770116806030273","lon":"-88.429047","lat":"41.386127","theaterChainName":"Carmike Cinemas","ticketType":"STANDARD"},{"id":"1592","name":"Mar Theatre","address":"121 S. Main St.","city":"Wilmington","state":"IL","zip":"60481","distance":"11.278548240661621","lon":"-88.145599","lat":"41.307899","theaterChainName":"Independent Chains","ticketType":"STANDARD"}]