[{"id":"1372","tribuneTheaterId":"6489","providerTheaterId":"","name":"Cinemark Movies 10 Bourbonnais","address":"1600 N State Route 50","city":"Bourbonnais","state":"IL","zip":"60914","distance":1.5359545155711,"lon":"-87.8512","lat":"41.1736","theaterChainName":"Cinemark","ticketType":"STANDARD"},{"id":"794","tribuneTheaterId":"6250","providerTheaterId":"","name":"CC Meadowview Theatre","address":"55 Meadowview Center","city":"Kankakee","state":"IL","zip":"60901","distance":2.2034244891972,"lon":"-87.8716","lat":"41.1347","theaterChainName":"Classic Cinemas","ticketType":"STANDARD"},{"id":"796","tribuneTheaterId":"6466","providerTheaterId":"","name":"CC Paramount","address":"213 N. Schuyler Ave.","city":"Kankakee","state":"IL","zip":"60901","distance":3.1381648977212,"lon":"-87.863963","lat":"41.122115","theaterChainName":"Classic Cinemas","ticketType":"STANDARD"},{"id":"1592","tribuneTheaterId":"1109","providerTheaterId":"","name":"Mar Theatre","address":"121 S. Main St.","city":"Wilmington","state":"IL","zip":"60481","distance":16.966441942287,"lon":"-88.145599","lat":"41.307899","theaterChainName":"Independent Chains","ticketType":"STANDARD"},{"id":"3811","tribuneTheaterId":"4955","providerTheaterId":"6691","name":"AMC Showplace New Lenox 14","address":"1320 W. Maple St.","city":"New Lenox","state":"IL","zip":"60451","distance":24.888569060372,"lon":"-87.990704","lat":"41.516418","theaterChainName":"AMC Theatres","ticketType":"STANDARD"},{"id":"6042","tribuneTheaterId":"11446","providerTheaterId":"","name":"Emagine Frankfort 10","address":"19965 South La Grange Rd","city":"Frankfort","state":"IL","zip":"60423","distance":24.992115418619,"lon":"-87.84763","lat":"41.527048","theaterChainName":"Emagine Entertainment","ticketType":"STANDARD"}]