[{"id":"794","tribuneTheaterId":"6250","providerTheaterId":"","name":"CC Meadowview Theatre","address":"55 Meadowview Center","city":"Kankakee","state":"IL","zip":"60901","distance":17.420808467832,"lon":"-87.8716","lat":"41.1347","theaterChainName":"Classic Cinemas","ticketType":"STANDARD"},{"id":"796","tribuneTheaterId":"6466","providerTheaterId":"","name":"CC Paramount","address":"213 N. Schuyler Ave.","city":"Kankakee","state":"IL","zip":"60901","distance":16.551137950403,"lon":"-87.863963","lat":"41.122115","theaterChainName":"Classic Cinemas","ticketType":"STANDARD"},{"id":"1372","tribuneTheaterId":"6489","providerTheaterId":"","name":"Cinemark Movies 10 Bourbonnais","address":"1600 N State Route 50","city":"Bourbonnais","state":"IL","zip":"60914","distance":18.608688353525,"lon":"-87.8512","lat":"41.1736","theaterChainName":"Cinemark","ticketType":"STANDARD"},{"id":"5033","tribuneTheaterId":"10408","providerTheaterId":"","name":"Fountain Stone Theater","address":"1376 Saint Gaspar Drive","city":"Rensselaer","state":"IN","zip":"47978","distance":24.69655727214,"lon":"-87.15173","lat":"40.92535","theaterChainName":"Independent Chains","ticketType":"STANDARD"}]