[{"id":"3988","tribuneTheaterId":"4956","providerTheaterId":"6832","name":"AMC Showplace Machesney Park 14","address":"1860 Anjali Way","city":"Machesney Park","state":"IL","zip":"61115","distance":16.147560539634,"lon":"-89.004594","lat":"42.37078","theaterChainName":"AMC Theatres","ticketType":"STANDARD"},{"id":"793","tribuneTheaterId":"6468","providerTheaterId":"","name":"CC Lindo Theatre","address":"115 South Chicago Ave.","city":"Freeport","state":"IL","zip":"61032","distance":18.403909373776,"lon":"-89.619022","lat":"42.297264","theaterChainName":"Classic Cinemas","ticketType":"STANDARD"},{"id":"1631","tribuneTheaterId":"2224","providerTheaterId":"","name":"Wildwood Beloit Luxury 10","address":"2799 Cranston Rd.","city":"Beloit","state":"WI","zip":"53511","distance":17.706430224571,"lon":"-88.983051","lat":"42.521673","theaterChainName":"Independent Chains","ticketType":"STANDARD"},{"id":"2110","tribuneTheaterId":"1505","providerTheaterId":"","name":"Goetz Theatres 3","address":"1704 11th St.","city":"Monroe","state":"WI","zip":"53566","distance":20.347250972866,"lon":"-89.638173","lat":"42.601034","theaterChainName":"Independent Chains","ticketType":"STANDARD"},{"id":"1510","tribuneTheaterId":"5937","providerTheaterId":"6831","name":"AMC Showplace Rockford 16","address":"8301 E. State St.","city":"Rockford","state":"IL","zip":"61108","distance":21.365733428821,"lon":"-88.953799","lat":"42.270721","theaterChainName":"AMC Theatres","ticketType":"STANDARD"}]