[{"id":"2506","name":"Wildwood Movies 16","address":"3100 Deerfield Dr.","city":"Janesville","state":"WI","zip":"53546","distance":"22.061922073364258","lon":"-88.979706","lat":"42.720551","theaterChainName":"Independent Chains","ticketType":"STANDARD"},{"id":"1631","name":"Wildwood Beloit Luxury 10","address":"2799 Cranston Rd.","city":"Beloit","state":"WI","zip":"53511","distance":"12.164243698120117","lon":"-88.983047","lat":"42.521671","theaterChainName":"Independent Chains","ticketType":"STANDARD"},{"id":"3988","name":"AMC Showplace Machesney Park 14","address":"1860 Anjali Way","city":"Machesney Park","state":"IL","zip":"61115","distance":"11.086618423461914","lon":"-89.004593","lat":"42.370781","theaterChainName":"AMC Theatres","ticketType":"STANDARD"},{"id":"1510","name":"AMC Showplace Rockford 16","address":"8301 E. State St.","city":"Rockford","state":"IL","zip":"61108","distance":"17.29604148864746","lon":"-88.953796","lat":"42.270721","theaterChainName":"AMC Theatres","ticketType":"STANDARD"},{"id":"2110","name":"Goetz Theatres 3","address":"1704 11th St.","city":"Monroe","state":"WI","zip":"53566","distance":"24.90743064880371","lon":"-89.638176","lat":"42.601032","theaterChainName":"Independent Chains","ticketType":"STANDARD"},{"id":"793","name":"CC Lindo Theatre","address":"115 South Chicago Ave.","city":"Freeport","state":"IL","zip":"61032","distance":"23.797269821166992","lon":"-89.619019","lat":"42.297264","theaterChainName":"Classic Cinemas","ticketType":"STANDARD"}]