[{"id":"1510","tribuneTheaterId":"5937","providerTheaterId":"6831","name":"AMC Showplace Rockford 16","address":"8301 E. State St.","city":"Rockford","state":"IL","zip":"61108","distance":6.2292297563387,"lon":"-88.953799","lat":"42.270721","theaterChainName":"AMC Theatres","ticketType":"STANDARD"},{"id":"3988","tribuneTheaterId":"4956","providerTheaterId":"6832","name":"AMC Showplace Machesney Park 14","address":"1860 Anjali Way","city":"Machesney Park","state":"IL","zip":"61115","distance":10.915861710272,"lon":"-89.004594","lat":"42.37078","theaterChainName":"AMC Theatres","ticketType":"STANDARD"},{"id":"1631","tribuneTheaterId":"2224","providerTheaterId":"","name":"Wildwood Beloit Luxury 10","address":"2799 Cranston Rd.","city":"Beloit","state":"WI","zip":"53511","distance":21.363645917908,"lon":"-88.983051","lat":"42.521673","theaterChainName":"Independent Chains","ticketType":"STANDARD"},{"id":"2203","tribuneTheaterId":"4977","providerTheaterId":"","name":"Carmike Market Square 10","address":"2160 Sycamore Rd.","city":"DeKalb","state":"IL","zip":"60115","distance":24.780373107027,"lon":"-88.7281","lat":"41.9499","theaterChainName":"Carmike Cinemas","ticketType":"STANDARD"},{"id":"1614","tribuneTheaterId":"1470","providerTheaterId":"","name":"Sycamore Theatre","address":"420 W. State St.","city":"Sycamore","state":"IL","zip":"60178","distance":24.326374649545,"lon":"-88.689186","lat":"41.988964","theaterChainName":"Independent Chains","ticketType":"STANDARD"}]