[{"id":"2214","name":"Roxy Cinema - Ottawa","address":"827 LaSalle St.","city":"Ottawa","state":"IL","zip":"61350","distance":"22.99333381652832","lon":"-88.842819","lat":"41.348778","theaterChainName":"Independent Chains","ticketType":"STANDARD"},{"id":"4365","name":"The Majestic Theatre","address":"119 N. Vermillion St.","city":"Streator","state":"IL","zip":"61364","distance":"20.469064712524414","lon":"-88.831223","lat":"41.121796","theaterChainName":"Independent Chains","ticketType":"STANDARD"},{"id":"2216","name":"Carmike Peru Mall 8","address":"3940 State Route 251","city":"Peru","state":"IL","zip":"61354","distance":"13.640105247497559","lon":"-89.125298","lat":"41.357498","theaterChainName":"Carmike Cinemas","ticketType":"STANDARD"},{"id":"2219","name":"Apollo Twin Cinema","address":"455 S. Main St.","city":"Princeton","state":"IL","zip":"61356","distance":"18.699970245361328","lon":"-89.464859","lat":"41.370514","theaterChainName":"Independent Chains","ticketType":"STANDARD"},{"id":"1511","name":"Town Theatre","address":"1029 North Second Street","city":"Chillicothe","state":"IL","zip":"61523","distance":"22.45247459411621","lon":"-89.485237","lat":"40.917706","theaterChainName":"Independent Chains","ticketType":"STANDARD"}]