[{"id":"2219","tribuneTheaterId":"1171","providerTheaterId":"","name":"Apollo Twin Cinema","address":"455 S. Main St.","city":"Princeton","state":"IL","zip":"61356","distance":12.130092542793,"lon":"-89.464862","lat":"41.370515","theaterChainName":"Independent Chains","ticketType":"STANDARD"},{"id":"2209","tribuneTheaterId":"1170","providerTheaterId":"","name":"Wanee Twin Cinema","address":"106 S. Main St.","city":"Kewanee","state":"IL","zip":"61443","distance":19.755349676022,"lon":"-89.924665","lat":"41.243091","theaterChainName":"Independent Chains","ticketType":"STANDARD"},{"id":"5443","tribuneTheaterId":"6036","providerTheaterId":"","name":"Sterling Theater","address":"402 Locust St.","city":"Sterling","state":"IL","zip":"61081","distance":23.085634564694,"lon":"-89.696264","lat":"41.789032","theaterChainName":"Independent Chains","ticketType":"STANDARD"},{"id":"2220","tribuneTheaterId":"4975","providerTheaterId":"","name":"Carmike Sauk Valley 8","address":"4110 E 30th St","city":"Sterling","state":"IL","zip":"61081","distance":24.985129098537,"lon":"-89.649498","lat":"41.816799","theaterChainName":"Carmike Cinemas","ticketType":"STANDARD"}]