[{"id":"2214","tribuneTheaterId":"1933","providerTheaterId":"","name":"Roxy Cinema - Ottawa","address":"827 LaSalle St.","city":"Ottawa","state":"IL","zip":"61350","distance":0.27161730083495,"lon":"-88.84282","lat":"41.348777","theaterChainName":"Independent Chains","ticketType":"STANDARD"},{"id":"2216","tribuneTheaterId":"7933","providerTheaterId":"","name":"Carmike Peru Mall 8","address":"3940 State Route 251","city":"Peru","state":"IL","zip":"61354","distance":14.717451151692,"lon":"-89.125298","lat":"41.357498","theaterChainName":"Carmike Cinemas","ticketType":"STANDARD"},{"id":"4365","tribuneTheaterId":"9395","providerTheaterId":"","name":"The Majestic Theatre","address":"119 N. Vermillion St.","city":"Streator","state":"IL","zip":"61364","distance":15.956055087407,"lon":"-88.831222","lat":"41.121797","theaterChainName":"Independent Chains","ticketType":"STANDARD"},{"id":"2211","tribuneTheaterId":"5943","providerTheaterId":"","name":"Carmike Orpheum Cinema 10","address":"515 W Gore Road","city":"Morris","state":"IL","zip":"60450","distance":21.516819720286,"lon":"-88.429046","lat":"41.386127","theaterChainName":"Carmike Cinemas","ticketType":"STANDARD"},{"id":"2300","tribuneTheaterId":"6195","providerTheaterId":"","name":"WoW 7 Cinema","address":"101 Duvick Ave.","city":"Sandwich","state":"IL","zip":"60548","distance":23.847378365593,"lon":"-88.600166","lat":"41.646589","theaterChainName":"Independent Chains","ticketType":"STANDARD"}]