[{"id":"2111","name":"Crescent Cinemas","address":"313 W. Madison St.","city":"Pontiac","state":"IL","zip":"61764","distance":"19.708391189575195","lon":"-88.631104","lat":"40.880299","theaterChainName":"Independent Chains","ticketType":"STANDARD"},{"id":"2214","name":"Roxy Cinema - Ottawa","address":"827 LaSalle St.","city":"Ottawa","state":"IL","zip":"61350","distance":"15.647821426391602","lon":"-88.842819","lat":"41.348778","theaterChainName":"Independent Chains","ticketType":"STANDARD"},{"id":"4365","name":"The Majestic Theatre","address":"119 N. Vermillion St.","city":"Streator","state":"IL","zip":"61364","distance":"0.05574152246117592","lon":"-88.831223","lat":"41.121796","theaterChainName":"Independent Chains","ticketType":"STANDARD"},{"id":"2216","name":"Carmike Peru Mall 8","address":"3940 State Route 251","city":"Peru","state":"IL","zip":"61354","distance":"22.314870834350586","lon":"-89.125298","lat":"41.357498","theaterChainName":"Carmike Cinemas","ticketType":"STANDARD"}]