[{"id":"2430","tribuneTheaterId":"1850","providerTheaterId":"","name":"Reynolds Morton Cinema 5","address":"2115 S. Main St.","city":"Morton","state":"IL","zip":"61550","distance":10.886936247099,"lon":"-89.967336","lat":"40.777853","theaterChainName":"Independent Chains","ticketType":"STANDARD"},{"id":"2043","tribuneTheaterId":"308","providerTheaterId":"","name":"Reynolds Palace Theatre Elmwood","address":"122 W. Main St.","city":"Elmwood","state":"IL","zip":"61529","distance":10.877009696748,"lon":"-89.9665","lat":"40.7779","theaterChainName":"Independent Chains","ticketType":"STANDARD"},{"id":"4071","tribuneTheaterId":"2408","providerTheaterId":"","name":"Carmike Grand Prairie 18","address":"5311 W. American Prairie Drive","city":"Peoria","state":"IL","zip":"61615","distance":17.044059418996,"lon":"-89.677399","lat":"40.782101","theaterChainName":"Cinemark","ticketType":"STANDARD"},{"id":"1537","tribuneTheaterId":"5841","providerTheaterId":"","name":"Goodrich Willow Knolls 14","address":"4100 W Willow Knolls","city":"Peoria","state":"IL","zip":"61615","distance":18.443004296038,"lon":"-89.652933","lat":"40.772987","theaterChainName":"Goodrich Theatres","ticketType":"E_TICKET"},{"id":"1536","tribuneTheaterId":"3186","providerTheaterId":"","name":"Landmark Cinemas","address":"32251 N. Dries Ln","city":"Peoria","state":"IL","zip":"61604","distance":21.794218721395,"lon":"-89.617678","lat":"40.728838","theaterChainName":"Independent Chains","ticketType":"STANDARD"},{"id":"2209","tribuneTheaterId":"1170","providerTheaterId":"","name":"Wanee Twin Cinema","address":"106 S. Main St.","city":"Kewanee","state":"IL","zip":"61443","distance":21.39730391214,"lon":"-89.924665","lat":"41.243091","theaterChainName":"Independent Chains","ticketType":"STANDARD"},{"id":"3670","tribuneTheaterId":"5928","providerTheaterId":"6321","name":"AMC Showplace Galesburg 8","address":"1401 W. Carl Sandburg Dr.","city":"Galesburg","state":"IL","zip":"61401","distance":24.105230262076,"lon":"-90.394306","lat":"40.969936","theaterChainName":"AMC Theatres","ticketType":"STANDARD"},{"id":"1511","tribuneTheaterId":"1105","providerTheaterId":"","name":"Town Theatre","address":"1029 North Second Street","city":"Chillicothe","state":"IL","zip":"61523","distance":23.499518024039,"lon":"-89.485239","lat":"40.917705","theaterChainName":"Independent Chains","ticketType":"STANDARD"}]