[{"id":"3670","name":"AMC Showplace Galesburg 8","address":"1401 W. Carl Sandburg Dr.","city":"Galesburg","state":"IL","zip":"61401","distance":"24.10663414001465","lon":"-90.394302","lat":"40.969936","theaterChainName":"AMC Theatres","ticketType":"STANDARD"},{"id":"2209","name":"Wanee Twin Cinema","address":"106 S. Main St.","city":"Kewanee","state":"IL","zip":"61443","distance":"21.39877700805664","lon":"-89.924667","lat":"41.243092","theaterChainName":"Independent Chains","ticketType":"STANDARD"},{"id":"1511","name":"Town Theatre","address":"1029 North Second Street","city":"Chillicothe","state":"IL","zip":"61523","distance":"23.500980377197266","lon":"-89.485237","lat":"40.917706","theaterChainName":"Independent Chains","ticketType":"STANDARD"},{"id":"1537","name":"Goodrich Willow Knolls 14","address":"4100 W Willow Knolls","city":"Peoria","state":"IL","zip":"61615","distance":"18.444072723388672","lon":"-89.652931","lat":"40.772987","theaterChainName":"Goodrich Theatres","ticketType":"E_TICKET"},{"id":"1536","name":"Landmark Cinemas","address":"32251 N. Dries Ln","city":"Peoria","state":"IL","zip":"61604","distance":"21.79543685913086","lon":"-89.617676","lat":"40.728840","theaterChainName":"Independent Chains","ticketType":"STANDARD"},{"id":"4071","name":"Carmike Grand Prairie 18","address":"5311 W. American Prairie Drive","city":"Peoria","state":"IL","zip":"61615","distance":"17.045007705688477","lon":"-89.677399","lat":"40.782101","theaterChainName":"Cinemark","ticketType":"STANDARD"},{"id":"2430","name":"Reynolds Morton Cinema 5","address":"2115 S. Main St.","city":"Morton","state":"IL","zip":"61550","distance":"10.887663841247559","lon":"-89.967339","lat":"40.777851","theaterChainName":"Independent Chains","ticketType":"STANDARD"},{"id":"2043","name":"Reynolds Palace Theatre Elmwood","address":"122 W. Main St.","city":"Elmwood","state":"IL","zip":"61529","distance":"10.877532958984375","lon":"-89.966499","lat":"40.777901","theaterChainName":"Independent Chains","ticketType":"STANDARD"}]