[{"id":"2209","tribuneTheaterId":"1170","providerTheaterId":"","name":"Wanee Twin Cinema","address":"106 S. Main St.","city":"Kewanee","state":"IL","zip":"61443","distance":10.374086974672,"lon":"-89.924665","lat":"41.243091","theaterChainName":"Independent Chains","ticketType":"STANDARD"},{"id":"2043","tribuneTheaterId":"308","providerTheaterId":"","name":"Reynolds Palace Theatre Elmwood","address":"122 W. Main St.","city":"Elmwood","state":"IL","zip":"61529","distance":22.991412234567,"lon":"-89.9665","lat":"40.7779","theaterChainName":"Independent Chains","ticketType":"STANDARD"},{"id":"2430","tribuneTheaterId":"1850","providerTheaterId":"","name":"Reynolds Morton Cinema 5","address":"2115 S. Main St.","city":"Morton","state":"IL","zip":"61550","distance":23.005092101901,"lon":"-89.967336","lat":"40.777853","theaterChainName":"Independent Chains","ticketType":"STANDARD"},{"id":"4071","tribuneTheaterId":"2408","providerTheaterId":"","name":"Carmike Grand Prairie 18","address":"5311 W. American Prairie Drive","city":"Peoria","state":"IL","zip":"61615","distance":24.012618985676,"lon":"-89.677399","lat":"40.782101","theaterChainName":"Cinemark","ticketType":"STANDARD"},{"id":"1511","tribuneTheaterId":"1105","providerTheaterId":"","name":"Town Theatre","address":"1029 North Second Street","city":"Chillicothe","state":"IL","zip":"61523","distance":23.307067362782,"lon":"-89.485239","lat":"40.917705","theaterChainName":"Independent Chains","ticketType":"STANDARD"}]