[{"id":"2209","name":"Wanee Twin Cinema","address":"106 S. Main St.","city":"Kewanee","state":"IL","zip":"61443","distance":"10.374834060668945","lon":"-89.924667","lat":"41.243092","theaterChainName":"Independent Chains","ticketType":"STANDARD"},{"id":"1511","name":"Town Theatre","address":"1029 North Second Street","city":"Chillicothe","state":"IL","zip":"61523","distance":"23.308671951293945","lon":"-89.485237","lat":"40.917706","theaterChainName":"Independent Chains","ticketType":"STANDARD"},{"id":"4071","name":"Carmike Grand Prairie 18","address":"5311 W. American Prairie Drive","city":"Peoria","state":"IL","zip":"61615","distance":"24.014123916625977","lon":"-89.677399","lat":"40.782101","theaterChainName":"Cinemark","ticketType":"STANDARD"},{"id":"2430","name":"Reynolds Morton Cinema 5","address":"2115 S. Main St.","city":"Morton","state":"IL","zip":"61550","distance":"23.00655174255371","lon":"-89.967339","lat":"40.777851","theaterChainName":"Independent Chains","ticketType":"STANDARD"},{"id":"2043","name":"Reynolds Palace Theatre Elmwood","address":"122 W. Main St.","city":"Elmwood","state":"IL","zip":"61529","distance":"22.992656707763672","lon":"-89.966499","lat":"40.777901","theaterChainName":"Independent Chains","ticketType":"STANDARD"}]