[{"id":"1518","tribuneTheaterId":"1106","providerTheaterId":"","name":"Reynolds Garden Theatre","address":"62 N. Main St.","city":"Canton","state":"IL","zip":"61520","distance":0.62788695364039,"lon":"-90.0353","lat":"40.556714","theaterChainName":"Independent Chains","ticketType":"STANDARD"},{"id":"2043","tribuneTheaterId":"308","providerTheaterId":"","name":"Reynolds Palace Theatre Elmwood","address":"122 W. Main St.","city":"Elmwood","state":"IL","zip":"61529","distance":15.34931967882,"lon":"-89.9665","lat":"40.7779","theaterChainName":"Independent Chains","ticketType":"STANDARD"},{"id":"2430","tribuneTheaterId":"1850","providerTheaterId":"","name":"Reynolds Morton Cinema 5","address":"2115 S. Main St.","city":"Morton","state":"IL","zip":"61550","distance":15.337563536222,"lon":"-89.967336","lat":"40.777853","theaterChainName":"Independent Chains","ticketType":"STANDARD"},{"id":"2831","tribuneTheaterId":"9230","providerTheaterId":"6742","name":"AMC Showplace Pekin 14","address":"1124 Edgewater Dr.","city":"Pekin","state":"IL","zip":"61554","distance":20.907533176801,"lon":"-89.629752","lat":"40.602763","theaterChainName":"AMC Theatres","ticketType":"STANDARD"},{"id":"1536","tribuneTheaterId":"3186","providerTheaterId":"","name":"Landmark Cinemas","address":"32251 N. Dries Ln","city":"Peoria","state":"IL","zip":"61604","distance":24.292624760564,"lon":"-89.617678","lat":"40.728838","theaterChainName":"Independent Chains","ticketType":"STANDARD"},{"id":"4071","tribuneTheaterId":"2408","providerTheaterId":"","name":"Carmike Grand Prairie 18","address":"5311 W. American Prairie Drive","city":"Peoria","state":"IL","zip":"61615","distance":23.78173991375,"lon":"-89.677399","lat":"40.782101","theaterChainName":"Cinemark","ticketType":"STANDARD"},{"id":"1537","tribuneTheaterId":"5841","providerTheaterId":"","name":"Goodrich Willow Knolls 14","address":"4100 W Willow Knolls","city":"Peoria","state":"IL","zip":"61615","distance":24.391555222631,"lon":"-89.652933","lat":"40.772987","theaterChainName":"Goodrich Theatres","ticketType":"E_TICKET"}]