[{"id":"1537","name":"Goodrich Willow Knolls 14","address":"4100 W Willow Knolls","city":"Peoria","state":"IL","zip":"61615","distance":"24.393152236938477","lon":"-89.652931","lat":"40.772987","theaterChainName":"Goodrich Theatres","ticketType":"E_TICKET"},{"id":"1536","name":"Landmark Cinemas","address":"32251 N. Dries Ln","city":"Peoria","state":"IL","zip":"61604","distance":"24.294296264648438","lon":"-89.617676","lat":"40.728840","theaterChainName":"Independent Chains","ticketType":"STANDARD"},{"id":"4071","name":"Carmike Grand Prairie 18","address":"5311 W. American Prairie Drive","city":"Peoria","state":"IL","zip":"61615","distance":"23.783205032348633","lon":"-89.677399","lat":"40.782101","theaterChainName":"Cinemark","ticketType":"STANDARD"},{"id":"2430","name":"Reynolds Morton Cinema 5","address":"2115 S. Main St.","city":"Morton","state":"IL","zip":"61550","distance":"15.338326454162598","lon":"-89.967339","lat":"40.777851","theaterChainName":"Independent Chains","ticketType":"STANDARD"},{"id":"2043","name":"Reynolds Palace Theatre Elmwood","address":"122 W. Main St.","city":"Elmwood","state":"IL","zip":"61529","distance":"15.350292205810547","lon":"-89.966499","lat":"40.777901","theaterChainName":"Independent Chains","ticketType":"STANDARD"},{"id":"1518","name":"Reynolds Garden Theatre","address":"62 N. Main St.","city":"Canton","state":"IL","zip":"61520","distance":"0.6280006766319275","lon":"-90.035301","lat":"40.556713","theaterChainName":"Independent Chains","ticketType":"STANDARD"},{"id":"2831","name":"AMC Showplace Pekin 14","address":"1124 Edgewater Dr.","city":"Pekin","state":"IL","zip":"61554","distance":"20.90880012512207","lon":"-89.629753","lat":"40.602764","theaterChainName":"AMC Theatres","ticketType":"STANDARD"}]