[{"id":"1538","name":"Carmike Sunnyland Cinema 10","address":"40 Sunnyland Plz","city":"Washington","state":"IL","zip":"61571","distance":"20.852035522460938","lon":"-89.482109","lat":"40.691525","theaterChainName":"Carmike Cinemas","ticketType":"STANDARD"},{"id":"1537","name":"Goodrich Willow Knolls 14","address":"4100 W Willow Knolls","city":"Peoria","state":"IL","zip":"61615","distance":"24.404626846313477","lon":"-89.652931","lat":"40.772987","theaterChainName":"Goodrich Theatres","ticketType":"E_TICKET"},{"id":"1536","name":"Landmark Cinemas","address":"32251 N. Dries Ln","city":"Peoria","state":"IL","zip":"61604","distance":"21.443103790283203","lon":"-89.617676","lat":"40.728840","theaterChainName":"Independent Chains","ticketType":"STANDARD"},{"id":"1518","name":"Reynolds Garden Theatre","address":"62 N. Main St.","city":"Canton","state":"IL","zip":"61520","distance":"22.116132736206055","lon":"-90.035301","lat":"40.556713","theaterChainName":"Independent Chains","ticketType":"STANDARD"},{"id":"2831","name":"AMC Showplace Pekin 14","address":"1124 Edgewater Dr.","city":"Pekin","state":"IL","zip":"61554","distance":"12.711223602294922","lon":"-89.629753","lat":"40.602764","theaterChainName":"AMC Theatres","ticketType":"STANDARD"},{"id":"2210","name":"Lincoln Theater 4","address":"215 S Kickapoo St","city":"Lincoln","state":"IL","zip":"62656","distance":"24.38489532470703","lon":"-89.363998","lat":"40.145401","theaterChainName":"Independent Chains","ticketType":"STANDARD"}]