[{"id":"1538","tribuneTheaterId":"7302","providerTheaterId":"","name":"Carmike Sunnyland Cinema 10","address":"40 Sunnyland Plz","city":"Washington","state":"IL","zip":"61571","distance":6.9545202434314,"lon":"-89.482108","lat":"40.691525","theaterChainName":"Carmike Cinemas","ticketType":"STANDARD"},{"id":"1511","tribuneTheaterId":"1105","providerTheaterId":"","name":"Town Theatre","address":"1029 North Second Street","city":"Chillicothe","state":"IL","zip":"61523","distance":9.6383677677222,"lon":"-89.485239","lat":"40.917705","theaterChainName":"Independent Chains","ticketType":"STANDARD"},{"id":"1536","tribuneTheaterId":"3186","providerTheaterId":"","name":"Landmark Cinemas","address":"32251 N. Dries Ln","city":"Peoria","state":"IL","zip":"61604","distance":10.502270442559,"lon":"-89.617678","lat":"40.728838","theaterChainName":"Independent Chains","ticketType":"STANDARD"},{"id":"1537","tribuneTheaterId":"5841","providerTheaterId":"","name":"Goodrich Willow Knolls 14","address":"4100 W Willow Knolls","city":"Peoria","state":"IL","zip":"61615","distance":11.643513294099,"lon":"-89.652933","lat":"40.772987","theaterChainName":"Goodrich Theatres","ticketType":"E_TICKET"},{"id":"4071","tribuneTheaterId":"2408","providerTheaterId":"","name":"Carmike Grand Prairie 18","address":"5311 W. American Prairie Drive","city":"Peoria","state":"IL","zip":"61615","distance":12.896935074992,"lon":"-89.677399","lat":"40.782101","theaterChainName":"Cinemark","ticketType":"STANDARD"},{"id":"2831","tribuneTheaterId":"9230","providerTheaterId":"6742","name":"AMC Showplace Pekin 14","address":"1124 Edgewater Dr.","city":"Pekin","state":"IL","zip":"61554","distance":16.310094221785,"lon":"-89.629752","lat":"40.602763","theaterChainName":"AMC Theatres","ticketType":"STANDARD"}]