[{"id":"1511","tribuneTheaterId":"1105","providerTheaterId":"","name":"Town Theatre","address":"1029 North Second Street","city":"Chillicothe","state":"IL","zip":"61523","distance":6.7729076392043,"lon":"-89.485239","lat":"40.917705","theaterChainName":"Independent Chains","ticketType":"STANDARD"},{"id":"1537","tribuneTheaterId":"5841","providerTheaterId":"","name":"Goodrich Willow Knolls 14","address":"4100 W Willow Knolls","city":"Peoria","state":"IL","zip":"61615","distance":19.507455910218,"lon":"-89.652933","lat":"40.772987","theaterChainName":"Goodrich Theatres","ticketType":"E_TICKET"},{"id":"4071","tribuneTheaterId":"2408","providerTheaterId":"","name":"Carmike Grand Prairie 18","address":"5311 W. American Prairie Drive","city":"Peoria","state":"IL","zip":"61615","distance":19.691931862305,"lon":"-89.677399","lat":"40.782101","theaterChainName":"Cinemark","ticketType":"STANDARD"},{"id":"1536","tribuneTheaterId":"3186","providerTheaterId":"","name":"Landmark Cinemas","address":"32251 N. Dries Ln","city":"Peoria","state":"IL","zip":"61604","distance":21.376512583727,"lon":"-89.617678","lat":"40.728838","theaterChainName":"Independent Chains","ticketType":"STANDARD"},{"id":"1538","tribuneTheaterId":"7302","providerTheaterId":"","name":"Carmike Sunnyland Cinema 10","address":"40 Sunnyland Plz","city":"Washington","state":"IL","zip":"61571","distance":22.277777320612,"lon":"-89.482108","lat":"40.691525","theaterChainName":"Carmike Cinemas","ticketType":"STANDARD"},{"id":"2219","tribuneTheaterId":"1171","providerTheaterId":"","name":"Apollo Twin Cinema","address":"455 S. Main St.","city":"Princeton","state":"IL","zip":"61356","distance":24.67755496117,"lon":"-89.464862","lat":"41.370515","theaterChainName":"Independent Chains","ticketType":"STANDARD"}]