[{"id":"2219","name":"Apollo Twin Cinema","address":"455 S. Main St.","city":"Princeton","state":"IL","zip":"61356","distance":"24.678936004638672","lon":"-89.464859","lat":"41.370514","theaterChainName":"Independent Chains","ticketType":"STANDARD"},{"id":"1511","name":"Town Theatre","address":"1029 North Second Street","city":"Chillicothe","state":"IL","zip":"61523","distance":"6.773340702056885","lon":"-89.485237","lat":"40.917706","theaterChainName":"Independent Chains","ticketType":"STANDARD"},{"id":"1538","name":"Carmike Sunnyland Cinema 10","address":"40 Sunnyland Plz","city":"Washington","state":"IL","zip":"61571","distance":"22.279266357421875","lon":"-89.482109","lat":"40.691525","theaterChainName":"Carmike Cinemas","ticketType":"STANDARD"},{"id":"1537","name":"Goodrich Willow Knolls 14","address":"4100 W Willow Knolls","city":"Peoria","state":"IL","zip":"61615","distance":"19.508657455444336","lon":"-89.652931","lat":"40.772987","theaterChainName":"Goodrich Theatres","ticketType":"E_TICKET"},{"id":"1536","name":"Landmark Cinemas","address":"32251 N. Dries Ln","city":"Peoria","state":"IL","zip":"61604","distance":"21.37774085998535","lon":"-89.617676","lat":"40.728840","theaterChainName":"Independent Chains","ticketType":"STANDARD"},{"id":"4071","name":"Carmike Grand Prairie 18","address":"5311 W. American Prairie Drive","city":"Peoria","state":"IL","zip":"61615","distance":"19.693222045898438","lon":"-89.677399","lat":"40.782101","theaterChainName":"Cinemark","ticketType":"STANDARD"}]