[{"id":"4658","tribuneTheaterId":"9857","providerTheaterId":"","name":"Starplex Normal Stadium 14","address":"201 McKnight Drive","city":"Normal","state":"IL","zip":"61761","distance":13.931864713953,"lon":"-88.990109","lat":"40.537947","theaterChainName":"Starplex Cinemas","ticketType":"STANDARD"},{"id":"2526","tribuneTheaterId":"431","providerTheaterId":"","name":"Normal Theatre","address":"209 W. North St.","city":"Normal","state":"IL","zip":"61761","distance":15.913395642842,"lon":"-88.986409","lat":"40.509403","theaterChainName":"Independent Chains","ticketType":"STANDARD"},{"id":"4444","tribuneTheaterId":"9523","providerTheaterId":"","name":"Wehrenberg Bloomington Galaxy 14 Cinema","address":"1111 Wylie Drive","city":"Bloomington","state":"IL","zip":"61705","distance":17.055939643172,"lon":"-89.034579","lat":"40.492642","theaterChainName":"Wehrenberg Theatres","ticketType":"STANDARD"},{"id":"2111","tribuneTheaterId":"1156","providerTheaterId":"","name":"Crescent Cinemas","address":"313 W. Madison St.","city":"Pontiac","state":"IL","zip":"61764","distance":22.186077461903,"lon":"-88.631104","lat":"40.880299","theaterChainName":"Independent Chains","ticketType":"STANDARD"},{"id":"1538","tribuneTheaterId":"7302","providerTheaterId":"","name":"Carmike Sunnyland Cinema 10","address":"40 Sunnyland Plz","city":"Washington","state":"IL","zip":"61571","distance":24.836190975619,"lon":"-89.482108","lat":"40.691525","theaterChainName":"Carmike Cinemas","ticketType":"STANDARD"}]