[{"id":"1538","tribuneTheaterId":"7302","providerTheaterId":"","name":"Carmike Sunnyland Cinema 10","address":"40 Sunnyland Plz","city":"Washington","state":"IL","zip":"61571","distance":9.1907366881819,"lon":"-89.482108","lat":"40.691525","theaterChainName":"Carmike Cinemas","ticketType":"STANDARD"},{"id":"2831","tribuneTheaterId":"9230","providerTheaterId":"6742","name":"AMC Showplace Pekin 14","address":"1124 Edgewater Dr.","city":"Pekin","state":"IL","zip":"61554","distance":15.660439325537,"lon":"-89.629752","lat":"40.602763","theaterChainName":"AMC Theatres","ticketType":"STANDARD"},{"id":"1536","tribuneTheaterId":"3186","providerTheaterId":"","name":"Landmark Cinemas","address":"32251 N. Dries Ln","city":"Peoria","state":"IL","zip":"61604","distance":16.664618913486,"lon":"-89.617678","lat":"40.728838","theaterChainName":"Independent Chains","ticketType":"STANDARD"},{"id":"4444","tribuneTheaterId":"9523","providerTheaterId":"","name":"Wehrenberg Bloomington Galaxy 14 Cinema","address":"1111 Wylie Drive","city":"Bloomington","state":"IL","zip":"61705","distance":18.0174635246,"lon":"-89.034579","lat":"40.492642","theaterChainName":"Wehrenberg Theatres","ticketType":"STANDARD"},{"id":"1537","tribuneTheaterId":"5841","providerTheaterId":"","name":"Goodrich Willow Knolls 14","address":"4100 W Willow Knolls","city":"Peoria","state":"IL","zip":"61615","distance":19.757501602478,"lon":"-89.652933","lat":"40.772987","theaterChainName":"Goodrich Theatres","ticketType":"E_TICKET"},{"id":"2526","tribuneTheaterId":"431","providerTheaterId":"","name":"Normal Theatre","address":"209 W. North St.","city":"Normal","state":"IL","zip":"61761","distance":19.762432169447,"lon":"-88.986409","lat":"40.509403","theaterChainName":"Independent Chains","ticketType":"STANDARD"},{"id":"4658","tribuneTheaterId":"9857","providerTheaterId":"","name":"Starplex Normal Stadium 14","address":"201 McKnight Drive","city":"Normal","state":"IL","zip":"61761","distance":18.881125115215,"lon":"-88.990109","lat":"40.537947","theaterChainName":"Starplex Cinemas","ticketType":"STANDARD"},{"id":"4071","tribuneTheaterId":"2408","providerTheaterId":"","name":"Carmike Grand Prairie 18","address":"5311 W. American Prairie Drive","city":"Peoria","state":"IL","zip":"61615","distance":21.17803207656,"lon":"-89.677399","lat":"40.782101","theaterChainName":"Cinemark","ticketType":"STANDARD"},{"id":"1511","tribuneTheaterId":"1105","providerTheaterId":"","name":"Town Theatre","address":"1029 North Second Street","city":"Chillicothe","state":"IL","zip":"61523","distance":21.916921875016,"lon":"-89.485239","lat":"40.917705","theaterChainName":"Independent Chains","ticketType":"STANDARD"}]