[{"id":"2526","name":"Normal Theatre","address":"209 W. North St.","city":"Normal","state":"IL","zip":"61761","distance":"15.637482643127441","lon":"-88.986412","lat":"40.509403","theaterChainName":"Independent Chains","ticketType":"STANDARD"},{"id":"4658","name":"Starplex Normal Stadium 14","address":"201 McKnight Drive","city":"Normal","state":"IL","zip":"61761","distance":"17.151325225830078","lon":"-88.990112","lat":"40.537949","theaterChainName":"Starplex Cinemas","ticketType":"STANDARD"},{"id":"4444","name":"Wehrenberg Bloomington Galaxy 14 Cinema","address":"1111 Wylie Drive","city":"Bloomington","state":"IL","zip":"61705","distance":"13.260003089904785","lon":"-89.034576","lat":"40.492641","theaterChainName":"Wehrenberg Theatres","ticketType":"STANDARD"},{"id":"2210","name":"Lincoln Theater 4","address":"215 S Kickapoo St","city":"Lincoln","state":"IL","zip":"62656","distance":"16.44025230407715","lon":"-89.363998","lat":"40.145401","theaterChainName":"Independent Chains","ticketType":"STANDARD"},{"id":"6113","name":"Clintonia Eagle Theater","address":"13 Kelli Ct","city":"Clinton","state":"IL","zip":"61727","distance":"15.794759750366211","lon":"-88.979683","lat":"40.148346","theaterChainName":"Independent Chains","ticketType":"STANDARD"}]