[{"id":"4444","tribuneTheaterId":"9523","providerTheaterId":"","name":"Wehrenberg Bloomington Galaxy 14 Cinema","address":"1111 Wylie Drive","city":"Bloomington","state":"IL","zip":"61705","distance":15.329519602992,"lon":"-89.034579","lat":"40.492642","theaterChainName":"Wehrenberg Theatres","ticketType":"STANDARD"},{"id":"2526","tribuneTheaterId":"431","providerTheaterId":"","name":"Normal Theatre","address":"209 W. North St.","city":"Normal","state":"IL","zip":"61761","distance":18.077710942403,"lon":"-88.986409","lat":"40.509403","theaterChainName":"Independent Chains","ticketType":"STANDARD"},{"id":"4658","tribuneTheaterId":"9857","providerTheaterId":"","name":"Starplex Normal Stadium 14","address":"201 McKnight Drive","city":"Normal","state":"IL","zip":"61761","distance":18.544260218007,"lon":"-88.990109","lat":"40.537947","theaterChainName":"Starplex Cinemas","ticketType":"STANDARD"},{"id":"2210","tribuneTheaterId":"4964","providerTheaterId":"","name":"Lincoln Theater 4","address":"215 S Kickapoo St","city":"Lincoln","state":"IL","zip":"62656","distance":20.227113821357,"lon":"-89.364","lat":"40.1454","theaterChainName":"Independent Chains","ticketType":"STANDARD"},{"id":"1538","tribuneTheaterId":"7302","providerTheaterId":"","name":"Carmike Sunnyland Cinema 10","address":"40 Sunnyland Plz","city":"Washington","state":"IL","zip":"61571","distance":19.68517984856,"lon":"-89.482108","lat":"40.691525","theaterChainName":"Carmike Cinemas","ticketType":"STANDARD"},{"id":"2831","tribuneTheaterId":"9230","providerTheaterId":"6742","name":"AMC Showplace Pekin 14","address":"1124 Edgewater Dr.","city":"Pekin","state":"IL","zip":"61554","distance":20.090472799626,"lon":"-89.629752","lat":"40.602763","theaterChainName":"AMC Theatres","ticketType":"STANDARD"}]