[{"id":"6113","tribuneTheaterId":"11528","providerTheaterId":"","name":"Clintonia Eagle Theater","address":"13 Kelli Ct","city":"Clinton","state":"IL","zip":"61727","distance":6.5661936020183,"lon":"-88.979682","lat":"40.148346","theaterChainName":"Independent Chains","ticketType":"STANDARD"},{"id":"2207","tribuneTheaterId":"7615","providerTheaterId":"","name":"Carmike Hickory Point 12","address":"1146 US Route 51 North","city":"Forsyth","state":"IL","zip":"62535","distance":14.92115965699,"lon":"-88.957436","lat":"39.920928","theaterChainName":"Carmike Cinemas","ticketType":"STANDARD"},{"id":"3395","tribuneTheaterId":"616","providerTheaterId":"","name":"Avon Theatre - Decatur","address":"805 W. North St.","city":"Decatur","state":"IL","zip":"62522","distance":19.898842709555,"lon":"-88.954239","lat":"39.844759","theaterChainName":"Independent Chains","ticketType":"STANDARD"},{"id":"2202","tribuneTheaterId":"4976","providerTheaterId":"","name":"Carmike Strand 10","address":"2360 S Mt Zion Rd","city":"Decatur","state":"IL","zip":"62521","distance":21.425639768991,"lon":"-88.876272","lat":"39.813663","theaterChainName":"Carmike Cinemas","ticketType":"STANDARD"}]