[{"id":"2526","name":"Normal Theatre","address":"209 W. North St.","city":"Normal","state":"IL","zip":"61761","distance":"16.463897705078125","lon":"-88.986412","lat":"40.509403","theaterChainName":"Independent Chains","ticketType":"STANDARD"},{"id":"4658","name":"Starplex Normal Stadium 14","address":"201 McKnight Drive","city":"Normal","state":"IL","zip":"61761","distance":"14.630213737487793","lon":"-88.990112","lat":"40.537949","theaterChainName":"Starplex Cinemas","ticketType":"STANDARD"},{"id":"1511","name":"Town Theatre","address":"1029 North Second Street","city":"Chillicothe","state":"IL","zip":"61523","distance":"23.08310317993164","lon":"-89.485237","lat":"40.917706","theaterChainName":"Independent Chains","ticketType":"STANDARD"},{"id":"1538","name":"Carmike Sunnyland Cinema 10","address":"40 Sunnyland Plz","city":"Washington","state":"IL","zip":"61571","distance":"18.717369079589844","lon":"-89.482109","lat":"40.691525","theaterChainName":"Carmike Cinemas","ticketType":"STANDARD"},{"id":"4444","name":"Wehrenberg Bloomington Galaxy 14 Cinema","address":"1111 Wylie Drive","city":"Bloomington","state":"IL","zip":"61705","distance":"16.601131439208984","lon":"-89.034576","lat":"40.492641","theaterChainName":"Wehrenberg Theatres","ticketType":"STANDARD"}]