[{"id":"4658","tribuneTheaterId":"9857","providerTheaterId":"","name":"Starplex Normal Stadium 14","address":"201 McKnight Drive","city":"Normal","state":"IL","zip":"61761","distance":14.629498756722,"lon":"-88.990109","lat":"40.537947","theaterChainName":"Starplex Cinemas","ticketType":"STANDARD"},{"id":"4444","tribuneTheaterId":"9523","providerTheaterId":"","name":"Wehrenberg Bloomington Galaxy 14 Cinema","address":"1111 Wylie Drive","city":"Bloomington","state":"IL","zip":"61705","distance":16.600011297872,"lon":"-89.034579","lat":"40.492642","theaterChainName":"Wehrenberg Theatres","ticketType":"STANDARD"},{"id":"2526","tribuneTheaterId":"431","providerTheaterId":"","name":"Normal Theatre","address":"209 W. North St.","city":"Normal","state":"IL","zip":"61761","distance":16.462967355613,"lon":"-88.986409","lat":"40.509403","theaterChainName":"Independent Chains","ticketType":"STANDARD"},{"id":"1538","tribuneTheaterId":"7302","providerTheaterId":"","name":"Carmike Sunnyland Cinema 10","address":"40 Sunnyland Plz","city":"Washington","state":"IL","zip":"61571","distance":18.716045430988,"lon":"-89.482108","lat":"40.691525","theaterChainName":"Carmike Cinemas","ticketType":"STANDARD"},{"id":"1511","tribuneTheaterId":"1105","providerTheaterId":"","name":"Town Theatre","address":"1029 North Second Street","city":"Chillicothe","state":"IL","zip":"61523","distance":23.081675975255,"lon":"-89.485239","lat":"40.917705","theaterChainName":"Independent Chains","ticketType":"STANDARD"}]