[{"id":"1512","name":"AMC Village Mall 6","address":"2917 N. Vermilion St.","city":"Danville","state":"IL","zip":"61832","distance":"20.076610565185547","lon":"-87.627754","lat":"40.171661","theaterChainName":"AMC Theatres","ticketType":"STANDARD"},{"id":"1539","name":"Carmike 13 Champaign","address":"910 Meijers Drive","city":"Champaign","state":"IL","zip":"61822","distance":"17.526838302612305","lon":"-88.260048","lat":"40.146820","theaterChainName":"Carmike Cinemas","ticketType":"STANDARD"},{"id":"2910","name":"The Art Theater","address":"126 W. Church St.","city":"Champaign","state":"IL","zip":"61820","distance":"15.996659278869629","lon":"-88.244667","lat":"40.118534","theaterChainName":"Independent Chains","ticketType":"STANDARD"},{"id":"6077","name":"Virginia Theatre","address":"203 W. Park Ave.","city":"Champaign","state":"IL","zip":"61820","distance":"16.00440216064453","lon":"-88.245583","lat":"40.117020","theaterChainName":"Independent Chains","ticketType":"STANDARD"},{"id":"1540","name":"Goodrich Savoy 16 Theatres","address":"232 W Burwash","city":"Savoy","state":"IL","zip":"61874","distance":"15.4834566116333","lon":"-88.251266","lat":"40.072330","theaterChainName":"Goodrich Theatres","ticketType":"SELECT_SEATING"}]