[{"id":"6113","tribuneTheaterId":"11528","providerTheaterId":"","name":"Clintonia Eagle Theater","address":"13 Kelli Ct","city":"Clinton","state":"IL","zip":"61727","distance":17.970691662213,"lon":"-88.979682","lat":"40.148346","theaterChainName":"Independent Chains","ticketType":"STANDARD"},{"id":"1539","tribuneTheaterId":"5944","providerTheaterId":"","name":"Carmike 13 Champaign","address":"910 Meijers Drive","city":"Champaign","state":"IL","zip":"61822","distance":22.335779136381,"lon":"-88.260051","lat":"40.146819","theaterChainName":"Carmike Cinemas","ticketType":"STANDARD"},{"id":"6077","tribuneTheaterId":"11484","providerTheaterId":"","name":"Virginia Theatre","address":"203 W. Park Ave.","city":"Champaign","state":"IL","zip":"61820","distance":23.754526368763,"lon":"-88.245585","lat":"40.117018","theaterChainName":"Independent Chains","ticketType":"STANDARD"},{"id":"2910","tribuneTheaterId":"486","providerTheaterId":"","name":"The Art Theater","address":"126 W. Church St.","city":"Champaign","state":"IL","zip":"61820","distance":23.760693157045,"lon":"-88.244666","lat":"40.118535","theaterChainName":"Independent Chains","ticketType":"STANDARD"},{"id":"2526","tribuneTheaterId":"431","providerTheaterId":"","name":"Normal Theatre","address":"209 W. North St.","city":"Normal","state":"IL","zip":"61761","distance":24.97094595006,"lon":"-88.986409","lat":"40.509403","theaterChainName":"Independent Chains","ticketType":"STANDARD"},{"id":"1540","tribuneTheaterId":"5843","providerTheaterId":"","name":"Goodrich Savoy 16 Theatres","address":"232 W Burwash","city":"Savoy","state":"IL","zip":"61874","distance":24.808505548192,"lon":"-88.251266","lat":"40.07233","theaterChainName":"Goodrich Theatres","ticketType":"SELECT_SEATING"}]