[{"id":"1540","tribuneTheaterId":"5843","providerTheaterId":"","name":"Goodrich Savoy 16 Theatres","address":"232 W Burwash","city":"Savoy","state":"IL","zip":"61874","distance":13.282521862263,"lon":"-88.251266","lat":"40.07233","theaterChainName":"Goodrich Theatres","ticketType":"SELECT_SEATING"},{"id":"6077","tribuneTheaterId":"11484","providerTheaterId":"","name":"Virginia Theatre","address":"203 W. Park Ave.","city":"Champaign","state":"IL","zip":"61820","distance":15.628600272889,"lon":"-88.245585","lat":"40.117018","theaterChainName":"Independent Chains","ticketType":"STANDARD"},{"id":"2910","tribuneTheaterId":"486","providerTheaterId":"","name":"The Art Theater","address":"126 W. Church St.","city":"Champaign","state":"IL","zip":"61820","distance":15.738693434142,"lon":"-88.244666","lat":"40.118535","theaterChainName":"Independent Chains","ticketType":"STANDARD"},{"id":"1539","tribuneTheaterId":"5944","providerTheaterId":"","name":"Carmike 13 Champaign","address":"910 Meijers Drive","city":"Champaign","state":"IL","zip":"61822","distance":16.743561511394,"lon":"-88.260051","lat":"40.146819","theaterChainName":"Carmike Cinemas","ticketType":"STANDARD"},{"id":"2202","tribuneTheaterId":"4976","providerTheaterId":"","name":"Carmike Strand 10","address":"2360 S Mt Zion Rd","city":"Decatur","state":"IL","zip":"62521","distance":24.730690226872,"lon":"-88.876272","lat":"39.813663","theaterChainName":"Carmike Cinemas","ticketType":"STANDARD"}]