[{"id":"1539","name":"Carmike 13 Champaign","address":"910 Meijers Drive","city":"Champaign","state":"IL","zip":"61822","distance":"16.744768142700195","lon":"-88.260048","lat":"40.146820","theaterChainName":"Carmike Cinemas","ticketType":"STANDARD"},{"id":"2910","name":"The Art Theater","address":"126 W. Church St.","city":"Champaign","state":"IL","zip":"61820","distance":"15.73958969116211","lon":"-88.244667","lat":"40.118534","theaterChainName":"Independent Chains","ticketType":"STANDARD"},{"id":"6077","name":"Virginia Theatre","address":"203 W. Park Ave.","city":"Champaign","state":"IL","zip":"61820","distance":"15.629743576049805","lon":"-88.245583","lat":"40.117020","theaterChainName":"Independent Chains","ticketType":"STANDARD"},{"id":"1540","name":"Goodrich Savoy 16 Theatres","address":"232 W Burwash","city":"Savoy","state":"IL","zip":"61874","distance":"13.28333854675293","lon":"-88.251266","lat":"40.072330","theaterChainName":"Goodrich Theatres","ticketType":"SELECT_SEATING"},{"id":"2202","name":"Carmike Strand 10","address":"2360 S Mt Zion Rd","city":"Decatur","state":"IL","zip":"62521","distance":"24.732345581054688","lon":"-88.876274","lat":"39.813663","theaterChainName":"Carmike Cinemas","ticketType":"STANDARD"}]