[{"id":"1540","tribuneTheaterId":"5843","providerTheaterId":"","name":"Goodrich Savoy 16 Theatres","address":"232 W Burwash","city":"Savoy","state":"IL","zip":"61874","distance":21.280841221158,"lon":"-88.251266","lat":"40.07233","theaterChainName":"Goodrich Theatres","ticketType":"SELECT_SEATING"},{"id":"1516","tribuneTheaterId":"4943","providerTheaterId":"6601","name":"AMC Showplace Mattoon 10","address":"2509 Hurst Dr.","city":"Mattoon","state":"IL","zip":"61938","distance":23.543424231523,"lon":"-88.306013","lat":"39.482036","theaterChainName":"AMC Theatres","ticketType":"STANDARD"},{"id":"2202","tribuneTheaterId":"4976","providerTheaterId":"","name":"Carmike Strand 10","address":"2360 S Mt Zion Rd","city":"Decatur","state":"IL","zip":"62521","distance":22.665791409868,"lon":"-88.876272","lat":"39.813663","theaterChainName":"Carmike Cinemas","ticketType":"STANDARD"},{"id":"2910","tribuneTheaterId":"486","providerTheaterId":"","name":"The Art Theater","address":"126 W. Church St.","city":"Champaign","state":"IL","zip":"61820","distance":24.262049894374,"lon":"-88.244666","lat":"40.118535","theaterChainName":"Independent Chains","ticketType":"STANDARD"},{"id":"6077","tribuneTheaterId":"11484","providerTheaterId":"","name":"Virginia Theatre","address":"203 W. Park Ave.","city":"Champaign","state":"IL","zip":"61820","distance":24.14658839244,"lon":"-88.245585","lat":"40.117018","theaterChainName":"Independent Chains","ticketType":"STANDARD"}]