[{"id":"1540","tribuneTheaterId":"5843","providerTheaterId":"","name":"Goodrich Savoy 16 Theatres","address":"232 W Burwash","city":"Savoy","state":"IL","zip":"61874","distance":19.613209396648,"lon":"-88.251266","lat":"40.07233","theaterChainName":"Goodrich Theatres","ticketType":"SELECT_SEATING"},{"id":"6077","tribuneTheaterId":"11484","providerTheaterId":"","name":"Virginia Theatre","address":"203 W. Park Ave.","city":"Champaign","state":"IL","zip":"61820","distance":22.519947830718,"lon":"-88.245585","lat":"40.117018","theaterChainName":"Independent Chains","ticketType":"STANDARD"},{"id":"1516","tribuneTheaterId":"4943","providerTheaterId":"6601","name":"AMC Showplace Mattoon 10","address":"2509 Hurst Dr.","city":"Mattoon","state":"IL","zip":"61938","distance":23.545765778118,"lon":"-88.306013","lat":"39.482036","theaterChainName":"AMC Theatres","ticketType":"STANDARD"},{"id":"2910","tribuneTheaterId":"486","providerTheaterId":"","name":"The Art Theater","address":"126 W. Church St.","city":"Champaign","state":"IL","zip":"61820","distance":22.610688274417,"lon":"-88.244666","lat":"40.118535","theaterChainName":"Independent Chains","ticketType":"STANDARD"},{"id":"1539","tribuneTheaterId":"5944","providerTheaterId":"","name":"Carmike 13 Champaign","address":"910 Meijers Drive","city":"Champaign","state":"IL","zip":"61822","distance":24.70176791123,"lon":"-88.260051","lat":"40.146819","theaterChainName":"Carmike Cinemas","ticketType":"STANDARD"}]