[{"id":"1055","name":"AMC Eastgate Showplace 6","address":"625 Lewis ","city":"East Alton","state":"IL","zip":"62024","distance":"10.686690330505371","lon":"-90.117622","lat":"38.882835","theaterChainName":"AMC Theatres","ticketType":"STANDARD"},{"id":"5010","name":"Granite City Cinemas","address":"1243 Niedringhaus Ave.","city":"Granite City","state":"IL","zip":"62040","distance":"23.12310218811035","lon":"-90.151398","lat":"38.701500","theaterChainName":"St. Louis Cinemas","ticketType":"STANDARD"},{"id":"1309","name":"AMC Showplace Edwardsville 12","address":"6633 Center Grove Rd.","city":"Edwardsville","state":"IL","zip":"62025","distance":"20.188650131225586","lon":"-89.956055","lat":"38.783295","theaterChainName":"AMC Theatres","ticketType":"STANDARD"},{"id":"3671","name":"Regal St. Louis Mills Stadium 18","address":"1600 Park 370 Place","city":"Hazelwood","state":"MO","zip":"63042","distance":"22.319564819335938","lon":"-90.412865","lat":"38.789783","theaterChainName":"Regal Cinemas","ticketType":"STANDARD"},{"id":"6110","name":"Marvel Theatre","address":"228 West Main Street","city":"Carlinville","state":"IL","zip":"62626","distance":"21.873231887817383","lon":"-89.884026","lat":"39.279976","theaterChainName":"Eisentraut Theatres","ticketType":"STANDARD"}]