[{"id":"1055","tribuneTheaterId":"5923","providerTheaterId":"6241","name":"AMC Eastgate Showplace 6","address":"625 Lewis ","city":"East Alton","state":"IL","zip":"62024","distance":14.222021544513,"lon":"-90.11762","lat":"38.882834","theaterChainName":"AMC Theatres","ticketType":"STANDARD"},{"id":"3671","tribuneTheaterId":"5617","providerTheaterId":"","name":"Regal St. Louis Mills Stadium 18","address":"1600 Park 370 Place","city":"Hazelwood","state":"MO","zip":"63042","distance":17.729506203693,"lon":"-90.412867","lat":"38.789785","theaterChainName":"Regal Cinemas","ticketType":"STANDARD"},{"id":"2911","tribuneTheaterId":"6188","providerTheaterId":"","name":"St. Andrews 3","address":"2025 Golfway St.","city":"Saint Charles","state":"MO","zip":"63301","distance":21.046301983513,"lon":"-90.539081","lat":"38.789345","theaterChainName":"Independent Chains","ticketType":"STANDARD"},{"id":"5580","tribuneTheaterId":"11031","providerTheaterId":"","name":"AMC Streets of St. Charles 8","address":"311 Lombard St.","city":"Saint Charles","state":"MO","zip":"63303","distance":21.038318602416,"lon":"-90.493946","lat":"38.766266","theaterChainName":"AMC Theatres","ticketType":"STANDARD"},{"id":"1018","tribuneTheaterId":"6284","providerTheaterId":"","name":"Wehrenberg St. Charles 18 Cine","address":"1830 First Capitol Dr. S.","city":"Saint Charles","state":"MO","zip":"63303","distance":22.181750635719,"lon":"-90.526598","lat":"38.762375","theaterChainName":"Wehrenberg Theatres","ticketType":"STANDARD"},{"id":"2893","tribuneTheaterId":"6749","providerTheaterId":"","name":"Wehrenberg Mid Rivers 14 Cine","address":"1220 Mid Rivers Mall Dr.","city":"Saint Peters","state":"MO","zip":"63376","distance":23.497835068975,"lon":"-90.615985","lat":"38.79534","theaterChainName":"Wehrenberg Theatres","ticketType":"STANDARD"},{"id":"5010","tribuneTheaterId":"10383","providerTheaterId":"","name":"Granite City Cinemas","address":"1243 Niedringhaus Ave.","city":"Granite City","state":"IL","zip":"62040","distance":24.161736416191,"lon":"-90.151398","lat":"38.7015","theaterChainName":"St. Louis Cinemas","ticketType":"STANDARD"}]