[{"id":"1055","name":"AMC Eastgate Showplace 6","address":"625 Lewis ","city":"East Alton","state":"IL","zip":"62024","distance":"18.812480926513672","lon":"-90.117622","lat":"38.882835","theaterChainName":"AMC Theatres","ticketType":"STANDARD"},{"id":"3671","name":"Regal St. Louis Mills Stadium 18","address":"1600 Park 370 Place","city":"Hazelwood","state":"MO","zip":"63042","distance":"14.70786190032959","lon":"-90.412865","lat":"38.789783","theaterChainName":"Regal Cinemas","ticketType":"STANDARD"},{"id":"2655","name":"AMC Creve Coeur 12","address":"10465 Olive Blvd","city":"Creve Coeur","state":"MO","zip":"63141","distance":"22.665040969848633","lon":"-90.410988","lat":"38.674507","theaterChainName":"AMC Theatres","ticketType":"STANDARD"},{"id":"5580","name":"AMC Streets of St. Charles 8","address":"311 Lombard St.","city":"Saint Charles","state":"MO","zip":"63303","distance":"16.62960433959961","lon":"-90.493942","lat":"38.766266","theaterChainName":"AMC Theatres","ticketType":"STANDARD"},{"id":"340","name":"AMC West Olive 16","address":"12657 Olive Street","city":"Creve Coeur","state":"MO","zip":"63141","distance":"22.360271453857422","lon":"-90.466438","lat":"38.679592","theaterChainName":"AMC Theatres","ticketType":"STANDARD"},{"id":"1018","name":"Wehrenberg St. Charles 18 Cine","address":"1830 First Capitol Dr. S.","city":"Saint Charles","state":"MO","zip":"63303","distance":"17.323728561401367","lon":"-90.526596","lat":"38.762375","theaterChainName":"Wehrenberg Theatres","ticketType":"STANDARD"},{"id":"2911","name":"St. Andrews 3","address":"2025 Golfway St.","city":"Saint Charles","state":"MO","zip":"63301","distance":"15.78275203704834","lon":"-90.539078","lat":"38.789345","theaterChainName":"Independent Chains","ticketType":"STANDARD"},{"id":"2893","name":"Wehrenberg Mid Rivers 14 Cine","address":"1220 Mid Rivers Mall Dr.","city":"Saint Peters","state":"MO","zip":"63376","distance":"17.368906021118164","lon":"-90.615982","lat":"38.795341","theaterChainName":"Wehrenberg Theatres","ticketType":"STANDARD"},{"id":"4110","name":"Great Escape O Fallon 14","address":"900 Caledonia Drive","city":"O'Fallon","state":"MO","zip":"63366","distance":"24.799802780151367","lon":"-90.753242","lat":"38.744453","theaterChainName":"Regal Cinemas","ticketType":"STANDARD"},{"id":"4272","name":"Wehrenberg Town Square 12 Cine","address":"7805 Highway N","city":"Dardenne Prairie","state":"MO","zip":"63368","distance":"24.109933853149414","lon":"-90.763252","lat":"38.766769","theaterChainName":"Wehrenberg Theatres","ticketType":"STANDARD"}]