[{"id":"1055","name":"AMC Eastgate Showplace 6","address":"625 Lewis ","city":"East Alton","state":"IL","zip":"62024","distance":"23.85839080810547","lon":"-90.117622","lat":"38.882835","theaterChainName":"AMC Theatres","ticketType":"STANDARD"},{"id":"1309","name":"AMC Showplace Edwardsville 12","address":"6633 Center Grove Rd.","city":"Edwardsville","state":"IL","zip":"62025","distance":"22.864574432373047","lon":"-89.956055","lat":"38.783295","theaterChainName":"AMC Theatres","ticketType":"STANDARD"},{"id":"6110","name":"Marvel Theatre","address":"228 West Main Street","city":"Carlinville","state":"IL","zip":"62626","distance":"16.282682418823242","lon":"-89.884026","lat":"39.279976","theaterChainName":"Eisentraut Theatres","ticketType":"STANDARD"},{"id":"4661","name":"Orpheum Theatre","address":"316 South Main St.","city":"Hillsboro","state":"IL","zip":"62049","distance":"14.795021057128906","lon":"-89.493683","lat":"39.159302","theaterChainName":"Eisentraut Theatres","ticketType":"STANDARD"},{"id":"3161","name":"Globe Theatre","address":"105 N. 3rd St","city":"Greenville","state":"IL","zip":"62246","distance":"21.628971099853516","lon":"-89.413734","lat":"38.892307","theaterChainName":"Independent Chains","ticketType":"STANDARD"}]