[{"id":"2098","tribuneTheaterId":"335","providerTheaterId":"","name":"Roseland Theatre","address":"127 South Locust","city":"Pana","state":"IL","zip":"62557","distance":16.933300948209,"lon":"-89.081902","lat":"39.388699","theaterChainName":"Independent Chains","ticketType":"STANDARD"},{"id":"4661","tribuneTheaterId":"9860","providerTheaterId":"","name":"Orpheum Theatre","address":"316 South Main St.","city":"Hillsboro","state":"IL","zip":"62049","distance":20.652909628781,"lon":"-89.493686","lat":"39.1593","theaterChainName":"Eisentraut Theatres","ticketType":"STANDARD"},{"id":"3161","tribuneTheaterId":"1542","providerTheaterId":"","name":"Globe Theatre","address":"105 N. 3rd St","city":"Greenville","state":"IL","zip":"62246","distance":23.911598904884,"lon":"-89.413738","lat":"38.892306","theaterChainName":"Independent Chains","ticketType":"STANDARD"},{"id":"4519","tribuneTheaterId":"9628","providerTheaterId":"","name":"Boarman's Roxy Theater","address":"149 East Main Street","city":"Shelbyville","state":"IL","zip":"62565","distance":24.782191347226,"lon":"-88.792528","lat":"39.406695","theaterChainName":"Independent Chains","ticketType":"STANDARD"}]