[{"id":"1055","name":"AMC Eastgate Showplace 6","address":"625 Lewis ","city":"East Alton","state":"IL","zip":"62024","distance":"14.849072456359863","lon":"-90.117622","lat":"38.882835","theaterChainName":"AMC Theatres","ticketType":"STANDARD"},{"id":"5010","name":"Granite City Cinemas","address":"1243 Niedringhaus Ave.","city":"Granite City","state":"IL","zip":"62040","distance":"23.249631881713867","lon":"-90.151398","lat":"38.701500","theaterChainName":"St. Louis Cinemas","ticketType":"STANDARD"},{"id":"1309","name":"AMC Showplace Edwardsville 12","address":"6633 Center Grove Rd.","city":"Edwardsville","state":"IL","zip":"62025","distance":"12.462475776672363","lon":"-89.956055","lat":"38.783295","theaterChainName":"AMC Theatres","ticketType":"STANDARD"},{"id":"1056","name":"Wehrenberg St. Claire 10 Cine","address":"50 Ludwig Dr","city":"Fairview Heights","state":"IL","zip":"62208","distance":"24.909252166748047","lon":"-89.989349","lat":"38.600388","theaterChainName":"Wehrenberg Theatres","ticketType":"STANDARD"},{"id":"1269","name":"Wehrenberg O'Fallon 15 Cine","address":"1320 Central Park Dr.","city":"O'Fallon","state":"IL","zip":"62269","distance":"24.972328186035156","lon":"-89.944931","lat":"38.590641","theaterChainName":"Wehrenberg Theatres","ticketType":"STANDARD"},{"id":"6110","name":"Marvel Theatre","address":"228 West Main Street","city":"Carlinville","state":"IL","zip":"62626","distance":"23.2117977142334","lon":"-89.884026","lat":"39.279976","theaterChainName":"Eisentraut Theatres","ticketType":"STANDARD"},{"id":"4661","name":"Orpheum Theatre","address":"316 South Main St.","city":"Hillsboro","state":"IL","zip":"62049","distance":"24.32358741760254","lon":"-89.493683","lat":"39.159302","theaterChainName":"Eisentraut Theatres","ticketType":"STANDARD"},{"id":"3161","name":"Globe Theatre","address":"105 N. 3rd St","city":"Greenville","state":"IL","zip":"62246","distance":"23.903926849365234","lon":"-89.413734","lat":"38.892307","theaterChainName":"Independent Chains","ticketType":"STANDARD"}]