[{"id":"1309","tribuneTheaterId":"5934","providerTheaterId":"6252","name":"AMC Showplace Edwardsville 12","address":"6633 Center Grove Rd.","city":"Edwardsville","state":"IL","zip":"62025","distance":12.461788561651,"lon":"-89.956055","lat":"38.783294","theaterChainName":"AMC Theatres","ticketType":"STANDARD"},{"id":"1055","tribuneTheaterId":"5923","providerTheaterId":"6241","name":"AMC Eastgate Showplace 6","address":"625 Lewis ","city":"East Alton","state":"IL","zip":"62024","distance":14.848192712454,"lon":"-90.11762","lat":"38.882834","theaterChainName":"AMC Theatres","ticketType":"STANDARD"},{"id":"6110","tribuneTheaterId":"1154","providerTheaterId":"","name":"Marvel Theatre","address":"228 West Main Street","city":"Carlinville","state":"IL","zip":"62626","distance":23.210425472103,"lon":"-89.884029","lat":"39.279976","theaterChainName":"Eisentraut Theatres","ticketType":"STANDARD"},{"id":"3161","tribuneTheaterId":"1542","providerTheaterId":"","name":"Globe Theatre","address":"105 N. 3rd St","city":"Greenville","state":"IL","zip":"62246","distance":23.902114418762,"lon":"-89.413738","lat":"38.892306","theaterChainName":"Independent Chains","ticketType":"STANDARD"},{"id":"5010","tribuneTheaterId":"10383","providerTheaterId":"","name":"Granite City Cinemas","address":"1243 Niedringhaus Ave.","city":"Granite City","state":"IL","zip":"62040","distance":23.24827731652,"lon":"-90.151398","lat":"38.7015","theaterChainName":"St. Louis Cinemas","ticketType":"STANDARD"},{"id":"4661","tribuneTheaterId":"9860","providerTheaterId":"","name":"Orpheum Theatre","address":"316 South Main St.","city":"Hillsboro","state":"IL","zip":"62049","distance":24.321773805228,"lon":"-89.493686","lat":"39.1593","theaterChainName":"Eisentraut Theatres","ticketType":"STANDARD"},{"id":"1056","tribuneTheaterId":"6278","providerTheaterId":"","name":"Wehrenberg St. Claire 10 Cine","address":"50 Ludwig Dr","city":"Fairview Heights","state":"IL","zip":"62208","distance":24.907752298595,"lon":"-89.989349","lat":"38.600387","theaterChainName":"Wehrenberg Theatres","ticketType":"STANDARD"},{"id":"1269","tribuneTheaterId":"6356","providerTheaterId":"","name":"Wehrenberg O'Fallon 15 Cine","address":"1320 Central Park Dr.","city":"O'Fallon","state":"IL","zip":"62269","distance":24.970742196506,"lon":"-89.944934","lat":"38.590642","theaterChainName":"Wehrenberg Theatres","ticketType":"STANDARD"}]