[{"id":"1051","tribuneTheaterId":"2445","providerTheaterId":"","name":"Lincoln Theatre - Belleville","address":"103 E Main St","city":"Belleville","state":"IL","zip":"62220","distance":1.7684877173375,"lon":"-89.982665","lat":"38.513793","theaterChainName":"Independent Chains","ticketType":"STANDARD"},{"id":"5205","tribuneTheaterId":"10629","providerTheaterId":"","name":"EDGE 5 Theatres","address":"701 South Belt West","city":"Belleville","state":"IL","zip":"62220","distance":2.1860225133987,"lon":"-89.994848","lat":"38.503883","theaterChainName":"Independent Chains","ticketType":"STANDARD"},{"id":"1269","tribuneTheaterId":"6356","providerTheaterId":"","name":"Wehrenberg O'Fallon 15 Cine","address":"1320 Central Park Dr.","city":"O'Fallon","state":"IL","zip":"62269","distance":4.870160640132,"lon":"-89.944934","lat":"38.590642","theaterChainName":"Wehrenberg Theatres","ticketType":"STANDARD"},{"id":"1056","tribuneTheaterId":"6278","providerTheaterId":"","name":"Wehrenberg St. Claire 10 Cine","address":"50 Ludwig Dr","city":"Fairview Heights","state":"IL","zip":"62208","distance":4.544810811922,"lon":"-89.989349","lat":"38.600387","theaterChainName":"Wehrenberg Theatres","ticketType":"STANDARD"},{"id":"5300","tribuneTheaterId":"10734","providerTheaterId":"","name":"MX Movies","address":"618 Washington Avenue","city":"Saint Louis","state":"MO","zip":"63101","distance":12.127161813376,"lon":"-90.1894","lat":"38.6302","theaterChainName":"St. Louis Cinemas","ticketType":"STANDARD"},{"id":"5010","tribuneTheaterId":"10383","providerTheaterId":"","name":"Granite City Cinemas","address":"1243 Niedringhaus Ave.","city":"Granite City","state":"IL","zip":"62040","distance":14.081748199595,"lon":"-90.151398","lat":"38.7015","theaterChainName":"St. Louis Cinemas","ticketType":"STANDARD"},{"id":"2890","tribuneTheaterId":"3100","providerTheaterId":"","name":"RMC Waterloo 8","address":"113 Plaza Dr.","city":"Waterloo","state":"IL","zip":"62298","distance":15.115093705012,"lon":"-90.152288","lat":"38.351508","theaterChainName":"Independent Chains","ticketType":"STANDARD"},{"id":"1309","tribuneTheaterId":"5934","providerTheaterId":"6252","name":"AMC Showplace Edwardsville 12","address":"6633 Center Grove Rd.","city":"Edwardsville","state":"IL","zip":"62025","distance":17.309294016687,"lon":"-89.956055","lat":"38.783294","theaterChainName":"AMC Theatres","ticketType":"STANDARD"},{"id":"996","tribuneTheaterId":"2085","providerTheaterId":"","name":"Keller Plaza 8","address":"4572 LeMay Ferry Road","city":"Saint Louis","state":"MO","zip":"63129","distance":18.597683854996,"lon":"-90.341367","lat":"38.498289","theaterChainName":"Independent Chains","ticketType":"STANDARD"},{"id":"4638","tribuneTheaterId":"9823","providerTheaterId":"","name":"Hi-Pointe Theatre","address":"1005 McCausland Ave.","city":"Saint Louis","state":"MO","zip":"63117","distance":17.755146527823,"lon":"-90.304785","lat":"38.632648","theaterChainName":"Independent Chains","ticketType":"STANDARD"},{"id":"5784","tribuneTheaterId":"11224","providerTheaterId":"","name":"Hi-Pointe Backlot","address":"1002 Hi-Pointe Place","city":"Saint Louis","state":"MO","zip":"63117","distance":17.792564818561,"lon":"-90.305482","lat":"38.632747","theaterChainName":"Independent Chains","ticketType":"STANDARD"},{"id":"66","tribuneTheaterId":"7334","providerTheaterId":"6","name":"AMC Esquire 7","address":"6706 Clayton Road","city":"Saint Louis","state":"MO","zip":"63117","distance":18.388452782181,"lon":"-90.316645","lat":"38.634182","theaterChainName":"AMC Theatres","ticketType":"STANDARD"},{"id":"995","tribuneTheaterId":"7632","providerTheaterId":"","name":"Wehrenberg Ronnies 20 Cine","address":"5320 S. Lindbergh Blvd.","city":"Saint Louis","state":"MO","zip":"63126","distance":19.58050098957,"lon":"-90.362731","lat":"38.527349","theaterChainName":"Wehrenberg Theatres","ticketType":"STANDARD"},{"id":"2371","tribuneTheaterId":"3209","providerTheaterId":"","name":"Wehrenberg Arnold 14 Cine","address":"1912 Richardson Rd.","city":"Arnold","state":"MO","zip":"63010","distance":22.568555726375,"lon":"-90.385938","lat":"38.409979","theaterChainName":"Wehrenberg Theatres","ticketType":"STANDARD"},{"id":"4622","tribuneTheaterId":"9799","providerTheaterId":"","name":"Great Escape at Gravois Bluffs","address":"754 Gravois Bluffs Blvd.","city":"Fenton","state":"MO","zip":"63026","distance":24.336929229547,"lon":"-90.449157","lat":"38.505116","theaterChainName":"Regal Cinemas","ticketType":"STANDARD"},{"id":"2655","tribuneTheaterId":"8861","providerTheaterId":"104","name":"AMC Creve Coeur 12","address":"10465 Olive Blvd","city":"Creve Coeur","state":"MO","zip":"63141","distance":24.158889327183,"lon":"-90.41099","lat":"38.674509","theaterChainName":"AMC Theatres","ticketType":"STANDARD"},{"id":"1055","tribuneTheaterId":"5923","providerTheaterId":"6241","name":"AMC Eastgate Showplace 6","address":"625 Lewis ","city":"East Alton","state":"IL","zip":"62024","distance":24.833987239652,"lon":"-90.11762","lat":"38.882834","theaterChainName":"AMC Theatres","ticketType":"STANDARD"},{"id":"1017","tribuneTheaterId":"6485","providerTheaterId":"","name":"Wehrenberg Des Peres 14 Cine","address":"12800 Manchester Rd.","city":"Saint Louis","state":"MO","zip":"63131","distance":24.893935274187,"lon":"-90.453143","lat":"38.603181","theaterChainName":"Wehrenberg Theatres","ticketType":"STANDARD"}]