[{"id":"1051","tribuneTheaterId":"2445","providerTheaterId":"","name":"Lincoln Theatre - Belleville","address":"103 E Main St","city":"Belleville","state":"IL","zip":"62220","distance":5.0988021333656,"lon":"-89.982665","lat":"38.513793","theaterChainName":"Independent Chains","ticketType":"STANDARD"},{"id":"5205","tribuneTheaterId":"10629","providerTheaterId":"","name":"EDGE 5 Theatres","address":"701 South Belt West","city":"Belleville","state":"IL","zip":"62220","distance":4.4563690898019,"lon":"-89.994848","lat":"38.503883","theaterChainName":"Independent Chains","ticketType":"STANDARD"},{"id":"2890","tribuneTheaterId":"3100","providerTheaterId":"","name":"RMC Waterloo 8","address":"113 Plaza Dr.","city":"Waterloo","state":"IL","zip":"62298","distance":10.996554024199,"lon":"-90.152288","lat":"38.351508","theaterChainName":"Independent Chains","ticketType":"STANDARD"},{"id":"1269","tribuneTheaterId":"6356","providerTheaterId":"","name":"Wehrenberg O'Fallon 15 Cine","address":"1320 Central Park Dr.","city":"O'Fallon","state":"IL","zip":"62269","distance":10.615119658109,"lon":"-89.944934","lat":"38.590642","theaterChainName":"Wehrenberg Theatres","ticketType":"STANDARD"},{"id":"1056","tribuneTheaterId":"6278","providerTheaterId":"","name":"Wehrenberg St. Claire 10 Cine","address":"50 Ludwig Dr","city":"Fairview Heights","state":"IL","zip":"62208","distance":11.086177337092,"lon":"-89.989349","lat":"38.600387","theaterChainName":"Wehrenberg Theatres","ticketType":"STANDARD"},{"id":"5300","tribuneTheaterId":"10734","providerTheaterId":"","name":"MX Movies","address":"618 Washington Avenue","city":"Saint Louis","state":"MO","zip":"63101","distance":17.220240460694,"lon":"-90.1894","lat":"38.6302","theaterChainName":"St. Louis Cinemas","ticketType":"STANDARD"},{"id":"5010","tribuneTheaterId":"10383","providerTheaterId":"","name":"Granite City Cinemas","address":"1243 Niedringhaus Ave.","city":"Granite City","state":"IL","zip":"62040","distance":20.216581892949,"lon":"-90.151398","lat":"38.7015","theaterChainName":"St. Louis Cinemas","ticketType":"STANDARD"},{"id":"996","tribuneTheaterId":"2085","providerTheaterId":"","name":"Keller Plaza 8","address":"4572 LeMay Ferry Road","city":"Saint Louis","state":"MO","zip":"63129","distance":19.77368742763,"lon":"-90.341367","lat":"38.498289","theaterChainName":"Independent Chains","ticketType":"STANDARD"},{"id":"2371","tribuneTheaterId":"3209","providerTheaterId":"","name":"Wehrenberg Arnold 14 Cine","address":"1912 Richardson Rd.","city":"Arnold","state":"MO","zip":"63010","distance":21.882180175453,"lon":"-90.385938","lat":"38.409979","theaterChainName":"Wehrenberg Theatres","ticketType":"STANDARD"},{"id":"995","tribuneTheaterId":"7632","providerTheaterId":"","name":"Wehrenberg Ronnies 20 Cine","address":"5320 S. Lindbergh Blvd.","city":"Saint Louis","state":"MO","zip":"63126","distance":21.380271629714,"lon":"-90.362731","lat":"38.527349","theaterChainName":"Wehrenberg Theatres","ticketType":"STANDARD"},{"id":"66","tribuneTheaterId":"7334","providerTheaterId":"6","name":"AMC Esquire 7","address":"6706 Clayton Road","city":"Saint Louis","state":"MO","zip":"63117","distance":22.453976346792,"lon":"-90.316645","lat":"38.634182","theaterChainName":"AMC Theatres","ticketType":"STANDARD"},{"id":"4638","tribuneTheaterId":"9823","providerTheaterId":"","name":"Hi-Pointe Theatre","address":"1005 McCausland Ave.","city":"Saint Louis","state":"MO","zip":"63117","distance":21.878855183519,"lon":"-90.304785","lat":"38.632648","theaterChainName":"Independent Chains","ticketType":"STANDARD"},{"id":"5784","tribuneTheaterId":"11224","providerTheaterId":"","name":"Hi-Pointe Backlot","address":"1002 Hi-Pointe Place","city":"Saint Louis","state":"MO","zip":"63117","distance":21.912910507058,"lon":"-90.305482","lat":"38.632747","theaterChainName":"Independent Chains","ticketType":"STANDARD"},{"id":"1309","tribuneTheaterId":"5934","providerTheaterId":"6252","name":"AMC Showplace Edwardsville 12","address":"6633 Center Grove Rd.","city":"Edwardsville","state":"IL","zip":"62025","distance":23.765552154777,"lon":"-89.956055","lat":"38.783294","theaterChainName":"AMC Theatres","ticketType":"STANDARD"}]