[{"id":"1055","name":"AMC Eastgate Showplace 6","address":"625 Lewis ","city":"East Alton","state":"IL","zip":"62024","distance":"24.83573341369629","lon":"-90.117622","lat":"38.882835","theaterChainName":"AMC Theatres","ticketType":"STANDARD"},{"id":"5010","name":"Granite City Cinemas","address":"1243 Niedringhaus Ave.","city":"Granite City","state":"IL","zip":"62040","distance":"14.082624435424805","lon":"-90.151398","lat":"38.701500","theaterChainName":"St. Louis Cinemas","ticketType":"STANDARD"},{"id":"1309","name":"AMC Showplace Edwardsville 12","address":"6633 Center Grove Rd.","city":"Edwardsville","state":"IL","zip":"62025","distance":"17.310558319091797","lon":"-89.956055","lat":"38.783295","theaterChainName":"AMC Theatres","ticketType":"STANDARD"},{"id":"5300","name":"MX Movies","address":"618 Washington Avenue","city":"Saint Louis","state":"MO","zip":"63101","distance":"12.127822875976562","lon":"-90.189400","lat":"38.630199","theaterChainName":"St. Louis Cinemas","ticketType":"STANDARD"},{"id":"4638","name":"Hi-Pointe Theatre","address":"1005 McCausland Ave.","city":"Saint Louis","state":"MO","zip":"63117","distance":"17.756254196166992","lon":"-90.304787","lat":"38.632648","theaterChainName":"Independent Chains","ticketType":"STANDARD"},{"id":"5784","name":"Hi-Pointe Backlot","address":"1002 Hi-Pointe Place","city":"Saint Louis","state":"MO","zip":"63117","distance":"17.793542861938477","lon":"-90.305481","lat":"38.632748","theaterChainName":"Independent Chains","ticketType":"STANDARD"},{"id":"66","name":"AMC Esquire 7","address":"6706 Clayton Road","city":"Saint Louis","state":"MO","zip":"63117","distance":"18.389389038085938","lon":"-90.316643","lat":"38.634182","theaterChainName":"AMC Theatres","ticketType":"STANDARD"},{"id":"1056","name":"Wehrenberg St. Claire 10 Cine","address":"50 Ludwig Dr","city":"Fairview Heights","state":"IL","zip":"62208","distance":"4.545271396636963","lon":"-89.989349","lat":"38.600388","theaterChainName":"Wehrenberg Theatres","ticketType":"STANDARD"},{"id":"2655","name":"AMC Creve Coeur 12","address":"10465 Olive Blvd","city":"Creve Coeur","state":"MO","zip":"63141","distance":"24.160144805908203","lon":"-90.410988","lat":"38.674507","theaterChainName":"AMC Theatres","ticketType":"STANDARD"},{"id":"1269","name":"Wehrenberg O'Fallon 15 Cine","address":"1320 Central Park Dr.","city":"O'Fallon","state":"IL","zip":"62269","distance":"4.870696544647217","lon":"-89.944931","lat":"38.590641","theaterChainName":"Wehrenberg Theatres","ticketType":"STANDARD"},{"id":"1051","name":"Lincoln Theatre - Belleville","address":"103 E Main St","city":"Belleville","state":"IL","zip":"62220","distance":"1.768489956855774","lon":"-89.982666","lat":"38.513794","theaterChainName":"Independent Chains","ticketType":"STANDARD"},{"id":"1017","name":"Wehrenberg Des Peres 14 Cine","address":"12800 Manchester Rd.","city":"Saint Louis","state":"MO","zip":"63131","distance":"24.895198822021484","lon":"-90.453140","lat":"38.603180","theaterChainName":"Wehrenberg Theatres","ticketType":"STANDARD"},{"id":"5205","name":"EDGE 5 Theatres","address":"701 South Belt West","city":"Belleville","state":"IL","zip":"62220","distance":"2.1860153675079346","lon":"-89.994850","lat":"38.503883","theaterChainName":"Independent Chains","ticketType":"STANDARD"},{"id":"995","name":"Wehrenberg Ronnies 20 Cine","address":"5320 S. Lindbergh Blvd.","city":"Saint Louis","state":"MO","zip":"63126","distance":"19.58161735534668","lon":"-90.362732","lat":"38.527348","theaterChainName":"Wehrenberg Theatres","ticketType":"STANDARD"},{"id":"996","name":"Keller Plaza 8","address":"4572 LeMay Ferry Road","city":"Saint Louis","state":"MO","zip":"63129","distance":"18.598831176757812","lon":"-90.341370","lat":"38.498287","theaterChainName":"Independent Chains","ticketType":"STANDARD"},{"id":"4622","name":"Great Escape at Gravois Bluffs","address":"754 Gravois Bluffs Blvd.","city":"Fenton","state":"MO","zip":"63026","distance":"24.338321685791016","lon":"-90.449158","lat":"38.505116","theaterChainName":"Regal Cinemas","ticketType":"STANDARD"},{"id":"2890","name":"RMC Waterloo 8","address":"113 Plaza Dr.","city":"Waterloo","state":"IL","zip":"62298","distance":"15.115852355957031","lon":"-90.152290","lat":"38.351509","theaterChainName":"Independent Chains","ticketType":"STANDARD"},{"id":"2371","name":"Wehrenberg Arnold 14 Cine","address":"1912 Richardson Rd.","city":"Arnold","state":"MO","zip":"63010","distance":"22.56985092163086","lon":"-90.385941","lat":"38.409981","theaterChainName":"Wehrenberg Theatres","ticketType":"STANDARD"}]