[{"id":"3161","tribuneTheaterId":"1542","providerTheaterId":"","name":"Globe Theatre","address":"105 N. 3rd St","city":"Greenville","state":"IL","zip":"62246","distance":19.881678710039,"lon":"-89.413738","lat":"38.892306","theaterChainName":"Independent Chains","ticketType":"STANDARD"},{"id":"1509","tribuneTheaterId":"4932","providerTheaterId":"6132","name":"AMC Plaza 5","address":"1047 W. Broadway","city":"Centralia","state":"IL","zip":"62801","distance":21.233310871877,"lon":"-89.152199","lat":"38.529701","theaterChainName":"AMC Theatres","ticketType":"STANDARD"},{"id":"1269","tribuneTheaterId":"6356","providerTheaterId":"","name":"Wehrenberg O'Fallon 15 Cine","address":"1320 Central Park Dr.","city":"O'Fallon","state":"IL","zip":"62269","distance":22.574424837746,"lon":"-89.944934","lat":"38.590642","theaterChainName":"Wehrenberg Theatres","ticketType":"STANDARD"},{"id":"1056","tribuneTheaterId":"6278","providerTheaterId":"","name":"Wehrenberg St. Claire 10 Cine","address":"50 Ludwig Dr","city":"Fairview Heights","state":"IL","zip":"62208","distance":24.919388820346,"lon":"-89.989349","lat":"38.600387","theaterChainName":"Wehrenberg Theatres","ticketType":"STANDARD"}]