[{"id":"1056","name":"Wehrenberg St. Claire 10 Cine","address":"50 Ludwig Dr","city":"Fairview Heights","state":"IL","zip":"62208","distance":"24.465957641601562","lon":"-89.989349","lat":"38.600388","theaterChainName":"Wehrenberg Theatres","ticketType":"STANDARD"},{"id":"1269","name":"Wehrenberg O'Fallon 15 Cine","address":"1320 Central Park Dr.","city":"O'Fallon","state":"IL","zip":"62269","distance":"21.99759864807129","lon":"-89.944931","lat":"38.590641","theaterChainName":"Wehrenberg Theatres","ticketType":"STANDARD"},{"id":"1051","name":"Lincoln Theatre - Belleville","address":"103 E Main St","city":"Belleville","state":"IL","zip":"62220","distance":"23.978788375854492","lon":"-89.982666","lat":"38.513794","theaterChainName":"Independent Chains","ticketType":"STANDARD"},{"id":"5205","name":"EDGE 5 Theatres","address":"701 South Belt West","city":"Belleville","state":"IL","zip":"62220","distance":"24.712242126464844","lon":"-89.994850","lat":"38.503883","theaterChainName":"Independent Chains","ticketType":"STANDARD"},{"id":"3161","name":"Globe Theatre","address":"105 N. 3rd St","city":"Greenville","state":"IL","zip":"62246","distance":"24.718433380126953","lon":"-89.413734","lat":"38.892307","theaterChainName":"Independent Chains","ticketType":"STANDARD"},{"id":"1509","name":"AMC Plaza 5","address":"1047 W. Broadway","city":"Centralia","state":"IL","zip":"62801","distance":"21.070510864257812","lon":"-89.152199","lat":"38.529701","theaterChainName":"AMC Theatres","ticketType":"STANDARD"}]