[{"id":"2890","tribuneTheaterId":"3100","providerTheaterId":"","name":"RMC Waterloo 8","address":"113 Plaza Dr.","city":"Waterloo","state":"IL","zip":"62298","distance":9.2015073528899,"lon":"-90.152288","lat":"38.351508","theaterChainName":"Independent Chains","ticketType":"STANDARD"},{"id":"1051","tribuneTheaterId":"2445","providerTheaterId":"","name":"Lincoln Theatre - Belleville","address":"103 E Main St","city":"Belleville","state":"IL","zip":"62220","distance":14.479541840913,"lon":"-89.982665","lat":"38.513793","theaterChainName":"Independent Chains","ticketType":"STANDARD"},{"id":"5205","tribuneTheaterId":"10629","providerTheaterId":"","name":"EDGE 5 Theatres","address":"701 South Belt West","city":"Belleville","state":"IL","zip":"62220","distance":13.78313256471,"lon":"-89.994848","lat":"38.503883","theaterChainName":"Independent Chains","ticketType":"STANDARD"},{"id":"1056","tribuneTheaterId":"6278","providerTheaterId":"","name":"Wehrenberg St. Claire 10 Cine","address":"50 Ludwig Dr","city":"Fairview Heights","state":"IL","zip":"62208","distance":20.451952752042,"lon":"-89.989349","lat":"38.600387","theaterChainName":"Wehrenberg Theatres","ticketType":"STANDARD"},{"id":"1269","tribuneTheaterId":"6356","providerTheaterId":"","name":"Wehrenberg O'Fallon 15 Cine","address":"1320 Central Park Dr.","city":"O'Fallon","state":"IL","zip":"62269","distance":19.951245727677,"lon":"-89.944934","lat":"38.590642","theaterChainName":"Wehrenberg Theatres","ticketType":"STANDARD"},{"id":"2371","tribuneTheaterId":"3209","providerTheaterId":"","name":"Wehrenberg Arnold 14 Cine","address":"1912 Richardson Rd.","city":"Arnold","state":"MO","zip":"63010","distance":22.478844509485,"lon":"-90.385938","lat":"38.409979","theaterChainName":"Wehrenberg Theatres","ticketType":"STANDARD"},{"id":"1268","tribuneTheaterId":"3991","providerTheaterId":"","name":"B&B Festus 8 Cinema","address":"1522 Parkway West","city":"Festus","state":"MO","zip":"63028","distance":23.702649415397,"lon":"-90.414552","lat":"38.21288","theaterChainName":"B&B Theatres","ticketType":"STANDARD"},{"id":"996","tribuneTheaterId":"2085","providerTheaterId":"","name":"Keller Plaza 8","address":"4572 LeMay Ferry Road","city":"Saint Louis","state":"MO","zip":"63129","distance":23.113971127948,"lon":"-90.341367","lat":"38.498289","theaterChainName":"Independent Chains","ticketType":"STANDARD"},{"id":"5300","tribuneTheaterId":"10734","providerTheaterId":"","name":"MX Movies","address":"618 Washington Avenue","city":"Saint Louis","state":"MO","zip":"63101","distance":24.880463113834,"lon":"-90.1894","lat":"38.6302","theaterChainName":"St. Louis Cinemas","ticketType":"STANDARD"}]