[{"id":"1269","tribuneTheaterId":"6356","providerTheaterId":"","name":"Wehrenberg O'Fallon 15 Cine","address":"1320 Central Park Dr.","city":"O'Fallon","state":"IL","zip":"62269","distance":10.470505808032,"lon":"-89.944934","lat":"38.590642","theaterChainName":"Wehrenberg Theatres","ticketType":"STANDARD"},{"id":"1051","tribuneTheaterId":"2445","providerTheaterId":"","name":"Lincoln Theatre - Belleville","address":"103 E Main St","city":"Belleville","state":"IL","zip":"62220","distance":13.755851384173,"lon":"-89.982665","lat":"38.513793","theaterChainName":"Independent Chains","ticketType":"STANDARD"},{"id":"1056","tribuneTheaterId":"6278","providerTheaterId":"","name":"Wehrenberg St. Claire 10 Cine","address":"50 Ludwig Dr","city":"Fairview Heights","state":"IL","zip":"62208","distance":12.86230967825,"lon":"-89.989349","lat":"38.600387","theaterChainName":"Wehrenberg Theatres","ticketType":"STANDARD"},{"id":"5205","tribuneTheaterId":"10629","providerTheaterId":"","name":"EDGE 5 Theatres","address":"701 South Belt West","city":"Belleville","state":"IL","zip":"62220","distance":14.64441956839,"lon":"-89.994848","lat":"38.503883","theaterChainName":"Independent Chains","ticketType":"STANDARD"},{"id":"1309","tribuneTheaterId":"5934","providerTheaterId":"6252","name":"AMC Showplace Edwardsville 12","address":"6633 Center Grove Rd.","city":"Edwardsville","state":"IL","zip":"62025","distance":16.978465910977,"lon":"-89.956055","lat":"38.783294","theaterChainName":"AMC Theatres","ticketType":"STANDARD"},{"id":"5300","tribuneTheaterId":"10734","providerTheaterId":"","name":"MX Movies","address":"618 Washington Avenue","city":"Saint Louis","state":"MO","zip":"63101","distance":23.770352292029,"lon":"-90.1894","lat":"38.6302","theaterChainName":"St. Louis Cinemas","ticketType":"STANDARD"},{"id":"5010","tribuneTheaterId":"10383","providerTheaterId":"","name":"Granite City Cinemas","address":"1243 Niedringhaus Ave.","city":"Granite City","state":"IL","zip":"62040","distance":22.7766564464,"lon":"-90.151398","lat":"38.7015","theaterChainName":"St. Louis Cinemas","ticketType":"STANDARD"}]