[{"id":"1056","name":"Wehrenberg St. Claire 10 Cine","address":"50 Ludwig Dr","city":"Fairview Heights","state":"IL","zip":"62208","distance":"22.149133682250977","lon":"-89.989349","lat":"38.600388","theaterChainName":"Wehrenberg Theatres","ticketType":"STANDARD"},{"id":"1269","name":"Wehrenberg O'Fallon 15 Cine","address":"1320 Central Park Dr.","city":"O'Fallon","state":"IL","zip":"62269","distance":"20.078935623168945","lon":"-89.944931","lat":"38.590641","theaterChainName":"Wehrenberg Theatres","ticketType":"STANDARD"},{"id":"1051","name":"Lincoln Theatre - Belleville","address":"103 E Main St","city":"Belleville","state":"IL","zip":"62220","distance":"17.885019302368164","lon":"-89.982666","lat":"38.513794","theaterChainName":"Independent Chains","ticketType":"STANDARD"},{"id":"5205","name":"EDGE 5 Theatres","address":"701 South Belt West","city":"Belleville","state":"IL","zip":"62220","distance":"18.04834747314453","lon":"-89.994850","lat":"38.503883","theaterChainName":"Independent Chains","ticketType":"STANDARD"},{"id":"2890","name":"RMC Waterloo 8","address":"113 Plaza Dr.","city":"Waterloo","state":"IL","zip":"62298","distance":"23.76725196838379","lon":"-90.152290","lat":"38.351509","theaterChainName":"Independent Chains","ticketType":"STANDARD"}]