[{"id":"2098","tribuneTheaterId":"335","providerTheaterId":"","name":"Roseland Theatre","address":"127 South Locust","city":"Pana","state":"IL","zip":"62557","distance":8.6435216604414,"lon":"-89.081902","lat":"39.388699","theaterChainName":"Independent Chains","ticketType":"STANDARD"},{"id":"4519","tribuneTheaterId":"9628","providerTheaterId":"","name":"Boarman's Roxy Theater","address":"149 East Main Street","city":"Shelbyville","state":"IL","zip":"62565","distance":14.981904819369,"lon":"-88.792528","lat":"39.406695","theaterChainName":"Independent Chains","ticketType":"STANDARD"},{"id":"2202","tribuneTheaterId":"4976","providerTheaterId":"","name":"Carmike Strand 10","address":"2360 S Mt Zion Rd","city":"Decatur","state":"IL","zip":"62521","distance":22.744492831229,"lon":"-88.876272","lat":"39.813663","theaterChainName":"Carmike Cinemas","ticketType":"STANDARD"},{"id":"3395","tribuneTheaterId":"616","providerTheaterId":"","name":"Avon Theatre - Decatur","address":"805 W. North St.","city":"Decatur","state":"IL","zip":"62522","distance":23.606776026738,"lon":"-88.954239","lat":"39.844759","theaterChainName":"Independent Chains","ticketType":"STANDARD"}]