[{"id":"4519","tribuneTheaterId":"9628","providerTheaterId":"","name":"Boarman's Roxy Theater","address":"149 East Main Street","city":"Shelbyville","state":"IL","zip":"62565","distance":8.1536628077181,"lon":"-88.792528","lat":"39.406695","theaterChainName":"Independent Chains","ticketType":"STANDARD"},{"id":"2098","tribuneTheaterId":"335","providerTheaterId":"","name":"Roseland Theatre","address":"127 South Locust","city":"Pana","state":"IL","zip":"62557","distance":20.025726599995,"lon":"-89.081902","lat":"39.388699","theaterChainName":"Independent Chains","ticketType":"STANDARD"},{"id":"2202","tribuneTheaterId":"4976","providerTheaterId":"","name":"Carmike Strand 10","address":"2360 S Mt Zion Rd","city":"Decatur","state":"IL","zip":"62521","distance":21.47261924815,"lon":"-88.876272","lat":"39.813663","theaterChainName":"Carmike Cinemas","ticketType":"STANDARD"},{"id":"1516","tribuneTheaterId":"4943","providerTheaterId":"6601","name":"AMC Showplace Mattoon 10","address":"2509 Hurst Dr.","city":"Mattoon","state":"IL","zip":"61938","distance":23.640530931467,"lon":"-88.306013","lat":"39.482036","theaterChainName":"AMC Theatres","ticketType":"STANDARD"}]