[{"id":"6110","name":"Marvel Theatre","address":"228 West Main Street","city":"Carlinville","state":"IL","zip":"62626","distance":"18.053651809692383","lon":"-89.884026","lat":"39.279976","theaterChainName":"Eisentraut Theatres","ticketType":"STANDARD"},{"id":"4661","name":"Orpheum Theatre","address":"316 South Main St.","city":"Hillsboro","state":"IL","zip":"62049","distance":"20.49236488342285","lon":"-89.493683","lat":"39.159302","theaterChainName":"Eisentraut Theatres","ticketType":"STANDARD"},{"id":"1513","name":"AMC Showplace Springfield 8","address":"2945 S. Dirksen Pkwy.","city":"Springfield","state":"IL","zip":"62703","distance":"22.366724014282227","lon":"-89.607788","lat":"39.763721","theaterChainName":"AMC Theatres","ticketType":"STANDARD"},{"id":"1514","name":"AMC Parkway 8","address":"3025 Lindberg Blvd.","city":"Springfield","state":"IL","zip":"62704","distance":"22.25531578063965","lon":"-89.711639","lat":"39.753822","theaterChainName":"AMC Theatres","ticketType":"STANDARD"},{"id":"3655","name":"AMC Showplace Springfield 12","address":"3141 Mercantile Dr.","city":"Springfield","state":"IL","zip":"62711","distance":"22.519187927246094","lon":"-89.727234","lat":"39.754742","theaterChainName":"AMC Theatres","ticketType":"STANDARD"}]