[{"id":"2210","name":"Lincoln Theater 4","address":"215 S Kickapoo St","city":"Lincoln","state":"IL","zip":"62656","distance":"12.099390983581543","lon":"-89.363998","lat":"40.145401","theaterChainName":"Independent Chains","ticketType":"STANDARD"},{"id":"6113","name":"Clintonia Eagle Theater","address":"13 Kelli Ct","city":"Clinton","state":"IL","zip":"61727","distance":"23.139436721801758","lon":"-88.979683","lat":"40.148346","theaterChainName":"Independent Chains","ticketType":"STANDARD"},{"id":"2207","name":"Carmike Hickory Point 12","address":"1146 US Route 51 North","city":"Forsyth","state":"IL","zip":"62535","distance":"21.103185653686523","lon":"-88.957436","lat":"39.920929","theaterChainName":"Carmike Cinemas","ticketType":"STANDARD"},{"id":"3395","name":"Avon Theatre - Decatur","address":"805 W. North St.","city":"Decatur","state":"IL","zip":"62522","distance":"22.731958389282227","lon":"-88.954239","lat":"39.844761","theaterChainName":"Independent Chains","ticketType":"STANDARD"},{"id":"1513","name":"AMC Showplace Springfield 8","address":"2945 S. Dirksen Pkwy.","city":"Springfield","state":"IL","zip":"62703","distance":"19.761810302734375","lon":"-89.607788","lat":"39.763721","theaterChainName":"AMC Theatres","ticketType":"STANDARD"},{"id":"1514","name":"AMC Parkway 8","address":"3025 Lindberg Blvd.","city":"Springfield","state":"IL","zip":"62704","distance":"24.3155460357666","lon":"-89.711639","lat":"39.753822","theaterChainName":"AMC Theatres","ticketType":"STANDARD"},{"id":"3655","name":"AMC Showplace Springfield 12","address":"3141 Mercantile Dr.","city":"Springfield","state":"IL","zip":"62711","distance":"24.934123992919922","lon":"-89.727234","lat":"39.754742","theaterChainName":"AMC Theatres","ticketType":"STANDARD"}]