[{"id":"2207","name":"Carmike Hickory Point 12","address":"1146 US Route 51 North","city":"Forsyth","state":"IL","zip":"62535","distance":"18.689624786376953","lon":"-88.957436","lat":"39.920929","theaterChainName":"Carmike Cinemas","ticketType":"STANDARD"},{"id":"3395","name":"Avon Theatre - Decatur","address":"805 W. North St.","city":"Decatur","state":"IL","zip":"62522","distance":"16.493797302246094","lon":"-88.954239","lat":"39.844761","theaterChainName":"Independent Chains","ticketType":"STANDARD"},{"id":"2202","name":"Carmike Strand 10","address":"2360 S Mt Zion Rd","city":"Decatur","state":"IL","zip":"62521","distance":"20.023216247558594","lon":"-88.876274","lat":"39.813663","theaterChainName":"Carmike Cinemas","ticketType":"STANDARD"},{"id":"1513","name":"AMC Showplace Springfield 8","address":"2945 S. Dirksen Pkwy.","city":"Springfield","state":"IL","zip":"62703","distance":"19.06484603881836","lon":"-89.607788","lat":"39.763721","theaterChainName":"AMC Theatres","ticketType":"STANDARD"},{"id":"1514","name":"AMC Parkway 8","address":"3025 Lindberg Blvd.","city":"Springfield","state":"IL","zip":"62704","distance":"24.60127830505371","lon":"-89.711639","lat":"39.753822","theaterChainName":"AMC Theatres","ticketType":"STANDARD"}]