[{"id":"2207","name":"Carmike Hickory Point 12","address":"1146 US Route 51 North","city":"Forsyth","state":"IL","zip":"62535","distance":"15.069815635681152","lon":"-88.957436","lat":"39.920929","theaterChainName":"Carmike Cinemas","ticketType":"STANDARD"},{"id":"3395","name":"Avon Theatre - Decatur","address":"805 W. North St.","city":"Decatur","state":"IL","zip":"62522","distance":"9.883198738098145","lon":"-88.954239","lat":"39.844761","theaterChainName":"Independent Chains","ticketType":"STANDARD"},{"id":"2202","name":"Carmike Strand 10","address":"2360 S Mt Zion Rd","city":"Decatur","state":"IL","zip":"62521","distance":"9.619340896606445","lon":"-88.876274","lat":"39.813663","theaterChainName":"Carmike Cinemas","ticketType":"STANDARD"},{"id":"4519","name":"Boarman's Roxy Theater","address":"149 East Main Street","city":"Shelbyville","state":"IL","zip":"62565","distance":"23.037967681884766","lon":"-88.792526","lat":"39.406696","theaterChainName":"Independent Chains","ticketType":"STANDARD"},{"id":"2098","name":"Roseland Theatre","address":"127 South Locust","city":"Pana","state":"IL","zip":"62557","distance":"22.360525131225586","lon":"-89.081902","lat":"39.388699","theaterChainName":"Independent Chains","ticketType":"STANDARD"}]