[{"id":"3395","tribuneTheaterId":"616","providerTheaterId":"","name":"Avon Theatre - Decatur","address":"805 W. North St.","city":"Decatur","state":"IL","zip":"62522","distance":16.492681660795,"lon":"-88.954239","lat":"39.844759","theaterChainName":"Independent Chains","ticketType":"STANDARD"},{"id":"2207","tribuneTheaterId":"7615","providerTheaterId":"","name":"Carmike Hickory Point 12","address":"1146 US Route 51 North","city":"Forsyth","state":"IL","zip":"62535","distance":18.688390609854,"lon":"-88.957436","lat":"39.920928","theaterChainName":"Carmike Cinemas","ticketType":"STANDARD"},{"id":"1513","tribuneTheaterId":"4937","providerTheaterId":"6914","name":"AMC Showplace Springfield 8","address":"2945 S. Dirksen Pkwy.","city":"Springfield","state":"IL","zip":"62703","distance":19.063626533969,"lon":"-89.607786","lat":"39.763721","theaterChainName":"AMC Theatres","ticketType":"STANDARD"},{"id":"2202","tribuneTheaterId":"4976","providerTheaterId":"","name":"Carmike Strand 10","address":"2360 S Mt Zion Rd","city":"Decatur","state":"IL","zip":"62521","distance":20.022020288705,"lon":"-88.876272","lat":"39.813663","theaterChainName":"Carmike Cinemas","ticketType":"STANDARD"},{"id":"1514","tribuneTheaterId":"4938","providerTheaterId":"6903","name":"AMC Parkway 8","address":"3025 Lindberg Blvd.","city":"Springfield","state":"IL","zip":"62704","distance":24.599902080887,"lon":"-89.711641","lat":"39.753824","theaterChainName":"AMC Theatres","ticketType":"STANDARD"}]