[{"id":"2210","name":"Lincoln Theater 4","address":"215 S Kickapoo St","city":"Lincoln","state":"IL","zip":"62656","distance":"22.341745376586914","lon":"-89.363998","lat":"40.145401","theaterChainName":"Independent Chains","ticketType":"STANDARD"},{"id":"6113","name":"Clintonia Eagle Theater","address":"13 Kelli Ct","city":"Clinton","state":"IL","zip":"61727","distance":"22.43909454345703","lon":"-88.979683","lat":"40.148346","theaterChainName":"Independent Chains","ticketType":"STANDARD"},{"id":"2207","name":"Carmike Hickory Point 12","address":"1146 US Route 51 North","city":"Forsyth","state":"IL","zip":"62535","distance":"12.079205513000488","lon":"-88.957436","lat":"39.920929","theaterChainName":"Carmike Cinemas","ticketType":"STANDARD"},{"id":"3395","name":"Avon Theatre - Decatur","address":"805 W. North St.","city":"Decatur","state":"IL","zip":"62522","distance":"11.488184928894043","lon":"-88.954239","lat":"39.844761","theaterChainName":"Independent Chains","ticketType":"STANDARD"},{"id":"2202","name":"Carmike Strand 10","address":"2360 S Mt Zion Rd","city":"Decatur","state":"IL","zip":"62521","distance":"15.89072322845459","lon":"-88.876274","lat":"39.813663","theaterChainName":"Carmike Cinemas","ticketType":"STANDARD"},{"id":"1513","name":"AMC Showplace Springfield 8","address":"2945 S. Dirksen Pkwy.","city":"Springfield","state":"IL","zip":"62703","distance":"24.131559371948242","lon":"-89.607788","lat":"39.763721","theaterChainName":"AMC Theatres","ticketType":"STANDARD"}]