[{"id":"3395","tribuneTheaterId":"616","providerTheaterId":"","name":"Avon Theatre - Decatur","address":"805 W. North St.","city":"Decatur","state":"IL","zip":"62522","distance":11.487617173733,"lon":"-88.954239","lat":"39.844759","theaterChainName":"Independent Chains","ticketType":"STANDARD"},{"id":"2207","tribuneTheaterId":"7615","providerTheaterId":"","name":"Carmike Hickory Point 12","address":"1146 US Route 51 North","city":"Forsyth","state":"IL","zip":"62535","distance":12.078547246095,"lon":"-88.957436","lat":"39.920928","theaterChainName":"Carmike Cinemas","ticketType":"STANDARD"},{"id":"2202","tribuneTheaterId":"4976","providerTheaterId":"","name":"Carmike Strand 10","address":"2360 S Mt Zion Rd","city":"Decatur","state":"IL","zip":"62521","distance":15.88999191106,"lon":"-88.876272","lat":"39.813663","theaterChainName":"Carmike Cinemas","ticketType":"STANDARD"},{"id":"6113","tribuneTheaterId":"11528","providerTheaterId":"","name":"Clintonia Eagle Theater","address":"13 Kelli Ct","city":"Clinton","state":"IL","zip":"61727","distance":22.437796105697,"lon":"-88.979682","lat":"40.148346","theaterChainName":"Independent Chains","ticketType":"STANDARD"},{"id":"2210","tribuneTheaterId":"4964","providerTheaterId":"","name":"Lincoln Theater 4","address":"215 S Kickapoo St","city":"Lincoln","state":"IL","zip":"62656","distance":22.340277769214,"lon":"-89.364","lat":"40.1454","theaterChainName":"Independent Chains","ticketType":"STANDARD"},{"id":"1513","tribuneTheaterId":"4937","providerTheaterId":"6914","name":"AMC Showplace Springfield 8","address":"2945 S. Dirksen Pkwy.","city":"Springfield","state":"IL","zip":"62703","distance":24.129829524971,"lon":"-89.607786","lat":"39.763721","theaterChainName":"AMC Theatres","ticketType":"STANDARD"}]