[{"id":"2210","name":"Lincoln Theater 4","address":"215 S Kickapoo St","city":"Lincoln","state":"IL","zip":"62656","distance":"20.75031089782715","lon":"-89.363998","lat":"40.145401","theaterChainName":"Independent Chains","ticketType":"STANDARD"},{"id":"1513","name":"AMC Showplace Springfield 8","address":"2945 S. Dirksen Pkwy.","city":"Springfield","state":"IL","zip":"62703","distance":"8.825921058654785","lon":"-89.607788","lat":"39.763721","theaterChainName":"AMC Theatres","ticketType":"STANDARD"},{"id":"1514","name":"AMC Parkway 8","address":"3025 Lindberg Blvd.","city":"Springfield","state":"IL","zip":"62704","distance":"13.282896995544434","lon":"-89.711639","lat":"39.753822","theaterChainName":"AMC Theatres","ticketType":"STANDARD"},{"id":"3655","name":"AMC Showplace Springfield 12","address":"3141 Mercantile Dr.","city":"Springfield","state":"IL","zip":"62711","distance":"13.92723560333252","lon":"-89.727234","lat":"39.754742","theaterChainName":"AMC Theatres","ticketType":"STANDARD"}]