[{"id":"4561","tribuneTheaterId":"9700","providerTheaterId":"","name":"Illinois Theater","address":"204 N. Mauvaisterre St.","city":"Jacksonville","state":"IL","zip":"62650","distance":16.136019684412,"lon":"-90.228334","lat":"39.735064","theaterChainName":"Independent Chains","ticketType":"STANDARD"},{"id":"2851","tribuneTheaterId":"1946","providerTheaterId":"","name":"RMC Cinema","address":"2199 S. Main St.","city":"Jacksonville","state":"IL","zip":"62650","distance":18.465427437438,"lon":"-90.231202","lat":"39.698196","theaterChainName":"Independent Chains","ticketType":"STANDARD"},{"id":"3655","tribuneTheaterId":"4948","providerTheaterId":"6906","name":"AMC Showplace Springfield 12","address":"3141 Mercantile Dr.","city":"Springfield","state":"IL","zip":"62711","distance":22.582666857646,"lon":"-89.727233","lat":"39.754741","theaterChainName":"AMC Theatres","ticketType":"STANDARD"},{"id":"1514","tribuneTheaterId":"4938","providerTheaterId":"6903","name":"AMC Parkway 8","address":"3025 Lindberg Blvd.","city":"Springfield","state":"IL","zip":"62704","distance":23.305909200545,"lon":"-89.711641","lat":"39.753824","theaterChainName":"AMC Theatres","ticketType":"STANDARD"}]