[{"id":"6110","tribuneTheaterId":"1154","providerTheaterId":"","name":"Marvel Theatre","address":"228 West Main Street","city":"Carlinville","state":"IL","zip":"62626","distance":14.4700537236,"lon":"-89.884029","lat":"39.279976","theaterChainName":"Eisentraut Theatres","ticketType":"STANDARD"},{"id":"2851","tribuneTheaterId":"1946","providerTheaterId":"","name":"RMC Cinema","address":"2199 S. Main St.","city":"Jacksonville","state":"IL","zip":"62650","distance":20.382808535477,"lon":"-90.231202","lat":"39.698196","theaterChainName":"Independent Chains","ticketType":"STANDARD"},{"id":"4561","tribuneTheaterId":"9700","providerTheaterId":"","name":"Illinois Theater","address":"204 N. Mauvaisterre St.","city":"Jacksonville","state":"IL","zip":"62650","distance":22.270987752642,"lon":"-90.228334","lat":"39.735064","theaterChainName":"Independent Chains","ticketType":"STANDARD"},{"id":"3655","tribuneTheaterId":"4948","providerTheaterId":"6906","name":"AMC Showplace Springfield 12","address":"3141 Mercantile Dr.","city":"Springfield","state":"IL","zip":"62711","distance":23.474570716612,"lon":"-89.727233","lat":"39.754741","theaterChainName":"AMC Theatres","ticketType":"STANDARD"},{"id":"1514","tribuneTheaterId":"4938","providerTheaterId":"6903","name":"AMC Parkway 8","address":"3025 Lindberg Blvd.","city":"Springfield","state":"IL","zip":"62704","distance":23.907894263689,"lon":"-89.711641","lat":"39.753824","theaterChainName":"AMC Theatres","ticketType":"STANDARD"}]