[{"id":"4561","name":"Illinois Theater","address":"204 N. Mauvaisterre St.","city":"Jacksonville","state":"IL","zip":"62650","distance":"22.27228546142578","lon":"-90.228333","lat":"39.735065","theaterChainName":"Independent Chains","ticketType":"STANDARD"},{"id":"6110","name":"Marvel Theatre","address":"228 West Main Street","city":"Carlinville","state":"IL","zip":"62626","distance":"14.471146583557129","lon":"-89.884026","lat":"39.279976","theaterChainName":"Eisentraut Theatres","ticketType":"STANDARD"},{"id":"2851","name":"RMC Cinema","address":"2199 S. Main St.","city":"Jacksonville","state":"IL","zip":"62650","distance":"20.38395118713379","lon":"-90.231201","lat":"39.698196","theaterChainName":"Independent Chains","ticketType":"STANDARD"},{"id":"1514","name":"AMC Parkway 8","address":"3025 Lindberg Blvd.","city":"Springfield","state":"IL","zip":"62704","distance":"23.909257888793945","lon":"-89.711639","lat":"39.753822","theaterChainName":"AMC Theatres","ticketType":"STANDARD"},{"id":"3655","name":"AMC Showplace Springfield 12","address":"3141 Mercantile Dr.","city":"Springfield","state":"IL","zip":"62711","distance":"23.4759578704834","lon":"-89.727234","lat":"39.754742","theaterChainName":"AMC Theatres","ticketType":"STANDARD"}]