[{"id":"4561","name":"Illinois Theater","address":"204 N. Mauvaisterre St.","city":"Jacksonville","state":"IL","zip":"62650","distance":"21.16227149963379","lon":"-90.228333","lat":"39.735065","theaterChainName":"Independent Chains","ticketType":"STANDARD"},{"id":"2851","name":"RMC Cinema","address":"2199 S. Main St.","city":"Jacksonville","state":"IL","zip":"62650","distance":"23.085037231445312","lon":"-90.231201","lat":"39.698196","theaterChainName":"Independent Chains","ticketType":"STANDARD"},{"id":"1513","name":"AMC Showplace Springfield 8","address":"2945 S. Dirksen Pkwy.","city":"Springfield","state":"IL","zip":"62703","distance":"21.483644485473633","lon":"-89.607788","lat":"39.763721","theaterChainName":"AMC Theatres","ticketType":"STANDARD"},{"id":"1514","name":"AMC Parkway 8","address":"3025 Lindberg Blvd.","city":"Springfield","state":"IL","zip":"62704","distance":"17.801572799682617","lon":"-89.711639","lat":"39.753822","theaterChainName":"AMC Theatres","ticketType":"STANDARD"},{"id":"3655","name":"AMC Showplace Springfield 12","address":"3141 Mercantile Dr.","city":"Springfield","state":"IL","zip":"62711","distance":"17.207626342773438","lon":"-89.727234","lat":"39.754742","theaterChainName":"AMC Theatres","ticketType":"STANDARD"}]