[{"id":"5336","name":"The Grand Theatre of DuQuoin","address":"220 W. Main St.","city":"Du Quoin","state":"IL","zip":"62832","distance":"10.14066219329834","lon":"-89.240601","lat":"38.011299","theaterChainName":"Independent Chains","ticketType":"STANDARD"},{"id":"1517","name":"AMC Showplace Mt Vernon 8","address":"400 Potomac Blvd.","city":"Mount Vernon","state":"IL","zip":"62864","distance":"23.80484390258789","lon":"-88.958313","lat":"38.320484","theaterChainName":"AMC Theatres","ticketType":"STANDARD"},{"id":"200","name":"AMC University Place 8","address":"1370 E. Main St.","city":"Carbondale","state":"IL","zip":"62901","distance":"18.622024536132812","lon":"-89.188522","lat":"37.736073","theaterChainName":"AMC Theatres","ticketType":"STANDARD"},{"id":"3631","name":"AMC Showplace Carbondale 8","address":"1263 E. Main St.","city":"Carbondale","state":"IL","zip":"62901","distance":"18.963764190673828","lon":"-89.190506","lat":"37.731369","theaterChainName":"AMC Theatres","ticketType":"STANDARD"},{"id":"1515","name":"AMC Centre 8","address":"3107 Civic Circle Blvd.","city":"Marion","state":"IL","zip":"62959","distance":"16.734905242919922","lon":"-88.979256","lat":"37.750698","theaterChainName":"AMC Theatres","ticketType":"STANDARD"}]