[{"id":"1498","tribuneTheaterId":"6486","providerTheaterId":"","name":"Wehrenberg Cape West 14 Cine","address":"247 Siemers Dr.","city":"Cape Girardeau","state":"MO","zip":"63701","distance":15.530170094862,"lon":"-89.583399","lat":"37.298075","theaterChainName":"Wehrenberg Theatres","ticketType":"STANDARD"},{"id":"5926","tribuneTheaterId":"11357","providerTheaterId":"","name":"Malco Sikeston Cinema","address":"1218 Cinema Drive","city":"Sikeston","state":"MO","zip":"63801","distance":24.992366570078,"lon":"-89.589959","lat":"36.858772","theaterChainName":"Malco Theatre","ticketType":"STANDARD"},{"id":"5971","tribuneTheaterId":"11407","providerTheaterId":"","name":"Moviehouse Eatery LLC","address":"8450 SH 121","city":"McKinney","state":"TX","zip":"75070","distance":24.992366570078,"lon":"-89.589959","lat":"36.858772","theaterChainName":"Independent Chains","ticketType":"STANDARD"},{"id":"5976","tribuneTheaterId":"11412","providerTheaterId":"","name":"AMC Academy 8","address":"6198 Greenbelt Road","city":"Greenbelt","state":"MD","zip":"20770","distance":24.992366570078,"lon":"-89.589959","lat":"36.858772","theaterChainName":"AMC Theatres","ticketType":"STANDARD"}]