[{"id":"2896","tribuneTheaterId":"3101","providerTheaterId":"","name":"Great 8 Cinema","address":"5 Praire Dell Road","city":"Union","state":"MO","zip":"63084","distance":10.18416060899,"lon":"-90.9667","lat":"38.426245","theaterChainName":"Independent Chains","ticketType":"STANDARD"},{"id":"5009","tribuneTheaterId":"10382","providerTheaterId":"","name":"B&B Wildwood 10 & GS","address":"16820 Main St.","city":"Wildwood","state":"MO","zip":"63040","distance":14.664541566078,"lon":"-90.629879","lat":"38.581139","theaterChainName":"B&B Theatres","ticketType":"STANDARD"},{"id":"993","tribuneTheaterId":"2675","providerTheaterId":"","name":"Cinema 1 Plus","address":"1900 Phoenix Center Drive","city":"Washington","state":"MO","zip":"63090","distance":14.486417089096,"lon":"-90.987257","lat":"38.538047","theaterChainName":"Independent Chains","ticketType":"STANDARD"},{"id":"4622","tribuneTheaterId":"9799","providerTheaterId":"","name":"Great Escape at Gravois Bluffs","address":"754 Gravois Bluffs Blvd.","city":"Fenton","state":"MO","zip":"63026","distance":19.228635733143,"lon":"-90.449157","lat":"38.505116","theaterChainName":"Regal Cinemas","ticketType":"STANDARD"},{"id":"3986","tribuneTheaterId":"2349","providerTheaterId":"","name":"Wehrenberg Chesterfield Galaxy 14 Cine","address":"450 THF Boulevard","city":"Chesterfield","state":"MO","zip":"63005","distance":20.299074127151,"lon":"-90.60869","lat":"38.665911","theaterChainName":"Wehrenberg Theatres","ticketType":"STANDARD"},{"id":"4187","tribuneTheaterId":"4249","providerTheaterId":"7","name":"AMC Chesterfield 14","address":"3000 Chesterfield Mall","city":"Chesterfield","state":"MO","zip":"63017","distance":20.736459902578,"lon":"-90.563446","lat":"38.652116","theaterChainName":"AMC Theatres","ticketType":"STANDARD"},{"id":"2371","tribuneTheaterId":"3209","providerTheaterId":"","name":"Wehrenberg Arnold 14 Cine","address":"1912 Richardson Rd.","city":"Arnold","state":"MO","zip":"63010","distance":21.371072460727,"lon":"-90.385938","lat":"38.409979","theaterChainName":"Wehrenberg Theatres","ticketType":"STANDARD"},{"id":"1017","tribuneTheaterId":"6485","providerTheaterId":"","name":"Wehrenberg Des Peres 14 Cine","address":"12800 Manchester Rd.","city":"Saint Louis","state":"MO","zip":"63131","distance":22.395381068709,"lon":"-90.453143","lat":"38.603181","theaterChainName":"Wehrenberg Theatres","ticketType":"STANDARD"},{"id":"4110","tribuneTheaterId":"6752","providerTheaterId":"","name":"Great Escape O Fallon 14","address":"900 Caledonia Drive","city":"O'Fallon","state":"MO","zip":"63366","distance":23.52112620695,"lon":"-90.753242","lat":"38.744453","theaterChainName":"Regal Cinemas","ticketType":"STANDARD"},{"id":"995","tribuneTheaterId":"7632","providerTheaterId":"","name":"Wehrenberg Ronnies 20 Cine","address":"5320 S. Lindbergh Blvd.","city":"Saint Louis","state":"MO","zip":"63126","distance":24.14219859258,"lon":"-90.362731","lat":"38.527349","theaterChainName":"Wehrenberg Theatres","ticketType":"STANDARD"},{"id":"996","tribuneTheaterId":"2085","providerTheaterId":"","name":"Keller Plaza 8","address":"4572 LeMay Ferry Road","city":"Saint Louis","state":"MO","zip":"63129","distance":24.630569168867,"lon":"-90.341367","lat":"38.498289","theaterChainName":"Independent Chains","ticketType":"STANDARD"},{"id":"1268","tribuneTheaterId":"3991","providerTheaterId":"","name":"B&B Festus 8 Cinema","address":"1522 Parkway West","city":"Festus","state":"MO","zip":"63028","distance":23.864334454088,"lon":"-90.414552","lat":"38.21288","theaterChainName":"B&B Theatres","ticketType":"STANDARD"}]