[{"id":"995","name":"Wehrenberg Ronnies 20 Cine","address":"5320 S. Lindbergh Blvd.","city":"Saint Louis","state":"MO","zip":"63126","distance":"23.724910736083984","lon":"-90.362732","lat":"38.527348","theaterChainName":"Wehrenberg Theatres","ticketType":"STANDARD"},{"id":"996","name":"Keller Plaza 8","address":"4572 LeMay Ferry Road","city":"Saint Louis","state":"MO","zip":"63129","distance":"21.961748123168945","lon":"-90.341370","lat":"38.498287","theaterChainName":"Independent Chains","ticketType":"STANDARD"},{"id":"4622","name":"Great Escape at Gravois Bluffs","address":"754 Gravois Bluffs Blvd.","city":"Fenton","state":"MO","zip":"63026","distance":"21.94709014892578","lon":"-90.449158","lat":"38.505116","theaterChainName":"Regal Cinemas","ticketType":"STANDARD"},{"id":"2890","name":"RMC Waterloo 8","address":"113 Plaza Dr.","city":"Waterloo","state":"IL","zip":"62298","distance":"18.774444580078125","lon":"-90.152290","lat":"38.351509","theaterChainName":"Independent Chains","ticketType":"STANDARD"},{"id":"2371","name":"Wehrenberg Arnold 14 Cine","address":"1912 Richardson Rd.","city":"Arnold","state":"MO","zip":"63010","distance":"15.518563270568848","lon":"-90.385941","lat":"38.409981","theaterChainName":"Wehrenberg Theatres","ticketType":"STANDARD"},{"id":"1268","name":"B&B Festus 8 Cinema","address":"1522 Parkway West","city":"Festus","state":"MO","zip":"63028","distance":"1.8869673013687134","lon":"-90.414551","lat":"38.212879","theaterChainName":"B&B Theatres","ticketType":"STANDARD"}]