[{"id":"1055","name":"AMC Eastgate Showplace 6","address":"625 Lewis ","city":"East Alton","state":"IL","zip":"62024","distance":"10.78903865814209","lon":"-90.117622","lat":"38.882835","theaterChainName":"AMC Theatres","ticketType":"STANDARD"},{"id":"5010","name":"Granite City Cinemas","address":"1243 Niedringhaus Ave.","city":"Granite City","state":"IL","zip":"62040","distance":"9.583464622497559","lon":"-90.151398","lat":"38.701500","theaterChainName":"St. Louis Cinemas","ticketType":"STANDARD"},{"id":"1309","name":"AMC Showplace Edwardsville 12","address":"6633 Center Grove Rd.","city":"Edwardsville","state":"IL","zip":"62025","distance":"17.63164520263672","lon":"-89.956055","lat":"38.783295","theaterChainName":"AMC Theatres","ticketType":"STANDARD"},{"id":"5300","name":"MX Movies","address":"618 Washington Avenue","city":"Saint Louis","state":"MO","zip":"63101","distance":"12.43868637084961","lon":"-90.189400","lat":"38.630199","theaterChainName":"St. Louis Cinemas","ticketType":"STANDARD"},{"id":"3671","name":"Regal St. Louis Mills Stadium 18","address":"1600 Park 370 Place","city":"Hazelwood","state":"MO","zip":"63042","distance":"6.99708890914917","lon":"-90.412865","lat":"38.789783","theaterChainName":"Regal Cinemas","ticketType":"STANDARD"},{"id":"4638","name":"Hi-Pointe Theatre","address":"1005 McCausland Ave.","city":"Saint Louis","state":"MO","zip":"63117","distance":"11.258315086364746","lon":"-90.304787","lat":"38.632648","theaterChainName":"Independent Chains","ticketType":"STANDARD"},{"id":"5784","name":"Hi-Pointe Backlot","address":"1002 Hi-Pointe Place","city":"Saint Louis","state":"MO","zip":"63117","distance":"11.255451202392578","lon":"-90.305481","lat":"38.632748","theaterChainName":"Independent Chains","ticketType":"STANDARD"},{"id":"66","name":"AMC Esquire 7","address":"6706 Clayton Road","city":"Saint Louis","state":"MO","zip":"63117","distance":"11.23794937133789","lon":"-90.316643","lat":"38.634182","theaterChainName":"AMC Theatres","ticketType":"STANDARD"},{"id":"1056","name":"Wehrenberg St. Claire 10 Cine","address":"50 Ludwig Dr","city":"Fairview Heights","state":"IL","zip":"62208","distance":"20.765647888183594","lon":"-89.989349","lat":"38.600388","theaterChainName":"Wehrenberg Theatres","ticketType":"STANDARD"},{"id":"2655","name":"AMC Creve Coeur 12","address":"10465 Olive Blvd","city":"Creve Coeur","state":"MO","zip":"63141","distance":"10.7931547164917","lon":"-90.410988","lat":"38.674507","theaterChainName":"AMC Theatres","ticketType":"STANDARD"},{"id":"5580","name":"AMC Streets of St. Charles 8","address":"311 Lombard St.","city":"Saint Charles","state":"MO","zip":"63303","distance":"11.525936126708984","lon":"-90.493942","lat":"38.766266","theaterChainName":"AMC Theatres","ticketType":"STANDARD"},{"id":"1269","name":"Wehrenberg O'Fallon 15 Cine","address":"1320 Central Park Dr.","city":"O'Fallon","state":"IL","zip":"62269","distance":"23.052631378173828","lon":"-89.944931","lat":"38.590641","theaterChainName":"Wehrenberg Theatres","ticketType":"STANDARD"},{"id":"340","name":"AMC West Olive 16","address":"12657 Olive Street","city":"Creve Coeur","state":"MO","zip":"63141","distance":"12.685039520263672","lon":"-90.466438","lat":"38.679592","theaterChainName":"AMC Theatres","ticketType":"STANDARD"},{"id":"1018","name":"Wehrenberg St. Charles 18 Cine","address":"1830 First Capitol Dr. S.","city":"Saint Charles","state":"MO","zip":"63303","distance":"13.30532169342041","lon":"-90.526596","lat":"38.762375","theaterChainName":"Wehrenberg Theatres","ticketType":"STANDARD"},{"id":"2911","name":"St. Andrews 3","address":"2025 Golfway St.","city":"Saint Charles","state":"MO","zip":"63301","distance":"13.791200637817383","lon":"-90.539078","lat":"38.789345","theaterChainName":"Independent Chains","ticketType":"STANDARD"},{"id":"1017","name":"Wehrenberg Des Peres 14 Cine","address":"12800 Manchester Rd.","city":"Saint Louis","state":"MO","zip":"63131","distance":"16.100170135498047","lon":"-90.453140","lat":"38.603180","theaterChainName":"Wehrenberg Theatres","ticketType":"STANDARD"},{"id":"995","name":"Wehrenberg Ronnies 20 Cine","address":"5320 S. Lindbergh Blvd.","city":"Saint Louis","state":"MO","zip":"63126","distance":"18.96656036376953","lon":"-90.362732","lat":"38.527348","theaterChainName":"Wehrenberg Theatres","ticketType":"STANDARD"},{"id":"996","name":"Keller Plaza 8","address":"4572 LeMay Ferry Road","city":"Saint Louis","state":"MO","zip":"63129","distance":"20.721473693847656","lon":"-90.341370","lat":"38.498287","theaterChainName":"Independent Chains","ticketType":"STANDARD"},{"id":"2893","name":"Wehrenberg Mid Rivers 14 Cine","address":"1220 Mid Rivers Mall Dr.","city":"Saint Peters","state":"MO","zip":"63376","distance":"17.927318572998047","lon":"-90.615982","lat":"38.795341","theaterChainName":"Wehrenberg Theatres","ticketType":"STANDARD"},{"id":"4187","name":"AMC Chesterfield 14","address":"3000 Chesterfield Mall","city":"Chesterfield","state":"MO","zip":"63017","distance":"18.040931701660156","lon":"-90.563446","lat":"38.652115","theaterChainName":"AMC Theatres","ticketType":"STANDARD"},{"id":"4622","name":"Great Escape at Gravois Bluffs","address":"754 Gravois Bluffs Blvd.","city":"Fenton","state":"MO","zip":"63026","distance":"21.92462730407715","lon":"-90.449158","lat":"38.505116","theaterChainName":"Regal Cinemas","ticketType":"STANDARD"},{"id":"3986","name":"Wehrenberg Chesterfield Galaxy 14 Cine","address":"450 THF Boulevard","city":"Chesterfield","state":"MO","zip":"63005","distance":"19.677562713623047","lon":"-90.608688","lat":"38.665913","theaterChainName":"Wehrenberg Theatres","ticketType":"STANDARD"},{"id":"5009","name":"B&B Wildwood 10 & GS","address":"16820 Main St.","city":"Wildwood","state":"MO","zip":"63040","distance":"23.82420539855957","lon":"-90.629883","lat":"38.581139","theaterChainName":"B&B Theatres","ticketType":"STANDARD"}]