[{"id":"3671","tribuneTheaterId":"5617","providerTheaterId":"","name":"Regal St. Louis Mills Stadium 18","address":"1600 Park 370 Place","city":"Hazelwood","state":"MO","zip":"63042","distance":6.9965743705333,"lon":"-90.412867","lat":"38.789785","theaterChainName":"Regal Cinemas","ticketType":"STANDARD"},{"id":"5010","tribuneTheaterId":"10383","providerTheaterId":"","name":"Granite City Cinemas","address":"1243 Niedringhaus Ave.","city":"Granite City","state":"IL","zip":"62040","distance":9.5829743248778,"lon":"-90.151398","lat":"38.7015","theaterChainName":"St. Louis Cinemas","ticketType":"STANDARD"},{"id":"66","tribuneTheaterId":"7334","providerTheaterId":"6","name":"AMC Esquire 7","address":"6706 Clayton Road","city":"Saint Louis","state":"MO","zip":"63117","distance":11.237196441184,"lon":"-90.316645","lat":"38.634182","theaterChainName":"AMC Theatres","ticketType":"STANDARD"},{"id":"1055","tribuneTheaterId":"5923","providerTheaterId":"6241","name":"AMC Eastgate Showplace 6","address":"625 Lewis ","city":"East Alton","state":"IL","zip":"62024","distance":10.788609116052,"lon":"-90.11762","lat":"38.882834","theaterChainName":"AMC Theatres","ticketType":"STANDARD"},{"id":"5784","tribuneTheaterId":"11224","providerTheaterId":"","name":"Hi-Pointe Backlot","address":"1002 Hi-Pointe Place","city":"Saint Louis","state":"MO","zip":"63117","distance":11.254739839709,"lon":"-90.305482","lat":"38.632747","theaterChainName":"Independent Chains","ticketType":"STANDARD"},{"id":"2655","tribuneTheaterId":"8861","providerTheaterId":"104","name":"AMC Creve Coeur 12","address":"10465 Olive Blvd","city":"Creve Coeur","state":"MO","zip":"63141","distance":10.792300418497,"lon":"-90.41099","lat":"38.674509","theaterChainName":"AMC Theatres","ticketType":"STANDARD"},{"id":"5580","tribuneTheaterId":"11031","providerTheaterId":"","name":"AMC Streets of St. Charles 8","address":"311 Lombard St.","city":"Saint Charles","state":"MO","zip":"63303","distance":11.525215699044,"lon":"-90.493946","lat":"38.766266","theaterChainName":"AMC Theatres","ticketType":"STANDARD"},{"id":"4638","tribuneTheaterId":"9823","providerTheaterId":"","name":"Hi-Pointe Theatre","address":"1005 McCausland Ave.","city":"Saint Louis","state":"MO","zip":"63117","distance":11.257576447439,"lon":"-90.304785","lat":"38.632648","theaterChainName":"Independent Chains","ticketType":"STANDARD"},{"id":"1018","tribuneTheaterId":"6284","providerTheaterId":"","name":"Wehrenberg St. Charles 18 Cine","address":"1830 First Capitol Dr. S.","city":"Saint Charles","state":"MO","zip":"63303","distance":13.30439500465,"lon":"-90.526598","lat":"38.762375","theaterChainName":"Wehrenberg Theatres","ticketType":"STANDARD"},{"id":"5300","tribuneTheaterId":"10734","providerTheaterId":"","name":"MX Movies","address":"618 Washington Avenue","city":"Saint Louis","state":"MO","zip":"63101","distance":12.43791469674,"lon":"-90.1894","lat":"38.6302","theaterChainName":"St. Louis Cinemas","ticketType":"STANDARD"},{"id":"340","tribuneTheaterId":"9201","providerTheaterId":"","name":"AMC West Olive 16","address":"12657 Olive Street","city":"Creve Coeur","state":"MO","zip":"63141","distance":12.684066035651,"lon":"-90.466437","lat":"38.679591","theaterChainName":"AMC Theatres","ticketType":"STANDARD"},{"id":"2911","tribuneTheaterId":"6188","providerTheaterId":"","name":"St. Andrews 3","address":"2025 Golfway St.","city":"Saint Charles","state":"MO","zip":"63301","distance":13.790320382793,"lon":"-90.539081","lat":"38.789345","theaterChainName":"Independent Chains","ticketType":"STANDARD"},{"id":"1017","tribuneTheaterId":"6485","providerTheaterId":"","name":"Wehrenberg Des Peres 14 Cine","address":"12800 Manchester Rd.","city":"Saint Louis","state":"MO","zip":"63131","distance":16.099046714427,"lon":"-90.453143","lat":"38.603181","theaterChainName":"Wehrenberg Theatres","ticketType":"STANDARD"},{"id":"1309","tribuneTheaterId":"5934","providerTheaterId":"6252","name":"AMC Showplace Edwardsville 12","address":"6633 Center Grove Rd.","city":"Edwardsville","state":"IL","zip":"62025","distance":17.630734533956,"lon":"-89.956055","lat":"38.783294","theaterChainName":"AMC Theatres","ticketType":"STANDARD"},{"id":"4187","tribuneTheaterId":"4249","providerTheaterId":"7","name":"AMC Chesterfield 14","address":"3000 Chesterfield Mall","city":"Chesterfield","state":"MO","zip":"63017","distance":18.039578644351,"lon":"-90.563446","lat":"38.652116","theaterChainName":"AMC Theatres","ticketType":"STANDARD"},{"id":"2893","tribuneTheaterId":"6749","providerTheaterId":"","name":"Wehrenberg Mid Rivers 14 Cine","address":"1220 Mid Rivers Mall Dr.","city":"Saint Peters","state":"MO","zip":"63376","distance":17.9261671273,"lon":"-90.615985","lat":"38.79534","theaterChainName":"Wehrenberg Theatres","ticketType":"STANDARD"},{"id":"3986","tribuneTheaterId":"2349","providerTheaterId":"","name":"Wehrenberg Chesterfield Galaxy 14 Cine","address":"450 THF Boulevard","city":"Chesterfield","state":"MO","zip":"63005","distance":19.676277225172,"lon":"-90.60869","lat":"38.665911","theaterChainName":"Wehrenberg Theatres","ticketType":"STANDARD"},{"id":"995","tribuneTheaterId":"7632","providerTheaterId":"","name":"Wehrenberg Ronnies 20 Cine","address":"5320 S. Lindbergh Blvd.","city":"Saint Louis","state":"MO","zip":"63126","distance":18.965189989744,"lon":"-90.362731","lat":"38.527349","theaterChainName":"Wehrenberg Theatres","ticketType":"STANDARD"},{"id":"996","tribuneTheaterId":"2085","providerTheaterId":"","name":"Keller Plaza 8","address":"4572 LeMay Ferry Road","city":"Saint Louis","state":"MO","zip":"63129","distance":20.719972767189,"lon":"-90.341367","lat":"38.498289","theaterChainName":"Independent Chains","ticketType":"STANDARD"},{"id":"1056","tribuneTheaterId":"6278","providerTheaterId":"","name":"Wehrenberg St. Claire 10 Cine","address":"50 Ludwig Dr","city":"Fairview Heights","state":"IL","zip":"62208","distance":20.764524769809,"lon":"-89.989349","lat":"38.600387","theaterChainName":"Wehrenberg Theatres","ticketType":"STANDARD"},{"id":"4622","tribuneTheaterId":"9799","providerTheaterId":"","name":"Great Escape at Gravois Bluffs","address":"754 Gravois Bluffs Blvd.","city":"Fenton","state":"MO","zip":"63026","distance":21.923100531439,"lon":"-90.449157","lat":"38.505116","theaterChainName":"Regal Cinemas","ticketType":"STANDARD"},{"id":"5009","tribuneTheaterId":"10382","providerTheaterId":"","name":"B&B Wildwood 10 & GS","address":"16820 Main St.","city":"Wildwood","state":"MO","zip":"63040","distance":23.822367588682,"lon":"-90.629879","lat":"38.581139","theaterChainName":"B&B Theatres","ticketType":"STANDARD"},{"id":"1269","tribuneTheaterId":"6356","providerTheaterId":"","name":"Wehrenberg O'Fallon 15 Cine","address":"1320 Central Park Dr.","city":"O'Fallon","state":"IL","zip":"62269","distance":23.051165133638,"lon":"-89.944934","lat":"38.590642","theaterChainName":"Wehrenberg Theatres","ticketType":"STANDARD"}]