[{"id":"5009","name":"B&B Wildwood 10 & GS","address":"16820 Main St.","city":"Wildwood","state":"MO","zip":"63040","distance":"24.405277252197266","lon":"-90.629883","lat":"38.581139","theaterChainName":"B&B Theatres","ticketType":"STANDARD"},{"id":"2371","name":"Wehrenberg Arnold 14 Cine","address":"1912 Richardson Rd.","city":"Arnold","state":"MO","zip":"63010","distance":"24.506765365600586","lon":"-90.385941","lat":"38.409981","theaterChainName":"Wehrenberg Theatres","ticketType":"STANDARD"},{"id":"1268","name":"B&B Festus 8 Cinema","address":"1522 Parkway West","city":"Festus","state":"MO","zip":"63028","distance":"20.553152084350586","lon":"-90.414551","lat":"38.212879","theaterChainName":"B&B Theatres","ticketType":"STANDARD"},{"id":"2896","name":"Great 8 Cinema","address":"5 Praire Dell Road","city":"Union","state":"MO","zip":"63084","distance":"15.434946060180664","lon":"-90.966698","lat":"38.426247","theaterChainName":"Independent Chains","ticketType":"STANDARD"},{"id":"993","name":"Cinema 1 Plus","address":"1900 Phoenix Center Drive","city":"Washington","state":"MO","zip":"63090","distance":"22.52562141418457","lon":"-90.987259","lat":"38.538048","theaterChainName":"Independent Chains","ticketType":"STANDARD"},{"id":"4030","name":"Sullivan 6 Cinema","address":"3001 N. Service Road West","city":"Sullivan","state":"MO","zip":"63080","distance":"21.828266143798828","lon":"-91.186302","lat":"38.196999","theaterChainName":"Independent Chains","ticketType":"STANDARD"}]