[{"id":"1268","tribuneTheaterId":"3991","providerTheaterId":"","name":"B&B Festus 8 Cinema","address":"1522 Parkway West","city":"Festus","state":"MO","zip":"63028","distance":3.4033449014571,"lon":"-90.414552","lat":"38.21288","theaterChainName":"B&B Theatres","ticketType":"STANDARD"},{"id":"2371","tribuneTheaterId":"3209","providerTheaterId":"","name":"Wehrenberg Arnold 14 Cine","address":"1912 Richardson Rd.","city":"Arnold","state":"MO","zip":"63010","distance":15.636807928322,"lon":"-90.385938","lat":"38.409979","theaterChainName":"Wehrenberg Theatres","ticketType":"STANDARD"},{"id":"2890","tribuneTheaterId":"3100","providerTheaterId":"","name":"RMC Waterloo 8","address":"113 Plaza Dr.","city":"Waterloo","state":"IL","zip":"62298","distance":20.49330220827,"lon":"-90.152288","lat":"38.351508","theaterChainName":"Independent Chains","ticketType":"STANDARD"},{"id":"4622","tribuneTheaterId":"9799","providerTheaterId":"","name":"Great Escape at Gravois Bluffs","address":"754 Gravois Bluffs Blvd.","city":"Fenton","state":"MO","zip":"63026","distance":21.526315138296,"lon":"-90.449157","lat":"38.505116","theaterChainName":"Regal Cinemas","ticketType":"STANDARD"},{"id":"996","tribuneTheaterId":"2085","providerTheaterId":"","name":"Keller Plaza 8","address":"4572 LeMay Ferry Road","city":"Saint Louis","state":"MO","zip":"63129","distance":22.186145672747,"lon":"-90.341367","lat":"38.498289","theaterChainName":"Independent Chains","ticketType":"STANDARD"},{"id":"995","tribuneTheaterId":"7632","providerTheaterId":"","name":"Wehrenberg Ronnies 20 Cine","address":"5320 S. Lindbergh Blvd.","city":"Saint Louis","state":"MO","zip":"63126","distance":23.780868773895,"lon":"-90.362731","lat":"38.527349","theaterChainName":"Wehrenberg Theatres","ticketType":"STANDARD"}]