[{"id":"2896","tribuneTheaterId":"3101","providerTheaterId":"","name":"Great 8 Cinema","address":"5 Praire Dell Road","city":"Union","state":"MO","zip":"63084","distance":15.433951922714,"lon":"-90.9667","lat":"38.426245","theaterChainName":"Independent Chains","ticketType":"STANDARD"},{"id":"1268","tribuneTheaterId":"3991","providerTheaterId":"","name":"B&B Festus 8 Cinema","address":"1522 Parkway West","city":"Festus","state":"MO","zip":"63028","distance":20.551804386336,"lon":"-90.414552","lat":"38.21288","theaterChainName":"B&B Theatres","ticketType":"STANDARD"},{"id":"4030","tribuneTheaterId":"3029","providerTheaterId":"","name":"Sullivan 6 Cinema","address":"3001 N. Service Road West","city":"Sullivan","state":"MO","zip":"63080","distance":21.82690939132,"lon":"-91.186302","lat":"38.196999","theaterChainName":"Independent Chains","ticketType":"STANDARD"},{"id":"993","tribuneTheaterId":"2675","providerTheaterId":"","name":"Cinema 1 Plus","address":"1900 Phoenix Center Drive","city":"Washington","state":"MO","zip":"63090","distance":22.524097248938,"lon":"-90.987257","lat":"38.538047","theaterChainName":"Independent Chains","ticketType":"STANDARD"},{"id":"2371","tribuneTheaterId":"3209","providerTheaterId":"","name":"Wehrenberg Arnold 14 Cine","address":"1912 Richardson Rd.","city":"Arnold","state":"MO","zip":"63010","distance":24.505293857261,"lon":"-90.385938","lat":"38.409979","theaterChainName":"Wehrenberg Theatres","ticketType":"STANDARD"},{"id":"5009","tribuneTheaterId":"10382","providerTheaterId":"","name":"B&B Wildwood 10 & GS","address":"16820 Main St.","city":"Wildwood","state":"MO","zip":"63040","distance":24.403826436964,"lon":"-90.629879","lat":"38.581139","theaterChainName":"B&B Theatres","ticketType":"STANDARD"}]