[{"id":"2371","tribuneTheaterId":"3209","providerTheaterId":"","name":"Wehrenberg Arnold 14 Cine","address":"1912 Richardson Rd.","city":"Arnold","state":"MO","zip":"63010","distance":4.855905641889,"lon":"-90.385938","lat":"38.409979","theaterChainName":"Wehrenberg Theatres","ticketType":"STANDARD"},{"id":"1268","tribuneTheaterId":"3991","providerTheaterId":"","name":"B&B Festus 8 Cinema","address":"1522 Parkway West","city":"Festus","state":"MO","zip":"63028","distance":8.9210732543527,"lon":"-90.414552","lat":"38.21288","theaterChainName":"B&B Theatres","ticketType":"STANDARD"},{"id":"4622","tribuneTheaterId":"9799","providerTheaterId":"","name":"Great Escape at Gravois Bluffs","address":"754 Gravois Bluffs Blvd.","city":"Fenton","state":"MO","zip":"63026","distance":11.492992308597,"lon":"-90.449157","lat":"38.505116","theaterChainName":"Regal Cinemas","ticketType":"STANDARD"},{"id":"996","tribuneTheaterId":"2085","providerTheaterId":"","name":"Keller Plaza 8","address":"4572 LeMay Ferry Road","city":"Saint Louis","state":"MO","zip":"63129","distance":11.395011875247,"lon":"-90.341367","lat":"38.498289","theaterChainName":"Independent Chains","ticketType":"STANDARD"},{"id":"2890","tribuneTheaterId":"3100","providerTheaterId":"","name":"RMC Waterloo 8","address":"113 Plaza Dr.","city":"Waterloo","state":"IL","zip":"62298","distance":13.883201535662,"lon":"-90.152288","lat":"38.351508","theaterChainName":"Independent Chains","ticketType":"STANDARD"},{"id":"995","tribuneTheaterId":"7632","providerTheaterId":"","name":"Wehrenberg Ronnies 20 Cine","address":"5320 S. Lindbergh Blvd.","city":"Saint Louis","state":"MO","zip":"63126","distance":13.047456894104,"lon":"-90.362731","lat":"38.527349","theaterChainName":"Wehrenberg Theatres","ticketType":"STANDARD"},{"id":"1017","tribuneTheaterId":"6485","providerTheaterId":"","name":"Wehrenberg Des Peres 14 Cine","address":"12800 Manchester Rd.","city":"Saint Louis","state":"MO","zip":"63131","distance":18.215728357518,"lon":"-90.453143","lat":"38.603181","theaterChainName":"Wehrenberg Theatres","ticketType":"STANDARD"},{"id":"66","tribuneTheaterId":"7334","providerTheaterId":"6","name":"AMC Esquire 7","address":"6706 Clayton Road","city":"Saint Louis","state":"MO","zip":"63117","distance":20.792883495934,"lon":"-90.316645","lat":"38.634182","theaterChainName":"AMC Theatres","ticketType":"STANDARD"},{"id":"5784","tribuneTheaterId":"11224","providerTheaterId":"","name":"Hi-Pointe Backlot","address":"1002 Hi-Pointe Place","city":"Saint Louis","state":"MO","zip":"63117","distance":20.849289940591,"lon":"-90.305482","lat":"38.632747","theaterChainName":"Independent Chains","ticketType":"STANDARD"},{"id":"4638","tribuneTheaterId":"9823","providerTheaterId":"","name":"Hi-Pointe Theatre","address":"1005 McCausland Ave.","city":"Saint Louis","state":"MO","zip":"63117","distance":20.852776737588,"lon":"-90.304785","lat":"38.632648","theaterChainName":"Independent Chains","ticketType":"STANDARD"},{"id":"5009","tribuneTheaterId":"10382","providerTheaterId":"","name":"B&B Wildwood 10 & GS","address":"16820 Main St.","city":"Wildwood","state":"MO","zip":"63040","distance":20.422340039616,"lon":"-90.629879","lat":"38.581139","theaterChainName":"B&B Theatres","ticketType":"STANDARD"},{"id":"2655","tribuneTheaterId":"8861","providerTheaterId":"104","name":"AMC Creve Coeur 12","address":"10465 Olive Blvd","city":"Creve Coeur","state":"MO","zip":"63141","distance":22.981549403732,"lon":"-90.41099","lat":"38.674509","theaterChainName":"AMC Theatres","ticketType":"STANDARD"},{"id":"5300","tribuneTheaterId":"10734","providerTheaterId":"","name":"MX Movies","address":"618 Washington Avenue","city":"Saint Louis","state":"MO","zip":"63101","distance":23.169382248656,"lon":"-90.1894","lat":"38.6302","theaterChainName":"St. Louis Cinemas","ticketType":"STANDARD"},{"id":"340","tribuneTheaterId":"9201","providerTheaterId":"","name":"AMC West Olive 16","address":"12657 Olive Street","city":"Creve Coeur","state":"MO","zip":"63141","distance":23.543669843762,"lon":"-90.466437","lat":"38.679591","theaterChainName":"AMC Theatres","ticketType":"STANDARD"},{"id":"4187","tribuneTheaterId":"4249","providerTheaterId":"7","name":"AMC Chesterfield 14","address":"3000 Chesterfield Mall","city":"Chesterfield","state":"MO","zip":"63017","distance":23.019225160295,"lon":"-90.563446","lat":"38.652116","theaterChainName":"AMC Theatres","ticketType":"STANDARD"},{"id":"3986","tribuneTheaterId":"2349","providerTheaterId":"","name":"Wehrenberg Chesterfield Galaxy 14 Cine","address":"450 THF Boulevard","city":"Chesterfield","state":"MO","zip":"63005","distance":24.873538309518,"lon":"-90.60869","lat":"38.665911","theaterChainName":"Wehrenberg Theatres","ticketType":"STANDARD"}]