[{"id":"2896","name":"Great 8 Cinema","address":"5 Praire Dell Road","city":"Union","state":"MO","zip":"63084","distance":"14.542990684509277","lon":"-90.966698","lat":"38.426247","theaterChainName":"Independent Chains","ticketType":"STANDARD"},{"id":"993","name":"Cinema 1 Plus","address":"1900 Phoenix Center Drive","city":"Washington","state":"MO","zip":"63090","distance":"14.451898574829102","lon":"-90.987259","lat":"38.538048","theaterChainName":"Independent Chains","ticketType":"STANDARD"},{"id":"4030","name":"Sullivan 6 Cinema","address":"3001 N. Service Road West","city":"Sullivan","state":"MO","zip":"63080","distance":"18.038909912109375","lon":"-91.186302","lat":"38.196999","theaterChainName":"Independent Chains","ticketType":"STANDARD"},{"id":"4409","name":"Warrenton 8 Cinema","address":"265 Veterans Memorial Parkway","city":"Warrenton","state":"MO","zip":"63383","distance":"24.749717712402344","lon":"-91.167198","lat":"38.810001","theaterChainName":"Independent Chains","ticketType":"STANDARD"}]