[{"id":"340","name":"AMC West Olive 16","address":"12657 Olive Street","city":"Creve Coeur","state":"MO","zip":"63141","distance":"24.761804580688477","lon":"-90.466438","lat":"38.679592","theaterChainName":"AMC Theatres","ticketType":"STANDARD"},{"id":"1017","name":"Wehrenberg Des Peres 14 Cine","address":"12800 Manchester Rd.","city":"Saint Louis","state":"MO","zip":"63131","distance":"23.611297607421875","lon":"-90.453140","lat":"38.603180","theaterChainName":"Wehrenberg Theatres","ticketType":"STANDARD"},{"id":"2893","name":"Wehrenberg Mid Rivers 14 Cine","address":"1220 Mid Rivers Mall Dr.","city":"Saint Peters","state":"MO","zip":"63376","distance":"23.67108726501465","lon":"-90.615982","lat":"38.795341","theaterChainName":"Wehrenberg Theatres","ticketType":"STANDARD"},{"id":"4187","name":"AMC Chesterfield 14","address":"3000 Chesterfield Mall","city":"Chesterfield","state":"MO","zip":"63017","distance":"19.23917007446289","lon":"-90.563446","lat":"38.652115","theaterChainName":"AMC Theatres","ticketType":"STANDARD"},{"id":"4622","name":"Great Escape at Gravois Bluffs","address":"754 Gravois Bluffs Blvd.","city":"Fenton","state":"MO","zip":"63026","distance":"23.154882431030273","lon":"-90.449158","lat":"38.505116","theaterChainName":"Regal Cinemas","ticketType":"STANDARD"},{"id":"3986","name":"Wehrenberg Chesterfield Galaxy 14 Cine","address":"450 THF Boulevard","city":"Chesterfield","state":"MO","zip":"63005","distance":"17.65289306640625","lon":"-90.608688","lat":"38.665913","theaterChainName":"Wehrenberg Theatres","ticketType":"STANDARD"},{"id":"5009","name":"B&B Wildwood 10 & GS","address":"16820 Main St.","city":"Wildwood","state":"MO","zip":"63040","distance":"14.006025314331055","lon":"-90.629883","lat":"38.581139","theaterChainName":"B&B Theatres","ticketType":"STANDARD"},{"id":"4110","name":"Great Escape O Fallon 14","address":"900 Caledonia Drive","city":"O'Fallon","state":"MO","zip":"63366","distance":"16.886566162109375","lon":"-90.753242","lat":"38.744453","theaterChainName":"Regal Cinemas","ticketType":"STANDARD"},{"id":"4272","name":"Wehrenberg Town Square 12 Cine","address":"7805 Highway N","city":"Dardenne Prairie","state":"MO","zip":"63368","distance":"18.122507095336914","lon":"-90.763252","lat":"38.766769","theaterChainName":"Wehrenberg Theatres","ticketType":"STANDARD"},{"id":"5845","name":"B&B Wentzville Tower 12","address":"100 Wentzville Bluffs Drive","city":"Wentzville","state":"MO","zip":"63385","distance":"19.6146297454834","lon":"-90.858498","lat":"38.803501","theaterChainName":"B&B Theatres","ticketType":"STANDARD"},{"id":"2896","name":"Great 8 Cinema","address":"5 Praire Dell Road","city":"Union","state":"MO","zip":"63084","distance":"8.093964576721191","lon":"-90.966698","lat":"38.426247","theaterChainName":"Independent Chains","ticketType":"STANDARD"},{"id":"993","name":"Cinema 1 Plus","address":"1900 Phoenix Center Drive","city":"Washington","state":"MO","zip":"63090","distance":"6.089114189147949","lon":"-90.987259","lat":"38.538048","theaterChainName":"Independent Chains","ticketType":"STANDARD"}]