[{"id":"1017","name":"Wehrenberg Des Peres 14 Cine","address":"12800 Manchester Rd.","city":"Saint Louis","state":"MO","zip":"63131","distance":"24.280855178833008","lon":"-90.453140","lat":"38.603180","theaterChainName":"Wehrenberg Theatres","ticketType":"STANDARD"},{"id":"4187","name":"AMC Chesterfield 14","address":"3000 Chesterfield Mall","city":"Chesterfield","state":"MO","zip":"63017","distance":"22.69720458984375","lon":"-90.563446","lat":"38.652115","theaterChainName":"AMC Theatres","ticketType":"STANDARD"},{"id":"4622","name":"Great Escape at Gravois Bluffs","address":"754 Gravois Bluffs Blvd.","city":"Fenton","state":"MO","zip":"63026","distance":"20.896007537841797","lon":"-90.449158","lat":"38.505116","theaterChainName":"Regal Cinemas","ticketType":"STANDARD"},{"id":"3986","name":"Wehrenberg Chesterfield Galaxy 14 Cine","address":"450 THF Boulevard","city":"Chesterfield","state":"MO","zip":"63005","distance":"22.24163818359375","lon":"-90.608688","lat":"38.665913","theaterChainName":"Wehrenberg Theatres","ticketType":"STANDARD"},{"id":"5009","name":"B&B Wildwood 10 & GS","address":"16820 Main St.","city":"Wildwood","state":"MO","zip":"63040","distance":"16.624340057373047","lon":"-90.629883","lat":"38.581139","theaterChainName":"B&B Theatres","ticketType":"STANDARD"},{"id":"2371","name":"Wehrenberg Arnold 14 Cine","address":"1912 Richardson Rd.","city":"Arnold","state":"MO","zip":"63010","distance":"22.59493637084961","lon":"-90.385941","lat":"38.409981","theaterChainName":"Wehrenberg Theatres","ticketType":"STANDARD"},{"id":"1268","name":"B&B Festus 8 Cinema","address":"1522 Parkway West","city":"Festus","state":"MO","zip":"63028","distance":"24.009233474731445","lon":"-90.414551","lat":"38.212879","theaterChainName":"B&B Theatres","ticketType":"STANDARD"},{"id":"2896","name":"Great 8 Cinema","address":"5 Praire Dell Road","city":"Union","state":"MO","zip":"63084","distance":"9.457228660583496","lon":"-90.966698","lat":"38.426247","theaterChainName":"Independent Chains","ticketType":"STANDARD"},{"id":"993","name":"Cinema 1 Plus","address":"1900 Phoenix Center Drive","city":"Washington","state":"MO","zip":"63090","distance":"14.757099151611328","lon":"-90.987259","lat":"38.538048","theaterChainName":"Independent Chains","ticketType":"STANDARD"},{"id":"4030","name":"Sullivan 6 Cinema","address":"3001 N. Service Road West","city":"Sullivan","state":"MO","zip":"63080","distance":"24.454286575317383","lon":"-91.186302","lat":"38.196999","theaterChainName":"Independent Chains","ticketType":"STANDARD"}]