[{"id":"2896","tribuneTheaterId":"3101","providerTheaterId":"","name":"Great 8 Cinema","address":"5 Praire Dell Road","city":"Union","state":"MO","zip":"63084","distance":3.2090480519059,"lon":"-90.9667","lat":"38.426245","theaterChainName":"Independent Chains","ticketType":"STANDARD"},{"id":"993","tribuneTheaterId":"2675","providerTheaterId":"","name":"Cinema 1 Plus","address":"1900 Phoenix Center Drive","city":"Washington","state":"MO","zip":"63090","distance":6.6371031973678,"lon":"-90.987257","lat":"38.538047","theaterChainName":"Independent Chains","ticketType":"STANDARD"},{"id":"4030","tribuneTheaterId":"3029","providerTheaterId":"","name":"Sullivan 6 Cinema","address":"3001 N. Service Road West","city":"Sullivan","state":"MO","zip":"63080","distance":19.383422840098,"lon":"-91.186302","lat":"38.196999","theaterChainName":"Independent Chains","ticketType":"STANDARD"},{"id":"5009","tribuneTheaterId":"10382","providerTheaterId":"","name":"B&B Wildwood 10 & GS","address":"16820 Main St.","city":"Wildwood","state":"MO","zip":"63040","distance":23.106326503552,"lon":"-90.629879","lat":"38.581139","theaterChainName":"B&B Theatres","ticketType":"STANDARD"}]