[{"id":"4805","tribuneTheaterId":"10064","providerTheaterId":"","name":"Troy Movie House","address":"1346 S. Main St.","city":"Troy","state":"MO","zip":"63379","distance":12.286045496326,"lon":"-90.97564","lat":"38.964039","theaterChainName":"Independent Chains","ticketType":"STANDARD"},{"id":"5845","tribuneTheaterId":"11257","providerTheaterId":"","name":"B&B Wentzville Tower 12","address":"100 Wentzville Bluffs Drive","city":"Wentzville","state":"MO","zip":"63385","distance":17.780060324138,"lon":"-90.8585","lat":"38.8035","theaterChainName":"B&B Theatres","ticketType":"STANDARD"},{"id":"4272","tribuneTheaterId":"3205","providerTheaterId":"","name":"Wehrenberg Town Square 12 Cine","address":"7805 Highway N","city":"Dardenne Prairie","state":"MO","zip":"63368","distance":19.791550434008,"lon":"-90.763249","lat":"38.766768","theaterChainName":"Wehrenberg Theatres","ticketType":"STANDARD"},{"id":"2893","tribuneTheaterId":"6749","providerTheaterId":"","name":"Wehrenberg Mid Rivers 14 Cine","address":"1220 Mid Rivers Mall Dr.","city":"Saint Peters","state":"MO","zip":"63376","distance":19.806750467019,"lon":"-90.615985","lat":"38.79534","theaterChainName":"Wehrenberg Theatres","ticketType":"STANDARD"},{"id":"2911","tribuneTheaterId":"6188","providerTheaterId":"","name":"St. Andrews 3","address":"2025 Golfway St.","city":"Saint Charles","state":"MO","zip":"63301","distance":22.273485128729,"lon":"-90.539081","lat":"38.789345","theaterChainName":"Independent Chains","ticketType":"STANDARD"},{"id":"4110","tribuneTheaterId":"6752","providerTheaterId":"","name":"Great Escape O Fallon 14","address":"900 Caledonia Drive","city":"O'Fallon","state":"MO","zip":"63366","distance":21.358399962149,"lon":"-90.753242","lat":"38.744453","theaterChainName":"Regal Cinemas","ticketType":"STANDARD"},{"id":"1018","tribuneTheaterId":"6284","providerTheaterId":"","name":"Wehrenberg St. Charles 18 Cine","address":"1830 First Capitol Dr. S.","city":"Saint Charles","state":"MO","zip":"63303","distance":24.190740079216,"lon":"-90.526598","lat":"38.762375","theaterChainName":"Wehrenberg Theatres","ticketType":"STANDARD"},{"id":"5580","tribuneTheaterId":"11031","providerTheaterId":"","name":"AMC Streets of St. Charles 8","address":"311 Lombard St.","city":"Saint Charles","state":"MO","zip":"63303","distance":24.99801326192,"lon":"-90.493946","lat":"38.766266","theaterChainName":"AMC Theatres","ticketType":"STANDARD"}]