[{"id":"5845","tribuneTheaterId":"11257","providerTheaterId":"","name":"B&B Wentzville Tower 12","address":"100 Wentzville Bluffs Drive","city":"Wentzville","state":"MO","zip":"63385","distance":4.9652013140634,"lon":"-90.8585","lat":"38.8035","theaterChainName":"B&B Theatres","ticketType":"STANDARD"},{"id":"4110","tribuneTheaterId":"6752","providerTheaterId":"","name":"Great Escape O Fallon 14","address":"900 Caledonia Drive","city":"O'Fallon","state":"MO","zip":"63366","distance":9.8360324153801,"lon":"-90.753242","lat":"38.744453","theaterChainName":"Regal Cinemas","ticketType":"STANDARD"},{"id":"4272","tribuneTheaterId":"3205","providerTheaterId":"","name":"Wehrenberg Town Square 12 Cine","address":"7805 Highway N","city":"Dardenne Prairie","state":"MO","zip":"63368","distance":9.2196492367852,"lon":"-90.763249","lat":"38.766768","theaterChainName":"Wehrenberg Theatres","ticketType":"STANDARD"},{"id":"4409","tribuneTheaterId":"9468","providerTheaterId":"","name":"Warrenton 8 Cinema","address":"265 Veterans Memorial Parkway","city":"Warrenton","state":"MO","zip":"63383","distance":12.963792382702,"lon":"-91.167198","lat":"38.810001","theaterChainName":"Independent Chains","ticketType":"STANDARD"},{"id":"4805","tribuneTheaterId":"10064","providerTheaterId":"","name":"Troy Movie House","address":"1346 S. Main St.","city":"Troy","state":"MO","zip":"63379","distance":14.094663087708,"lon":"-90.97564","lat":"38.964039","theaterChainName":"Independent Chains","ticketType":"STANDARD"},{"id":"993","tribuneTheaterId":"2675","providerTheaterId":"","name":"Cinema 1 Plus","address":"1900 Phoenix Center Drive","city":"Washington","state":"MO","zip":"63090","distance":15.776063851861,"lon":"-90.987257","lat":"38.538047","theaterChainName":"Independent Chains","ticketType":"STANDARD"},{"id":"2893","tribuneTheaterId":"6749","providerTheaterId":"","name":"Wehrenberg Mid Rivers 14 Cine","address":"1220 Mid Rivers Mall Dr.","city":"Saint Peters","state":"MO","zip":"63376","distance":17.293951320253,"lon":"-90.615985","lat":"38.79534","theaterChainName":"Wehrenberg Theatres","ticketType":"STANDARD"},{"id":"3986","tribuneTheaterId":"2349","providerTheaterId":"","name":"Wehrenberg Chesterfield Galaxy 14 Cine","address":"450 THF Boulevard","city":"Chesterfield","state":"MO","zip":"63005","distance":18.782429262945,"lon":"-90.60869","lat":"38.665911","theaterChainName":"Wehrenberg Theatres","ticketType":"STANDARD"},{"id":"5009","tribuneTheaterId":"10382","providerTheaterId":"","name":"B&B Wildwood 10 & GS","address":"16820 Main St.","city":"Wildwood","state":"MO","zip":"63040","distance":20.660662560617,"lon":"-90.629879","lat":"38.581139","theaterChainName":"B&B Theatres","ticketType":"STANDARD"},{"id":"1018","tribuneTheaterId":"6284","providerTheaterId":"","name":"Wehrenberg St. Charles 18 Cine","address":"1830 First Capitol Dr. S.","city":"Saint Charles","state":"MO","zip":"63303","distance":21.965082542451,"lon":"-90.526598","lat":"38.762375","theaterChainName":"Wehrenberg Theatres","ticketType":"STANDARD"},{"id":"2911","tribuneTheaterId":"6188","providerTheaterId":"","name":"St. Andrews 3","address":"2025 Golfway St.","city":"Saint Charles","state":"MO","zip":"63301","distance":21.368578243172,"lon":"-90.539081","lat":"38.789345","theaterChainName":"Independent Chains","ticketType":"STANDARD"},{"id":"4187","tribuneTheaterId":"4249","providerTheaterId":"7","name":"AMC Chesterfield 14","address":"3000 Chesterfield Mall","city":"Chesterfield","state":"MO","zip":"63017","distance":21.402931109595,"lon":"-90.563446","lat":"38.652116","theaterChainName":"AMC Theatres","ticketType":"STANDARD"},{"id":"2896","tribuneTheaterId":"3101","providerTheaterId":"","name":"Great 8 Cinema","address":"5 Praire Dell Road","city":"Union","state":"MO","zip":"63084","distance":23.305647959987,"lon":"-90.9667","lat":"38.426245","theaterChainName":"Independent Chains","ticketType":"STANDARD"},{"id":"5580","tribuneTheaterId":"11031","providerTheaterId":"","name":"AMC Streets of St. Charles 8","address":"311 Lombard St.","city":"Saint Charles","state":"MO","zip":"63303","distance":23.724916157324,"lon":"-90.493946","lat":"38.766266","theaterChainName":"AMC Theatres","ticketType":"STANDARD"}]