[{"id":"1018","name":"Wehrenberg St. Charles 18 Cine","address":"1830 First Capitol Dr. S.","city":"Saint Charles","state":"MO","zip":"63303","distance":"24.473772048950195","lon":"-90.526596","lat":"38.762375","theaterChainName":"Wehrenberg Theatres","ticketType":"STANDARD"},{"id":"2911","name":"St. Andrews 3","address":"2025 Golfway St.","city":"Saint Charles","state":"MO","zip":"63301","distance":"22.954143524169922","lon":"-90.539078","lat":"38.789345","theaterChainName":"Independent Chains","ticketType":"STANDARD"},{"id":"2893","name":"Wehrenberg Mid Rivers 14 Cine","address":"1220 Mid Rivers Mall Dr.","city":"Saint Peters","state":"MO","zip":"63376","distance":"19.18985939025879","lon":"-90.615982","lat":"38.795341","theaterChainName":"Wehrenberg Theatres","ticketType":"STANDARD"},{"id":"4110","name":"Great Escape O Fallon 14","address":"900 Caledonia Drive","city":"O'Fallon","state":"MO","zip":"63366","distance":"16.518529891967773","lon":"-90.753242","lat":"38.744453","theaterChainName":"Regal Cinemas","ticketType":"STANDARD"},{"id":"4272","name":"Wehrenberg Town Square 12 Cine","address":"7805 Highway N","city":"Dardenne Prairie","state":"MO","zip":"63368","distance":"14.925912857055664","lon":"-90.763252","lat":"38.766769","theaterChainName":"Wehrenberg Theatres","ticketType":"STANDARD"},{"id":"4805","name":"Troy Movie House","address":"1346 S. Main St.","city":"Troy","state":"MO","zip":"63379","distance":"3.498197555541992","lon":"-90.975639","lat":"38.964039","theaterChainName":"Independent Chains","ticketType":"STANDARD"},{"id":"5845","name":"B&B Wentzville Tower 12","address":"100 Wentzville Bluffs Drive","city":"Wentzville","state":"MO","zip":"63385","distance":"10.43159008026123","lon":"-90.858498","lat":"38.803501","theaterChainName":"B&B Theatres","ticketType":"STANDARD"},{"id":"4409","name":"Warrenton 8 Cinema","address":"265 Veterans Memorial Parkway","city":"Warrenton","state":"MO","zip":"63383","distance":"16.642444610595703","lon":"-91.167198","lat":"38.810001","theaterChainName":"Independent Chains","ticketType":"STANDARD"}]