[{"id":"3671","name":"Regal St. Louis Mills Stadium 18","address":"1600 Park 370 Place","city":"Hazelwood","state":"MO","zip":"63042","distance":"17.269243240356445","lon":"-90.412865","lat":"38.789783","theaterChainName":"Regal Cinemas","ticketType":"STANDARD"},{"id":"4638","name":"Hi-Pointe Theatre","address":"1005 McCausland Ave.","city":"Saint Louis","state":"MO","zip":"63117","distance":"24.333648681640625","lon":"-90.304787","lat":"38.632648","theaterChainName":"Independent Chains","ticketType":"STANDARD"},{"id":"5784","name":"Hi-Pointe Backlot","address":"1002 Hi-Pointe Place","city":"Saint Louis","state":"MO","zip":"63117","distance":"24.296072006225586","lon":"-90.305481","lat":"38.632748","theaterChainName":"Independent Chains","ticketType":"STANDARD"},{"id":"66","name":"AMC Esquire 7","address":"6706 Clayton Road","city":"Saint Louis","state":"MO","zip":"63117","distance":"23.695974349975586","lon":"-90.316643","lat":"38.634182","theaterChainName":"AMC Theatres","ticketType":"STANDARD"},{"id":"2655","name":"AMC Creve Coeur 12","address":"10465 Olive Blvd","city":"Creve Coeur","state":"MO","zip":"63141","distance":"17.9791316986084","lon":"-90.410988","lat":"38.674507","theaterChainName":"AMC Theatres","ticketType":"STANDARD"},{"id":"5580","name":"AMC Streets of St. Charles 8","address":"311 Lombard St.","city":"Saint Charles","state":"MO","zip":"63303","distance":"12.739571571350098","lon":"-90.493942","lat":"38.766266","theaterChainName":"AMC Theatres","ticketType":"STANDARD"},{"id":"340","name":"AMC West Olive 16","address":"12657 Olive Street","city":"Creve Coeur","state":"MO","zip":"63141","distance":"15.028406143188477","lon":"-90.466438","lat":"38.679592","theaterChainName":"AMC Theatres","ticketType":"STANDARD"},{"id":"1018","name":"Wehrenberg St. Charles 18 Cine","address":"1830 First Capitol Dr. S.","city":"Saint Charles","state":"MO","zip":"63303","distance":"10.965130805969238","lon":"-90.526596","lat":"38.762375","theaterChainName":"Wehrenberg Theatres","ticketType":"STANDARD"},{"id":"2911","name":"St. Andrews 3","address":"2025 Golfway St.","city":"Saint Charles","state":"MO","zip":"63301","distance":"10.595193862915039","lon":"-90.539078","lat":"38.789345","theaterChainName":"Independent Chains","ticketType":"STANDARD"},{"id":"1017","name":"Wehrenberg Des Peres 14 Cine","address":"12800 Manchester Rd.","city":"Saint Louis","state":"MO","zip":"63131","distance":"18.087249755859375","lon":"-90.453140","lat":"38.603180","theaterChainName":"Wehrenberg Theatres","ticketType":"STANDARD"},{"id":"2893","name":"Wehrenberg Mid Rivers 14 Cine","address":"1220 Mid Rivers Mall Dr.","city":"Saint Peters","state":"MO","zip":"63376","distance":"6.83536958694458","lon":"-90.615982","lat":"38.795341","theaterChainName":"Wehrenberg Theatres","ticketType":"STANDARD"},{"id":"4187","name":"AMC Chesterfield 14","address":"3000 Chesterfield Mall","city":"Chesterfield","state":"MO","zip":"63017","distance":"11.280389785766602","lon":"-90.563446","lat":"38.652115","theaterChainName":"AMC Theatres","ticketType":"STANDARD"},{"id":"4622","name":"Great Escape at Gravois Bluffs","address":"754 Gravois Bluffs Blvd.","city":"Fenton","state":"MO","zip":"63026","distance":"22.771291732788086","lon":"-90.449158","lat":"38.505116","theaterChainName":"Regal Cinemas","ticketType":"STANDARD"},{"id":"3986","name":"Wehrenberg Chesterfield Galaxy 14 Cine","address":"450 THF Boulevard","city":"Chesterfield","state":"MO","zip":"63005","distance":"8.792852401733398","lon":"-90.608688","lat":"38.665913","theaterChainName":"Wehrenberg Theatres","ticketType":"STANDARD"},{"id":"5009","name":"B&B Wildwood 10 & GS","address":"16820 Main St.","city":"Wildwood","state":"MO","zip":"63040","distance":"12.930127143859863","lon":"-90.629883","lat":"38.581139","theaterChainName":"B&B Theatres","ticketType":"STANDARD"},{"id":"4110","name":"Great Escape O Fallon 14","address":"900 Caledonia Drive","city":"O'Fallon","state":"MO","zip":"63366","distance":"1.3591526746749878","lon":"-90.753242","lat":"38.744453","theaterChainName":"Regal Cinemas","ticketType":"STANDARD"},{"id":"4272","name":"Wehrenberg Town Square 12 Cine","address":"7805 Highway N","city":"Dardenne Prairie","state":"MO","zip":"63368","distance":"2.1048552989959717","lon":"-90.763252","lat":"38.766769","theaterChainName":"Wehrenberg Theatres","ticketType":"STANDARD"},{"id":"4805","name":"Troy Movie House","address":"1346 S. Main St.","city":"Troy","state":"MO","zip":"63379","distance":"19.782352447509766","lon":"-90.975639","lat":"38.964039","theaterChainName":"Independent Chains","ticketType":"STANDARD"},{"id":"5845","name":"B&B Wentzville Tower 12","address":"100 Wentzville Bluffs Drive","city":"Wentzville","state":"MO","zip":"63385","distance":"7.824396133422852","lon":"-90.858498","lat":"38.803501","theaterChainName":"B&B Theatres","ticketType":"STANDARD"},{"id":"993","name":"Cinema 1 Plus","address":"1900 Phoenix Center Drive","city":"Washington","state":"MO","zip":"63090","distance":"20.260404586791992","lon":"-90.987259","lat":"38.538048","theaterChainName":"Independent Chains","ticketType":"STANDARD"},{"id":"4409","name":"Warrenton 8 Cinema","address":"265 Veterans Memorial Parkway","city":"Warrenton","state":"MO","zip":"63383","distance":"23.917682647705078","lon":"-91.167198","lat":"38.810001","theaterChainName":"Independent Chains","ticketType":"STANDARD"}]