[{"id":"4409","tribuneTheaterId":"9468","providerTheaterId":"","name":"Warrenton 8 Cinema","address":"265 Veterans Memorial Parkway","city":"Warrenton","state":"MO","zip":"63383","distance":1.9846361897515,"lon":"-91.167198","lat":"38.810001","theaterChainName":"Independent Chains","ticketType":"STANDARD"},{"id":"4805","tribuneTheaterId":"10064","providerTheaterId":"","name":"Troy Movie House","address":"1346 S. Main St.","city":"Troy","state":"MO","zip":"63379","distance":13.418714720554,"lon":"-90.97564","lat":"38.964039","theaterChainName":"Independent Chains","ticketType":"STANDARD"},{"id":"5845","tribuneTheaterId":"11257","providerTheaterId":"","name":"B&B Wentzville Tower 12","address":"100 Wentzville Bluffs Drive","city":"Wentzville","state":"MO","zip":"63385","distance":14.650400814789,"lon":"-90.8585","lat":"38.8035","theaterChainName":"B&B Theatres","ticketType":"STANDARD"},{"id":"4272","tribuneTheaterId":"3205","providerTheaterId":"","name":"Wehrenberg Town Square 12 Cine","address":"7805 Highway N","city":"Dardenne Prairie","state":"MO","zip":"63368","distance":20.015194959403,"lon":"-90.763249","lat":"38.766768","theaterChainName":"Wehrenberg Theatres","ticketType":"STANDARD"},{"id":"993","tribuneTheaterId":"2675","providerTheaterId":"","name":"Cinema 1 Plus","address":"1900 Phoenix Center Drive","city":"Washington","state":"MO","zip":"63090","distance":20.423410985391,"lon":"-90.987257","lat":"38.538047","theaterChainName":"Independent Chains","ticketType":"STANDARD"},{"id":"4110","tribuneTheaterId":"6752","providerTheaterId":"","name":"Great Escape O Fallon 14","address":"900 Caledonia Drive","city":"O'Fallon","state":"MO","zip":"63366","distance":20.839632086336,"lon":"-90.753242","lat":"38.744453","theaterChainName":"Regal Cinemas","ticketType":"STANDARD"}]