[{"id":"3671","name":"Regal St. Louis Mills Stadium 18","address":"1600 Park 370 Place","city":"Hazelwood","state":"MO","zip":"63042","distance":"23.73940658569336","lon":"-90.412865","lat":"38.789783","theaterChainName":"Regal Cinemas","ticketType":"STANDARD"},{"id":"5580","name":"AMC Streets of St. Charles 8","address":"311 Lombard St.","city":"Saint Charles","state":"MO","zip":"63303","distance":"19.518085479736328","lon":"-90.493942","lat":"38.766266","theaterChainName":"AMC Theatres","ticketType":"STANDARD"},{"id":"340","name":"AMC West Olive 16","address":"12657 Olive Street","city":"Creve Coeur","state":"MO","zip":"63141","distance":"22.50518798828125","lon":"-90.466438","lat":"38.679592","theaterChainName":"AMC Theatres","ticketType":"STANDARD"},{"id":"1018","name":"Wehrenberg St. Charles 18 Cine","address":"1830 First Capitol Dr. S.","city":"Saint Charles","state":"MO","zip":"63303","distance":"17.81460952758789","lon":"-90.526596","lat":"38.762375","theaterChainName":"Wehrenberg Theatres","ticketType":"STANDARD"},{"id":"2911","name":"St. Andrews 3","address":"2025 Golfway St.","city":"Saint Charles","state":"MO","zip":"63301","distance":"16.95001792907715","lon":"-90.539078","lat":"38.789345","theaterChainName":"Independent Chains","ticketType":"STANDARD"},{"id":"2893","name":"Wehrenberg Mid Rivers 14 Cine","address":"1220 Mid Rivers Mall Dr.","city":"Saint Peters","state":"MO","zip":"63376","distance":"12.793614387512207","lon":"-90.615982","lat":"38.795341","theaterChainName":"Wehrenberg Theatres","ticketType":"STANDARD"},{"id":"4187","name":"AMC Chesterfield 14","address":"3000 Chesterfield Mall","city":"Chesterfield","state":"MO","zip":"63017","distance":"18.74993133544922","lon":"-90.563446","lat":"38.652115","theaterChainName":"AMC Theatres","ticketType":"STANDARD"},{"id":"3986","name":"Wehrenberg Chesterfield Galaxy 14 Cine","address":"450 THF Boulevard","city":"Chesterfield","state":"MO","zip":"63005","distance":"16.198694229125977","lon":"-90.608688","lat":"38.665913","theaterChainName":"Wehrenberg Theatres","ticketType":"STANDARD"},{"id":"5009","name":"B&B Wildwood 10 & GS","address":"16820 Main St.","city":"Wildwood","state":"MO","zip":"63040","distance":"19.44768524169922","lon":"-90.629883","lat":"38.581139","theaterChainName":"B&B Theatres","ticketType":"STANDARD"},{"id":"4110","name":"Great Escape O Fallon 14","address":"900 Caledonia Drive","city":"O'Fallon","state":"MO","zip":"63366","distance":"6.702443599700928","lon":"-90.753242","lat":"38.744453","theaterChainName":"Regal Cinemas","ticketType":"STANDARD"},{"id":"4272","name":"Wehrenberg Town Square 12 Cine","address":"7805 Highway N","city":"Dardenne Prairie","state":"MO","zip":"63368","distance":"5.431614875793457","lon":"-90.763252","lat":"38.766769","theaterChainName":"Wehrenberg Theatres","ticketType":"STANDARD"},{"id":"4805","name":"Troy Movie House","address":"1346 S. Main St.","city":"Troy","state":"MO","zip":"63379","distance":"12.984355926513672","lon":"-90.975639","lat":"38.964039","theaterChainName":"Independent Chains","ticketType":"STANDARD"},{"id":"5845","name":"B&B Wentzville Tower 12","address":"100 Wentzville Bluffs Drive","city":"Wentzville","state":"MO","zip":"63385","distance":"0.293427437543869","lon":"-90.858498","lat":"38.803501","theaterChainName":"B&B Theatres","ticketType":"STANDARD"},{"id":"993","name":"Cinema 1 Plus","address":"1900 Phoenix Center Drive","city":"Washington","state":"MO","zip":"63090","distance":"19.61594581604004","lon":"-90.987259","lat":"38.538048","theaterChainName":"Independent Chains","ticketType":"STANDARD"},{"id":"4409","name":"Warrenton 8 Cinema","address":"265 Veterans Memorial Parkway","city":"Warrenton","state":"MO","zip":"63383","distance":"16.90570068359375","lon":"-91.167198","lat":"38.810001","theaterChainName":"Independent Chains","ticketType":"STANDARD"}]