[{"id":"4409","tribuneTheaterId":"9468","providerTheaterId":"","name":"Warrenton 8 Cinema","address":"265 Veterans Memorial Parkway","city":"Warrenton","state":"MO","zip":"63383","distance":7.2305785013929,"lon":"-91.167198","lat":"38.810001","theaterChainName":"Independent Chains","ticketType":"STANDARD"},{"id":"5845","tribuneTheaterId":"11257","providerTheaterId":"","name":"B&B Wentzville Tower 12","address":"100 Wentzville Bluffs Drive","city":"Wentzville","state":"MO","zip":"63385","distance":9.3998178025953,"lon":"-90.8585","lat":"38.8035","theaterChainName":"B&B Theatres","ticketType":"STANDARD"},{"id":"4805","tribuneTheaterId":"10064","providerTheaterId":"","name":"Troy Movie House","address":"1346 S. Main St.","city":"Troy","state":"MO","zip":"63379","distance":11.099543421652,"lon":"-90.97564","lat":"38.964039","theaterChainName":"Independent Chains","ticketType":"STANDARD"},{"id":"4272","tribuneTheaterId":"3205","providerTheaterId":"","name":"Wehrenberg Town Square 12 Cine","address":"7805 Highway N","city":"Dardenne Prairie","state":"MO","zip":"63368","distance":14.82215024353,"lon":"-90.763249","lat":"38.766768","theaterChainName":"Wehrenberg Theatres","ticketType":"STANDARD"},{"id":"4110","tribuneTheaterId":"6752","providerTheaterId":"","name":"Great Escape O Fallon 14","address":"900 Caledonia Drive","city":"O'Fallon","state":"MO","zip":"63366","distance":15.723706323507,"lon":"-90.753242","lat":"38.744453","theaterChainName":"Regal Cinemas","ticketType":"STANDARD"},{"id":"993","tribuneTheaterId":"2675","providerTheaterId":"","name":"Cinema 1 Plus","address":"1900 Phoenix Center Drive","city":"Washington","state":"MO","zip":"63090","distance":18.930195807638,"lon":"-90.987257","lat":"38.538047","theaterChainName":"Independent Chains","ticketType":"STANDARD"},{"id":"2893","tribuneTheaterId":"6749","providerTheaterId":"","name":"Wehrenberg Mid Rivers 14 Cine","address":"1220 Mid Rivers Mall Dr.","city":"Saint Peters","state":"MO","zip":"63376","distance":22.470737837277,"lon":"-90.615985","lat":"38.79534","theaterChainName":"Wehrenberg Theatres","ticketType":"STANDARD"},{"id":"3986","tribuneTheaterId":"2349","providerTheaterId":"","name":"Wehrenberg Chesterfield Galaxy 14 Cine","address":"450 THF Boulevard","city":"Chesterfield","state":"MO","zip":"63005","distance":24.927650035404,"lon":"-90.60869","lat":"38.665911","theaterChainName":"Wehrenberg Theatres","ticketType":"STANDARD"}]