[{"id":"5976","name":"AMC Academy 8","address":"6198 Greenbelt Road","city":"Greenbelt","state":"MD","zip":"20770","distance":"10.647002220153809","lon":"-89.589958","lat":"36.858772","theaterChainName":"AMC Theatres","ticketType":"STANDARD"},{"id":"5971","name":"Moviehouse Eatery LLC","address":"8450 SH 121","city":"McKinney","state":"TX","zip":"75070","distance":"10.647002220153809","lon":"-89.589958","lat":"36.858772","theaterChainName":"Independent Chains","ticketType":"STANDARD"},{"id":"5926","name":"Malco Sikeston Cinema","address":"1218 Cinema Drive","city":"Sikeston","state":"MO","zip":"63801","distance":"10.647002220153809","lon":"-89.589958","lat":"36.858772","theaterChainName":"Malco Theatre","ticketType":"STANDARD"},{"id":"1498","name":"Wehrenberg Cape West 14 Cine","address":"247 Siemers Dr.","city":"Cape Girardeau","state":"MO","zip":"63701","distance":"21.98046112060547","lon":"-89.583397","lat":"37.298077","theaterChainName":"Wehrenberg Theatres","ticketType":"STANDARD"},{"id":"1505","name":"Dexter Twin Cinema","address":"1618 W. Bus Highway 60","city":"Dexter","state":"MO","zip":"63841","distance":"21.026411056518555","lon":"-89.988197","lat":"36.803699","theaterChainName":"Independent Chains","ticketType":"STANDARD"}]