[{"id":"4044","tribuneTheaterId":"2006","providerTheaterId":"","name":"B&B Lexington Cannonball 6 Cinema","address":"1125 Franklin","city":"Lexington","state":"MO","zip":"64067","distance":7.8137743429387,"lon":"-93.88238","lat":"39.184365","theaterChainName":"B&B Theatres","ticketType":"STANDARD"},{"id":"5472","tribuneTheaterId":"10913","providerTheaterId":"","name":"B&B Grain Valley Marketplace 8 & Grand Screen","address":"1131 North East McQuerry Rd.","city":"Grain Valley","state":"MO","zip":"64029","distance":15.43381103025,"lon":"-94.195114","lat":"39.02408","theaterChainName":"B&B Theatres","ticketType":"STANDARD"},{"id":"132","tribuneTheaterId":"7970","providerTheaterId":"30","name":"AMC Independence Commons 20","address":"19200 E. 39th Street","city":"Independence","state":"MO","zip":"64057","distance":20.540356099833,"lon":"-94.353139","lat":"39.050086","theaterChainName":"AMC Theatres","ticketType":"STANDARD"},{"id":"1720","tribuneTheaterId":"7186","providerTheaterId":"","name":"B&B Liberty Cinema 12","address":"2101 W Kansas","city":"Liberty","state":"MO","zip":"64069","distance":23.104147607068,"lon":"-94.454859","lat":"39.24206","theaterChainName":"B&B Theatres","ticketType":"STANDARD"},{"id":"2671","tribuneTheaterId":"2901","providerTheaterId":"","name":"Pharaoh Cinema 4","address":"114 W Maple","city":"Independence","state":"MO","zip":"64050","distance":22.301510405668,"lon":"-94.416288","lat":"39.09288","theaterChainName":"Independent Chains","ticketType":"STANDARD"},{"id":"271","tribuneTheaterId":"5616","providerTheaterId":"","name":"Regal Kansas City Stadium 18 Cinemas","address":"3200 N. Ameristar Dr","city":"Kansas City","state":"MO","zip":"64161","distance":24.925110482342,"lon":"-94.486005","lat":"39.150715","theaterChainName":"Regal Cinemas","ticketType":"STANDARD"}]