[{"id":"271","name":"Regal Kansas City Stadium 18 Cinemas","address":"3200 N. Ameristar Dr","city":"Kansas City","state":"MO","zip":"64161","distance":"24.95674705505371","lon":"-94.486008","lat":"39.150715","theaterChainName":"Regal Cinemas","ticketType":"STANDARD"},{"id":"1720","name":"B&B Liberty Cinema 12","address":"2101 W Kansas","city":"Liberty","state":"MO","zip":"64069","distance":"21.184921264648438","lon":"-94.454857","lat":"39.242062","theaterChainName":"B&B Theatres","ticketType":"STANDARD"},{"id":"4529","name":"Screenland Armour","address":"408 Armour Road","city":"North Kansas City","state":"MO","zip":"64116","distance":"23.18866729736328","lon":"-94.575630","lat":"39.142365","theaterChainName":"Independent Chains","ticketType":"STANDARD"},{"id":"3699","name":"B&B Theatres KC Northland 14","address":"4900 N.E. 80th Street","city":"Kansas City","state":"MO","zip":"64119","distance":"18.85391616821289","lon":"-94.522507","lat":"39.239353","theaterChainName":"B&B Theatres","ticketType":"STANDARD"},{"id":"544","name":"AMC Barrywoods 24","address":"8101 Roanridge Rd.","city":"Kansas City","state":"MO","zip":"64151","distance":"15.152547836303711","lon":"-94.656143","lat":"39.243099","theaterChainName":"AMC Theatres","ticketType":"STANDARD"},{"id":"5860","name":"AMC Legends 14","address":"1841 Village West Parkway","city":"Kansas City","state":"KS","zip":"66111","distance":"22.84929847717285","lon":"-94.825302","lat":"39.126801","theaterChainName":"AMC Theatres","ticketType":"STANDARD"},{"id":"953","name":"Landing 4 Theatres","address":"225 Delaware","city":"Leavenworth","state":"KS","zip":"66048","distance":"12.837688446044922","lon":"-94.911911","lat":"39.318249","theaterChainName":"Independent Chains","ticketType":"STANDARD"}]