[{"id":"1716","tribuneTheaterId":"1916","providerTheaterId":"","name":"B&B Harrisonville Cineplex","address":"2727 Cantrell Road","city":"Harrisonville","state":"MO","zip":"64701","distance":5.3020355308175,"lon":"-94.373522","lat":"38.660327","theaterChainName":"B&B Theatres","ticketType":"STANDARD"},{"id":"926","tribuneTheaterId":"8229","providerTheaterId":"","name":"Belton Cinema 8","address":"1207 E North Ave","city":"Belton","state":"MO","zip":"64012","distance":7.7355231053443,"lon":"-94.51506","lat":"38.81218","theaterChainName":"Mitchell Theatres","ticketType":"STANDARD"},{"id":"5519","tribuneTheaterId":"10945","providerTheaterId":"","name":"Cinetopia Overland Park 18","address":"5725 W. 135th St.","city":"Overland Park","state":"KS","zip":"66223","distance":16.146803148465,"lon":"-94.651551","lat":"38.882511","theaterChainName":"Independent Chains","ticketType":"STANDARD"},{"id":"2635","tribuneTheaterId":"8230","providerTheaterId":"","name":"B&B Lee\u2019s Summit 16","address":"1451 N.E. Douglas St.","city":"Lee's Summit","state":"MO","zip":"64086","distance":15.731671840263,"lon":"-94.376658","lat":"38.938689","theaterChainName":"B&B Theatres","ticketType":"STANDARD"},{"id":"543","tribuneTheaterId":"7973","providerTheaterId":"38","name":"AMC Town Center 20","address":"11701 Nall Ave.","city":"Leawood","state":"KS","zip":"66211","distance":17.736296933146,"lon":"-94.648118","lat":"38.915815","theaterChainName":"AMC Theatres","ticketType":"STANDARD"},{"id":"3929","tribuneTheaterId":"5053","providerTheaterId":"","name":"B&B Overland Park 16","address":"8601 W. 135th Street","city":"Overland Park","state":"KS","zip":"66223","distance":17.360030744961,"lon":"-94.683748","lat":"38.881395","theaterChainName":"B&B Theatres","ticketType":"STANDARD"},{"id":"65","tribuneTheaterId":"8459","providerTheaterId":"25","name":"AMC Ward Parkway 14","address":"8600 Ward Pkwy","city":"Kansas City","state":"MO","zip":"64114","distance":19.704697038994,"lon":"-94.606222","lat":"38.970809","theaterChainName":"AMC Theatres","ticketType":"STANDARD"},{"id":"3580","tribuneTheaterId":"659","providerTheaterId":"","name":"Glenwood Arts Theatre","address":"3707 W 95th St.","city":"Overland Park","state":"KS","zip":"66212","distance":19.436315566625,"lon":"-94.628879","lat":"38.956503","theaterChainName":"Independent Chains","ticketType":"STANDARD"},{"id":"545","tribuneTheaterId":"7501","providerTheaterId":"610","name":"AMC Studio 30 Olathe","address":"12075 S Strang Line Rd.","city":"Olathe","state":"KS","zip":"66062","distance":22.209056703149,"lon":"-94.77","lat":"38.9099","theaterChainName":"AMC Theatres","ticketType":"STANDARD"},{"id":"3042","tribuneTheaterId":"2603","providerTheaterId":"","name":"Rio Theatre - Overland Park","address":"7204 W. 80th St.","city":"Overland Park","state":"KS","zip":"66204","distance":22.216521400214,"lon":"-94.669288","lat":"38.984163","theaterChainName":"Independent Chains","ticketType":"STANDARD"},{"id":"5407","tribuneTheaterId":"10845","providerTheaterId":"","name":"STANDEES - The Entertaining Eatery","address":"3935 W. 69th Terrace","city":"Prairie Village","state":"KS","zip":"66208","distance":22.245735026875,"lon":"-94.631635","lat":"39.002001","theaterChainName":"Independent Chains","ticketType":"STANDARD"},{"id":"963","tribuneTheaterId":"6946","providerTheaterId":"","name":"Tivoli Cinema","address":"4050 Pennsylvania","city":"Kansas City","state":"MO","zip":"64111","distance":24.665083918446,"lon":"-94.592319","lat":"39.053354","theaterChainName":"Independent Chains","ticketType":"STANDARD"},{"id":"2482","tribuneTheaterId":"5269","providerTheaterId":"","name":"Palace at the Plaza","address":"500 Nichols Road","city":"Kansas City","state":"MO","zip":"64112","distance":23.927096984956,"lon":"-94.594361","lat":"39.041428","theaterChainName":"Cinemark","ticketType":"STANDARD"},{"id":"132","tribuneTheaterId":"7970","providerTheaterId":"30","name":"AMC Independence Commons 20","address":"19200 E. 39th Street","city":"Independence","state":"MO","zip":"64057","distance":23.522605353193,"lon":"-94.353139","lat":"39.050086","theaterChainName":"AMC Theatres","ticketType":"STANDARD"}]