[{"id":"2671","name":"Pharaoh Cinema 4","address":"114 W Maple","city":"Independence","state":"MO","zip":"64050","distance":"22.018522262573242","lon":"-94.416290","lat":"39.092880","theaterChainName":"Independent Chains","ticketType":"STANDARD"},{"id":"271","name":"Regal Kansas City Stadium 18 Cinemas","address":"3200 N. Ameristar Dr","city":"Kansas City","state":"MO","zip":"64161","distance":"17.105594635009766","lon":"-94.486008","lat":"39.150715","theaterChainName":"Regal Cinemas","ticketType":"STANDARD"},{"id":"1720","name":"B&B Liberty Cinema 12","address":"2101 W Kansas","city":"Liberty","state":"MO","zip":"64069","distance":"11.748217582702637","lon":"-94.454857","lat":"39.242062","theaterChainName":"B&B Theatres","ticketType":"STANDARD"},{"id":"5025","name":"Screenland Crown Center","address":"2450 Grand Blvd.","city":"Kansas City","state":"MO","zip":"64108","distance":"21.361957550048828","lon":"-94.582352","lat":"39.083065","theaterChainName":"Independent Chains","ticketType":"STANDARD"},{"id":"5328","name":"B&B KC Extreme Screen Union Station","address":"30 W. Pershing","city":"Kansas City","state":"MO","zip":"64108","distance":"21.30379867553711","lon":"-94.584297","lat":"39.084000","theaterChainName":"B&B Theatres","ticketType":"STANDARD"},{"id":"963","name":"Tivoli Cinema","address":"4050 Pennsylvania","city":"Kansas City","state":"MO","zip":"64111","distance":"23.446178436279297","lon":"-94.592316","lat":"39.053352","theaterChainName":"Independent Chains","ticketType":"STANDARD"},{"id":"5200","name":"Alamo Drafthouse Mainstreet","address":"1400 Mainstreet","city":"Kansas City","state":"MO","zip":"64105","distance":"20.392688751220703","lon":"-94.583481","lat":"39.097172","theaterChainName":"Alamo Drafthouse","ticketType":"STANDARD"},{"id":"2482","name":"Palace at the Plaza","address":"500 Nichols Road","city":"Kansas City","state":"MO","zip":"64112","distance":"24.276124954223633","lon":"-94.594360","lat":"39.041428","theaterChainName":"Cinemark","ticketType":"STANDARD"},{"id":"4530","name":"Screenland Crossroads","address":"1656 Washington","city":"Kansas City","state":"MO","zip":"64108","distance":"20.65612030029297","lon":"-94.589798","lat":"39.093700","theaterChainName":"Independent Chains","ticketType":"STANDARD"},{"id":"4529","name":"Screenland Armour","address":"408 Armour Road","city":"North Kansas City","state":"MO","zip":"64116","distance":"17.250947952270508","lon":"-94.575630","lat":"39.142365","theaterChainName":"Independent Chains","ticketType":"STANDARD"},{"id":"3699","name":"B&B Theatres KC Northland 14","address":"4900 N.E. 80th Street","city":"Kansas City","state":"MO","zip":"64119","distance":"10.708014488220215","lon":"-94.522507","lat":"39.239353","theaterChainName":"B&B Theatres","ticketType":"STANDARD"},{"id":"544","name":"AMC Barrywoods 24","address":"8101 Roanridge Rd.","city":"Kansas City","state":"MO","zip":"64151","distance":"11.501749038696289","lon":"-94.656143","lat":"39.243099","theaterChainName":"AMC Theatres","ticketType":"STANDARD"},{"id":"5860","name":"AMC Legends 14","address":"1841 Village West Parkway","city":"Kansas City","state":"KS","zip":"66111","distance":"23.188968658447266","lon":"-94.825302","lat":"39.126801","theaterChainName":"AMC Theatres","ticketType":"STANDARD"},{"id":"953","name":"Landing 4 Theatres","address":"225 Delaware","city":"Leavenworth","state":"KS","zip":"66048","distance":"19.516469955444336","lon":"-94.911911","lat":"39.318249","theaterChainName":"Independent Chains","ticketType":"STANDARD"}]