[{"id":"1716","tribuneTheaterId":"1916","providerTheaterId":"","name":"B&B Harrisonville Cineplex","address":"2727 Cantrell Road","city":"Harrisonville","state":"MO","zip":"64701","distance":11.136613127772,"lon":"-94.373522","lat":"38.660327","theaterChainName":"B&B Theatres","ticketType":"STANDARD"},{"id":"2635","tribuneTheaterId":"8230","providerTheaterId":"","name":"B&B Lee\u2019s Summit 16","address":"1451 N.E. Douglas St.","city":"Lee's Summit","state":"MO","zip":"64086","distance":12.742856419132,"lon":"-94.376658","lat":"38.938689","theaterChainName":"B&B Theatres","ticketType":"STANDARD"},{"id":"926","tribuneTheaterId":"8229","providerTheaterId":"","name":"Belton Cinema 8","address":"1207 E North Ave","city":"Belton","state":"MO","zip":"64012","distance":14.708477412923,"lon":"-94.51506","lat":"38.81218","theaterChainName":"Mitchell Theatres","ticketType":"STANDARD"},{"id":"5472","tribuneTheaterId":"10913","providerTheaterId":"","name":"B&B Grain Valley Marketplace 8 & Grand Screen","address":"1131 North East McQuerry Rd.","city":"Grain Valley","state":"MO","zip":"64029","distance":16.665232954963,"lon":"-94.195114","lat":"39.02408","theaterChainName":"B&B Theatres","ticketType":"STANDARD"},{"id":"132","tribuneTheaterId":"7970","providerTheaterId":"30","name":"AMC Independence Commons 20","address":"19200 E. 39th Street","city":"Independence","state":"MO","zip":"64057","distance":19.173209389458,"lon":"-94.353139","lat":"39.050086","theaterChainName":"AMC Theatres","ticketType":"STANDARD"},{"id":"5519","tribuneTheaterId":"10945","providerTheaterId":"","name":"Cinetopia Overland Park 18","address":"5725 W. 135th St.","city":"Overland Park","state":"KS","zip":"66223","distance":22.928051310699,"lon":"-94.651551","lat":"38.882511","theaterChainName":"Independent Chains","ticketType":"STANDARD"},{"id":"543","tribuneTheaterId":"7973","providerTheaterId":"38","name":"AMC Town Center 20","address":"11701 Nall Ave.","city":"Leawood","state":"KS","zip":"66211","distance":23.524829073486,"lon":"-94.648118","lat":"38.915815","theaterChainName":"AMC Theatres","ticketType":"STANDARD"},{"id":"65","tribuneTheaterId":"8459","providerTheaterId":"25","name":"AMC Ward Parkway 14","address":"8600 Ward Pkwy","city":"Kansas City","state":"MO","zip":"64114","distance":23.298408631998,"lon":"-94.606222","lat":"38.970809","theaterChainName":"AMC Theatres","ticketType":"STANDARD"},{"id":"3580","tribuneTheaterId":"659","providerTheaterId":"","name":"Glenwood Arts Theatre","address":"3707 W 95th St.","city":"Overland Park","state":"KS","zip":"66212","distance":23.824239366693,"lon":"-94.628879","lat":"38.956503","theaterChainName":"Independent Chains","ticketType":"STANDARD"},{"id":"2671","tribuneTheaterId":"2901","providerTheaterId":"","name":"Pharaoh Cinema 4","address":"114 W Maple","city":"Independence","state":"MO","zip":"64050","distance":23.143122259138,"lon":"-94.416288","lat":"39.09288","theaterChainName":"Independent Chains","ticketType":"STANDARD"},{"id":"3929","tribuneTheaterId":"5053","providerTheaterId":"","name":"B&B Overland Park 16","address":"8601 W. 135th Street","city":"Overland Park","state":"KS","zip":"66223","distance":24.570397285666,"lon":"-94.683748","lat":"38.881395","theaterChainName":"B&B Theatres","ticketType":"STANDARD"}]