[{"id":"5472","tribuneTheaterId":"10913","providerTheaterId":"","name":"B&B Grain Valley Marketplace 8 & Grand Screen","address":"1131 North East McQuerry Rd.","city":"Grain Valley","state":"MO","zip":"64029","distance":9.2983803118064,"lon":"-94.195114","lat":"39.02408","theaterChainName":"B&B Theatres","ticketType":"STANDARD"},{"id":"132","tribuneTheaterId":"7970","providerTheaterId":"30","name":"AMC Independence Commons 20","address":"19200 E. 39th Street","city":"Independence","state":"MO","zip":"64057","distance":11.741299655213,"lon":"-94.353139","lat":"39.050086","theaterChainName":"AMC Theatres","ticketType":"STANDARD"},{"id":"2671","tribuneTheaterId":"2901","providerTheaterId":"","name":"Pharaoh Cinema 4","address":"114 W Maple","city":"Independence","state":"MO","zip":"64050","distance":13.227965262691,"lon":"-94.416288","lat":"39.09288","theaterChainName":"Independent Chains","ticketType":"STANDARD"},{"id":"4044","tribuneTheaterId":"2006","providerTheaterId":"","name":"B&B Lexington Cannonball 6 Cinema","address":"1125 Franklin","city":"Lexington","state":"MO","zip":"64067","distance":16.276945421785,"lon":"-93.88238","lat":"39.184365","theaterChainName":"B&B Theatres","ticketType":"STANDARD"},{"id":"271","tribuneTheaterId":"5616","providerTheaterId":"","name":"Regal Kansas City Stadium 18 Cinemas","address":"3200 N. Ameristar Dr","city":"Kansas City","state":"MO","zip":"64161","distance":16.168134420489,"lon":"-94.486005","lat":"39.150715","theaterChainName":"Regal Cinemas","ticketType":"STANDARD"},{"id":"1720","tribuneTheaterId":"7186","providerTheaterId":"","name":"B&B Liberty Cinema 12","address":"2101 W Kansas","city":"Liberty","state":"MO","zip":"64069","distance":15.592280955611,"lon":"-94.454859","lat":"39.24206","theaterChainName":"B&B Theatres","ticketType":"STANDARD"},{"id":"3699","tribuneTheaterId":"5052","providerTheaterId":"","name":"B&B Theatres KC Northland 14","address":"4900 N.E. 80th Street","city":"Kansas City","state":"MO","zip":"64119","distance":18.947937928394,"lon":"-94.522505","lat":"39.239352","theaterChainName":"B&B Theatres","ticketType":"STANDARD"},{"id":"2635","tribuneTheaterId":"8230","providerTheaterId":"","name":"B&B Lee\u2019s Summit 16","address":"1451 N.E. Douglas St.","city":"Lee's Summit","state":"MO","zip":"64086","distance":18.354164651527,"lon":"-94.376658","lat":"38.938689","theaterChainName":"B&B Theatres","ticketType":"STANDARD"},{"id":"4529","tribuneTheaterId":"9655","providerTheaterId":"","name":"Screenland Armour","address":"408 Armour Road","city":"North Kansas City","state":"MO","zip":"64116","distance":20.992059172586,"lon":"-94.575634","lat":"39.142364","theaterChainName":"Independent Chains","ticketType":"STANDARD"},{"id":"4530","tribuneTheaterId":"9656","providerTheaterId":"","name":"Screenland Crossroads","address":"1656 Washington","city":"Kansas City","state":"MO","zip":"64108","distance":22.184406050417,"lon":"-94.5898","lat":"39.0937","theaterChainName":"Independent Chains","ticketType":"STANDARD"},{"id":"5025","tribuneTheaterId":"10399","providerTheaterId":"","name":"Screenland Crown Center","address":"2450 Grand Blvd.","city":"Kansas City","state":"MO","zip":"64108","distance":21.957482843394,"lon":"-94.58235","lat":"39.083066","theaterChainName":"Independent Chains","ticketType":"STANDARD"},{"id":"5328","tribuneTheaterId":"10765","providerTheaterId":"","name":"B&B KC Extreme Screen Union Station","address":"30 W. Pershing","city":"Kansas City","state":"MO","zip":"64108","distance":22.043768439406,"lon":"-94.5843","lat":"39.084","theaterChainName":"B&B Theatres","ticketType":"STANDARD"},{"id":"5200","tribuneTheaterId":"10624","providerTheaterId":"","name":"Alamo Drafthouse Mainstreet","address":"1400 Mainstreet","city":"Kansas City","state":"MO","zip":"64105","distance":21.804582140395,"lon":"-94.583484","lat":"39.097173","theaterChainName":"Alamo Drafthouse","ticketType":"STANDARD"},{"id":"2482","tribuneTheaterId":"5269","providerTheaterId":"","name":"Palace at the Plaza","address":"500 Nichols Road","city":"Kansas City","state":"MO","zip":"64112","distance":23.420596832636,"lon":"-94.594361","lat":"39.041428","theaterChainName":"Cinemark","ticketType":"STANDARD"},{"id":"963","tribuneTheaterId":"6946","providerTheaterId":"","name":"Tivoli Cinema","address":"4050 Pennsylvania","city":"Kansas City","state":"MO","zip":"64111","distance":23.04347267296,"lon":"-94.592319","lat":"39.053354","theaterChainName":"Independent Chains","ticketType":"STANDARD"}]