[{"id":"1716","tribuneTheaterId":"1916","providerTheaterId":"","name":"B&B Harrisonville Cineplex","address":"2727 Cantrell Road","city":"Harrisonville","state":"MO","zip":"64701","distance":13.583370553099,"lon":"-94.373522","lat":"38.660327","theaterChainName":"B&B Theatres","ticketType":"STANDARD"},{"id":"2635","tribuneTheaterId":"8230","providerTheaterId":"","name":"B&B Lee\u2019s Summit 16","address":"1451 N.E. Douglas St.","city":"Lee's Summit","state":"MO","zip":"64086","distance":16.65749817076,"lon":"-94.376658","lat":"38.938689","theaterChainName":"B&B Theatres","ticketType":"STANDARD"},{"id":"5472","tribuneTheaterId":"10913","providerTheaterId":"","name":"B&B Grain Valley Marketplace 8 & Grand Screen","address":"1131 North East McQuerry Rd.","city":"Grain Valley","state":"MO","zip":"64029","distance":17.940012259104,"lon":"-94.195114","lat":"39.02408","theaterChainName":"B&B Theatres","ticketType":"STANDARD"},{"id":"926","tribuneTheaterId":"8229","providerTheaterId":"","name":"Belton Cinema 8","address":"1207 E North Ave","city":"Belton","state":"MO","zip":"64012","distance":19.340724943362,"lon":"-94.51506","lat":"38.81218","theaterChainName":"Mitchell Theatres","ticketType":"STANDARD"},{"id":"132","tribuneTheaterId":"7970","providerTheaterId":"30","name":"AMC Independence Commons 20","address":"19200 E. 39th Street","city":"Independence","state":"MO","zip":"64057","distance":22.195640025468,"lon":"-94.353139","lat":"39.050086","theaterChainName":"AMC Theatres","ticketType":"STANDARD"},{"id":"4754","tribuneTheaterId":"9989","providerTheaterId":"","name":"Carmike 10 Warrensburg","address":"386 Hawthorne Blvd","city":"Warrensburg","state":"MO","zip":"64093","distance":23.075307604023,"lon":"-93.733056","lat":"38.782493","theaterChainName":"Carmike Cinemas","ticketType":"STANDARD"}]