[{"id":"132","name":"AMC Independence Commons 20","address":"19200 E. 39th Street","city":"Independence","state":"MO","zip":"64057","distance":"20.703392028808594","lon":"-94.353142","lat":"39.050087","theaterChainName":"AMC Theatres","ticketType":"STANDARD"},{"id":"2671","name":"Pharaoh Cinema 4","address":"114 W Maple","city":"Independence","state":"MO","zip":"64050","distance":"16.210416793823242","lon":"-94.416290","lat":"39.092880","theaterChainName":"Independent Chains","ticketType":"STANDARD"},{"id":"271","name":"Regal Kansas City Stadium 18 Cinemas","address":"3200 N. Ameristar Dr","city":"Kansas City","state":"MO","zip":"64161","distance":"10.752272605895996","lon":"-94.486008","lat":"39.150715","theaterChainName":"Regal Cinemas","ticketType":"STANDARD"},{"id":"1720","name":"B&B Liberty Cinema 12","address":"2101 W Kansas","city":"Liberty","state":"MO","zip":"64069","distance":"9.700169563293457","lon":"-94.454857","lat":"39.242062","theaterChainName":"B&B Theatres","ticketType":"STANDARD"},{"id":"5025","name":"Screenland Crown Center","address":"2450 Grand Blvd.","city":"Kansas City","state":"MO","zip":"64108","distance":"12.195258140563965","lon":"-94.582352","lat":"39.083065","theaterChainName":"Independent Chains","ticketType":"STANDARD"},{"id":"5328","name":"B&B KC Extreme Screen Union Station","address":"30 W. Pershing","city":"Kansas City","state":"MO","zip":"64108","distance":"12.108475685119629","lon":"-94.584297","lat":"39.084000","theaterChainName":"B&B Theatres","ticketType":"STANDARD"},{"id":"963","name":"Tivoli Cinema","address":"4050 Pennsylvania","city":"Kansas City","state":"MO","zip":"64111","distance":"14.10283374786377","lon":"-94.592316","lat":"39.053352","theaterChainName":"Independent Chains","ticketType":"STANDARD"},{"id":"5200","name":"Alamo Drafthouse Mainstreet","address":"1400 Mainstreet","city":"Kansas City","state":"MO","zip":"64105","distance":"11.234445571899414","lon":"-94.583481","lat":"39.097172","theaterChainName":"Alamo Drafthouse","ticketType":"STANDARD"},{"id":"2482","name":"Palace at the Plaza","address":"500 Nichols Road","city":"Kansas City","state":"MO","zip":"64112","distance":"14.899765968322754","lon":"-94.594360","lat":"39.041428","theaterChainName":"Cinemark","ticketType":"STANDARD"},{"id":"4530","name":"Screenland Crossroads","address":"1656 Washington","city":"Kansas City","state":"MO","zip":"64108","distance":"11.389678955078125","lon":"-94.589798","lat":"39.093700","theaterChainName":"Independent Chains","ticketType":"STANDARD"},{"id":"4529","name":"Screenland Armour","address":"408 Armour Road","city":"North Kansas City","state":"MO","zip":"64116","distance":"8.396021842956543","lon":"-94.575630","lat":"39.142365","theaterChainName":"Independent Chains","ticketType":"STANDARD"},{"id":"65","name":"AMC Ward Parkway 14","address":"8600 Ward Pkwy","city":"Kansas City","state":"MO","zip":"64114","distance":"19.678359985351562","lon":"-94.606224","lat":"38.970810","theaterChainName":"AMC Theatres","ticketType":"STANDARD"},{"id":"3699","name":"B&B Theatres KC Northland 14","address":"4900 N.E. 80th Street","city":"Kansas City","state":"MO","zip":"64119","distance":"6.133327484130859","lon":"-94.522507","lat":"39.239353","theaterChainName":"B&B Theatres","ticketType":"STANDARD"},{"id":"5407","name":"STANDEES - The Entertaining Eatery","address":"3935 W. 69th Terrace","city":"Prairie Village","state":"KS","zip":"66208","distance":"17.461915969848633","lon":"-94.631638","lat":"39.002003","theaterChainName":"Independent Chains","ticketType":"STANDARD"},{"id":"3580","name":"Glenwood Arts Theatre","address":"3707 W 95th St.","city":"Overland Park","state":"KS","zip":"66212","distance":"20.607515335083008","lon":"-94.628876","lat":"38.956505","theaterChainName":"Independent Chains","ticketType":"STANDARD"},{"id":"543","name":"AMC Town Center 20","address":"11701 Nall Ave.","city":"Leawood","state":"KS","zip":"66211","distance":"23.42615509033203","lon":"-94.648117","lat":"38.915813","theaterChainName":"AMC Theatres","ticketType":"STANDARD"},{"id":"3042","name":"Rio Theatre - Overland Park","address":"7204 W. 80th St.","city":"Overland Park","state":"KS","zip":"66204","distance":"18.781620025634766","lon":"-94.669289","lat":"38.984161","theaterChainName":"Independent Chains","ticketType":"STANDARD"},{"id":"2078","name":"Cinemark 20 and XD Merriam","address":"5500 Antioch","city":"Merriam","state":"KS","zip":"66202","distance":"15.873467445373535","lon":"-94.687943","lat":"39.028618","theaterChainName":"Cinemark","ticketType":"STANDARD"},{"id":"544","name":"AMC Barrywoods 24","address":"8101 Roanridge Rd.","city":"Kansas City","state":"MO","zip":"64151","distance":"1.369178295135498","lon":"-94.656143","lat":"39.243099","theaterChainName":"AMC Theatres","ticketType":"STANDARD"},{"id":"939","name":"B&B Shawnee 18","address":"16301 Midland Drive","city":"Shawnee","state":"KS","zip":"66217","distance":"19.247262954711914","lon":"-94.775757","lat":"38.998310","theaterChainName":"B&B Theatres","ticketType":"STANDARD"},{"id":"545","name":"AMC Studio 30 Olathe","address":"12075 S Strang Line Rd.","city":"Olathe","state":"KS","zip":"66062","distance":"24.894548416137695","lon":"-94.769997","lat":"38.909901","theaterChainName":"AMC Theatres","ticketType":"STANDARD"},{"id":"5860","name":"AMC Legends 14","address":"1841 Village West Parkway","city":"Kansas City","state":"KS","zip":"66111","distance":"13.47336483001709","lon":"-94.825302","lat":"39.126801","theaterChainName":"AMC Theatres","ticketType":"STANDARD"},{"id":"953","name":"Landing 4 Theatres","address":"225 Delaware","city":"Leavenworth","state":"KS","zip":"66048","distance":"15.426249504089355","lon":"-94.911911","lat":"39.318249","theaterChainName":"Independent Chains","ticketType":"STANDARD"}]