[{"id":"3699","tribuneTheaterId":"5052","providerTheaterId":"","name":"B&B Theatres KC Northland 14","address":"4900 N.E. 80th Street","city":"Kansas City","state":"MO","zip":"64119","distance":6.2232732404499,"lon":"-94.522505","lat":"39.239352","theaterChainName":"B&B Theatres","ticketType":"STANDARD"},{"id":"1720","tribuneTheaterId":"7186","providerTheaterId":"","name":"B&B Liberty Cinema 12","address":"2101 W Kansas","city":"Liberty","state":"MO","zip":"64069","distance":6.9652597222355,"lon":"-94.454859","lat":"39.24206","theaterChainName":"B&B Theatres","ticketType":"STANDARD"},{"id":"544","tribuneTheaterId":"8248","providerTheaterId":"118","name":"AMC Barrywoods 24","address":"8101 Roanridge Rd.","city":"Kansas City","state":"MO","zip":"64151","distance":9.4149466742295,"lon":"-94.656143","lat":"39.243098","theaterChainName":"AMC Theatres","ticketType":"STANDARD"},{"id":"4529","tribuneTheaterId":"9655","providerTheaterId":"","name":"Screenland Armour","address":"408 Armour Road","city":"North Kansas City","state":"MO","zip":"64116","distance":13.262674238045,"lon":"-94.575634","lat":"39.142364","theaterChainName":"Independent Chains","ticketType":"STANDARD"},{"id":"271","tribuneTheaterId":"5616","providerTheaterId":"","name":"Regal Kansas City Stadium 18 Cinemas","address":"3200 N. Ameristar Dr","city":"Kansas City","state":"MO","zip":"64161","distance":12.478465184661,"lon":"-94.486005","lat":"39.150715","theaterChainName":"Regal Cinemas","ticketType":"STANDARD"},{"id":"4530","tribuneTheaterId":"9656","providerTheaterId":"","name":"Screenland Crossroads","address":"1656 Washington","city":"Kansas City","state":"MO","zip":"64108","distance":16.709690952051,"lon":"-94.5898","lat":"39.0937","theaterChainName":"Independent Chains","ticketType":"STANDARD"},{"id":"5328","tribuneTheaterId":"10765","providerTheaterId":"","name":"B&B KC Extreme Screen Union Station","address":"30 W. Pershing","city":"Kansas City","state":"MO","zip":"64108","distance":17.30250328632,"lon":"-94.5843","lat":"39.084","theaterChainName":"B&B Theatres","ticketType":"STANDARD"},{"id":"5200","tribuneTheaterId":"10624","providerTheaterId":"","name":"Alamo Drafthouse Mainstreet","address":"1400 Mainstreet","city":"Kansas City","state":"MO","zip":"64105","distance":16.402404469181,"lon":"-94.583484","lat":"39.097173","theaterChainName":"Alamo Drafthouse","ticketType":"STANDARD"},{"id":"5025","tribuneTheaterId":"10399","providerTheaterId":"","name":"Screenland Crown Center","address":"2450 Grand Blvd.","city":"Kansas City","state":"MO","zip":"64108","distance":17.34532514106,"lon":"-94.58235","lat":"39.083066","theaterChainName":"Independent Chains","ticketType":"STANDARD"},{"id":"2671","tribuneTheaterId":"2901","providerTheaterId":"","name":"Pharaoh Cinema 4","address":"114 W Maple","city":"Independence","state":"MO","zip":"64050","distance":17.257660862362,"lon":"-94.416288","lat":"39.09288","theaterChainName":"Independent Chains","ticketType":"STANDARD"},{"id":"2482","tribuneTheaterId":"5269","providerTheaterId":"","name":"Palace at the Plaza","address":"500 Nichols Road","city":"Kansas City","state":"MO","zip":"64112","distance":20.292608535417,"lon":"-94.594361","lat":"39.041428","theaterChainName":"Cinemark","ticketType":"STANDARD"},{"id":"963","tribuneTheaterId":"6946","providerTheaterId":"","name":"Tivoli Cinema","address":"4050 Pennsylvania","city":"Kansas City","state":"MO","zip":"64111","distance":19.46319001345,"lon":"-94.592319","lat":"39.053354","theaterChainName":"Independent Chains","ticketType":"STANDARD"},{"id":"132","tribuneTheaterId":"7970","providerTheaterId":"30","name":"AMC Independence Commons 20","address":"19200 E. 39th Street","city":"Independence","state":"MO","zip":"64057","distance":21.264760167141,"lon":"-94.353139","lat":"39.050086","theaterChainName":"AMC Theatres","ticketType":"STANDARD"},{"id":"953","tribuneTheaterId":"2867","providerTheaterId":"","name":"Landing 4 Theatres","address":"225 Delaware","city":"Leavenworth","state":"KS","zip":"66048","distance":20.96662858635,"lon":"-94.911909","lat":"39.318247","theaterChainName":"Independent Chains","ticketType":"STANDARD"},{"id":"5860","tribuneTheaterId":"11274","providerTheaterId":"115","name":"AMC Legends 14","address":"1841 Village West Parkway","city":"Kansas City","state":"KS","zip":"66111","distance":21.520482434858,"lon":"-94.8253","lat":"39.1268","theaterChainName":"AMC Theatres","ticketType":"STANDARD"},{"id":"5407","tribuneTheaterId":"10845","providerTheaterId":"","name":"STANDEES - The Entertaining Eatery","address":"3935 W. 69th Terrace","city":"Prairie Village","state":"KS","zip":"66208","distance":23.399578874678,"lon":"-94.631635","lat":"39.002001","theaterChainName":"Independent Chains","ticketType":"STANDARD"},{"id":"2078","tribuneTheaterId":"5224","providerTheaterId":"","name":"Cinemark 20 and XD Merriam","address":"5500 Antioch","city":"Merriam","state":"KS","zip":"66202","distance":22.647169074051,"lon":"-94.687943","lat":"39.028619","theaterChainName":"Cinemark","ticketType":"STANDARD"}]