[{"id":"544","tribuneTheaterId":"8248","providerTheaterId":"118","name":"AMC Barrywoods 24","address":"8101 Roanridge Rd.","city":"Kansas City","state":"MO","zip":"64151","distance":6.9603494379352,"lon":"-94.656143","lat":"39.243098","theaterChainName":"AMC Theatres","ticketType":"STANDARD"},{"id":"3699","tribuneTheaterId":"5052","providerTheaterId":"","name":"B&B Theatres KC Northland 14","address":"4900 N.E. 80th Street","city":"Kansas City","state":"MO","zip":"64119","distance":11.381746204318,"lon":"-94.522505","lat":"39.239352","theaterChainName":"B&B Theatres","ticketType":"STANDARD"},{"id":"953","tribuneTheaterId":"2867","providerTheaterId":"","name":"Landing 4 Theatres","address":"225 Delaware","city":"Leavenworth","state":"KS","zip":"66048","distance":11.914081940602,"lon":"-94.911909","lat":"39.318247","theaterChainName":"Independent Chains","ticketType":"STANDARD"},{"id":"4529","tribuneTheaterId":"9655","providerTheaterId":"","name":"Screenland Armour","address":"408 Armour Road","city":"North Kansas City","state":"MO","zip":"64116","distance":14.994165031622,"lon":"-94.575634","lat":"39.142364","theaterChainName":"Independent Chains","ticketType":"STANDARD"},{"id":"1720","tribuneTheaterId":"7186","providerTheaterId":"","name":"B&B Liberty Cinema 12","address":"2101 W Kansas","city":"Liberty","state":"MO","zip":"64069","distance":14.323418527369,"lon":"-94.454859","lat":"39.24206","theaterChainName":"B&B Theatres","ticketType":"STANDARD"},{"id":"5860","tribuneTheaterId":"11274","providerTheaterId":"115","name":"AMC Legends 14","address":"1841 Village West Parkway","city":"Kansas City","state":"KS","zip":"66111","distance":16.407740389077,"lon":"-94.8253","lat":"39.1268","theaterChainName":"AMC Theatres","ticketType":"STANDARD"},{"id":"5200","tribuneTheaterId":"10624","providerTheaterId":"","name":"Alamo Drafthouse Mainstreet","address":"1400 Mainstreet","city":"Kansas City","state":"MO","zip":"64105","distance":17.746982015446,"lon":"-94.583484","lat":"39.097173","theaterChainName":"Alamo Drafthouse","ticketType":"STANDARD"},{"id":"4530","tribuneTheaterId":"9656","providerTheaterId":"","name":"Screenland Crossroads","address":"1656 Washington","city":"Kansas City","state":"MO","zip":"64108","distance":17.869051322323,"lon":"-94.5898","lat":"39.0937","theaterChainName":"Independent Chains","ticketType":"STANDARD"},{"id":"271","tribuneTheaterId":"5616","providerTheaterId":"","name":"Regal Kansas City Stadium 18 Cinemas","address":"3200 N. Ameristar Dr","city":"Kansas City","state":"MO","zip":"64161","distance":17.073049414761,"lon":"-94.486005","lat":"39.150715","theaterChainName":"Regal Cinemas","ticketType":"STANDARD"},{"id":"5328","tribuneTheaterId":"10765","providerTheaterId":"","name":"B&B KC Extreme Screen Union Station","address":"30 W. Pershing","city":"Kansas City","state":"MO","zip":"64108","distance":18.597206784398,"lon":"-94.5843","lat":"39.084","theaterChainName":"B&B Theatres","ticketType":"STANDARD"},{"id":"5025","tribuneTheaterId":"10399","providerTheaterId":"","name":"Screenland Crown Center","address":"2450 Grand Blvd.","city":"Kansas City","state":"MO","zip":"64108","distance":18.690817388919,"lon":"-94.58235","lat":"39.083066","theaterChainName":"Independent Chains","ticketType":"STANDARD"},{"id":"963","tribuneTheaterId":"6946","providerTheaterId":"","name":"Tivoli Cinema","address":"4050 Pennsylvania","city":"Kansas City","state":"MO","zip":"64111","distance":20.508663356861,"lon":"-94.592319","lat":"39.053354","theaterChainName":"Independent Chains","ticketType":"STANDARD"},{"id":"2078","tribuneTheaterId":"5224","providerTheaterId":"","name":"Cinemark 20 and XD Merriam","address":"5500 Antioch","city":"Merriam","state":"KS","zip":"66202","distance":21.528704095251,"lon":"-94.687943","lat":"39.028619","theaterChainName":"Cinemark","ticketType":"STANDARD"},{"id":"2482","tribuneTheaterId":"5269","providerTheaterId":"","name":"Palace at the Plaza","address":"500 Nichols Road","city":"Kansas City","state":"MO","zip":"64112","distance":21.279327430056,"lon":"-94.594361","lat":"39.041428","theaterChainName":"Cinemark","ticketType":"STANDARD"},{"id":"2671","tribuneTheaterId":"2901","providerTheaterId":"","name":"Pharaoh Cinema 4","address":"114 W Maple","city":"Independence","state":"MO","zip":"64050","distance":22.537589719968,"lon":"-94.416288","lat":"39.09288","theaterChainName":"Independent Chains","ticketType":"STANDARD"},{"id":"5407","tribuneTheaterId":"10845","providerTheaterId":"","name":"STANDEES - The Entertaining Eatery","address":"3935 W. 69th Terrace","city":"Prairie Village","state":"KS","zip":"66208","distance":23.581217247195,"lon":"-94.631635","lat":"39.002001","theaterChainName":"Independent Chains","ticketType":"STANDARD"},{"id":"3042","tribuneTheaterId":"2603","providerTheaterId":"","name":"Rio Theatre - Overland Park","address":"7204 W. 80th St.","city":"Overland Park","state":"KS","zip":"66204","distance":24.62675202785,"lon":"-94.669288","lat":"38.984163","theaterChainName":"Independent Chains","ticketType":"STANDARD"},{"id":"939","tribuneTheaterId":"5969","providerTheaterId":"","name":"B&B Shawnee 18","address":"16301 Midland Drive","city":"Shawnee","state":"KS","zip":"66217","distance":24.056700153448,"lon":"-94.775759","lat":"38.99831","theaterChainName":"B&B Theatres","ticketType":"STANDARD"}]