[{"id":"1716","tribuneTheaterId":"1916","providerTheaterId":"","name":"B&B Harrisonville Cineplex","address":"2727 Cantrell Road","city":"Harrisonville","state":"MO","zip":"64701","distance":7.5844313880598,"lon":"-94.373522","lat":"38.660327","theaterChainName":"B&B Theatres","ticketType":"STANDARD"},{"id":"926","tribuneTheaterId":"8229","providerTheaterId":"","name":"Belton Cinema 8","address":"1207 E North Ave","city":"Belton","state":"MO","zip":"64012","distance":18.153162613362,"lon":"-94.51506","lat":"38.81218","theaterChainName":"Mitchell Theatres","ticketType":"STANDARD"},{"id":"2635","tribuneTheaterId":"8230","providerTheaterId":"","name":"B&B Lee\u2019s Summit 16","address":"1451 N.E. Douglas St.","city":"Lee's Summit","state":"MO","zip":"64086","distance":20.220311533146,"lon":"-94.376658","lat":"38.938689","theaterChainName":"B&B Theatres","ticketType":"STANDARD"},{"id":"5472","tribuneTheaterId":"10913","providerTheaterId":"","name":"B&B Grain Valley Marketplace 8 & Grand Screen","address":"1131 North East McQuerry Rd.","city":"Grain Valley","state":"MO","zip":"64029","distance":24.674636096125,"lon":"-94.195114","lat":"39.02408","theaterChainName":"B&B Theatres","ticketType":"STANDARD"}]