[{"id":"2458","tribuneTheaterId":"6007","providerTheaterId":"","name":"Regal Northstar Cinema 14","address":"201 N. Northpark Lane","city":"Joplin","state":"MO","zip":"64801","distance":2.51621059348,"lon":"-94.468861","lat":"37.092542","theaterChainName":"Regal Cinemas","ticketType":"STANDARD"},{"id":"3397","tribuneTheaterId":"1958","providerTheaterId":"","name":"B&B Neosho Cinema 6","address":"1601 Malcolm Mosby Drive","city":"Neosho","state":"MO","zip":"64850","distance":18.708678283936,"lon":"-94.391248","lat":"36.8316","theaterChainName":"B&B Theatres","ticketType":"STANDARD"},{"id":"2539","tribuneTheaterId":"5966","providerTheaterId":"","name":"Mall 8 Pittsburg","address":"202 Centennial Dr.","city":"Pittsburg","state":"KS","zip":"66762","distance":23.06593187746,"lon":"-94.704369","lat":"37.381362","theaterChainName":"Starplex Cinemas","ticketType":"STANDARD"},{"id":"4923","tribuneTheaterId":"10243","providerTheaterId":"","name":"B&B Miami Cineplex","address":"222 N. Main St.","city":"Miami","state":"OK","zip":"74355","distance":24.595861660928,"lon":"-94.877381","lat":"36.878931","theaterChainName":"B&B Theatres","ticketType":"STANDARD"}]