[{"id":"3397","name":"B&B Neosho Cinema 6","address":"1601 Malcolm Mosby Drive","city":"Neosho","state":"MO","zip":"64850","distance":"15.984618186950684","lon":"-94.391251","lat":"36.831600","theaterChainName":"B&B Theatres","ticketType":"STANDARD"},{"id":"3380","name":"Flick Theatre","address":"105 E Main","city":"Anderson","state":"MO","zip":"64831","distance":"3.1969494819641113","lon":"-94.440697","lat":"36.650799","theaterChainName":"Independent Chains","ticketType":"STANDARD"},{"id":"1636","name":"Carmike Sugar Creek 10","address":"#10 Sugar Creek Center","city":"Bella Vista","state":"AR","zip":"72714","distance":"16.699092864990234","lon":"-94.237267","lat":"36.439381","theaterChainName":"Carmike Cinemas","ticketType":"STANDARD"},{"id":"4049","name":"Cinema 6 of Grove","address":"1109 N. 3rd Street","city":"Grove","state":"OK","zip":"74344","distance":"16.53213882446289","lon":"-94.752983","lat":"36.598427","theaterChainName":"Center Cinemas","ticketType":"STANDARD"},{"id":"3106","name":"Malco Rogers Towne Center","address":"621 N. 46th St.","city":"Rogers","state":"AR","zip":"72756","distance":"23.9927921295166","lon":"-94.176758","lat":"36.340534","theaterChainName":"Malco Theatre","ticketType":"STANDARD"}]