[{"id":"2458","name":"Regal Northstar Cinema 14","address":"201 N. Northpark Lane","city":"Joplin","state":"MO","zip":"64801","distance":"18.41037940979004","lon":"-94.468864","lat":"37.092541","theaterChainName":"Regal Cinemas","ticketType":"STANDARD"},{"id":"3397","name":"B&B Neosho Cinema 6","address":"1601 Malcolm Mosby Drive","city":"Neosho","state":"MO","zip":"64850","distance":"10.352882385253906","lon":"-94.391251","lat":"36.831600","theaterChainName":"B&B Theatres","ticketType":"STANDARD"},{"id":"4923","name":"B&B Miami Cineplex","address":"222 N. Main St.","city":"Miami","state":"OK","zip":"74355","distance":"16.75412368774414","lon":"-94.877380","lat":"36.878929","theaterChainName":"B&B Theatres","ticketType":"STANDARD"},{"id":"3380","name":"Flick Theatre","address":"105 E Main","city":"Anderson","state":"MO","zip":"64831","distance":"15.173723220825195","lon":"-94.440697","lat":"36.650799","theaterChainName":"Independent Chains","ticketType":"STANDARD"},{"id":"4049","name":"Cinema 6 of Grove","address":"1109 N. 3rd Street","city":"Grove","state":"OK","zip":"74344","distance":"19.346776962280273","lon":"-94.752983","lat":"36.598427","theaterChainName":"Center Cinemas","ticketType":"STANDARD"}]