[{"id":"3397","name":"B&B Neosho Cinema 6","address":"1601 Malcolm Mosby Drive","city":"Neosho","state":"MO","zip":"64850","distance":"23.615766525268555","lon":"-94.391251","lat":"36.831600","theaterChainName":"B&B Theatres","ticketType":"STANDARD"},{"id":"3380","name":"Flick Theatre","address":"105 E Main","city":"Anderson","state":"MO","zip":"64831","distance":"11.909244537353516","lon":"-94.440697","lat":"36.650799","theaterChainName":"Independent Chains","ticketType":"STANDARD"},{"id":"1636","name":"Carmike Sugar Creek 10","address":"#10 Sugar Creek Center","city":"Bella Vista","state":"AR","zip":"72714","distance":"20.93486213684082","lon":"-94.237267","lat":"36.439381","theaterChainName":"Carmike Cinemas","ticketType":"STANDARD"},{"id":"4049","name":"Cinema 6 of Grove","address":"1109 N. 3rd Street","city":"Grove","state":"OK","zip":"74344","distance":"9.845710754394531","lon":"-94.752983","lat":"36.598427","theaterChainName":"Center Cinemas","ticketType":"STANDARD"},{"id":"4534","name":"Siloam Springs 6","address":"1102 S. Carl Street","city":"Siloam Springs","state":"AR","zip":"72761","distance":"24.910879135131836","lon":"-94.552254","lat":"36.173115","theaterChainName":"Center Cinemas","ticketType":"STANDARD"}]