[{"id":"5405","name":"Wehrenberg Eagles Landing 8 Cine","address":"1300 Barred Owl Lane","city":"Lake Ozark","state":"MO","zip":"65049","distance":"10.608109474182129","lon":"-92.610130","lat":"38.181442","theaterChainName":"Wehrenberg Theatres","ticketType":"STANDARD"},{"id":"1497","name":"Wehrenberg Osage Village Cine","address":"4540 Highway 54","city":"Osage Beach","state":"MO","zip":"65065","distance":"9.681380271911621","lon":"-92.626343","lat":"38.144344","theaterChainName":"Wehrenberg Theatres","ticketType":"STANDARD"},{"id":"3345","name":"B&B Gravois Mills Lake West Cinema","address":"1651 Highway O","city":"Gravois Mills","state":"MO","zip":"65037","distance":"20.330066680908203","lon":"-92.794403","lat":"38.223721","theaterChainName":"B&B Theatres","ticketType":"STANDARD"},{"id":"5526","name":"B&B Waynesville Patriot 12 & GS","address":"1200 GW Lane S","city":"Waynesville","state":"MO","zip":"65583","distance":"22.839101791381836","lon":"-92.219322","lat":"37.808815","theaterChainName":"B&B Theatres","ticketType":"STANDARD"}]