[{"id":"1497","tribuneTheaterId":"1812","providerTheaterId":"","name":"Wehrenberg Osage Village Cine","address":"4540 Highway 54","city":"Osage Beach","state":"MO","zip":"65065","distance":11.606493606756,"lon":"-92.626339","lat":"38.144346","theaterChainName":"Wehrenberg Theatres","ticketType":"STANDARD"},{"id":"5405","tribuneTheaterId":"10843","providerTheaterId":"","name":"Wehrenberg Eagles Landing 8 Cine","address":"1300 Barred Owl Lane","city":"Lake Ozark","state":"MO","zip":"65049","distance":14.147313434856,"lon":"-92.610129","lat":"38.181441","theaterChainName":"Wehrenberg Theatres","ticketType":"STANDARD"},{"id":"3345","tribuneTheaterId":"1863","providerTheaterId":"","name":"B&B Gravois Mills Lake West Cinema","address":"1651 Highway O","city":"Gravois Mills","state":"MO","zip":"65037","distance":14.253338896287,"lon":"-92.7944","lat":"38.223719","theaterChainName":"B&B Theatres","ticketType":"STANDARD"},{"id":"1717","tribuneTheaterId":"2029","providerTheaterId":"","name":"B&B Lebanon Ritz 8 Theatre","address":"925 South Jefferson","city":"Lebanon","state":"MO","zip":"65536","distance":24.682220017276,"lon":"-92.653702","lat":"37.672798","theaterChainName":"B&B Theatres","ticketType":"STANDARD"}]