[{"id":"1551","name":"Goodrich Capital 8","address":"3550 Country Club Drive","city":"Jefferson City","state":"MO","zip":"65109","distance":"20.390531539916992","lon":"-92.251602","lat":"38.583801","theaterChainName":"Goodrich Theatres","ticketType":"E_TICKET"},{"id":"1550","name":"Goodrich Forum 8","address":"1209 Forum Katy Parkway","city":"Columbia","state":"MO","zip":"65203","distance":"22.497364044189453","lon":"-92.360062","lat":"38.935280","theaterChainName":"Goodrich Theatres","ticketType":"E_TICKET"},{"id":"2847","name":"Regal Columbia Stadium 14","address":"2800 Goodwin Pointe Dr.","city":"Columbia","state":"MO","zip":"65201","distance":"24.400074005126953","lon":"-92.296349","lat":"38.929077","theaterChainName":"Regal Cinemas","ticketType":"STANDARD"},{"id":"3138","name":"Ragtag Cinema","address":"10 Hitt Street","city":"Columbia","state":"MO","zip":"65201","distance":"24.516094207763672","lon":"-92.325401","lat":"38.951302","theaterChainName":"Independent Chains","ticketType":"STANDARD"}]