[{"id":"1551","name":"Goodrich Capital 8","address":"3550 Country Club Drive","city":"Jefferson City","state":"MO","zip":"65109","distance":"19.194351196289062","lon":"-92.251602","lat":"38.583801","theaterChainName":"Goodrich Theatres","ticketType":"E_TICKET"},{"id":"5405","name":"Wehrenberg Eagles Landing 8 Cine","address":"1300 Barred Owl Lane","city":"Lake Ozark","state":"MO","zip":"65049","distance":"16.44824981689453","lon":"-92.610130","lat":"38.181442","theaterChainName":"Wehrenberg Theatres","ticketType":"STANDARD"},{"id":"1497","name":"Wehrenberg Osage Village Cine","address":"4540 Highway 54","city":"Osage Beach","state":"MO","zip":"65065","distance":"19.154245376586914","lon":"-92.626343","lat":"38.144344","theaterChainName":"Wehrenberg Theatres","ticketType":"STANDARD"},{"id":"3345","name":"B&B Gravois Mills Lake West Cinema","address":"1651 Highway O","city":"Gravois Mills","state":"MO","zip":"65037","distance":"19.33065414428711","lon":"-92.794403","lat":"38.223721","theaterChainName":"B&B Theatres","ticketType":"STANDARD"}]