[{"id":"3138","tribuneTheaterId":"2851","providerTheaterId":"","name":"Ragtag Cinema","address":"10 Hitt Street","city":"Columbia","state":"MO","zip":"65201","distance":0.27986584842665,"lon":"-92.3254","lat":"38.9513","theaterChainName":"Independent Chains","ticketType":"STANDARD"},{"id":"1550","tribuneTheaterId":"5834","providerTheaterId":"","name":"Goodrich Forum 8","address":"1209 Forum Katy Parkway","city":"Columbia","state":"MO","zip":"65203","distance":2.4465356223285,"lon":"-92.360065","lat":"38.935278","theaterChainName":"Goodrich Theatres","ticketType":"E_TICKET"},{"id":"2847","tribuneTheaterId":"6008","providerTheaterId":"","name":"Regal Columbia Stadium 14","address":"2800 Goodwin Pointe Dr.","city":"Columbia","state":"MO","zip":"65201","distance":2.1223626129071,"lon":"-92.296352","lat":"38.929076","theaterChainName":"Regal Cinemas","ticketType":"STANDARD"},{"id":"2144","tribuneTheaterId":"1158","providerTheaterId":"","name":"B&B Fulton Cinema 8","address":"521 Commons Drive","city":"Fulton","state":"MO","zip":"65251","distance":21.287966686558,"lon":"-91.957862","lat":"38.830197","theaterChainName":"B&B Theatres","ticketType":"STANDARD"}]