[{"id":"3327","name":"Mexico Cinema III","address":"2773 S. Clark","city":"Mexico","state":"MO","zip":"65265","distance":"14.155903816223145","lon":"-91.890358","lat":"39.147903","theaterChainName":"Independent Chains","ticketType":"STANDARD"},{"id":"1729","name":"B&B Moberly 5","address":"3000 N. Morley","city":"Moberly","state":"MO","zip":"65270","distance":"23.410694122314453","lon":"-92.432678","lat":"39.453045","theaterChainName":"B&B Theatres","ticketType":"STANDARD"},{"id":"1550","name":"Goodrich Forum 8","address":"1209 Forum Katy Parkway","city":"Columbia","state":"MO","zip":"65203","distance":"21.335405349731445","lon":"-92.360062","lat":"38.935280","theaterChainName":"Goodrich Theatres","ticketType":"E_TICKET"},{"id":"2847","name":"Regal Columbia Stadium 14","address":"2800 Goodwin Pointe Dr.","city":"Columbia","state":"MO","zip":"65201","distance":"20.11100196838379","lon":"-92.296349","lat":"38.929077","theaterChainName":"Regal Cinemas","ticketType":"STANDARD"},{"id":"3138","name":"Ragtag Cinema","address":"10 Hitt Street","city":"Columbia","state":"MO","zip":"65201","distance":"19.429094314575195","lon":"-92.325401","lat":"38.951302","theaterChainName":"Independent Chains","ticketType":"STANDARD"}]