[{"id":"3327","name":"Mexico Cinema III","address":"2773 S. Clark","city":"Mexico","state":"MO","zip":"65265","distance":"20.80393409729004","lon":"-91.890358","lat":"39.147903","theaterChainName":"Independent Chains","ticketType":"STANDARD"},{"id":"2144","name":"B&B Fulton Cinema 8","address":"521 Commons Drive","city":"Fulton","state":"MO","zip":"65251","distance":"1.499435305595398","lon":"-91.957863","lat":"38.830196","theaterChainName":"B&B Theatres","ticketType":"STANDARD"},{"id":"1551","name":"Goodrich Capital 8","address":"3550 Country Club Drive","city":"Jefferson City","state":"MO","zip":"65109","distance":"24.273704528808594","lon":"-92.251602","lat":"38.583801","theaterChainName":"Goodrich Theatres","ticketType":"E_TICKET"},{"id":"1550","name":"Goodrich Forum 8","address":"1209 Forum Katy Parkway","city":"Columbia","state":"MO","zip":"65203","distance":"22.248872756958008","lon":"-92.360062","lat":"38.935280","theaterChainName":"Goodrich Theatres","ticketType":"E_TICKET"},{"id":"2847","name":"Regal Columbia Stadium 14","address":"2800 Goodwin Pointe Dr.","city":"Columbia","state":"MO","zip":"65201","distance":"18.835193634033203","lon":"-92.296349","lat":"38.929077","theaterChainName":"Regal Cinemas","ticketType":"STANDARD"},{"id":"3138","name":"Ragtag Cinema","address":"10 Hitt Street","city":"Columbia","state":"MO","zip":"65201","distance":"20.791561126708984","lon":"-92.325401","lat":"38.951302","theaterChainName":"Independent Chains","ticketType":"STANDARD"}]