[{"id":"3327","name":"Mexico Cinema III","address":"2773 S. Clark","city":"Mexico","state":"MO","zip":"65265","distance":"13.726712226867676","lon":"-91.890358","lat":"39.147903","theaterChainName":"Independent Chains","ticketType":"STANDARD"},{"id":"2144","name":"B&B Fulton Cinema 8","address":"521 Commons Drive","city":"Fulton","state":"MO","zip":"65251","distance":"8.636359214782715","lon":"-91.957863","lat":"38.830196","theaterChainName":"B&B Theatres","ticketType":"STANDARD"},{"id":"1550","name":"Goodrich Forum 8","address":"1209 Forum Katy Parkway","city":"Columbia","state":"MO","zip":"65203","distance":"21.971952438354492","lon":"-92.360062","lat":"38.935280","theaterChainName":"Goodrich Theatres","ticketType":"E_TICKET"},{"id":"2847","name":"Regal Columbia Stadium 14","address":"2800 Goodwin Pointe Dr.","city":"Columbia","state":"MO","zip":"65201","distance":"18.59322738647461","lon":"-92.296349","lat":"38.929077","theaterChainName":"Regal Cinemas","ticketType":"STANDARD"},{"id":"3138","name":"Ragtag Cinema","address":"10 Hitt Street","city":"Columbia","state":"MO","zip":"65201","distance":"20.066015243530273","lon":"-92.325401","lat":"38.951302","theaterChainName":"Independent Chains","ticketType":"STANDARD"}]