[{"id":"2144","tribuneTheaterId":"1158","providerTheaterId":"","name":"B&B Fulton Cinema 8","address":"521 Commons Drive","city":"Fulton","state":"MO","zip":"65251","distance":8.6357165187756,"lon":"-91.957862","lat":"38.830197","theaterChainName":"B&B Theatres","ticketType":"STANDARD"},{"id":"3327","tribuneTheaterId":"4018","providerTheaterId":"","name":"Mexico Cinema III","address":"2773 S. Clark","city":"Mexico","state":"MO","zip":"65265","distance":13.725866923073,"lon":"-91.890357","lat":"39.147903","theaterChainName":"Independent Chains","ticketType":"STANDARD"},{"id":"2847","tribuneTheaterId":"6008","providerTheaterId":"","name":"Regal Columbia Stadium 14","address":"2800 Goodwin Pointe Dr.","city":"Columbia","state":"MO","zip":"65201","distance":18.592444986499,"lon":"-92.296352","lat":"38.929076","theaterChainName":"Regal Cinemas","ticketType":"STANDARD"},{"id":"3138","tribuneTheaterId":"2851","providerTheaterId":"","name":"Ragtag Cinema","address":"10 Hitt Street","city":"Columbia","state":"MO","zip":"65201","distance":20.064889047003,"lon":"-92.3254","lat":"38.9513","theaterChainName":"Independent Chains","ticketType":"STANDARD"},{"id":"1550","tribuneTheaterId":"5834","providerTheaterId":"","name":"Goodrich Forum 8","address":"1209 Forum Katy Parkway","city":"Columbia","state":"MO","zip":"65203","distance":21.97096038168,"lon":"-92.360065","lat":"38.935278","theaterChainName":"Goodrich Theatres","ticketType":"E_TICKET"}]