[{"id":"3327","name":"Mexico Cinema III","address":"2773 S. Clark","city":"Mexico","state":"MO","zip":"65265","distance":"22.05524253845215","lon":"-91.890358","lat":"39.147903","theaterChainName":"Independent Chains","ticketType":"STANDARD"},{"id":"1729","name":"B&B Moberly 5","address":"3000 N. Morley","city":"Moberly","state":"MO","zip":"65270","distance":"18.60137367248535","lon":"-92.432678","lat":"39.453045","theaterChainName":"B&B Theatres","ticketType":"STANDARD"},{"id":"1550","name":"Goodrich Forum 8","address":"1209 Forum Katy Parkway","city":"Columbia","state":"MO","zip":"65203","distance":"19.005569458007812","lon":"-92.360062","lat":"38.935280","theaterChainName":"Goodrich Theatres","ticketType":"E_TICKET"},{"id":"2847","name":"Regal Columbia Stadium 14","address":"2800 Goodwin Pointe Dr.","city":"Columbia","state":"MO","zip":"65201","distance":"19.11404800415039","lon":"-92.296349","lat":"38.929077","theaterChainName":"Regal Cinemas","ticketType":"STANDARD"},{"id":"3138","name":"Ragtag Cinema","address":"10 Hitt Street","city":"Columbia","state":"MO","zip":"65201","distance":"17.652292251586914","lon":"-92.325401","lat":"38.951302","theaterChainName":"Independent Chains","ticketType":"STANDARD"}]