[{"id":"5405","name":"Wehrenberg Eagles Landing 8 Cine","address":"1300 Barred Owl Lane","city":"Lake Ozark","state":"MO","zip":"65049","distance":"13.994566917419434","lon":"-92.610130","lat":"38.181442","theaterChainName":"Wehrenberg Theatres","ticketType":"STANDARD"},{"id":"1497","name":"Wehrenberg Osage Village Cine","address":"4540 Highway 54","city":"Osage Beach","state":"MO","zip":"65065","distance":"11.819791793823242","lon":"-92.626343","lat":"38.144344","theaterChainName":"Wehrenberg Theatres","ticketType":"STANDARD"},{"id":"3345","name":"B&B Gravois Mills Lake West Cinema","address":"1651 Highway O","city":"Gravois Mills","state":"MO","zip":"65037","distance":"21.279394149780273","lon":"-92.794403","lat":"38.223721","theaterChainName":"B&B Theatres","ticketType":"STANDARD"},{"id":"1717","name":"B&B Lebanon Ritz 8 Theatre","address":"925 South Jefferson","city":"Lebanon","state":"MO","zip":"65536","distance":"22.35127067565918","lon":"-92.653702","lat":"37.672798","theaterChainName":"B&B Theatres","ticketType":"STANDARD"},{"id":"5526","name":"B&B Waynesville Patriot 12 & GS","address":"1200 GW Lane S","city":"Waynesville","state":"MO","zip":"65583","distance":"21.623952865600586","lon":"-92.219322","lat":"37.808815","theaterChainName":"B&B Theatres","ticketType":"STANDARD"}]