[{"id":"3333","name":"Palace Theatre - Springfield","address":"2220 W. Chesterfield Blvd.","city":"Springfield","state":"MO","zip":"65807","distance":"13.285420417785645","lon":"-93.323990","lat":"37.143639","theaterChainName":"Independent Chains","ticketType":"STANDARD"},{"id":"1496","name":"Wehrenberg Campbell Cinema","address":"4005 South Ave.","city":"Springfield","state":"MO","zip":"65807","distance":"14.837372779846191","lon":"-93.294334","lat":"37.141903","theaterChainName":"Wehrenberg Theatres","ticketType":"STANDARD"},{"id":"5136","name":"B&B Ozark\/Nixa 12","address":"620 North 25th St.","city":"Ozark","state":"MO","zip":"65721","distance":"21.720094680786133","lon":"-93.237091","lat":"37.024799","theaterChainName":"B&B Theatres","ticketType":"STANDARD"},{"id":"4549","name":"Moxie Cinema LLC","address":"305 S. Campbell, suite 101","city":"Springfield","state":"MO","zip":"65806","distance":"16.28243637084961","lon":"-93.249298","lat":"37.207802","theaterChainName":"Independent Chains","ticketType":"STANDARD"},{"id":"4612","name":"Regal College Station Stadium 14 ","address":"415 W. College St","city":"Springfield","state":"MO","zip":"65806","distance":"13.771411895751953","lon":"-93.294914","lat":"37.209072","theaterChainName":"Regal Cinemas","ticketType":"STANDARD"},{"id":"2538","name":"Springfield 11","address":"3200 E Montclair St","city":"Springfield","state":"MO","zip":"65804","distance":"17.891883850097656","lon":"-93.230568","lat":"37.154915","theaterChainName":"Starplex Cinemas","ticketType":"STANDARD"}]