[{"id":"4859","tribuneTheaterId":"10155","providerTheaterId":"","name":"Branson Meadows Cinema","address":"4740 Gretna Road","city":"Branson","state":"MO","zip":"65616","distance":16.689519354386,"lon":"-93.256372","lat":"36.65882","theaterChainName":"Independent Chains","ticketType":"STANDARD"},{"id":"3429","tribuneTheaterId":"1566","providerTheaterId":"","name":"The Elite Cinema III","address":"3562 Shepherd of the Hills Expy.","city":"Branson","state":"MO","zip":"65616","distance":15.714777673787,"lon":"-93.287938","lat":"36.653164","theaterChainName":"Independent Chains","ticketType":"STANDARD"},{"id":"5136","tribuneTheaterId":"10542","providerTheaterId":"","name":"B&B Ozark\/Nixa 12","address":"620 North 25th St.","city":"Ozark","state":"MO","zip":"65721","distance":19.552126224637,"lon":"-93.237092","lat":"37.024801","theaterChainName":"B&B Theatres","ticketType":"STANDARD"},{"id":"3333","tribuneTheaterId":"2121","providerTheaterId":"","name":"Palace Theatre - Springfield","address":"2220 W. Chesterfield Blvd.","city":"Springfield","state":"MO","zip":"65807","distance":23.996526035378,"lon":"-93.323993","lat":"37.143638","theaterChainName":"Independent Chains","ticketType":"STANDARD"},{"id":"1496","tribuneTheaterId":"2373","providerTheaterId":"","name":"Wehrenberg Campbell Cinema","address":"4005 South Ave.","city":"Springfield","state":"MO","zip":"65807","distance":24.526595741214,"lon":"-93.294332","lat":"37.141902","theaterChainName":"Wehrenberg Theatres","ticketType":"STANDARD"},{"id":"2145","tribuneTheaterId":"1841","providerTheaterId":"","name":"B&B Monett Plaza 8","address":"507 Plaza Dr","city":"Monett","state":"MO","zip":"65708","distance":24.571511904926,"lon":"-93.910328","lat":"36.912256","theaterChainName":"B&B Theatres","ticketType":"STANDARD"}]