[{"id":"3333","name":"Palace Theatre - Springfield","address":"2220 W. Chesterfield Blvd.","city":"Springfield","state":"MO","zip":"65807","distance":"19.53476905822754","lon":"-93.323990","lat":"37.143639","theaterChainName":"Independent Chains","ticketType":"STANDARD"},{"id":"1496","name":"Wehrenberg Campbell Cinema","address":"4005 South Ave.","city":"Springfield","state":"MO","zip":"65807","distance":"19.258312225341797","lon":"-93.294334","lat":"37.141903","theaterChainName":"Wehrenberg Theatres","ticketType":"STANDARD"},{"id":"5136","name":"B&B Ozark\/Nixa 12","address":"620 North 25th St.","city":"Ozark","state":"MO","zip":"65721","distance":"11.337484359741211","lon":"-93.237091","lat":"37.024799","theaterChainName":"B&B Theatres","ticketType":"STANDARD"},{"id":"4549","name":"Moxie Cinema LLC","address":"305 S. Campbell, suite 101","city":"Springfield","state":"MO","zip":"65806","distance":"23.826929092407227","lon":"-93.249298","lat":"37.207802","theaterChainName":"Independent Chains","ticketType":"STANDARD"},{"id":"4612","name":"Regal College Station Stadium 14 ","address":"415 W. College St","city":"Springfield","state":"MO","zip":"65806","distance":"23.895431518554688","lon":"-93.294914","lat":"37.209072","theaterChainName":"Regal Cinemas","ticketType":"STANDARD"},{"id":"2538","name":"Springfield 11","address":"3200 E Montclair St","city":"Springfield","state":"MO","zip":"65804","distance":"20.280454635620117","lon":"-93.230568","lat":"37.154915","theaterChainName":"Starplex Cinemas","ticketType":"STANDARD"},{"id":"3429","name":"The Elite Cinema III","address":"3562 Shepherd of the Hills Expy.","city":"Branson","state":"MO","zip":"65616","distance":"14.557311058044434","lon":"-93.287941","lat":"36.653164","theaterChainName":"Independent Chains","ticketType":"STANDARD"},{"id":"4859","name":"Branson Meadows Cinema","address":"4740 Gretna Road","city":"Branson","state":"MO","zip":"65616","distance":"14.188993453979492","lon":"-93.256371","lat":"36.658821","theaterChainName":"Independent Chains","ticketType":"STANDARD"}]