[{"id":"4612","tribuneTheaterId":"9785","providerTheaterId":"","name":"Regal College Station Stadium 14 ","address":"415 W. College St","city":"Springfield","state":"MO","zip":"65806","distance":0.42984946999356,"lon":"-93.294911","lat":"37.209072","theaterChainName":"Regal Cinemas","ticketType":"STANDARD"},{"id":"4549","tribuneTheaterId":"9683","providerTheaterId":"","name":"Moxie Cinema LLC","address":"305 S. Campbell, suite 101","city":"Springfield","state":"MO","zip":"65806","distance":2.6504464844652,"lon":"-93.2493","lat":"37.2078","theaterChainName":"Independent Chains","ticketType":"STANDARD"},{"id":"2538","tribuneTheaterId":"4883","providerTheaterId":"","name":"Springfield 11","address":"3200 E Montclair St","city":"Springfield","state":"MO","zip":"65804","distance":4.9495308623356,"lon":"-93.230571","lat":"37.154914","theaterChainName":"Starplex Cinemas","ticketType":"STANDARD"},{"id":"3333","tribuneTheaterId":"2121","providerTheaterId":"","name":"Palace Theatre - Springfield","address":"2220 W. Chesterfield Blvd.","city":"Springfield","state":"MO","zip":"65807","distance":4.3670660678445,"lon":"-93.323993","lat":"37.143638","theaterChainName":"Independent Chains","ticketType":"STANDARD"},{"id":"1496","tribuneTheaterId":"2373","providerTheaterId":"","name":"Wehrenberg Campbell Cinema","address":"4005 South Ave.","city":"Springfield","state":"MO","zip":"65807","distance":4.2311171823385,"lon":"-93.294332","lat":"37.141902","theaterChainName":"Wehrenberg Theatres","ticketType":"STANDARD"},{"id":"5136","tribuneTheaterId":"10542","providerTheaterId":"","name":"B&B Ozark\/Nixa 12","address":"620 North 25th St.","city":"Ozark","state":"MO","zip":"65721","distance":12.755229979137,"lon":"-93.237092","lat":"37.024801","theaterChainName":"B&B Theatres","ticketType":"STANDARD"}]