[{"id":"5025","name":"Screenland Crown Center","address":"2450 Grand Blvd.","city":"Kansas City","state":"MO","zip":"64108","distance":"20.32777976989746","lon":"-94.582352","lat":"39.083065","theaterChainName":"Independent Chains","ticketType":"STANDARD"},{"id":"5328","name":"B&B KC Extreme Screen Union Station","address":"30 W. Pershing","city":"Kansas City","state":"MO","zip":"64108","distance":"20.21473503112793","lon":"-94.584297","lat":"39.084000","theaterChainName":"B&B Theatres","ticketType":"STANDARD"},{"id":"963","name":"Tivoli Cinema","address":"4050 Pennsylvania","city":"Kansas City","state":"MO","zip":"64111","distance":"20.228538513183594","lon":"-94.592316","lat":"39.053352","theaterChainName":"Independent Chains","ticketType":"STANDARD"},{"id":"5200","name":"Alamo Drafthouse Mainstreet","address":"1400 Mainstreet","city":"Kansas City","state":"MO","zip":"64105","distance":"20.13934326171875","lon":"-94.583481","lat":"39.097172","theaterChainName":"Alamo Drafthouse","ticketType":"STANDARD"},{"id":"2482","name":"Palace at the Plaza","address":"500 Nichols Road","city":"Kansas City","state":"MO","zip":"64112","distance":"20.35118865966797","lon":"-94.594360","lat":"39.041428","theaterChainName":"Cinemark","ticketType":"STANDARD"},{"id":"4530","name":"Screenland Crossroads","address":"1656 Washington","city":"Kansas City","state":"MO","zip":"64108","distance":"19.830408096313477","lon":"-94.589798","lat":"39.093700","theaterChainName":"Independent Chains","ticketType":"STANDARD"},{"id":"4529","name":"Screenland Armour","address":"408 Armour Road","city":"North Kansas City","state":"MO","zip":"64116","distance":"20.463714599609375","lon":"-94.575630","lat":"39.142365","theaterChainName":"Independent Chains","ticketType":"STANDARD"},{"id":"65","name":"AMC Ward Parkway 14","address":"8600 Ward Pkwy","city":"Kansas City","state":"MO","zip":"64114","distance":"21.735530853271484","lon":"-94.606224","lat":"38.970810","theaterChainName":"AMC Theatres","ticketType":"STANDARD"},{"id":"3699","name":"B&B Theatres KC Northland 14","address":"4900 N.E. 80th Street","city":"Kansas City","state":"MO","zip":"64119","distance":"24.507925033569336","lon":"-94.522507","lat":"39.239353","theaterChainName":"B&B Theatres","ticketType":"STANDARD"},{"id":"5407","name":"STANDEES - The Entertaining Eatery","address":"3935 W. 69th Terrace","city":"Prairie Village","state":"KS","zip":"66208","distance":"19.50934600830078","lon":"-94.631638","lat":"39.002003","theaterChainName":"Independent Chains","ticketType":"STANDARD"},{"id":"3580","name":"Glenwood Arts Theatre","address":"3707 W 95th St.","city":"Overland Park","state":"KS","zip":"66212","distance":"21.22914695739746","lon":"-94.628876","lat":"38.956505","theaterChainName":"Independent Chains","ticketType":"STANDARD"},{"id":"543","name":"AMC Town Center 20","address":"11701 Nall Ave.","city":"Leawood","state":"KS","zip":"66211","distance":"22.13852882385254","lon":"-94.648117","lat":"38.915813","theaterChainName":"AMC Theatres","ticketType":"STANDARD"},{"id":"3042","name":"Rio Theatre - Overland Park","address":"7204 W. 80th St.","city":"Overland Park","state":"KS","zip":"66204","distance":"18.36406135559082","lon":"-94.669289","lat":"38.984161","theaterChainName":"Independent Chains","ticketType":"STANDARD"},{"id":"5519","name":"Cinetopia Overland Park 18","address":"5725 W. 135th St.","city":"Overland Park","state":"KS","zip":"66223","distance":"23.60012435913086","lon":"-94.651550","lat":"38.882511","theaterChainName":"Independent Chains","ticketType":"STANDARD"},{"id":"2078","name":"Cinemark 20 and XD Merriam","address":"5500 Antioch","city":"Merriam","state":"KS","zip":"66202","distance":"15.985573768615723","lon":"-94.687943","lat":"39.028618","theaterChainName":"Cinemark","ticketType":"STANDARD"},{"id":"3929","name":"B&B Overland Park 16","address":"8601 W. 135th Street","city":"Overland Park","state":"KS","zip":"66223","distance":"22.491731643676758","lon":"-94.683746","lat":"38.881393","theaterChainName":"B&B Theatres","ticketType":"STANDARD"},{"id":"544","name":"AMC Barrywoods 24","address":"8101 Roanridge Rd.","city":"Kansas City","state":"MO","zip":"64151","distance":"17.965986251831055","lon":"-94.656143","lat":"39.243099","theaterChainName":"AMC Theatres","ticketType":"STANDARD"},{"id":"939","name":"B&B Shawnee 18","address":"16301 Midland Drive","city":"Shawnee","state":"KS","zip":"66217","distance":"13.228144645690918","lon":"-94.775757","lat":"38.998310","theaterChainName":"B&B Theatres","ticketType":"STANDARD"},{"id":"545","name":"AMC Studio 30 Olathe","address":"12075 S Strang Line Rd.","city":"Olathe","state":"KS","zip":"66062","distance":"18.11368751525879","lon":"-94.769997","lat":"38.909901","theaterChainName":"AMC Theatres","ticketType":"STANDARD"},{"id":"5860","name":"AMC Legends 14","address":"1841 Village West Parkway","city":"Kansas City","state":"KS","zip":"66111","distance":"7.059886455535889","lon":"-94.825302","lat":"39.126801","theaterChainName":"AMC Theatres","ticketType":"STANDARD"},{"id":"953","name":"Landing 4 Theatres","address":"225 Delaware","city":"Leavenworth","state":"KS","zip":"66048","distance":"13.358579635620117","lon":"-94.911911","lat":"39.318249","theaterChainName":"Independent Chains","ticketType":"STANDARD"},{"id":"957","name":"Liberty Hall Cinema","address":"644 Massachussets Street","city":"Lawrence","state":"KS","zip":"66044","distance":"18.466426849365234","lon":"-95.235741","lat":"38.971371","theaterChainName":"Independent Chains","ticketType":"STANDARD"},{"id":"940","name":"Regal Southwind Cinema 12","address":"3433 Iowa Street","city":"Lawrence","state":"KS","zip":"66046","distance":"21.7510929107666","lon":"-95.262894","lat":"38.921658","theaterChainName":"Regal Cinemas","ticketType":"STANDARD"}]