[{"id":"926","name":"Belton Cinema 8","address":"1207 E North Ave","city":"Belton","state":"MO","zip":"64012","distance":"21.055925369262695","lon":"-94.515060","lat":"38.812180","theaterChainName":"Mitchell Theatres","ticketType":"STANDARD"},{"id":"3580","name":"Glenwood Arts Theatre","address":"3707 W 95th St.","city":"Overland Park","state":"KS","zip":"66212","distance":"23.86644744873047","lon":"-94.628876","lat":"38.956505","theaterChainName":"Independent Chains","ticketType":"STANDARD"},{"id":"543","name":"AMC Town Center 20","address":"11701 Nall Ave.","city":"Leawood","state":"KS","zip":"66211","distance":"20.923725128173828","lon":"-94.648117","lat":"38.915813","theaterChainName":"AMC Theatres","ticketType":"STANDARD"},{"id":"3042","name":"Rio Theatre - Overland Park","address":"7204 W. 80th St.","city":"Overland Park","state":"KS","zip":"66204","distance":"24.58565330505371","lon":"-94.669289","lat":"38.984161","theaterChainName":"Independent Chains","ticketType":"STANDARD"},{"id":"5519","name":"Cinetopia Overland Park 18","address":"5725 W. 135th St.","city":"Overland Park","state":"KS","zip":"66223","distance":"18.898935317993164","lon":"-94.651550","lat":"38.882511","theaterChainName":"Independent Chains","ticketType":"STANDARD"},{"id":"3929","name":"B&B Overland Park 16","address":"8601 W. 135th Street","city":"Overland Park","state":"KS","zip":"66223","distance":"17.897253036499023","lon":"-94.683746","lat":"38.881393","theaterChainName":"B&B Theatres","ticketType":"STANDARD"},{"id":"939","name":"B&B Shawnee 18","address":"16301 Midland Drive","city":"Shawnee","state":"KS","zip":"66217","distance":"23.864147186279297","lon":"-94.775757","lat":"38.998310","theaterChainName":"B&B Theatres","ticketType":"STANDARD"},{"id":"545","name":"AMC Studio 30 Olathe","address":"12075 S Strang Line Rd.","city":"Olathe","state":"KS","zip":"66062","distance":"17.951976776123047","lon":"-94.769997","lat":"38.909901","theaterChainName":"AMC Theatres","ticketType":"STANDARD"},{"id":"5007","name":"Crystal Plaza","address":"209 S Main Street","city":"Ottawa","state":"KS","zip":"66067","distance":"22.666719436645508","lon":"-95.268501","lat":"38.615501","theaterChainName":"Independent Chains","ticketType":"STANDARD"}]