[{"id":"926","name":"Belton Cinema 8","address":"1207 E North Ave","city":"Belton","state":"MO","zip":"64012","distance":"21.574169158935547","lon":"-94.515060","lat":"38.812180","theaterChainName":"Mitchell Theatres","ticketType":"STANDARD"},{"id":"963","name":"Tivoli Cinema","address":"4050 Pennsylvania","city":"Kansas City","state":"MO","zip":"64111","distance":"24.305166244506836","lon":"-94.592316","lat":"39.053352","theaterChainName":"Independent Chains","ticketType":"STANDARD"},{"id":"2482","name":"Palace at the Plaza","address":"500 Nichols Road","city":"Kansas City","state":"MO","zip":"64112","distance":"23.657272338867188","lon":"-94.594360","lat":"39.041428","theaterChainName":"Cinemark","ticketType":"STANDARD"},{"id":"65","name":"AMC Ward Parkway 14","address":"8600 Ward Pkwy","city":"Kansas City","state":"MO","zip":"64114","distance":"20.109251022338867","lon":"-94.606224","lat":"38.970810","theaterChainName":"AMC Theatres","ticketType":"STANDARD"},{"id":"5407","name":"STANDEES - The Entertaining Eatery","address":"3935 W. 69th Terrace","city":"Prairie Village","state":"KS","zip":"66208","distance":"20.345426559448242","lon":"-94.631638","lat":"39.002003","theaterChainName":"Independent Chains","ticketType":"STANDARD"},{"id":"3580","name":"Glenwood Arts Theatre","address":"3707 W 95th St.","city":"Overland Park","state":"KS","zip":"66212","distance":"18.547985076904297","lon":"-94.628876","lat":"38.956505","theaterChainName":"Independent Chains","ticketType":"STANDARD"},{"id":"543","name":"AMC Town Center 20","address":"11701 Nall Ave.","city":"Leawood","state":"KS","zip":"66211","distance":"16.226242065429688","lon":"-94.648117","lat":"38.915813","theaterChainName":"AMC Theatres","ticketType":"STANDARD"},{"id":"3042","name":"Rio Theatre - Overland Park","address":"7204 W. 80th St.","city":"Overland Park","state":"KS","zip":"66204","distance":"18.017070770263672","lon":"-94.669289","lat":"38.984161","theaterChainName":"Independent Chains","ticketType":"STANDARD"},{"id":"5519","name":"Cinetopia Overland Park 18","address":"5725 W. 135th St.","city":"Overland Park","state":"KS","zip":"66223","distance":"15.13115119934082","lon":"-94.651550","lat":"38.882511","theaterChainName":"Independent Chains","ticketType":"STANDARD"},{"id":"2078","name":"Cinemark 20 and XD Merriam","address":"5500 Antioch","city":"Merriam","state":"KS","zip":"66202","distance":"19.579877853393555","lon":"-94.687943","lat":"39.028618","theaterChainName":"Cinemark","ticketType":"STANDARD"},{"id":"3929","name":"B&B Overland Park 16","address":"8601 W. 135th Street","city":"Overland Park","state":"KS","zip":"66223","distance":"13.487008094787598","lon":"-94.683746","lat":"38.881393","theaterChainName":"B&B Theatres","ticketType":"STANDARD"},{"id":"939","name":"B&B Shawnee 18","address":"16301 Midland Drive","city":"Shawnee","state":"KS","zip":"66217","distance":"15.180994987487793","lon":"-94.775757","lat":"38.998310","theaterChainName":"B&B Theatres","ticketType":"STANDARD"},{"id":"545","name":"AMC Studio 30 Olathe","address":"12075 S Strang Line Rd.","city":"Olathe","state":"KS","zip":"66062","distance":"10.560734748840332","lon":"-94.769997","lat":"38.909901","theaterChainName":"AMC Theatres","ticketType":"STANDARD"},{"id":"5860","name":"AMC Legends 14","address":"1841 Village West Parkway","city":"Kansas City","state":"KS","zip":"66111","distance":"22.5911865234375","lon":"-94.825302","lat":"39.126801","theaterChainName":"AMC Theatres","ticketType":"STANDARD"},{"id":"957","name":"Liberty Hall Cinema","address":"644 Massachussets Street","city":"Lawrence","state":"KS","zip":"66044","distance":"20.60298728942871","lon":"-95.235741","lat":"38.971371","theaterChainName":"Independent Chains","ticketType":"STANDARD"},{"id":"940","name":"Regal Southwind Cinema 12","address":"3433 Iowa Street","city":"Lawrence","state":"KS","zip":"66046","distance":"20.2766170501709","lon":"-95.262894","lat":"38.921658","theaterChainName":"Regal Cinemas","ticketType":"STANDARD"},{"id":"5007","name":"Crystal Plaza","address":"209 S Main Street","city":"Ottawa","state":"KS","zip":"66067","distance":"23.191226959228516","lon":"-95.268501","lat":"38.615501","theaterChainName":"Independent Chains","ticketType":"STANDARD"}]