[{"id":"939","name":"B&B Shawnee 18","address":"16301 Midland Drive","city":"Shawnee","state":"KS","zip":"66217","distance":"23.334796905517578","lon":"-94.775757","lat":"38.998310","theaterChainName":"B&B Theatres","ticketType":"STANDARD"},{"id":"545","name":"AMC Studio 30 Olathe","address":"12075 S Strang Line Rd.","city":"Olathe","state":"KS","zip":"66062","distance":"24.95631217956543","lon":"-94.769997","lat":"38.909901","theaterChainName":"AMC Theatres","ticketType":"STANDARD"},{"id":"5860","name":"AMC Legends 14","address":"1841 Village West Parkway","city":"Kansas City","state":"KS","zip":"66111","distance":"21.6444091796875","lon":"-94.825302","lat":"39.126801","theaterChainName":"AMC Theatres","ticketType":"STANDARD"},{"id":"957","name":"Liberty Hall Cinema","address":"644 Massachussets Street","city":"Lawrence","state":"KS","zip":"66044","distance":"4.233840465545654","lon":"-95.235741","lat":"38.971371","theaterChainName":"Independent Chains","ticketType":"STANDARD"},{"id":"940","name":"Regal Southwind Cinema 12","address":"3433 Iowa Street","city":"Lawrence","state":"KS","zip":"66046","distance":"7.963438034057617","lon":"-95.262894","lat":"38.921658","theaterChainName":"Regal Cinemas","ticketType":"STANDARD"}]