[{"id":"957","tribuneTheaterId":"2674","providerTheaterId":"","name":"Liberty Hall Cinema","address":"644 Massachussets Street","city":"Lawrence","state":"KS","zip":"66044","distance":6.8731663273366,"lon":"-95.235744","lat":"38.971372","theaterChainName":"Independent Chains","ticketType":"STANDARD"},{"id":"940","tribuneTheaterId":"6827","providerTheaterId":"","name":"Regal Southwind Cinema 12","address":"3433 Iowa Street","city":"Lawrence","state":"KS","zip":"66046","distance":10.50183718487,"lon":"-95.262891","lat":"38.921658","theaterChainName":"Regal Cinemas","ticketType":"STANDARD"},{"id":"5860","tribuneTheaterId":"11274","providerTheaterId":"115","name":"AMC Legends 14","address":"1841 Village West Parkway","city":"Kansas City","state":"KS","zip":"66111","distance":18.443415174954,"lon":"-94.8253","lat":"39.1268","theaterChainName":"AMC Theatres","ticketType":"STANDARD"},{"id":"939","tribuneTheaterId":"5969","providerTheaterId":"","name":"B&B Shawnee 18","address":"16301 Midland Drive","city":"Shawnee","state":"KS","zip":"66217","distance":20.578580837972,"lon":"-94.775759","lat":"38.99831","theaterChainName":"B&B Theatres","ticketType":"STANDARD"},{"id":"545","tribuneTheaterId":"7501","providerTheaterId":"610","name":"AMC Studio 30 Olathe","address":"12075 S Strang Line Rd.","city":"Olathe","state":"KS","zip":"66062","distance":22.709897930799,"lon":"-94.77","lat":"38.9099","theaterChainName":"AMC Theatres","ticketType":"STANDARD"},{"id":"953","tribuneTheaterId":"2867","providerTheaterId":"","name":"Landing 4 Theatres","address":"225 Delaware","city":"Leavenworth","state":"KS","zip":"66048","distance":22.737537697471,"lon":"-94.911909","lat":"39.318247","theaterChainName":"Independent Chains","ticketType":"STANDARD"}]