[{"id":"5025","name":"Screenland Crown Center","address":"2450 Grand Blvd.","city":"Kansas City","state":"MO","zip":"64108","distance":"24.12950325012207","lon":"-94.582352","lat":"39.083065","theaterChainName":"Independent Chains","ticketType":"STANDARD"},{"id":"5328","name":"B&B KC Extreme Screen Union Station","address":"30 W. Pershing","city":"Kansas City","state":"MO","zip":"64108","distance":"24.007728576660156","lon":"-94.584297","lat":"39.084000","theaterChainName":"B&B Theatres","ticketType":"STANDARD"},{"id":"5200","name":"Alamo Drafthouse Mainstreet","address":"1400 Mainstreet","city":"Kansas City","state":"MO","zip":"64105","distance":"23.482234954833984","lon":"-94.583481","lat":"39.097172","theaterChainName":"Alamo Drafthouse","ticketType":"STANDARD"},{"id":"4530","name":"Screenland Crossroads","address":"1656 Washington","city":"Kansas City","state":"MO","zip":"64108","distance":"23.359853744506836","lon":"-94.589798","lat":"39.093700","theaterChainName":"Independent Chains","ticketType":"STANDARD"},{"id":"4529","name":"Screenland Armour","address":"408 Armour Road","city":"North Kansas City","state":"MO","zip":"64116","distance":"22.10672378540039","lon":"-94.575630","lat":"39.142365","theaterChainName":"Independent Chains","ticketType":"STANDARD"},{"id":"3699","name":"B&B Theatres KC Northland 14","address":"4900 N.E. 80th Street","city":"Kansas City","state":"MO","zip":"64119","distance":"22.42164421081543","lon":"-94.522507","lat":"39.239353","theaterChainName":"B&B Theatres","ticketType":"STANDARD"},{"id":"2078","name":"Cinemark 20 and XD Merriam","address":"5500 Antioch","city":"Merriam","state":"KS","zip":"66202","distance":"23.00327491760254","lon":"-94.687943","lat":"39.028618","theaterChainName":"Cinemark","ticketType":"STANDARD"},{"id":"544","name":"AMC Barrywoods 24","address":"8101 Roanridge Rd.","city":"Kansas City","state":"MO","zip":"64151","distance":"15.395829200744629","lon":"-94.656143","lat":"39.243099","theaterChainName":"AMC Theatres","ticketType":"STANDARD"},{"id":"939","name":"B&B Shawnee 18","address":"16301 Midland Drive","city":"Shawnee","state":"KS","zip":"66217","distance":"22.598533630371094","lon":"-94.775757","lat":"38.998310","theaterChainName":"B&B Theatres","ticketType":"STANDARD"},{"id":"5860","name":"AMC Legends 14","address":"1841 Village West Parkway","city":"Kansas City","state":"KS","zip":"66111","distance":"13.398303985595703","lon":"-94.825302","lat":"39.126801","theaterChainName":"AMC Theatres","ticketType":"STANDARD"},{"id":"953","name":"Landing 4 Theatres","address":"225 Delaware","city":"Leavenworth","state":"KS","zip":"66048","distance":"1.6496920585632324","lon":"-94.911911","lat":"39.318249","theaterChainName":"Independent Chains","ticketType":"STANDARD"}]