[{"id":"926","name":"Belton Cinema 8","address":"1207 E North Ave","city":"Belton","state":"MO","zip":"64012","distance":"16.802011489868164","lon":"-94.515060","lat":"38.812180","theaterChainName":"Mitchell Theatres","ticketType":"STANDARD"},{"id":"3580","name":"Glenwood Arts Theatre","address":"3707 W 95th St.","city":"Overland Park","state":"KS","zip":"66212","distance":"24.304054260253906","lon":"-94.628876","lat":"38.956505","theaterChainName":"Independent Chains","ticketType":"STANDARD"},{"id":"1716","name":"B&B Harrisonville Cineplex","address":"2727 Cantrell Road","city":"Harrisonville","state":"MO","zip":"64701","distance":"17.09624481201172","lon":"-94.373520","lat":"38.660328","theaterChainName":"B&B Theatres","ticketType":"STANDARD"},{"id":"543","name":"AMC Town Center 20","address":"11701 Nall Ave.","city":"Leawood","state":"KS","zip":"66211","distance":"21.399763107299805","lon":"-94.648117","lat":"38.915813","theaterChainName":"AMC Theatres","ticketType":"STANDARD"},{"id":"5519","name":"Cinetopia Overland Park 18","address":"5725 W. 135th St.","city":"Overland Park","state":"KS","zip":"66223","distance":"19.091339111328125","lon":"-94.651550","lat":"38.882511","theaterChainName":"Independent Chains","ticketType":"STANDARD"},{"id":"3929","name":"B&B Overland Park 16","address":"8601 W. 135th Street","city":"Overland Park","state":"KS","zip":"66223","distance":"18.93926239013672","lon":"-94.683746","lat":"38.881393","theaterChainName":"B&B Theatres","ticketType":"STANDARD"},{"id":"545","name":"AMC Studio 30 Olathe","address":"12075 S Strang Line Rd.","city":"Olathe","state":"KS","zip":"66062","distance":"21.429170608520508","lon":"-94.769997","lat":"38.909901","theaterChainName":"AMC Theatres","ticketType":"STANDARD"}]