[{"id":"957","tribuneTheaterId":"2674","providerTheaterId":"","name":"Liberty Hall Cinema","address":"644 Massachussets Street","city":"Lawrence","state":"KS","zip":"66044","distance":10.762807870858,"lon":"-95.235744","lat":"38.971372","theaterChainName":"Independent Chains","ticketType":"STANDARD"},{"id":"940","tribuneTheaterId":"6827","providerTheaterId":"","name":"Regal Southwind Cinema 12","address":"3433 Iowa Street","city":"Lawrence","state":"KS","zip":"66046","distance":13.225405751104,"lon":"-95.262891","lat":"38.921658","theaterChainName":"Regal Cinemas","ticketType":"STANDARD"},{"id":"939","tribuneTheaterId":"5969","providerTheaterId":"","name":"B&B Shawnee 18","address":"16301 Midland Drive","city":"Shawnee","state":"KS","zip":"66217","distance":14.141883765289,"lon":"-94.775759","lat":"38.99831","theaterChainName":"B&B Theatres","ticketType":"STANDARD"},{"id":"5860","tribuneTheaterId":"11274","providerTheaterId":"115","name":"AMC Legends 14","address":"1841 Village West Parkway","city":"Kansas City","state":"KS","zip":"66111","distance":14.374424311045,"lon":"-94.8253","lat":"39.1268","theaterChainName":"AMC Theatres","ticketType":"STANDARD"},{"id":"545","tribuneTheaterId":"7501","providerTheaterId":"610","name":"AMC Studio 30 Olathe","address":"12075 S Strang Line Rd.","city":"Olathe","state":"KS","zip":"66062","distance":15.780274677399,"lon":"-94.77","lat":"38.9099","theaterChainName":"AMC Theatres","ticketType":"STANDARD"},{"id":"2078","tribuneTheaterId":"5224","providerTheaterId":"","name":"Cinemark 20 and XD Merriam","address":"5500 Antioch","city":"Merriam","state":"KS","zip":"66202","distance":18.94514193293,"lon":"-94.687943","lat":"39.028619","theaterChainName":"Cinemark","ticketType":"STANDARD"},{"id":"3929","tribuneTheaterId":"5053","providerTheaterId":"","name":"B&B Overland Park 16","address":"8601 W. 135th Street","city":"Overland Park","state":"KS","zip":"66223","distance":20.818980071576,"lon":"-94.683748","lat":"38.881395","theaterChainName":"B&B Theatres","ticketType":"STANDARD"},{"id":"3042","tribuneTheaterId":"2603","providerTheaterId":"","name":"Rio Theatre - Overland Park","address":"7204 W. 80th St.","city":"Overland Park","state":"KS","zip":"66204","distance":19.894961052796,"lon":"-94.669288","lat":"38.984163","theaterChainName":"Independent Chains","ticketType":"STANDARD"},{"id":"3580","tribuneTheaterId":"659","providerTheaterId":"","name":"Glenwood Arts Theatre","address":"3707 W 95th St.","city":"Overland Park","state":"KS","zip":"66212","distance":22.250883684496,"lon":"-94.628879","lat":"38.956503","theaterChainName":"Independent Chains","ticketType":"STANDARD"},{"id":"543","tribuneTheaterId":"7973","providerTheaterId":"38","name":"AMC Town Center 20","address":"11701 Nall Ave.","city":"Leawood","state":"KS","zip":"66211","distance":21.822710177638,"lon":"-94.648118","lat":"38.915815","theaterChainName":"AMC Theatres","ticketType":"STANDARD"},{"id":"5407","tribuneTheaterId":"10845","providerTheaterId":"","name":"STANDEES - The Entertaining Eatery","address":"3935 W. 69th Terrace","city":"Prairie Village","state":"KS","zip":"66208","distance":21.878565294511,"lon":"-94.631635","lat":"39.002001","theaterChainName":"Independent Chains","ticketType":"STANDARD"},{"id":"953","tribuneTheaterId":"2867","providerTheaterId":"","name":"Landing 4 Theatres","address":"225 Delaware","city":"Leavenworth","state":"KS","zip":"66048","distance":22.927975730177,"lon":"-94.911909","lat":"39.318247","theaterChainName":"Independent Chains","ticketType":"STANDARD"},{"id":"5519","tribuneTheaterId":"10945","providerTheaterId":"","name":"Cinetopia Overland Park 18","address":"5725 W. 135th St.","city":"Overland Park","state":"KS","zip":"66223","distance":22.388132463789,"lon":"-94.651551","lat":"38.882511","theaterChainName":"Independent Chains","ticketType":"STANDARD"},{"id":"2482","tribuneTheaterId":"5269","providerTheaterId":"","name":"Palace at the Plaza","address":"500 Nichols Road","city":"Kansas City","state":"MO","zip":"64112","distance":24.032929095345,"lon":"-94.594361","lat":"39.041428","theaterChainName":"Cinemark","ticketType":"STANDARD"},{"id":"4530","tribuneTheaterId":"9656","providerTheaterId":"","name":"Screenland Crossroads","address":"1656 Washington","city":"Kansas City","state":"MO","zip":"64108","distance":24.938368431805,"lon":"-94.5898","lat":"39.0937","theaterChainName":"Independent Chains","ticketType":"STANDARD"},{"id":"963","tribuneTheaterId":"6946","providerTheaterId":"","name":"Tivoli Cinema","address":"4050 Pennsylvania","city":"Kansas City","state":"MO","zip":"64111","distance":24.248032884877,"lon":"-94.592319","lat":"39.053354","theaterChainName":"Independent Chains","ticketType":"STANDARD"},{"id":"65","tribuneTheaterId":"8459","providerTheaterId":"25","name":"AMC Ward Parkway 14","address":"8600 Ward Pkwy","city":"Kansas City","state":"MO","zip":"64114","distance":23.344061143786,"lon":"-94.606222","lat":"38.970809","theaterChainName":"AMC Theatres","ticketType":"STANDARD"}]