[{"id":"5007","tribuneTheaterId":"10379","providerTheaterId":"","name":"Crystal Plaza","address":"209 S Main Street","city":"Ottawa","state":"KS","zip":"66067","distance":11.709661068984,"lon":"-95.2685","lat":"38.6155","theaterChainName":"Independent Chains","ticketType":"STANDARD"},{"id":"940","tribuneTheaterId":"6827","providerTheaterId":"","name":"Regal Southwind Cinema 12","address":"3433 Iowa Street","city":"Lawrence","state":"KS","zip":"66046","distance":17.072920175644,"lon":"-95.262891","lat":"38.921658","theaterChainName":"Regal Cinemas","ticketType":"STANDARD"},{"id":"957","tribuneTheaterId":"2674","providerTheaterId":"","name":"Liberty Hall Cinema","address":"644 Massachussets Street","city":"Lawrence","state":"KS","zip":"66044","distance":19.419926660148,"lon":"-95.235744","lat":"38.971372","theaterChainName":"Independent Chains","ticketType":"STANDARD"},{"id":"545","tribuneTheaterId":"7501","providerTheaterId":"610","name":"AMC Studio 30 Olathe","address":"12075 S Strang Line Rd.","city":"Olathe","state":"KS","zip":"66062","distance":21.989841933217,"lon":"-94.77","lat":"38.9099","theaterChainName":"AMC Theatres","ticketType":"STANDARD"},{"id":"3929","tribuneTheaterId":"5053","providerTheaterId":"","name":"B&B Overland Park 16","address":"8601 W. 135th Street","city":"Overland Park","state":"KS","zip":"66223","distance":24.831300673944,"lon":"-94.683748","lat":"38.881395","theaterChainName":"B&B Theatres","ticketType":"STANDARD"}]