[{"id":"940","tribuneTheaterId":"6827","providerTheaterId":"","name":"Regal Southwind Cinema 12","address":"3433 Iowa Street","city":"Lawrence","state":"KS","zip":"66046","distance":18.393136325166,"lon":"-95.262891","lat":"38.921658","theaterChainName":"Regal Cinemas","ticketType":"STANDARD"},{"id":"2461","tribuneTheaterId":"7473","providerTheaterId":"","name":"Regal West Ridge Cinema 8","address":"1727 SW Wanamaker","city":"Topeka","state":"KS","zip":"66604","distance":20.145169794119,"lon":"-95.767876","lat":"39.035612","theaterChainName":"Regal Cinemas","ticketType":"STANDARD"},{"id":"5007","tribuneTheaterId":"10379","providerTheaterId":"","name":"Crystal Plaza","address":"209 S Main Street","city":"Ottawa","state":"KS","zip":"66067","distance":19.970352458438,"lon":"-95.2685","lat":"38.6155","theaterChainName":"Independent Chains","ticketType":"STANDARD"},{"id":"4003","tribuneTheaterId":"5139","providerTheaterId":"","name":"Hollywood Stadium 14","address":"6200 SW 6th Ave.","city":"Topeka","state":"KS","zip":"66615","distance":21.502689301968,"lon":"-95.766929","lat":"39.05929","theaterChainName":"Regal Cinemas","ticketType":"STANDARD"},{"id":"957","tribuneTheaterId":"2674","providerTheaterId":"","name":"Liberty Hall Cinema","address":"644 Massachussets Street","city":"Lawrence","state":"KS","zip":"66044","distance":21.457436363295,"lon":"-95.235744","lat":"38.971372","theaterChainName":"Independent Chains","ticketType":"STANDARD"}]