[{"id":"4354","tribuneTheaterId":"9372","providerTheaterId":"","name":"Chisholm Trail 8","address":"601 SE 36th Street 113","city":"Newton","state":"KS","zip":"67114","distance":12.544611010759,"lon":"-97.334219","lat":"37.9974","theaterChainName":"Mitchell Theatres","ticketType":"STANDARD"},{"id":"1931","tribuneTheaterId":"4159","providerTheaterId":"","name":"West Warren Theatre","address":"9150 W. 21st St. N.","city":"Wichita","state":"KS","zip":"67205","distance":11.82381053809,"lon":"-97.44789","lat":"37.724311","theaterChainName":"Independent Chains","ticketType":"STANDARD"},{"id":"3641","tribuneTheaterId":"1875","providerTheaterId":"","name":"Old Town Cinema Grill","address":"353 N. Mead","city":"Wichita","state":"KS","zip":"67202","distance":16.97454432072,"lon":"-97.329","lat":"37.6907","theaterChainName":"Independent Chains","ticketType":"STANDARD"},{"id":"6104","tribuneTheaterId":"11518","providerTheaterId":"","name":"Warren Old Town Theatre & Grill","address":"353 N Mead","city":"Wichita","state":"KS","zip":"67202","distance":16.939181632456,"lon":"-97.329347","lat":"37.691134","theaterChainName":"Independent Chains","ticketType":"STANDARD"},{"id":"3522","tribuneTheaterId":"3165","providerTheaterId":"","name":"13th Avenue Warren","address":"11611 East 13th St.","city":"Wichita","state":"KS","zip":"67206","distance":21.202651706172,"lon":"-97.20294","lat":"37.705663","theaterChainName":"Independent Chains","ticketType":"STANDARD"},{"id":"1546","tribuneTheaterId":"8978","providerTheaterId":"","name":"B&B Hutchinson Mall 8","address":"1500 E. 11th Street","city":"Hutchinson","state":"KS","zip":"67504","distance":24.175614487318,"lon":"-97.896026","lat":"38.068198","theaterChainName":"B&B Theatres","ticketType":"STANDARD"}]