[{"id":"3641","name":"Old Town Cinema Grill","address":"353 N. Mead","city":"Wichita","state":"KS","zip":"67202","distance":"23.98615074157715","lon":"-97.329002","lat":"37.690701","theaterChainName":"Independent Chains","ticketType":"STANDARD"},{"id":"6104","name":"Warren Old Town Theatre & Grill","address":"353 N Mead","city":"Wichita","state":"KS","zip":"67202","distance":"23.95102310180664","lon":"-97.329346","lat":"37.691135","theaterChainName":"Independent Chains","ticketType":"STANDARD"},{"id":"4354","name":"Chisholm Trail 8","address":"601 SE 36th Street 113","city":"Newton","state":"KS","zip":"67114","distance":"9.68900203704834","lon":"-97.334221","lat":"37.997398","theaterChainName":"Mitchell Theatres","ticketType":"STANDARD"},{"id":"1931","name":"West Warren Theatre","address":"9150 W. 21st St. N.","city":"Wichita","state":"KS","zip":"67205","distance":"19.801015853881836","lon":"-97.447891","lat":"37.724312","theaterChainName":"Independent Chains","ticketType":"STANDARD"},{"id":"1546","name":"B&B Hutchinson Mall 8","address":"1500 E. 11th Street","city":"Hutchinson","state":"KS","zip":"67504","distance":"21.341739654541016","lon":"-97.896027","lat":"38.068199","theaterChainName":"B&B Theatres","ticketType":"STANDARD"}]