[{"id":"1931","tribuneTheaterId":"4159","providerTheaterId":"","name":"West Warren Theatre","address":"9150 W. 21st St. N.","city":"Wichita","state":"KS","zip":"67205","distance":12.053190538808,"lon":"-97.44789","lat":"37.724311","theaterChainName":"Independent Chains","ticketType":"STANDARD"},{"id":"3641","tribuneTheaterId":"1875","providerTheaterId":"","name":"Old Town Cinema Grill","address":"353 N. Mead","city":"Wichita","state":"KS","zip":"67202","distance":18.124988585234,"lon":"-97.329","lat":"37.6907","theaterChainName":"Independent Chains","ticketType":"STANDARD"},{"id":"6104","tribuneTheaterId":"11518","providerTheaterId":"","name":"Warren Old Town Theatre & Grill","address":"353 N Mead","city":"Wichita","state":"KS","zip":"67202","distance":18.107615581887,"lon":"-97.329347","lat":"37.691134","theaterChainName":"Independent Chains","ticketType":"STANDARD"},{"id":"2690","tribuneTheaterId":"2040","providerTheaterId":"","name":"Derby Plaza Theatre","address":"1300 North Nelson Drive","city":"Derby","state":"KS","zip":"67037","distance":22.660772926576,"lon":"-97.273523","lat":"37.559004","theaterChainName":"Independent Chains","ticketType":"STANDARD"}]