[{"id":"2690","tribuneTheaterId":"2040","providerTheaterId":"","name":"Derby Plaza Theatre","address":"1300 North Nelson Drive","city":"Derby","state":"KS","zip":"67037","distance":14.482555915085,"lon":"-97.273523","lat":"37.559004","theaterChainName":"Independent Chains","ticketType":"STANDARD"},{"id":"3949","tribuneTheaterId":"6845","providerTheaterId":"","name":"Cowley Cinema 8","address":"23046 Avery Ave","city":"Winfield","state":"KS","zip":"67156","distance":16.991167087898,"lon":"-97.032087","lat":"37.156094","theaterChainName":"Mitchell Theatres","ticketType":"STANDARD"},{"id":"2688","tribuneTheaterId":"451","providerTheaterId":"","name":"Augusta Theatre","address":"523 State Street","city":"Augusta","state":"KS","zip":"67010","distance":20.855288204104,"lon":"-96.9791","lat":"37.6771","theaterChainName":"Independent Chains","ticketType":"STANDARD"},{"id":"3522","tribuneTheaterId":"3165","providerTheaterId":"","name":"13th Avenue Warren","address":"11611 East 13th St.","city":"Wichita","state":"KS","zip":"67206","distance":22.124162417965,"lon":"-97.20294","lat":"37.705663","theaterChainName":"Independent Chains","ticketType":"STANDARD"},{"id":"6104","tribuneTheaterId":"11518","providerTheaterId":"","name":"Warren Old Town Theatre & Grill","address":"353 N Mead","city":"Wichita","state":"KS","zip":"67202","distance":23.772109263488,"lon":"-97.329347","lat":"37.691134","theaterChainName":"Independent Chains","ticketType":"STANDARD"},{"id":"3641","tribuneTheaterId":"1875","providerTheaterId":"","name":"Old Town Cinema Grill","address":"353 N. Mead","city":"Wichita","state":"KS","zip":"67202","distance":23.736646902947,"lon":"-97.329","lat":"37.6907","theaterChainName":"Independent Chains","ticketType":"STANDARD"}]