[{"id":"2688","name":"Augusta Theatre","address":"523 State Street","city":"Augusta","state":"KS","zip":"67010","distance":"20.856510162353516","lon":"-96.979103","lat":"37.677101","theaterChainName":"Independent Chains","ticketType":"STANDARD"},{"id":"3522","name":"13th Avenue Warren","address":"11611 East 13th St.","city":"Wichita","state":"KS","zip":"67206","distance":"22.125329971313477","lon":"-97.202942","lat":"37.705662","theaterChainName":"Independent Chains","ticketType":"STANDARD"},{"id":"2690","name":"Derby Plaza Theatre","address":"1300 North Nelson Drive","city":"Derby","state":"KS","zip":"67037","distance":"14.483338356018066","lon":"-97.273521","lat":"37.559006","theaterChainName":"Independent Chains","ticketType":"STANDARD"},{"id":"3641","name":"Old Town Cinema Grill","address":"353 N. Mead","city":"Wichita","state":"KS","zip":"67202","distance":"23.738059997558594","lon":"-97.329002","lat":"37.690701","theaterChainName":"Independent Chains","ticketType":"STANDARD"},{"id":"6104","name":"Warren Old Town Theatre & Grill","address":"353 N Mead","city":"Wichita","state":"KS","zip":"67202","distance":"23.773475646972656","lon":"-97.329346","lat":"37.691135","theaterChainName":"Independent Chains","ticketType":"STANDARD"},{"id":"3949","name":"Cowley Cinema 8","address":"23046 Avery Ave","city":"Winfield","state":"KS","zip":"67156","distance":"16.992361068725586","lon":"-97.032089","lat":"37.156094","theaterChainName":"Mitchell Theatres","ticketType":"STANDARD"}]