[{"id":"2688","name":"Augusta Theatre","address":"523 State Street","city":"Augusta","state":"KS","zip":"67010","distance":"16.605070114135742","lon":"-96.979103","lat":"37.677101","theaterChainName":"Independent Chains","ticketType":"STANDARD"},{"id":"3522","name":"13th Avenue Warren","address":"11611 East 13th St.","city":"Wichita","state":"KS","zip":"67206","distance":"4.278596878051758","lon":"-97.202942","lat":"37.705662","theaterChainName":"Independent Chains","ticketType":"STANDARD"},{"id":"2690","name":"Derby Plaza Theatre","address":"1300 North Nelson Drive","city":"Derby","state":"KS","zip":"67037","distance":"9.916881561279297","lon":"-97.273521","lat":"37.559006","theaterChainName":"Independent Chains","ticketType":"STANDARD"},{"id":"3641","name":"Old Town Cinema Grill","address":"353 N. Mead","city":"Wichita","state":"KS","zip":"67202","distance":"2.741088390350342","lon":"-97.329002","lat":"37.690701","theaterChainName":"Independent Chains","ticketType":"STANDARD"},{"id":"6104","name":"Warren Old Town Theatre & Grill","address":"353 N Mead","city":"Wichita","state":"KS","zip":"67202","distance":"2.750368118286133","lon":"-97.329346","lat":"37.691135","theaterChainName":"Independent Chains","ticketType":"STANDARD"},{"id":"4354","name":"Chisholm Trail 8","address":"601 SE 36th Street 113","city":"Newton","state":"KS","zip":"67114","distance":"20.588703155517578","lon":"-97.334221","lat":"37.997398","theaterChainName":"Mitchell Theatres","ticketType":"STANDARD"},{"id":"1931","name":"West Warren Theatre","address":"9150 W. 21st St. N.","city":"Wichita","state":"KS","zip":"67205","distance":"9.242104530334473","lon":"-97.447891","lat":"37.724312","theaterChainName":"Independent Chains","ticketType":"STANDARD"}]