[{"id":"2688","name":"Augusta Theatre","address":"523 State Street","city":"Augusta","state":"KS","zip":"67010","distance":"10.835318565368652","lon":"-96.979103","lat":"37.677101","theaterChainName":"Independent Chains","ticketType":"STANDARD"},{"id":"3706","name":"Central Cinema 6","address":"300 East Central","city":"El Dorado","state":"KS","zip":"67042","distance":"21.621761322021484","lon":"-96.846497","lat":"37.818054","theaterChainName":"Mitchell Theatres","ticketType":"STANDARD"},{"id":"3522","name":"13th Avenue Warren","address":"11611 East 13th St.","city":"Wichita","state":"KS","zip":"67206","distance":"4.886251449584961","lon":"-97.202942","lat":"37.705662","theaterChainName":"Independent Chains","ticketType":"STANDARD"},{"id":"2690","name":"Derby Plaza Theatre","address":"1300 North Nelson Drive","city":"Derby","state":"KS","zip":"67037","distance":"7.886070251464844","lon":"-97.273521","lat":"37.559006","theaterChainName":"Independent Chains","ticketType":"STANDARD"},{"id":"3641","name":"Old Town Cinema Grill","address":"353 N. Mead","city":"Wichita","state":"KS","zip":"67202","distance":"9.318069458007812","lon":"-97.329002","lat":"37.690701","theaterChainName":"Independent Chains","ticketType":"STANDARD"},{"id":"6104","name":"Warren Old Town Theatre & Grill","address":"353 N Mead","city":"Wichita","state":"KS","zip":"67202","distance":"9.346850395202637","lon":"-97.329346","lat":"37.691135","theaterChainName":"Independent Chains","ticketType":"STANDARD"},{"id":"1931","name":"West Warren Theatre","address":"9150 W. 21st St. N.","city":"Wichita","state":"KS","zip":"67205","distance":"16.215784072875977","lon":"-97.447891","lat":"37.724312","theaterChainName":"Independent Chains","ticketType":"STANDARD"}]