[{"id":"3522","name":"13th Avenue Warren","address":"11611 East 13th St.","city":"Wichita","state":"KS","zip":"67206","distance":"15.192042350769043","lon":"-97.202942","lat":"37.705662","theaterChainName":"Independent Chains","ticketType":"STANDARD"},{"id":"2690","name":"Derby Plaza Theatre","address":"1300 North Nelson Drive","city":"Derby","state":"KS","zip":"67037","distance":"14.651664733886719","lon":"-97.273521","lat":"37.559006","theaterChainName":"Independent Chains","ticketType":"STANDARD"},{"id":"3641","name":"Old Town Cinema Grill","address":"353 N. Mead","city":"Wichita","state":"KS","zip":"67202","distance":"8.2804594039917","lon":"-97.329002","lat":"37.690701","theaterChainName":"Independent Chains","ticketType":"STANDARD"},{"id":"6104","name":"Warren Old Town Theatre & Grill","address":"353 N Mead","city":"Wichita","state":"KS","zip":"67202","distance":"8.260994911193848","lon":"-97.329346","lat":"37.691135","theaterChainName":"Independent Chains","ticketType":"STANDARD"},{"id":"4354","name":"Chisholm Trail 8","address":"601 SE 36th Street 113","city":"Newton","state":"KS","zip":"67114","distance":"22.45600700378418","lon":"-97.334221","lat":"37.997398","theaterChainName":"Mitchell Theatres","ticketType":"STANDARD"},{"id":"1931","name":"West Warren Theatre","address":"9150 W. 21st St. N.","city":"Wichita","state":"KS","zip":"67205","distance":"2.767946243286133","lon":"-97.447891","lat":"37.724312","theaterChainName":"Independent Chains","ticketType":"STANDARD"}]