[{"id":"5286","name":"AMC Westroads 14","address":"10000 California St.","city":"Omaha","state":"NE","zip":"68114","distance":"24.8012638092041","lon":"-96.068871","lat":"41.267712","theaterChainName":"AMC Theatres","ticketType":"STANDARD"},{"id":"1279","name":"20 Grand (Majestic Cinema)","address":"14304 W. Maple Rd","city":"Omaha","state":"NE","zip":"68164","distance":"22.038623809814453","lon":"-96.136055","lat":"41.293335","theaterChainName":"Marcus Theaters","ticketType":"STANDARD"},{"id":"517","name":"AMC Oak View Plaza 24","address":"3555 S. 140th Plaza","city":"Omaha","state":"NE","zip":"68144","distance":"21.06452751159668","lon":"-96.130211","lat":"41.225201","theaterChainName":"AMC Theatres","ticketType":"STANDARD"},{"id":"5636","name":"Alamo Drafthouse Cinema-La Vista","address":"12750 Westport Parkway","city":"La Vista","state":"NE","zip":"68138","distance":"21.61846160888672","lon":"-96.114166","lat":"41.179089","theaterChainName":"Alamo Drafthouse","ticketType":"STANDARD"},{"id":"3847","name":"Village Pointe Cinema","address":"304 North 174th St.","city":"Omaha","state":"NE","zip":"68118","distance":"18.791704177856445","lon":"-96.186836","lat":"41.260868","theaterChainName":"Marcus Theaters","ticketType":"STANDARD"},{"id":"1677","name":"Main Street 7","address":"866 E. 23rd Street","city":"Fremont","state":"NE","zip":"68025","distance":"19.323562622070312","lon":"-96.486992","lat":"41.452602","theaterChainName":"Main Street Theatres","ticketType":"STANDARD"}]