[{"id":"1279","name":"20 Grand (Majestic Cinema)","address":"14304 W. Maple Rd","city":"Omaha","state":"NE","zip":"68164","distance":"23.813339233398438","lon":"-96.136055","lat":"41.293335","theaterChainName":"Marcus Theaters","ticketType":"STANDARD"},{"id":"3847","name":"Village Pointe Cinema","address":"304 North 174th St.","city":"Omaha","state":"NE","zip":"68118","distance":"23.967079162597656","lon":"-96.186836","lat":"41.260868","theaterChainName":"Marcus Theaters","ticketType":"STANDARD"},{"id":"1713","name":"Blair 3 Theatre","address":"1645 S Hwy 30","city":"Blair","state":"NE","zip":"68008","distance":"15.613892555236816","lon":"-96.143402","lat":"41.528999","theaterChainName":"Independent Chains","ticketType":"STANDARD"},{"id":"1714","name":"Berkeley Plaza Theatre 7","address":"267 Monroe St.","city":"Martinsburg","state":"WV","zip":"25404","distance":"15.891782760620117","lon":"-96.136887","lat":"41.543571","theaterChainName":"Independent Chains","ticketType":"STANDARD"},{"id":"1677","name":"Main Street 7","address":"866 E. 23rd Street","city":"Fremont","state":"NE","zip":"68025","distance":"7.0274481773376465","lon":"-96.486992","lat":"41.452602","theaterChainName":"Main Street Theatres","ticketType":"STANDARD"}]