[{"id":"4433","name":"Film Streams at the Ruth Sokolof Theater","address":"1340 Webster Street","city":"Omaha","state":"NE","zip":"68102","distance":"23.945213317871094","lon":"-95.934235","lat":"41.265896","theaterChainName":"Independent Chains","ticketType":"STANDARD"},{"id":"4849","name":"Midtown Cinema","address":"3201 Farnam Street","city":"Omaha","state":"NE","zip":"68131","distance":"22.544025421142578","lon":"-95.960403","lat":"41.257484","theaterChainName":"Marcus Theaters","ticketType":"STANDARD"},{"id":"5002","name":"Aksarben Cinema","address":"2110 S. 67th St","city":"Omaha","state":"NE","zip":"68106","distance":"19.631439208984375","lon":"-96.015465","lat":"41.239616","theaterChainName":"Main Street Theatres","ticketType":"STANDARD"},{"id":"4266","name":"Great Escape Omaha Stadium 16","address":"7440 Crown Point Ave.","city":"Omaha","state":"NE","zip":"68134","distance":"19.75901222229004","lon":"-96.027763","lat":"41.313614","theaterChainName":"Regal Cinemas","ticketType":"STANDARD"},{"id":"3108","name":"Twin Creek Cinema","address":"3909 Raynor Parkway","city":"Bellevue","state":"NE","zip":"68123","distance":"22.752450942993164","lon":"-95.971260","lat":"41.146797","theaterChainName":"Marcus Theaters","ticketType":"STANDARD"},{"id":"5286","name":"AMC Westroads 14","address":"10000 California St.","city":"Omaha","state":"NE","zip":"68114","distance":"17.009227752685547","lon":"-96.068871","lat":"41.267712","theaterChainName":"AMC Theatres","ticketType":"STANDARD"},{"id":"1279","name":"20 Grand (Majestic Cinema)","address":"14304 W. Maple Rd","city":"Omaha","state":"NE","zip":"68164","distance":"13.971236228942871","lon":"-96.136055","lat":"41.293335","theaterChainName":"Marcus Theaters","ticketType":"STANDARD"},{"id":"517","name":"AMC Oak View Plaza 24","address":"3555 S. 140th Plaza","city":"Omaha","state":"NE","zip":"68144","distance":"13.680343627929688","lon":"-96.130211","lat":"41.225201","theaterChainName":"AMC Theatres","ticketType":"STANDARD"},{"id":"5636","name":"Alamo Drafthouse Cinema-La Vista","address":"12750 Westport Parkway","city":"La Vista","state":"NE","zip":"68138","distance":"14.993753433227539","lon":"-96.114166","lat":"41.179089","theaterChainName":"Alamo Drafthouse","ticketType":"STANDARD"},{"id":"3847","name":"Village Pointe Cinema","address":"304 North 174th St.","city":"Omaha","state":"NE","zip":"68118","distance":"10.880812644958496","lon":"-96.186836","lat":"41.260868","theaterChainName":"Marcus Theaters","ticketType":"STANDARD"},{"id":"1713","name":"Blair 3 Theatre","address":"1645 S Hwy 30","city":"Blair","state":"NE","zip":"68008","distance":"24.150026321411133","lon":"-96.143402","lat":"41.528999","theaterChainName":"Independent Chains","ticketType":"STANDARD"},{"id":"1677","name":"Main Street 7","address":"866 E. 23rd Street","city":"Fremont","state":"NE","zip":"68025","distance":"15.869061470031738","lon":"-96.486992","lat":"41.452602","theaterChainName":"Main Street Theatres","ticketType":"STANDARD"}]