[{"id":"4433","tribuneTheaterId":"9505","providerTheaterId":"","name":"Film Streams at the Ruth Sokolof Theater","address":"1340 Webster Street","city":"Omaha","state":"NE","zip":"68102","distance":0.58893881159755,"lon":"-95.934235","lat":"41.265896","theaterChainName":"Independent Chains","ticketType":"STANDARD"},{"id":"4849","tribuneTheaterId":"10131","providerTheaterId":"","name":"Midtown Cinema","address":"3201 Farnam Street","city":"Omaha","state":"NE","zip":"68131","distance":1.0185078520729,"lon":"-95.960405","lat":"41.257483","theaterChainName":"Marcus Theaters","ticketType":"STANDARD"},{"id":"3614","tribuneTheaterId":"2377","providerTheaterId":"6195","name":"AMC Star Council Bluffs 17","address":"3220 23rd Ave.","city":"Council Bluffs","state":"IA","zip":"51501","distance":2.6399419277658,"lon":"-95.895517","lat":"41.241805","theaterChainName":"AMC Theatres","ticketType":"STANDARD"},{"id":"5002","tribuneTheaterId":"10373","providerTheaterId":"","name":"Aksarben Cinema","address":"2110 S. 67th St","city":"Omaha","state":"NE","zip":"68106","distance":4.0983875129532,"lon":"-96.015464","lat":"41.239618","theaterChainName":"Main Street Theatres","ticketType":"STANDARD"},{"id":"4266","tribuneTheaterId":"2395","providerTheaterId":"","name":"Great Escape Omaha Stadium 16","address":"7440 Crown Point Ave.","city":"Omaha","state":"NE","zip":"68134","distance":5.8801014025604,"lon":"-96.027761","lat":"41.313613","theaterChainName":"Regal Cinemas","ticketType":"STANDARD"},{"id":"5286","tribuneTheaterId":"10720","providerTheaterId":"468","name":"AMC Westroads 14","address":"10000 California St.","city":"Omaha","state":"NE","zip":"68114","distance":6.6736615450087,"lon":"-96.068873","lat":"41.267711","theaterChainName":"AMC Theatres","ticketType":"STANDARD"},{"id":"3108","tribuneTheaterId":"3230","providerTheaterId":"","name":"Twin Creek Cinema","address":"3909 Raynor Parkway","city":"Bellevue","state":"NE","zip":"68123","distance":7.9113803278373,"lon":"-95.971262","lat":"41.146799","theaterChainName":"Marcus Theaters","ticketType":"STANDARD"},{"id":"517","tribuneTheaterId":"8251","providerTheaterId":"85","name":"AMC Oak View Plaza 24","address":"3555 S. 140th Plaza","city":"Omaha","state":"NE","zip":"68144","distance":10.108750202108,"lon":"-96.13021","lat":"41.2252","theaterChainName":"AMC Theatres","ticketType":"STANDARD"},{"id":"1279","tribuneTheaterId":"3245","providerTheaterId":"","name":"20 Grand (Majestic Cinema)","address":"14304 W. Maple Rd","city":"Omaha","state":"NE","zip":"68164","distance":10.407751660967,"lon":"-96.136057","lat":"41.293335","theaterChainName":"Marcus Theaters","ticketType":"STANDARD"},{"id":"5636","tribuneTheaterId":"11099","providerTheaterId":"","name":"Alamo Drafthouse Cinema-La Vista","address":"12750 Westport Parkway","city":"La Vista","state":"NE","zip":"68138","distance":10.563089601554,"lon":"-96.11417","lat":"41.179087","theaterChainName":"Alamo Drafthouse","ticketType":"STANDARD"},{"id":"3847","tribuneTheaterId":"7053","providerTheaterId":"","name":"Village Pointe Cinema","address":"304 North 174th St.","city":"Omaha","state":"NE","zip":"68118","distance":12.774521093693,"lon":"-96.186839","lat":"41.260867","theaterChainName":"Marcus Theaters","ticketType":"STANDARD"},{"id":"1714","tribuneTheaterId":"8830","providerTheaterId":"","name":"Berkeley Plaza Theatre 7","address":"267 Monroe St.","city":"Martinsburg","state":"WV","zip":"25404","distance":22.130604085704,"lon":"-96.13689","lat":"41.54357","theaterChainName":"Independent Chains","ticketType":"STANDARD"},{"id":"1713","tribuneTheaterId":"6327","providerTheaterId":"","name":"Blair 3 Theatre","address":"1645 S Hwy 30","city":"Blair","state":"NE","zip":"68008","distance":21.405207281167,"lon":"-96.1434","lat":"41.529","theaterChainName":"Independent Chains","ticketType":"STANDARD"}]