[{"id":"4433","name":"Film Streams at the Ruth Sokolof Theater","address":"1340 Webster Street","city":"Omaha","state":"NE","zip":"68102","distance":"0.5891240835189819","lon":"-95.934235","lat":"41.265896","theaterChainName":"Independent Chains","ticketType":"STANDARD"},{"id":"3614","name":"AMC Star Council Bluffs 17","address":"3220 23rd Ave.","city":"Council Bluffs","state":"IA","zip":"51501","distance":"2.6402363777160645","lon":"-95.895515","lat":"41.241806","theaterChainName":"AMC Theatres","ticketType":"STANDARD"},{"id":"4849","name":"Midtown Cinema","address":"3201 Farnam Street","city":"Omaha","state":"NE","zip":"68131","distance":"1.0183322429656982","lon":"-95.960403","lat":"41.257484","theaterChainName":"Marcus Theaters","ticketType":"STANDARD"},{"id":"5002","name":"Aksarben Cinema","address":"2110 S. 67th St","city":"Omaha","state":"NE","zip":"68106","distance":"4.098557949066162","lon":"-96.015465","lat":"41.239616","theaterChainName":"Main Street Theatres","ticketType":"STANDARD"},{"id":"4266","name":"Great Escape Omaha Stadium 16","address":"7440 Crown Point Ave.","city":"Omaha","state":"NE","zip":"68134","distance":"5.880541801452637","lon":"-96.027763","lat":"41.313614","theaterChainName":"Regal Cinemas","ticketType":"STANDARD"},{"id":"3108","name":"Twin Creek Cinema","address":"3909 Raynor Parkway","city":"Bellevue","state":"NE","zip":"68123","distance":"7.911869525909424","lon":"-95.971260","lat":"41.146797","theaterChainName":"Marcus Theaters","ticketType":"STANDARD"},{"id":"5286","name":"AMC Westroads 14","address":"10000 California St.","city":"Omaha","state":"NE","zip":"68114","distance":"6.673819065093994","lon":"-96.068871","lat":"41.267712","theaterChainName":"AMC Theatres","ticketType":"STANDARD"},{"id":"1279","name":"20 Grand (Majestic Cinema)","address":"14304 W. Maple Rd","city":"Omaha","state":"NE","zip":"68164","distance":"10.408175468444824","lon":"-96.136055","lat":"41.293335","theaterChainName":"Marcus Theaters","ticketType":"STANDARD"},{"id":"517","name":"AMC Oak View Plaza 24","address":"3555 S. 140th Plaza","city":"Omaha","state":"NE","zip":"68144","distance":"10.10925579071045","lon":"-96.130211","lat":"41.225201","theaterChainName":"AMC Theatres","ticketType":"STANDARD"},{"id":"5636","name":"Alamo Drafthouse Cinema-La Vista","address":"12750 Westport Parkway","city":"La Vista","state":"NE","zip":"68138","distance":"10.563360214233398","lon":"-96.114166","lat":"41.179089","theaterChainName":"Alamo Drafthouse","ticketType":"STANDARD"},{"id":"3847","name":"Village Pointe Cinema","address":"304 North 174th St.","city":"Omaha","state":"NE","zip":"68118","distance":"12.775030136108398","lon":"-96.186836","lat":"41.260868","theaterChainName":"Marcus Theaters","ticketType":"STANDARD"},{"id":"1713","name":"Blair 3 Theatre","address":"1645 S Hwy 30","city":"Blair","state":"NE","zip":"68008","distance":"21.406545639038086","lon":"-96.143402","lat":"41.528999","theaterChainName":"Independent Chains","ticketType":"STANDARD"},{"id":"1714","name":"Berkeley Plaza Theatre 7","address":"267 Monroe St.","city":"Martinsburg","state":"WV","zip":"25404","distance":"22.131990432739258","lon":"-96.136887","lat":"41.543571","theaterChainName":"Independent Chains","ticketType":"STANDARD"}]