[{"id":"1988","name":"Holly Cinema Theatre","address":"615 Court St.","city":"Beatrice","state":"NE","zip":"68310","distance":"15.380375862121582","lon":"-96.746284","lat":"40.265949","theaterChainName":"Independent Chains","ticketType":"STANDARD"},{"id":"4492","name":"Lincoln Grand","address":"1101 P Street","city":"Lincoln","state":"NE","zip":"68508","distance":"24.926130294799805","lon":"-96.704758","lat":"40.814526","theaterChainName":"Marcus Theaters","ticketType":"STANDARD"},{"id":"2177","name":"Edgewood Cinema","address":"5220 S. 56th Street","city":"Lincoln","state":"NE","zip":"68516","distance":"22.7938232421875","lon":"-96.642479","lat":"40.759930","theaterChainName":"Marcus Theaters","ticketType":"STANDARD"},{"id":"2770","name":"Southpointe Cinema","address":"2920 Pine Lake Road","city":"Lincoln","state":"NE","zip":"68516","distance":"20.713184356689453","lon":"-96.678596","lat":"40.740398","theaterChainName":"Marcus Theaters","ticketType":"STANDARD"},{"id":"2070","name":"Isis Theatre","address":"139 W. 13th St.","city":"Crete","state":"NE","zip":"68333","distance":"11.944795608520508","lon":"-96.961899","lat":"40.625198","theaterChainName":"Independent Chains","ticketType":"STANDARD"}]