[{"id":"4433","name":"Film Streams at the Ruth Sokolof Theater","address":"1340 Webster Street","city":"Omaha","state":"NE","zip":"68102","distance":"23.908241271972656","lon":"-95.934235","lat":"41.265896","theaterChainName":"Independent Chains","ticketType":"STANDARD"},{"id":"3614","name":"AMC Star Council Bluffs 17","address":"3220 23rd Ave.","city":"Council Bluffs","state":"IA","zip":"51501","distance":"22.28117561340332","lon":"-95.895515","lat":"41.241806","theaterChainName":"AMC Theatres","ticketType":"STANDARD"},{"id":"4849","name":"Midtown Cinema","address":"3201 Farnam Street","city":"Omaha","state":"NE","zip":"68131","distance":"23.402009963989258","lon":"-95.960403","lat":"41.257484","theaterChainName":"Marcus Theaters","ticketType":"STANDARD"},{"id":"5002","name":"Aksarben Cinema","address":"2110 S. 67th St","city":"Omaha","state":"NE","zip":"68106","distance":"22.60721206665039","lon":"-96.015465","lat":"41.239616","theaterChainName":"Main Street Theatres","ticketType":"STANDARD"},{"id":"3108","name":"Twin Creek Cinema","address":"3909 Raynor Parkway","city":"Bellevue","state":"NE","zip":"68123","distance":"15.874350547790527","lon":"-95.971260","lat":"41.146797","theaterChainName":"Marcus Theaters","ticketType":"STANDARD"},{"id":"517","name":"AMC Oak View Plaza 24","address":"3555 S. 140th Plaza","city":"Omaha","state":"NE","zip":"68144","distance":"23.697690963745117","lon":"-96.130211","lat":"41.225201","theaterChainName":"AMC Theatres","ticketType":"STANDARD"},{"id":"5636","name":"Alamo Drafthouse Cinema-La Vista","address":"12750 Westport Parkway","city":"La Vista","state":"NE","zip":"68138","distance":"20.49500274658203","lon":"-96.114166","lat":"41.179089","theaterChainName":"Alamo Drafthouse","ticketType":"STANDARD"},{"id":"2073","name":"Pioneer Theater","address":"110 S. 11th St.","city":"Nebraska City","state":"NE","zip":"68410","distance":"17.167287826538086","lon":"-95.859047","lat":"40.676266","theaterChainName":"Main Street Theatres","ticketType":"STANDARD"}]