[{"id":"3108","tribuneTheaterId":"3230","providerTheaterId":"","name":"Twin Creek Cinema","address":"3909 Raynor Parkway","city":"Bellevue","state":"NE","zip":"68123","distance":15.873373460058,"lon":"-95.971262","lat":"41.146799","theaterChainName":"Marcus Theaters","ticketType":"STANDARD"},{"id":"2073","tribuneTheaterId":"5061","providerTheaterId":"","name":"Pioneer Theater","address":"110 S. 11th St.","city":"Nebraska City","state":"NE","zip":"68410","distance":17.166396374125,"lon":"-95.859048","lat":"40.676265","theaterChainName":"Main Street Theatres","ticketType":"STANDARD"},{"id":"5636","tribuneTheaterId":"11099","providerTheaterId":"","name":"Alamo Drafthouse Cinema-La Vista","address":"12750 Westport Parkway","city":"La Vista","state":"NE","zip":"68138","distance":20.493594173552,"lon":"-96.11417","lat":"41.179087","theaterChainName":"Alamo Drafthouse","ticketType":"STANDARD"},{"id":"5002","tribuneTheaterId":"10373","providerTheaterId":"","name":"Aksarben Cinema","address":"2110 S. 67th St","city":"Omaha","state":"NE","zip":"68106","distance":22.605776024531,"lon":"-96.015464","lat":"41.239618","theaterChainName":"Main Street Theatres","ticketType":"STANDARD"},{"id":"3614","tribuneTheaterId":"2377","providerTheaterId":"6195","name":"AMC Star Council Bluffs 17","address":"3220 23rd Ave.","city":"Council Bluffs","state":"IA","zip":"51501","distance":22.279595609615,"lon":"-95.895517","lat":"41.241805","theaterChainName":"AMC Theatres","ticketType":"STANDARD"},{"id":"4849","tribuneTheaterId":"10131","providerTheaterId":"","name":"Midtown Cinema","address":"3201 Farnam Street","city":"Omaha","state":"NE","zip":"68131","distance":23.400336852635,"lon":"-95.960405","lat":"41.257483","theaterChainName":"Marcus Theaters","ticketType":"STANDARD"},{"id":"517","tribuneTheaterId":"8251","providerTheaterId":"85","name":"AMC Oak View Plaza 24","address":"3555 S. 140th Plaza","city":"Omaha","state":"NE","zip":"68144","distance":23.696023661538,"lon":"-96.13021","lat":"41.2252","theaterChainName":"AMC Theatres","ticketType":"STANDARD"},{"id":"4433","tribuneTheaterId":"9505","providerTheaterId":"","name":"Film Streams at the Ruth Sokolof Theater","address":"1340 Webster Street","city":"Omaha","state":"NE","zip":"68102","distance":23.90664372629,"lon":"-95.934235","lat":"41.265896","theaterChainName":"Independent Chains","ticketType":"STANDARD"}]