[{"id":"5002","name":"Aksarben Cinema","address":"2110 S. 67th St","city":"Omaha","state":"NE","zip":"68106","distance":"23.42476463317871","lon":"-96.015465","lat":"41.239616","theaterChainName":"Main Street Theatres","ticketType":"STANDARD"},{"id":"3108","name":"Twin Creek Cinema","address":"3909 Raynor Parkway","city":"Bellevue","state":"NE","zip":"68123","distance":"18.68752098083496","lon":"-95.971260","lat":"41.146797","theaterChainName":"Marcus Theaters","ticketType":"STANDARD"},{"id":"5286","name":"AMC Westroads 14","address":"10000 California St.","city":"Omaha","state":"NE","zip":"68114","distance":"24.527015686035156","lon":"-96.068871","lat":"41.267712","theaterChainName":"AMC Theatres","ticketType":"STANDARD"},{"id":"517","name":"AMC Oak View Plaza 24","address":"3555 S. 140th Plaza","city":"Omaha","state":"NE","zip":"68144","distance":"21.132131576538086","lon":"-96.130211","lat":"41.225201","theaterChainName":"AMC Theatres","ticketType":"STANDARD"},{"id":"5636","name":"Alamo Drafthouse Cinema-La Vista","address":"12750 Westport Parkway","city":"La Vista","state":"NE","zip":"68138","distance":"18.07305145263672","lon":"-96.114166","lat":"41.179089","theaterChainName":"Alamo Drafthouse","ticketType":"STANDARD"},{"id":"3847","name":"Village Pointe Cinema","address":"304 North 174th St.","city":"Omaha","state":"NE","zip":"68118","distance":"23.52524757385254","lon":"-96.186836","lat":"41.260868","theaterChainName":"Marcus Theaters","ticketType":"STANDARD"},{"id":"2073","name":"Pioneer Theater","address":"110 S. 11th St.","city":"Nebraska City","state":"NE","zip":"68410","distance":"23.375829696655273","lon":"-95.859047","lat":"40.676266","theaterChainName":"Main Street Theatres","ticketType":"STANDARD"}]