[{"id":"3020","name":"Mary Riepma Ross Media Arts Center","address":"313 N. 13th Street","city":"Lincoln","state":"NE","zip":"68588","distance":"1.4621058702468872","lon":"-96.702965","lat":"40.816257","theaterChainName":"Independent Chains","ticketType":"STANDARD"},{"id":"4492","name":"Lincoln Grand","address":"1101 P Street","city":"Lincoln","state":"NE","zip":"68508","distance":"1.592451810836792","lon":"-96.704758","lat":"40.814526","theaterChainName":"Marcus Theaters","ticketType":"STANDARD"},{"id":"1789","name":"East Park","address":"220 North 66th Street","city":"Lincoln","state":"NE","zip":"68505","distance":"2.5505805015563965","lon":"-96.628777","lat":"40.816029","theaterChainName":"Marcus Theaters","ticketType":"STANDARD"},{"id":"2177","name":"Edgewood Cinema","address":"5220 S. 56th Street","city":"Lincoln","state":"NE","zip":"68516","distance":"4.728497505187988","lon":"-96.642479","lat":"40.759930","theaterChainName":"Marcus Theaters","ticketType":"STANDARD"},{"id":"2770","name":"Southpointe Cinema","address":"2920 Pine Lake Road","city":"Lincoln","state":"NE","zip":"68516","distance":"5.729213714599609","lon":"-96.678596","lat":"40.740398","theaterChainName":"Marcus Theaters","ticketType":"STANDARD"},{"id":"2070","name":"Isis Theatre","address":"139 W. 13th St.","city":"Crete","state":"NE","zip":"68333","distance":"20.262683868408203","lon":"-96.961899","lat":"40.625198","theaterChainName":"Independent Chains","ticketType":"STANDARD"}]