[{"id":"4652","tribuneTheaterId":"9851","providerTheaterId":"","name":"Hill Top 4","address":"5031 2nd Ave","city":"Kearney","state":"NE","zip":"68847","distance":18.065620725241,"lon":"-99.082711","lat":"40.723487","theaterChainName":"Independent Chains","ticketType":"STANDARD"},{"id":"4765","tribuneTheaterId":"10005","providerTheaterId":"","name":"Kearney Cinema 8","address":"300 S. 3rd Ave.","city":"Kearney","state":"NE","zip":"68845","distance":19.134509963807,"lon":"-99.086519","lat":"40.676229","theaterChainName":"Independent Chains","ticketType":"STANDARD"},{"id":"1987","tribuneTheaterId":"1492","providerTheaterId":"","name":"Fridley Rivoli Theatre","address":"528 W 2nd St.","city":"Hastings","state":"NE","zip":"68902","distance":22.630583469753,"lon":"-98.388385","lat":"40.585282","theaterChainName":"Fridley Theatres","ticketType":"STANDARD"},{"id":"3705","tribuneTheaterId":"7036","providerTheaterId":"","name":"Mall Stadium 7","address":"3404 W. 13th Street Unit 174","city":"Grand Island","state":"NE","zip":"68803","distance":22.030010211261,"lon":"-98.381302","lat":"40.934816","theaterChainName":"Starplex Cinemas","ticketType":"STANDARD"}]