[{"id":"3496","name":"AMC Clearview Palace 12","address":"4486 Veterans Blvd.","city":"Metairie","state":"LA","zip":"70009","distance":"2.938290596008301","lon":"-90.182091","lat":"30.003407","theaterChainName":"AMC Theatres","ticketType":"STANDARD"},{"id":"3494","name":"AMC Elmwood Palace 20","address":"1200 Elmwood Park Blvd.","city":"Harahan","state":"LA","zip":"70123","distance":"4.393974781036377","lon":"-90.191620","lat":"29.962099","theaterChainName":"AMC Theatres","ticketType":"STANDARD"},{"id":"5450","name":"The Grand 14 - Esplanade","address":"1401 W. Esplanade Ave.","city":"Kenner","state":"LA","zip":"70065","distance":"7.056912899017334","lon":"-90.248871","lat":"30.020014","theaterChainName":"Southern Theatres","ticketType":"STANDARD"},{"id":"1019","name":"Prytania Theatre","address":"5339 Prytania Street","city":"New Orleans","state":"LA","zip":"70115","distance":"5.347200870513916","lon":"-90.113251","lat":"29.925049","theaterChainName":"Independent Chains","ticketType":"STANDARD"},{"id":"5886","name":"The Broad Theater","address":"636 N. Broad Street","city":"New Orleans","state":"LA","zip":"70119","distance":"3.659789562225342","lon":"-90.083351","lat":"29.969704","theaterChainName":"Independent Chains","ticketType":"STANDARD"},{"id":"5500","name":"Indywood Movie Theater","address":"628 Elysian Fields Ave.","city":"New Orleans","state":"LA","zip":"70117","distance":"5.201826572418213","lon":"-90.056908","lat":"29.964283","theaterChainName":"Independent Chains","ticketType":"STANDARD"},{"id":"3495","name":"AMC Westbank Palace 16","address":"1151 Manhattan Blvd.","city":"Harvey","state":"LA","zip":"70058","distance":"8.253829956054688","lon":"-90.060707","lat":"29.898844","theaterChainName":"AMC Theatres","ticketType":"STANDARD"},{"id":"4986","name":"Chalmette Movies","address":"8700 West Judge Perez Dr.","city":"Chalmette","state":"LA","zip":"70043","distance":"10.08251667022705","lon":"-89.974693","lat":"29.950876","theaterChainName":"Independent Chains","ticketType":"STANDARD"},{"id":"5927","name":"LaPlace Cinema 5","address":"1312 W. Airline Hwy","city":"La Place","state":"LA","zip":"70068","distance":"22.03003692626953","lon":"-90.491699","lat":"30.073145","theaterChainName":"Independent Chains","ticketType":"STANDARD"},{"id":"4759","name":"Hollywood Cinemas 7","address":"1312 West Airline Highway","city":"La Place","state":"LA","zip":"70068","distance":"22.031116485595703","lon":"-90.491768","lat":"30.072958","theaterChainName":"Independent Chains","ticketType":"STANDARD"}]