[{"id":"3496","name":"AMC Clearview Palace 12","address":"4486 Veterans Blvd.","city":"Metairie","state":"LA","zip":"70009","distance":"20.304882049560547","lon":"-90.182091","lat":"30.003407","theaterChainName":"AMC Theatres","ticketType":"STANDARD"},{"id":"3494","name":"AMC Elmwood Palace 20","address":"1200 Elmwood Park Blvd.","city":"Harahan","state":"LA","zip":"70123","distance":"18.116994857788086","lon":"-90.191620","lat":"29.962099","theaterChainName":"AMC Theatres","ticketType":"STANDARD"},{"id":"5450","name":"The Grand 14 - Esplanade","address":"1401 W. Esplanade Ave.","city":"Kenner","state":"LA","zip":"70065","distance":"18.324966430664062","lon":"-90.248871","lat":"30.020014","theaterChainName":"Southern Theatres","ticketType":"STANDARD"},{"id":"1019","name":"Prytania Theatre","address":"5339 Prytania Street","city":"New Orleans","state":"LA","zip":"70115","distance":"21.082420349121094","lon":"-90.113251","lat":"29.925049","theaterChainName":"Independent Chains","ticketType":"STANDARD"},{"id":"5886","name":"The Broad Theater","address":"636 N. Broad Street","city":"New Orleans","state":"LA","zip":"70119","distance":"23.977115631103516","lon":"-90.083351","lat":"29.969704","theaterChainName":"Independent Chains","ticketType":"STANDARD"},{"id":"3495","name":"AMC Westbank Palace 16","address":"1151 Manhattan Blvd.","city":"Harvey","state":"LA","zip":"70058","distance":"23.524465560913086","lon":"-90.060707","lat":"29.898844","theaterChainName":"AMC Theatres","ticketType":"STANDARD"},{"id":"5927","name":"LaPlace Cinema 5","address":"1312 W. Airline Hwy","city":"La Place","state":"LA","zip":"70068","distance":"18.205665588378906","lon":"-90.491699","lat":"30.073145","theaterChainName":"Independent Chains","ticketType":"STANDARD"},{"id":"4759","name":"Hollywood Cinemas 7","address":"1312 West Airline Highway","city":"La Place","state":"LA","zip":"70068","distance":"18.19362449645996","lon":"-90.491768","lat":"30.072958","theaterChainName":"Independent Chains","ticketType":"STANDARD"},{"id":"3498","name":"AMC Houma Palace 10","address":"5735 W. Park Ave.","city":"Houma","state":"LA","zip":"70364","distance":"22.43305778503418","lon":"-90.757027","lat":"29.640362","theaterChainName":"AMC Theatres","ticketType":"STANDARD"}]