[{"id":"3496","name":"AMC Clearview Palace 12","address":"4486 Veterans Blvd.","city":"Metairie","state":"LA","zip":"70009","distance":"14.224799156188965","lon":"-90.182091","lat":"30.003407","theaterChainName":"AMC Theatres","ticketType":"STANDARD"},{"id":"3494","name":"AMC Elmwood Palace 20","address":"1200 Elmwood Park Blvd.","city":"Harahan","state":"LA","zip":"70123","distance":"13.98491096496582","lon":"-90.191620","lat":"29.962099","theaterChainName":"AMC Theatres","ticketType":"STANDARD"},{"id":"5450","name":"The Grand 14 - Esplanade","address":"1401 W. Esplanade Ave.","city":"Kenner","state":"LA","zip":"70065","distance":"10.274827003479004","lon":"-90.248871","lat":"30.020014","theaterChainName":"Southern Theatres","ticketType":"STANDARD"},{"id":"1019","name":"Prytania Theatre","address":"5339 Prytania Street","city":"New Orleans","state":"LA","zip":"70115","distance":"19.177888870239258","lon":"-90.113251","lat":"29.925049","theaterChainName":"Independent Chains","ticketType":"STANDARD"},{"id":"5886","name":"The Broad Theater","address":"636 N. Broad Street","city":"New Orleans","state":"LA","zip":"70119","distance":"20.288694381713867","lon":"-90.083351","lat":"29.969704","theaterChainName":"Independent Chains","ticketType":"STANDARD"},{"id":"5500","name":"Indywood Movie Theater","address":"628 Elysian Fields Ave.","city":"New Orleans","state":"LA","zip":"70117","distance":"21.90656280517578","lon":"-90.056908","lat":"29.964283","theaterChainName":"Independent Chains","ticketType":"STANDARD"},{"id":"3495","name":"AMC Westbank Palace 16","address":"1151 Manhattan Blvd.","city":"Harvey","state":"LA","zip":"70058","distance":"22.731067657470703","lon":"-90.060707","lat":"29.898844","theaterChainName":"AMC Theatres","ticketType":"STANDARD"},{"id":"5927","name":"LaPlace Cinema 5","address":"1312 W. Airline Hwy","city":"La Place","state":"LA","zip":"70068","distance":"6.341559410095215","lon":"-90.491699","lat":"30.073145","theaterChainName":"Independent Chains","ticketType":"STANDARD"},{"id":"4759","name":"Hollywood Cinemas 7","address":"1312 West Airline Highway","city":"La Place","state":"LA","zip":"70068","distance":"6.334867000579834","lon":"-90.491768","lat":"30.072958","theaterChainName":"Independent Chains","ticketType":"STANDARD"}]