[{"id":"4759","tribuneTheaterId":"9995","providerTheaterId":"","name":"Hollywood Cinemas 7","address":"1312 West Airline Highway","city":"La Place","state":"LA","zip":"70068","distance":3.694756677382,"lon":"-90.491767","lat":"30.072958","theaterChainName":"Independent Chains","ticketType":"STANDARD"},{"id":"5927","tribuneTheaterId":"11358","providerTheaterId":"","name":"LaPlace Cinema 5","address":"1312 W. Airline Hwy","city":"La Place","state":"LA","zip":"70068","distance":3.7015483007286,"lon":"-90.491703","lat":"30.073145","theaterChainName":"Independent Chains","ticketType":"STANDARD"},{"id":"5450","tribuneTheaterId":"10891","providerTheaterId":"","name":"The Grand 14 - Esplanade","address":"1401 W. Esplanade Ave.","city":"Kenner","state":"LA","zip":"70065","distance":18.331333666148,"lon":"-90.248873","lat":"30.020013","theaterChainName":"Southern Theatres","ticketType":"STANDARD"},{"id":"3494","tribuneTheaterId":"5302","providerTheaterId":"484","name":"AMC Elmwood Palace 20","address":"1200 Elmwood Park Blvd.","city":"Harahan","state":"LA","zip":"70123","distance":22.5925792537,"lon":"-90.191617","lat":"29.962099","theaterChainName":"AMC Theatres","ticketType":"STANDARD"},{"id":"3496","tribuneTheaterId":"5300","providerTheaterId":"486","name":"AMC Clearview Palace 12","address":"4486 Veterans Blvd.","city":"Metairie","state":"LA","zip":"70009","distance":22.461652599721,"lon":"-90.182091","lat":"30.003406","theaterChainName":"AMC Theatres","ticketType":"STANDARD"}]