[{"id":"3496","name":"AMC Clearview Palace 12","address":"4486 Veterans Blvd.","city":"Metairie","state":"LA","zip":"70009","distance":"22.463274002075195","lon":"-90.182091","lat":"30.003407","theaterChainName":"AMC Theatres","ticketType":"STANDARD"},{"id":"3494","name":"AMC Elmwood Palace 20","address":"1200 Elmwood Park Blvd.","city":"Harahan","state":"LA","zip":"70123","distance":"22.594036102294922","lon":"-90.191620","lat":"29.962099","theaterChainName":"AMC Theatres","ticketType":"STANDARD"},{"id":"5450","name":"The Grand 14 - Esplanade","address":"1401 W. Esplanade Ave.","city":"Kenner","state":"LA","zip":"70065","distance":"18.332809448242188","lon":"-90.248871","lat":"30.020014","theaterChainName":"Southern Theatres","ticketType":"STANDARD"},{"id":"5927","name":"LaPlace Cinema 5","address":"1312 W. Airline Hwy","city":"La Place","state":"LA","zip":"70068","distance":"3.702190399169922","lon":"-90.491699","lat":"30.073145","theaterChainName":"Independent Chains","ticketType":"STANDARD"},{"id":"4759","name":"Hollywood Cinemas 7","address":"1312 West Airline Highway","city":"La Place","state":"LA","zip":"70068","distance":"3.695129156112671","lon":"-90.491768","lat":"30.072958","theaterChainName":"Independent Chains","ticketType":"STANDARD"}]