[{"id":"4986","tribuneTheaterId":"10353","providerTheaterId":"","name":"Chalmette Movies","address":"8700 West Judge Perez Dr.","city":"Chalmette","state":"LA","zip":"70043","distance":12.18437596058,"lon":"-89.974691","lat":"29.950877","theaterChainName":"Independent Chains","ticketType":"STANDARD"},{"id":"4305","tribuneTheaterId":"5093","providerTheaterId":"","name":"The Grand 16 - Slidell","address":"1950 Gause Blvd. West","city":"Slidell","state":"LA","zip":"70460","distance":14.847026512547,"lon":"-89.809956","lat":"30.300288","theaterChainName":"Southern Theatres","ticketType":"STANDARD"},{"id":"5500","tribuneTheaterId":"10938","providerTheaterId":"","name":"Indywood Movie Theater","address":"628 Elysian Fields Ave.","city":"New Orleans","state":"LA","zip":"70117","distance":15.218010716086,"lon":"-90.056904","lat":"29.964283","theaterChainName":"Independent Chains","ticketType":"STANDARD"},{"id":"5886","tribuneTheaterId":"11305","providerTheaterId":"","name":"The Broad Theater","address":"636 N. Broad Street","city":"New Orleans","state":"LA","zip":"70119","distance":16.362099941185,"lon":"-90.083353","lat":"29.969704","theaterChainName":"Independent Chains","ticketType":"STANDARD"},{"id":"3495","tribuneTheaterId":"5301","providerTheaterId":"485","name":"AMC Westbank Palace 16","address":"1151 Manhattan Blvd.","city":"Harvey","state":"LA","zip":"70058","distance":18.304139109345,"lon":"-90.060709","lat":"29.898843","theaterChainName":"AMC Theatres","ticketType":"STANDARD"},{"id":"1019","tribuneTheaterId":"2440","providerTheaterId":"","name":"Prytania Theatre","address":"5339 Prytania Street","city":"New Orleans","state":"LA","zip":"70115","distance":19.534615566172,"lon":"-90.11325","lat":"29.925049","theaterChainName":"Independent Chains","ticketType":"STANDARD"},{"id":"3496","tribuneTheaterId":"5300","providerTheaterId":"486","name":"AMC Clearview Palace 12","address":"4486 Veterans Blvd.","city":"Metairie","state":"LA","zip":"70009","distance":20.916534446726,"lon":"-90.182091","lat":"30.003406","theaterChainName":"AMC Theatres","ticketType":"STANDARD"},{"id":"3494","tribuneTheaterId":"5302","providerTheaterId":"484","name":"AMC Elmwood Palace 20","address":"1200 Elmwood Park Blvd.","city":"Harahan","state":"LA","zip":"70123","distance":22.411724039661,"lon":"-90.191617","lat":"29.962099","theaterChainName":"AMC Theatres","ticketType":"STANDARD"},{"id":"5450","tribuneTheaterId":"10891","providerTheaterId":"","name":"The Grand 14 - Esplanade","address":"1401 W. Esplanade Ave.","city":"Kenner","state":"LA","zip":"70065","distance":24.531379411954,"lon":"-90.248873","lat":"30.020013","theaterChainName":"Southern Theatres","ticketType":"STANDARD"}]