[{"id":"5509","name":"Movie Tavern Northshore","address":"201 N. Highway 190","city":"Covington","state":"LA","zip":"70433","distance":"21.28047752380371","lon":"-90.085632","lat":"30.433119","theaterChainName":"Movie Tavern","ticketType":"STANDARD"},{"id":"3496","name":"AMC Clearview Palace 12","address":"4486 Veterans Blvd.","city":"Metairie","state":"LA","zip":"70009","distance":"23.77071762084961","lon":"-90.182091","lat":"30.003407","theaterChainName":"AMC Theatres","ticketType":"STANDARD"},{"id":"5450","name":"The Grand 14 - Esplanade","address":"1401 W. Esplanade Ave.","city":"Kenner","state":"LA","zip":"70065","distance":"20.785188674926758","lon":"-90.248871","lat":"30.020014","theaterChainName":"Southern Theatres","ticketType":"STANDARD"},{"id":"5927","name":"LaPlace Cinema 5","address":"1312 W. Airline Hwy","city":"La Place","state":"LA","zip":"70068","distance":"15.930174827575684","lon":"-90.491699","lat":"30.073145","theaterChainName":"Independent Chains","ticketType":"STANDARD"},{"id":"4759","name":"Hollywood Cinemas 7","address":"1312 West Airline Highway","city":"La Place","state":"LA","zip":"70068","distance":"15.943718910217285","lon":"-90.491768","lat":"30.072958","theaterChainName":"Independent Chains","ticketType":"STANDARD"},{"id":"4154","name":"Hollywood Movies 14","address":"69348 Louisiana State Hwy. 121","city":"Covington","state":"LA","zip":"70433","distance":"21.649538040161133","lon":"-90.106003","lat":"30.472000","theaterChainName":"Regal Cinemas","ticketType":"STANDARD"},{"id":"3497","name":"AMC Hammond Palace 10","address":"801 C. M. Fagan Drive","city":"Hammond","state":"LA","zip":"70403","distance":"13.739450454711914","lon":"-90.463676","lat":"30.481743","theaterChainName":"AMC Theatres","ticketType":"STANDARD"}]