[{"id":"6094","name":"Geneva Theater","address":"244 Broad Street","city":"Lake Geneva","state":"WI","zip":"53147","distance":"12.647896766662598","lon":"-89.651566","lat":"30.544447","theaterChainName":"Independent Chains","ticketType":"STANDARD"},{"id":"5970","name":"Picayune Cinema 4","address":"997 Cooper Road","city":"Picayune","state":"MS","zip":"39466","distance":"12.647896766662598","lon":"-89.651566","lat":"30.544447","theaterChainName":"Independent Chains","ticketType":"STANDARD"},{"id":"4305","name":"The Grand 16 - Slidell","address":"1950 Gause Blvd. West","city":"Slidell","state":"LA","zip":"70460","distance":"6.862406253814697","lon":"-89.809959","lat":"30.300287","theaterChainName":"Southern Theatres","ticketType":"STANDARD"},{"id":"5509","name":"Movie Tavern Northshore","address":"201 N. Highway 190","city":"Covington","state":"LA","zip":"70433","distance":"18.808780670166016","lon":"-90.085632","lat":"30.433119","theaterChainName":"Movie Tavern","ticketType":"STANDARD"},{"id":"4154","name":"Hollywood Movies 14","address":"69348 Louisiana State Hwy. 121","city":"Covington","state":"LA","zip":"70433","distance":"20.5396785736084","lon":"-90.106003","lat":"30.472000","theaterChainName":"Regal Cinemas","ticketType":"STANDARD"}]