[{"id":"3497","tribuneTheaterId":"5298","providerTheaterId":"487","name":"AMC Hammond Palace 10","address":"801 C. M. Fagan Drive","city":"Hammond","state":"LA","zip":"70403","distance":8.1725559546029,"lon":"-90.463673","lat":"30.481743","theaterChainName":"AMC Theatres","ticketType":"STANDARD"},{"id":"5888","tribuneTheaterId":"11307","providerTheaterId":"","name":"Juban Crossing","address":"9998 Crossing Way, Suite 700","city":"Denham Springs","state":"LA","zip":"70726","distance":21.000573683872,"lon":"-90.924683","lat":"30.468518","theaterChainName":"Movie Tavern","ticketType":"STANDARD"},{"id":"5514","tribuneTheaterId":"10936","providerTheaterId":"","name":"Malco Gonzales","address":"1406 Airline Hwy","city":"Gonzales","state":"LA","zip":"70737","distance":23.55529064386,"lon":"-90.919","lat":"30.2444","theaterChainName":"Malco Theatre","ticketType":"STANDARD"},{"id":"5927","tribuneTheaterId":"11358","providerTheaterId":"","name":"LaPlace Cinema 5","address":"1312 W. Airline Hwy","city":"La Place","state":"LA","zip":"70068","distance":24.215943599364,"lon":"-90.491703","lat":"30.073145","theaterChainName":"Independent Chains","ticketType":"STANDARD"},{"id":"4759","tribuneTheaterId":"9995","providerTheaterId":"","name":"Hollywood Cinemas 7","address":"1312 West Airline Highway","city":"La Place","state":"LA","zip":"70068","distance":24.227765864306,"lon":"-90.491767","lat":"30.072958","theaterChainName":"Independent Chains","ticketType":"STANDARD"}]