[{"id":"4305","name":"The Grand 16 - Slidell","address":"1950 Gause Blvd. West","city":"Slidell","state":"LA","zip":"70460","distance":"17.01519775390625","lon":"-89.809959","lat":"30.300287","theaterChainName":"Southern Theatres","ticketType":"STANDARD"},{"id":"5509","name":"Movie Tavern Northshore","address":"201 N. Highway 190","city":"Covington","state":"LA","zip":"70433","distance":"1.809248685836792","lon":"-90.085632","lat":"30.433119","theaterChainName":"Movie Tavern","ticketType":"STANDARD"},{"id":"4154","name":"Hollywood Movies 14","address":"69348 Louisiana State Hwy. 121","city":"Covington","state":"LA","zip":"70433","distance":"4.520873069763184","lon":"-90.106003","lat":"30.472000","theaterChainName":"Regal Cinemas","ticketType":"STANDARD"},{"id":"3497","name":"AMC Hammond Palace 10","address":"801 C. M. Fagan Drive","city":"Hammond","state":"LA","zip":"70403","distance":"24.477249145507812","lon":"-90.463676","lat":"30.481743","theaterChainName":"AMC Theatres","ticketType":"STANDARD"}]