[{"id":"4020","name":"The Grand 16 - Lafayette","address":"3141 Johnston Street","city":"Lafayette","state":"LA","zip":"70503","distance":"8.457109451293945","lon":"-92.045883","lat":"30.202045","theaterChainName":"Southern Theatres","ticketType":"STANDARD"},{"id":"1573","name":"The Grand 14 - Ambassador","address":"2315 Kaliste Saloom Road","city":"Lafayette","state":"LA","zip":"70508","distance":"11.459134101867676","lon":"-92.043549","lat":"30.158564","theaterChainName":"Southern Theatres","ticketType":"STANDARD"},{"id":"4048","name":"Broussard 10","address":"4620 Hwy. 90 East","city":"Broussard","state":"LA","zip":"70518","distance":"13.615313529968262","lon":"-91.947731","lat":"30.145092","theaterChainName":"Independent Chains","ticketType":"STANDARD"},{"id":"3285","name":"Lafitte Cinema 4","address":"2150 Charity St. #4","city":"Abbeville","state":"LA","zip":"70510","distance":"24.68166160583496","lon":"-92.113091","lat":"29.972485","theaterChainName":"Independent Chains","ticketType":"STANDARD"},{"id":"1753","name":"St. Landry Cinema","address":"1234 Heather Drive","city":"Opelousas","state":"LA","zip":"70570","distance":"12.836801528930664","lon":"-92.073196","lat":"30.508257","theaterChainName":"Independent Chains","ticketType":"STANDARD"},{"id":"714","name":"Crowley Cinema IV","address":"2304 N. Parkerson","city":"Crowley","state":"LA","zip":"70526","distance":"21.325164794921875","lon":"-92.383362","lat":"30.232227","theaterChainName":"Independent Chains","ticketType":"STANDARD"}]