[{"id":"714","tribuneTheaterId":"6050","providerTheaterId":"","name":"Crowley Cinema IV","address":"2304 N. Parkerson","city":"Crowley","state":"LA","zip":"70526","distance":4.8760823575842,"lon":"-92.38336","lat":"30.232228","theaterChainName":"Independent Chains","ticketType":"STANDARD"},{"id":"4020","tribuneTheaterId":"5092","providerTheaterId":"","name":"The Grand 16 - Lafayette","address":"3141 Johnston Street","city":"Lafayette","state":"LA","zip":"70503","distance":15.387933017955,"lon":"-92.045884","lat":"30.202045","theaterChainName":"Southern Theatres","ticketType":"STANDARD"},{"id":"1573","tribuneTheaterId":"5087","providerTheaterId":"","name":"The Grand 14 - Ambassador","address":"2315 Kaliste Saloom Road","city":"Lafayette","state":"LA","zip":"70508","distance":16.159791946615,"lon":"-92.04355","lat":"30.158563","theaterChainName":"Southern Theatres","ticketType":"STANDARD"},{"id":"2435","tribuneTheaterId":"1521","providerTheaterId":"","name":"The Queen Cinema","address":"231 W. Walnut Ave.","city":"Eunice","state":"LA","zip":"70535","distance":19.575180093029,"lon":"-92.416837","lat":"30.493758","theaterChainName":"Independent Chains","ticketType":"STANDARD"},{"id":"3285","tribuneTheaterId":"1734","providerTheaterId":"","name":"Lafitte Cinema 4","address":"2150 Charity St. #4","city":"Abbeville","state":"LA","zip":"70510","distance":20.973854260714,"lon":"-92.113087","lat":"29.972485","theaterChainName":"Independent Chains","ticketType":"STANDARD"},{"id":"4048","tribuneTheaterId":"2271","providerTheaterId":"","name":"Broussard 10","address":"4620 Hwy. 90 East","city":"Broussard","state":"LA","zip":"70518","distance":21.91550289162,"lon":"-91.947734","lat":"30.145092","theaterChainName":"Independent Chains","ticketType":"STANDARD"},{"id":"1753","tribuneTheaterId":"1672","providerTheaterId":"","name":"St. Landry Cinema","address":"1234 Heather Drive","city":"Opelousas","state":"LA","zip":"70570","distance":23.65598239234,"lon":"-92.073197","lat":"30.508257","theaterChainName":"Independent Chains","ticketType":"STANDARD"}]