[{"id":"3285","tribuneTheaterId":"1734","providerTheaterId":"","name":"Lafitte Cinema 4","address":"2150 Charity St. #4","city":"Abbeville","state":"LA","zip":"70510","distance":4.9199847781534,"lon":"-92.113087","lat":"29.972485","theaterChainName":"Independent Chains","ticketType":"STANDARD"},{"id":"4281","tribuneTheaterId":"5088","providerTheaterId":"","name":"The Grand 10 - New Iberia","address":"1000 Park View Drive","city":"New Iberia","state":"LA","zip":"70560","distance":14.305973354076,"lon":"-91.801978","lat":"30.0009","theaterChainName":"Southern Theatres","ticketType":"STANDARD"},{"id":"4048","tribuneTheaterId":"2271","providerTheaterId":"","name":"Broussard 10","address":"4620 Hwy. 90 East","city":"Broussard","state":"LA","zip":"70518","distance":14.297815952273,"lon":"-91.947734","lat":"30.145092","theaterChainName":"Independent Chains","ticketType":"STANDARD"},{"id":"1573","tribuneTheaterId":"5087","providerTheaterId":"","name":"The Grand 14 - Ambassador","address":"2315 Kaliste Saloom Road","city":"Lafayette","state":"LA","zip":"70508","distance":14.269028016791,"lon":"-92.04355","lat":"30.158563","theaterChainName":"Southern Theatres","ticketType":"STANDARD"},{"id":"4020","tribuneTheaterId":"5092","providerTheaterId":"","name":"The Grand 16 - Lafayette","address":"3141 Johnston Street","city":"Lafayette","state":"LA","zip":"70503","distance":17.276504927284,"lon":"-92.045884","lat":"30.202045","theaterChainName":"Southern Theatres","ticketType":"STANDARD"}]