[{"id":"1753","tribuneTheaterId":"1672","providerTheaterId":"","name":"St. Landry Cinema","address":"1234 Heather Drive","city":"Opelousas","state":"LA","zip":"70570","distance":6.6260483217624,"lon":"-92.073197","lat":"30.508257","theaterChainName":"Independent Chains","ticketType":"STANDARD"},{"id":"2435","tribuneTheaterId":"1521","providerTheaterId":"","name":"The Queen Cinema","address":"231 W. Walnut Ave.","city":"Eunice","state":"LA","zip":"70535","distance":13.943572973213,"lon":"-92.416837","lat":"30.493758","theaterChainName":"Independent Chains","ticketType":"STANDARD"},{"id":"714","tribuneTheaterId":"6050","providerTheaterId":"","name":"Crowley Cinema IV","address":"2304 N. Parkerson","city":"Crowley","state":"LA","zip":"70526","distance":22.95347115491,"lon":"-92.38336","lat":"30.232228","theaterChainName":"Independent Chains","ticketType":"STANDARD"},{"id":"4020","tribuneTheaterId":"5092","providerTheaterId":"","name":"The Grand 16 - Lafayette","address":"3141 Johnston Street","city":"Lafayette","state":"LA","zip":"70503","distance":23.236880650094,"lon":"-92.045884","lat":"30.202045","theaterChainName":"Southern Theatres","ticketType":"STANDARD"}]