[{"id":"4020","name":"The Grand 16 - Lafayette","address":"3141 Johnston Street","city":"Lafayette","state":"LA","zip":"70503","distance":"19.358999252319336","lon":"-92.045883","lat":"30.202045","theaterChainName":"Southern Theatres","ticketType":"STANDARD"},{"id":"1573","name":"The Grand 14 - Ambassador","address":"2315 Kaliste Saloom Road","city":"Lafayette","state":"LA","zip":"70508","distance":"22.271997451782227","lon":"-92.043549","lat":"30.158564","theaterChainName":"Southern Theatres","ticketType":"STANDARD"},{"id":"4048","name":"Broussard 10","address":"4620 Hwy. 90 East","city":"Broussard","state":"LA","zip":"70518","distance":"22.862258911132812","lon":"-91.947731","lat":"30.145092","theaterChainName":"Independent Chains","ticketType":"STANDARD"},{"id":"1753","name":"St. Landry Cinema","address":"1234 Heather Drive","city":"Opelousas","state":"LA","zip":"70570","distance":"6.349165916442871","lon":"-92.073196","lat":"30.508257","theaterChainName":"Independent Chains","ticketType":"STANDARD"}]