[{"id":"4020","name":"The Grand 16 - Lafayette","address":"3141 Johnston Street","city":"Lafayette","state":"LA","zip":"70503","distance":"13.484562873840332","lon":"-92.045883","lat":"30.202045","theaterChainName":"Southern Theatres","ticketType":"STANDARD"},{"id":"1573","name":"The Grand 14 - Ambassador","address":"2315 Kaliste Saloom Road","city":"Lafayette","state":"LA","zip":"70508","distance":"14.43282413482666","lon":"-92.043549","lat":"30.158564","theaterChainName":"Southern Theatres","ticketType":"STANDARD"},{"id":"4048","name":"Broussard 10","address":"4620 Hwy. 90 East","city":"Broussard","state":"LA","zip":"70518","distance":"20.1380558013916","lon":"-91.947731","lat":"30.145092","theaterChainName":"Independent Chains","ticketType":"STANDARD"},{"id":"3285","name":"Lafitte Cinema 4","address":"2150 Charity St. #4","city":"Abbeville","state":"LA","zip":"70510","distance":"20.373598098754883","lon":"-92.113091","lat":"29.972485","theaterChainName":"Independent Chains","ticketType":"STANDARD"},{"id":"1753","name":"St. Landry Cinema","address":"1234 Heather Drive","city":"Opelousas","state":"LA","zip":"70570","distance":"22.188514709472656","lon":"-92.073196","lat":"30.508257","theaterChainName":"Independent Chains","ticketType":"STANDARD"},{"id":"714","name":"Crowley Cinema IV","address":"2304 N. Parkerson","city":"Crowley","state":"LA","zip":"70526","distance":"6.859536170959473","lon":"-92.383362","lat":"30.232227","theaterChainName":"Independent Chains","ticketType":"STANDARD"},{"id":"2435","name":"The Queen Cinema","address":"231 W. Walnut Ave.","city":"Eunice","state":"LA","zip":"70535","distance":"19.95339584350586","lon":"-92.416840","lat":"30.493757","theaterChainName":"Independent Chains","ticketType":"STANDARD"}]