[{"id":"3896","tribuneTheaterId":"4968","providerTheaterId":"","name":"Carmike Harbor Cinemas 8","address":"3857 W. US 10","city":"Ludington","state":"MI","zip":"49431","distance":17.522772124309,"lon":"-93.22689","lat":"30.201052","theaterChainName":"Carmike Cinemas","ticketType":"STANDARD"},{"id":"3892","tribuneTheaterId":"7061","providerTheaterId":"","name":"Cinemark Lake Charles","address":"548 West Prien Lake Rd.","city":"Lake Charles","state":"LA","zip":"70601","distance":17.522772124309,"lon":"-93.22689","lat":"30.201052","theaterChainName":"Cinemark","ticketType":"STANDARD"},{"id":"1574","tribuneTheaterId":"4676","providerTheaterId":"","name":"United Artists Lake Charles 10","address":"3416 Derek Drive","city":"Lake Charles","state":"LA","zip":"70607","distance":18.950237566376,"lon":"-93.17463","lat":"30.194725","theaterChainName":"United Artists","ticketType":"STANDARD"},{"id":"2189","tribuneTheaterId":"1166","providerTheaterId":"","name":"ShowBiz Orange 2","address":"3330 Bowling Lane","city":"Orange","state":"TX","zip":"77630","distance":24.92127820499,"lon":"-93.771985","lat":"30.091689","theaterChainName":"ShowBiz Cinemas","ticketType":"STANDARD"}]