[{"id":"5888","tribuneTheaterId":"11307","providerTheaterId":"","name":"Juban Crossing","address":"9998 Crossing Way, Suite 700","city":"Denham Springs","state":"LA","zip":"70726","distance":9.7513309897822,"lon":"-90.924683","lat":"30.468518","theaterChainName":"Movie Tavern","ticketType":"STANDARD"},{"id":"5280","tribuneTheaterId":"10714","providerTheaterId":"463","name":"AMC Baton Rouge 16","address":"16040 Hatteras Ave.","city":"Baton Rouge","state":"LA","zip":"70816","distance":13.160720650475,"lon":"-91.0093","lat":"30.4411","theaterChainName":"AMC Theatres","ticketType":"STANDARD"},{"id":"1564","tribuneTheaterId":"2094","providerTheaterId":"","name":"Grand Cinema 8","address":"15365 George O'Neal Road","city":"Baton Rouge","state":"LA","zip":"70817","distance":15.451453076598,"lon":"-91.014964","lat":"30.406415","theaterChainName":"Independent Chains","ticketType":"STANDARD"},{"id":"1565","tribuneTheaterId":"4677","providerTheaterId":"","name":"United Artists Citiplace Stadium 11","address":"2610 Citiplace Drive","city":"Baton Rouge","state":"LA","zip":"70808","distance":18.480438674093,"lon":"-91.12685","lat":"30.422444","theaterChainName":"United Artists","ticketType":"STANDARD"},{"id":"5748","tribuneTheaterId":"11190","providerTheaterId":"","name":"Movie Tavern Baton Rouge","address":"2610 Citiplace Court","city":"Baton Rouge","state":"LA","zip":"70808","distance":18.457472993526,"lon":"-91.12644","lat":"30.422557","theaterChainName":"Movie Tavern","ticketType":"STANDARD"},{"id":"5281","tribuneTheaterId":"10715","providerTheaterId":"464","name":"AMC Mall of Louisiana 15","address":"9168 Mall of Louisiana Blvd.","city":"Baton Rouge","state":"LA","zip":"70836","distance":18.763014621213,"lon":"-91.084363","lat":"30.385926","theaterChainName":"AMC Theatres","ticketType":"STANDARD"},{"id":"4327","tribuneTheaterId":"9301","providerTheaterId":"","name":"Cinemark Perkins Rowe and XD","address":"10000 Perkins Rowe, Suite 125","city":"Baton Rouge","state":"LA","zip":"70810","distance":19.511126261354,"lon":"-91.094884","lat":"30.379083","theaterChainName":"Cinemark","ticketType":"STANDARD"}]