[{"id":"5927","name":"LaPlace Cinema 5","address":"1312 W. Airline Hwy","city":"La Place","state":"LA","zip":"70068","distance":"24.3372802734375","lon":"-90.491699","lat":"30.073145","theaterChainName":"Independent Chains","ticketType":"STANDARD"},{"id":"4759","name":"Hollywood Cinemas 7","address":"1312 West Airline Highway","city":"La Place","state":"LA","zip":"70068","distance":"24.338321685791016","lon":"-90.491768","lat":"30.072958","theaterChainName":"Independent Chains","ticketType":"STANDARD"},{"id":"5514","name":"Malco Gonzales","address":"1406 Airline Hwy","city":"Gonzales","state":"LA","zip":"70737","distance":"4.032227993011475","lon":"-90.918999","lat":"30.244400","theaterChainName":"Malco Theatre","ticketType":"STANDARD"},{"id":"5888","name":"Juban Crossing","address":"9998 Crossing Way, Suite 700","city":"Denham Springs","state":"LA","zip":"70726","distance":"18.52378273010254","lon":"-90.924683","lat":"30.468517","theaterChainName":"Movie Tavern","ticketType":"STANDARD"},{"id":"1564","name":"Grand Cinema 8","address":"15365 George O'Neal Road","city":"Baton Rouge","state":"LA","zip":"70817","distance":"16.418561935424805","lon":"-91.014961","lat":"30.406416","theaterChainName":"Independent Chains","ticketType":"STANDARD"},{"id":"5280","name":"AMC Baton Rouge 16","address":"16040 Hatteras Ave.","city":"Baton Rouge","state":"LA","zip":"70816","distance":"18.339759826660156","lon":"-91.009300","lat":"30.441099","theaterChainName":"AMC Theatres","ticketType":"STANDARD"},{"id":"5281","name":"AMC Mall of Louisiana 15","address":"9168 Mall of Louisiana Blvd.","city":"Baton Rouge","state":"LA","zip":"70836","distance":"17.92032814025879","lon":"-91.084366","lat":"30.385925","theaterChainName":"AMC Theatres","ticketType":"STANDARD"},{"id":"4327","name":"Cinemark Perkins Rowe and XD","address":"10000 Perkins Rowe, Suite 125","city":"Baton Rouge","state":"LA","zip":"70810","distance":"18.056074142456055","lon":"-91.094887","lat":"30.379084","theaterChainName":"Cinemark","ticketType":"STANDARD"},{"id":"1565","name":"United Artists Citiplace Stadium 11","address":"2610 Citiplace Drive","city":"Baton Rouge","state":"LA","zip":"70808","distance":"21.494525909423828","lon":"-91.126846","lat":"30.422443","theaterChainName":"United Artists","ticketType":"STANDARD"},{"id":"5748","name":"Movie Tavern Baton Rouge","address":"2610 Citiplace Court","city":"Baton Rouge","state":"LA","zip":"70808","distance":"21.48284149169922","lon":"-91.126442","lat":"30.422558","theaterChainName":"Movie Tavern","ticketType":"STANDARD"}]