[{"id":"5514","name":"Malco Gonzales","address":"1406 Airline Hwy","city":"Gonzales","state":"LA","zip":"70737","distance":"19.968244552612305","lon":"-90.918999","lat":"30.244400","theaterChainName":"Malco Theatre","ticketType":"STANDARD"},{"id":"5888","name":"Juban Crossing","address":"9998 Crossing Way, Suite 700","city":"Denham Springs","state":"LA","zip":"70726","distance":"23.9357967376709","lon":"-90.924683","lat":"30.468517","theaterChainName":"Movie Tavern","ticketType":"STANDARD"},{"id":"1564","name":"Grand Cinema 8","address":"15365 George O'Neal Road","city":"Baton Rouge","state":"LA","zip":"70817","distance":"17.07197380065918","lon":"-91.014961","lat":"30.406416","theaterChainName":"Independent Chains","ticketType":"STANDARD"},{"id":"5280","name":"AMC Baton Rouge 16","address":"16040 Hatteras Ave.","city":"Baton Rouge","state":"LA","zip":"70816","distance":"18.775117874145508","lon":"-91.009300","lat":"30.441099","theaterChainName":"AMC Theatres","ticketType":"STANDARD"},{"id":"5281","name":"AMC Mall of Louisiana 15","address":"9168 Mall of Louisiana Blvd.","city":"Baton Rouge","state":"LA","zip":"70836","distance":"12.89914608001709","lon":"-91.084366","lat":"30.385925","theaterChainName":"AMC Theatres","ticketType":"STANDARD"},{"id":"4327","name":"Cinemark Perkins Rowe and XD","address":"10000 Perkins Rowe, Suite 125","city":"Baton Rouge","state":"LA","zip":"70810","distance":"12.114283561706543","lon":"-91.094887","lat":"30.379084","theaterChainName":"Cinemark","ticketType":"STANDARD"},{"id":"1565","name":"United Artists Citiplace Stadium 11","address":"2610 Citiplace Drive","city":"Baton Rouge","state":"LA","zip":"70808","distance":"13.013500213623047","lon":"-91.126846","lat":"30.422443","theaterChainName":"United Artists","ticketType":"STANDARD"},{"id":"5748","name":"Movie Tavern Baton Rouge","address":"2610 Citiplace Court","city":"Baton Rouge","state":"LA","zip":"70808","distance":"13.033846855163574","lon":"-91.126442","lat":"30.422558","theaterChainName":"Movie Tavern","ticketType":"STANDARD"}]