[{"id":"5280","name":"AMC Baton Rouge 16","address":"16040 Hatteras Ave.","city":"Baton Rouge","state":"LA","zip":"70816","distance":"24.823701858520508","lon":"-91.009300","lat":"30.441099","theaterChainName":"AMC Theatres","ticketType":"STANDARD"},{"id":"5281","name":"AMC Mall of Louisiana 15","address":"9168 Mall of Louisiana Blvd.","city":"Baton Rouge","state":"LA","zip":"70836","distance":"23.207368850708008","lon":"-91.084366","lat":"30.385925","theaterChainName":"AMC Theatres","ticketType":"STANDARD"},{"id":"4327","name":"Cinemark Perkins Rowe and XD","address":"10000 Perkins Rowe, Suite 125","city":"Baton Rouge","state":"LA","zip":"70810","distance":"23.049583435058594","lon":"-91.094887","lat":"30.379084","theaterChainName":"Cinemark","ticketType":"STANDARD"},{"id":"1565","name":"United Artists Citiplace Stadium 11","address":"2610 Citiplace Drive","city":"Baton Rouge","state":"LA","zip":"70808","distance":"19.645801544189453","lon":"-91.126846","lat":"30.422443","theaterChainName":"United Artists","ticketType":"STANDARD"},{"id":"5748","name":"Movie Tavern Baton Rouge","address":"2610 Citiplace Court","city":"Baton Rouge","state":"LA","zip":"70808","distance":"19.65932846069336","lon":"-91.126442","lat":"30.422558","theaterChainName":"Movie Tavern","ticketType":"STANDARD"}]