[{"id":"688","name":"Regal Bossier Corners Cinema 9","address":"2800 Shed Road","city":"Bossier City","state":"LA","zip":"71111","distance":"10.896441459655762","lon":"-93.706215","lat":"32.531456","theaterChainName":"Regal Cinemas","ticketType":"STANDARD"},{"id":"1408","name":"Cinemark Tinseltown Shreveport","address":"8400 Millicent Way","city":"Shreveport","state":"LA","zip":"71105","distance":"15.330893516540527","lon":"-93.713097","lat":"32.425922","theaterChainName":"Cinemark","ticketType":"STANDARD"},{"id":"3941","name":"Regal Louisiana Boardwalk Stadium 14","address":"2 River Colony Drive","city":"Bossier City","state":"LA","zip":"71111","distance":"9.661849975585938","lon":"-93.739838","lat":"32.519115","theaterChainName":"Regal Cinemas","ticketType":"STANDARD"},{"id":"4887","name":"The Robinson Film Center","address":"617 Texas Street","city":"Shreveport","state":"LA","zip":"71101","distance":"9.468218803405762","lon":"-93.751122","lat":"32.511688","theaterChainName":"Independent Chains","ticketType":"STANDARD"}]