[{"id":"2319","name":"Ritz Theatre - Malvern","address":"213 S. Main St.","city":"Malvern","state":"AR","zip":"72104","distance":"18.94902229309082","lon":"-92.813393","lat":"34.363743","theaterChainName":"Independent Chains","ticketType":"STANDARD"},{"id":"1371","name":"Cinemark Tinseltown Benton","address":"17314 Interstate 30","city":"Benton","state":"AR","zip":"72015","distance":"1.1637986898422241","lon":"-92.583977","lat":"34.581181","theaterChainName":"Cinemark","ticketType":"STANDARD"},{"id":"4539","name":"B&B Little Rock Chenal 9 IMAX","address":"17825 Chenal Parkway","city":"Little Rock","state":"AR","zip":"72223","distance":"15.820307731628418","lon":"-92.459869","lat":"34.768269","theaterChainName":"B&B Theatres","ticketType":"STANDARD"},{"id":"2266","name":"United Artists Breckenridge Stadium 12","address":"1200 Breckenridge Drive","city":"Little Rock","state":"AR","zip":"72205","distance":"17.832372665405273","lon":"-92.389267","lat":"34.765015","theaterChainName":"United Artists","ticketType":"STANDARD"},{"id":"3595","name":"Colonel Glenn 18","address":"18 Colonel Glenn Plaza Dr.","city":"Little Rock","state":"AR","zip":"72210","distance":"14.479599952697754","lon":"-92.404938","lat":"34.711208","theaterChainName":"Cinemark","ticketType":"STANDARD"}]