[{"id":"4976","name":"Cinemark Conway Towne Centre","address":"201 Skyline Drive","city":"Conway","state":"AR","zip":"72032","distance":"21.604251861572266","lon":"-92.430748","lat":"35.109711","theaterChainName":"Cinemark","ticketType":"STANDARD"},{"id":"4539","name":"B&B Little Rock Chenal 9 IMAX","address":"17825 Chenal Parkway","city":"Little Rock","state":"AR","zip":"72223","distance":"20.5456600189209","lon":"-92.459869","lat":"34.768269","theaterChainName":"B&B Theatres","ticketType":"STANDARD"},{"id":"2266","name":"United Artists Breckenridge Stadium 12","address":"1200 Breckenridge Drive","city":"Little Rock","state":"AR","zip":"72205","distance":"17.237388610839844","lon":"-92.389267","lat":"34.765015","theaterChainName":"United Artists","ticketType":"STANDARD"},{"id":"3595","name":"Colonel Glenn 18","address":"18 Colonel Glenn Plaza Dr.","city":"Little Rock","state":"AR","zip":"72210","distance":"20.253456115722656","lon":"-92.404938","lat":"34.711208","theaterChainName":"Cinemark","ticketType":"STANDARD"},{"id":"5204","name":"McCain Mall Stadium 12 & RPX","address":"3929 McCain Boulevard","city":"North Little Rock","state":"AR","zip":"72116","distance":"9.474772453308105","lon":"-92.228996","lat":"34.791500","theaterChainName":"Regal Cinemas","ticketType":"STANDARD"}]