[{"id":"3073","name":"Carmike Pines Mall 8","address":"2901 Pines Mall Dr. #500","city":"Pine Bluff","state":"AR","zip":"71601","distance":"20.608186721801758","lon":"-91.967751","lat":"34.208805","theaterChainName":"Carmike Cinemas","ticketType":"STANDARD"},{"id":"6114","name":"Pines Cinemas 8","address":"2901 Pines Mall Dr","city":"Pine Bluff","state":"AR","zip":"71601","distance":"20.695232391357422","lon":"-91.967590","lat":"34.207359","theaterChainName":"Independent Chains","ticketType":"STANDARD"},{"id":"1371","name":"Cinemark Tinseltown Benton","address":"17314 Interstate 30","city":"Benton","state":"AR","zip":"72015","distance":"24.879621505737305","lon":"-92.583977","lat":"34.581181","theaterChainName":"Cinemark","ticketType":"STANDARD"},{"id":"2266","name":"United Artists Breckenridge Stadium 12","address":"1200 Breckenridge Drive","city":"Little Rock","state":"AR","zip":"72205","distance":"24.76673126220703","lon":"-92.389267","lat":"34.765015","theaterChainName":"United Artists","ticketType":"STANDARD"},{"id":"3595","name":"Colonel Glenn 18","address":"18 Colonel Glenn Plaza Dr.","city":"Little Rock","state":"AR","zip":"72210","distance":"22.118759155273438","lon":"-92.404938","lat":"34.711208","theaterChainName":"Cinemark","ticketType":"STANDARD"},{"id":"5204","name":"McCain Mall Stadium 12 & RPX","address":"3929 McCain Boulevard","city":"North Little Rock","state":"AR","zip":"72116","distance":"23.611852645874023","lon":"-92.228996","lat":"34.791500","theaterChainName":"Regal Cinemas","ticketType":"STANDARD"}]