[{"id":"2319","name":"Ritz Theatre - Malvern","address":"213 S. Main St.","city":"Malvern","state":"AR","zip":"72104","distance":"10.86418628692627","lon":"-92.813393","lat":"34.363743","theaterChainName":"Independent Chains","ticketType":"STANDARD"},{"id":"1569","name":"Carmike Central City 10","address":"909 Higdon Ferry Road","city":"Hot Springs","state":"AR","zip":"71901","distance":"23.302221298217773","lon":"-93.062683","lat":"34.474846","theaterChainName":"Carmike Cinemas","ticketType":"STANDARD"},{"id":"1371","name":"Cinemark Tinseltown Benton","address":"17314 Interstate 30","city":"Benton","state":"AR","zip":"72015","distance":"9.867791175842285","lon":"-92.583977","lat":"34.581181","theaterChainName":"Cinemark","ticketType":"STANDARD"},{"id":"4539","name":"B&B Little Rock Chenal 9 IMAX","address":"17825 Chenal Parkway","city":"Little Rock","state":"AR","zip":"72223","distance":"24.57569122314453","lon":"-92.459869","lat":"34.768269","theaterChainName":"B&B Theatres","ticketType":"STANDARD"},{"id":"3595","name":"Colonel Glenn 18","address":"18 Colonel Glenn Plaza Dr.","city":"Little Rock","state":"AR","zip":"72210","distance":"22.927249908447266","lon":"-92.404938","lat":"34.711208","theaterChainName":"Cinemark","ticketType":"STANDARD"}]