[{"id":"2319","tribuneTheaterId":"1177","providerTheaterId":"","name":"Ritz Theatre - Malvern","address":"213 S. Main St.","city":"Malvern","state":"AR","zip":"72104","distance":10.863398500063,"lon":"-92.813389","lat":"34.363741","theaterChainName":"Independent Chains","ticketType":"STANDARD"},{"id":"1371","tribuneTheaterId":"5207","providerTheaterId":"","name":"Cinemark Tinseltown Benton","address":"17314 Interstate 30","city":"Benton","state":"AR","zip":"72015","distance":9.8673747799728,"lon":"-92.583976","lat":"34.581182","theaterChainName":"Cinemark","ticketType":"STANDARD"},{"id":"1569","tribuneTheaterId":"4699","providerTheaterId":"","name":"Carmike Central City 10","address":"909 Higdon Ferry Road","city":"Hot Springs","state":"AR","zip":"71901","distance":23.300680759647,"lon":"-93.06268","lat":"34.474846","theaterChainName":"Carmike Cinemas","ticketType":"STANDARD"},{"id":"3595","tribuneTheaterId":"2405","providerTheaterId":"","name":"Colonel Glenn 18","address":"18 Colonel Glenn Plaza Dr.","city":"Little Rock","state":"AR","zip":"72210","distance":22.925857737085,"lon":"-92.404938","lat":"34.711208","theaterChainName":"Cinemark","ticketType":"STANDARD"},{"id":"4539","tribuneTheaterId":"9672","providerTheaterId":"","name":"B&B Little Rock Chenal 9 IMAX","address":"17825 Chenal Parkway","city":"Little Rock","state":"AR","zip":"72223","distance":24.574260832789,"lon":"-92.45987","lat":"34.768269","theaterChainName":"B&B Theatres","ticketType":"STANDARD"}]