[{"id":"3005","tribuneTheaterId":"4132","providerTheaterId":"","name":"Malco Studio on the Square","address":"2105 Court St.","city":"Memphis","state":"TN","zip":"38104","distance":18.215933512334,"lon":"-89.991123","lat":"35.137762","theaterChainName":"Malco Theatre","ticketType":"STANDARD"},{"id":"887","tribuneTheaterId":"7950","providerTheaterId":"","name":"Malco Bartlett Cinema 10","address":"2809 Bartlett Blvd.","city":"Memphis","state":"TN","zip":"38134","distance":22.15488931942,"lon":"-89.866083","lat":"35.202184","theaterChainName":"Malco Theatre","ticketType":"STANDARD"},{"id":"978","tribuneTheaterId":"2289","providerTheaterId":"","name":"Palace Cinema 12","address":"5117 Old Summer Road","city":"Memphis","state":"TN","zip":"38122","distance":22.45267977547,"lon":"-89.890005","lat":"35.149205","theaterChainName":"Independent Chains","ticketType":"STANDARD"},{"id":"888","tribuneTheaterId":"2414","providerTheaterId":"","name":"Hollywood 20 Cinema","address":"6711 Stage Rd.","city":"Bartlett","state":"TN","zip":"38134","distance":23.542113209827,"lon":"-89.839505","lat":"35.203636","theaterChainName":"Independent Chains","ticketType":"STANDARD"},{"id":"3615","tribuneTheaterId":"6354","providerTheaterId":"","name":"Malco Paradiso","address":"584 South Mendenhall","city":"Memphis","state":"TN","zip":"38117","distance":23.512771593391,"lon":"-89.894172","lat":"35.115088","theaterChainName":"Malco Theatre","ticketType":"STANDARD"}]