[{"id":"888","name":"Hollywood 20 Cinema","address":"6711 Stage Rd.","city":"Bartlett","state":"TN","zip":"38134","distance":"23.54330825805664","lon":"-89.839508","lat":"35.203636","theaterChainName":"Independent Chains","ticketType":"STANDARD"},{"id":"887","name":"Malco Bartlett Cinema 10","address":"2809 Bartlett Blvd.","city":"Memphis","state":"TN","zip":"38134","distance":"22.156288146972656","lon":"-89.866081","lat":"35.202183","theaterChainName":"Malco Theatre","ticketType":"STANDARD"},{"id":"978","name":"Palace Cinema 12","address":"5117 Old Summer Road","city":"Memphis","state":"TN","zip":"38122","distance":"22.453903198242188","lon":"-89.890007","lat":"35.149204","theaterChainName":"Independent Chains","ticketType":"STANDARD"},{"id":"3615","name":"Malco Paradiso","address":"584 South Mendenhall","city":"Memphis","state":"TN","zip":"38117","distance":"23.514047622680664","lon":"-89.894173","lat":"35.115089","theaterChainName":"Malco Theatre","ticketType":"STANDARD"},{"id":"3005","name":"Malco Studio on the Square","address":"2105 Court St.","city":"Memphis","state":"TN","zip":"38104","distance":"18.217208862304688","lon":"-89.991119","lat":"35.137760","theaterChainName":"Malco Theatre","ticketType":"STANDARD"}]