[{"id":"3380","name":"Flick Theatre","address":"105 E Main","city":"Anderson","state":"MO","zip":"64831","distance":"14.292377471923828","lon":"-94.440697","lat":"36.650799","theaterChainName":"Independent Chains","ticketType":"STANDARD"},{"id":"1636","name":"Carmike Sugar Creek 10","address":"#10 Sugar Creek Center","city":"Bella Vista","state":"AR","zip":"72714","distance":"5.043291091918945","lon":"-94.237267","lat":"36.439381","theaterChainName":"Carmike Cinemas","ticketType":"STANDARD"},{"id":"3106","name":"Malco Rogers Towne Center","address":"621 N. 46th St.","city":"Rogers","state":"AR","zip":"72756","distance":"11.894096374511719","lon":"-94.176758","lat":"36.340534","theaterChainName":"Malco Theatre","ticketType":"STANDARD"},{"id":"4265","name":"Malco Pinnacle Hills","address":"2200 Bellview","city":"Rogers","state":"AR","zip":"72758","distance":"13.851859092712402","lon":"-94.173912","lat":"36.305882","theaterChainName":"Malco Theatre","ticketType":"STANDARD"},{"id":"4534","name":"Siloam Springs 6","address":"1102 S. Carl Street","city":"Siloam Springs","state":"AR","zip":"72761","distance":"24.0880069732666","lon":"-94.552254","lat":"36.173115","theaterChainName":"Center Cinemas","ticketType":"STANDARD"},{"id":"2321","name":"Malco Sunset Cinema 9","address":"2940-G W. Sunset","city":"Springdale","state":"AR","zip":"72762","distance":"21.948760986328125","lon":"-94.163177","lat":"36.176579","theaterChainName":"Malco Theatre","ticketType":"STANDARD"}]