[{"id":"1471","tribuneTheaterId":"7485","providerTheaterId":"","name":"Malco Razorback 6","address":"3956 N. Steele Blvd.","city":"Fayetteville","state":"AR","zip":"72703","distance":7.8480681695924,"lon":"-94.156","lat":"36.1251","theaterChainName":"Malco Theatre","ticketType":"STANDARD"},{"id":"587","tribuneTheaterId":"7651","providerTheaterId":"460","name":"AMC Fiesta Square 16","address":"3033 North College","city":"Fayetteville","state":"AR","zip":"72703","distance":7.3587504102531,"lon":"-94.148831","lat":"36.107878","theaterChainName":"AMC Theatres","ticketType":"STANDARD"},{"id":"2321","tribuneTheaterId":"4145","providerTheaterId":"","name":"Malco Sunset Cinema 9","address":"2940-G W. Sunset","city":"Springdale","state":"AR","zip":"72762","distance":10.491048752819,"lon":"-94.16318","lat":"36.176579","theaterChainName":"Malco Theatre","ticketType":"STANDARD"},{"id":"4534","tribuneTheaterId":"9666","providerTheaterId":"","name":"Siloam Springs 6","address":"1102 S. Carl Street","city":"Siloam Springs","state":"AR","zip":"72761","distance":18.906381348955,"lon":"-94.552257","lat":"36.173116","theaterChainName":"Center Cinemas","ticketType":"STANDARD"},{"id":"4265","tribuneTheaterId":"2019","providerTheaterId":"","name":"Malco Pinnacle Hills","address":"2200 Bellview","city":"Rogers","state":"AR","zip":"72758","distance":18.66301633395,"lon":"-94.173914","lat":"36.305883","theaterChainName":"Malco Theatre","ticketType":"STANDARD"},{"id":"3106","tribuneTheaterId":"3197","providerTheaterId":"","name":"Malco Rogers Towne Center","address":"621 N. 46th St.","city":"Rogers","state":"AR","zip":"72756","distance":20.962206560581,"lon":"-94.176755","lat":"36.340533","theaterChainName":"Malco Theatre","ticketType":"STANDARD"}]