[{"id":"1636","tribuneTheaterId":"5720","providerTheaterId":"","name":"Carmike Sugar Creek 10","address":"#10 Sugar Creek Center","city":"Bella Vista","state":"AR","zip":"72714","distance":13.479013794827,"lon":"-94.237265","lat":"36.43938","theaterChainName":"Carmike Cinemas","ticketType":"STANDARD"},{"id":"3380","tribuneTheaterId":"610","providerTheaterId":"","name":"Flick Theatre","address":"105 E Main","city":"Anderson","state":"MO","zip":"64831","distance":16.388257394073,"lon":"-94.440697","lat":"36.650799","theaterChainName":"Independent Chains","ticketType":"STANDARD"},{"id":"4534","tribuneTheaterId":"9666","providerTheaterId":"","name":"Siloam Springs 6","address":"1102 S. Carl Street","city":"Siloam Springs","state":"AR","zip":"72761","distance":17.251435209001,"lon":"-94.552257","lat":"36.173116","theaterChainName":"Center Cinemas","ticketType":"STANDARD"},{"id":"4265","tribuneTheaterId":"2019","providerTheaterId":"","name":"Malco Pinnacle Hills","address":"2200 Bellview","city":"Rogers","state":"AR","zip":"72758","distance":18.532325871862,"lon":"-94.173914","lat":"36.305883","theaterChainName":"Malco Theatre","ticketType":"STANDARD"},{"id":"3106","tribuneTheaterId":"3197","providerTheaterId":"","name":"Malco Rogers Towne Center","address":"621 N. 46th St.","city":"Rogers","state":"AR","zip":"72756","distance":17.534731968133,"lon":"-94.176755","lat":"36.340533","theaterChainName":"Malco Theatre","ticketType":"STANDARD"},{"id":"4049","tribuneTheaterId":"1798","providerTheaterId":"","name":"Cinema 6 of Grove","address":"1109 N. 3rd Street","city":"Grove","state":"OK","zip":"74344","distance":19.827439075881,"lon":"-94.752982","lat":"36.598425","theaterChainName":"Center Cinemas","ticketType":"STANDARD"},{"id":"2321","tribuneTheaterId":"4145","providerTheaterId":"","name":"Malco Sunset Cinema 9","address":"2940-G W. Sunset","city":"Springdale","state":"AR","zip":"72762","distance":24.076177117068,"lon":"-94.16318","lat":"36.176579","theaterChainName":"Malco Theatre","ticketType":"STANDARD"}]