[{"id":"3397","name":"B&B Neosho Cinema 6","address":"1601 Malcolm Mosby Drive","city":"Neosho","state":"MO","zip":"64850","distance":"24.568801879882812","lon":"-94.391251","lat":"36.831600","theaterChainName":"B&B Theatres","ticketType":"STANDARD"},{"id":"3380","name":"Flick Theatre","address":"105 E Main","city":"Anderson","state":"MO","zip":"64831","distance":"11.860103607177734","lon":"-94.440697","lat":"36.650799","theaterChainName":"Independent Chains","ticketType":"STANDARD"},{"id":"1636","name":"Carmike Sugar Creek 10","address":"#10 Sugar Creek Center","city":"Bella Vista","state":"AR","zip":"72714","distance":"12.255287170410156","lon":"-94.237267","lat":"36.439381","theaterChainName":"Carmike Cinemas","ticketType":"STANDARD"},{"id":"4049","name":"Cinema 6 of Grove","address":"1109 N. 3rd Street","city":"Grove","state":"OK","zip":"74344","distance":"18.618804931640625","lon":"-94.752983","lat":"36.598427","theaterChainName":"Center Cinemas","ticketType":"STANDARD"},{"id":"3106","name":"Malco Rogers Towne Center","address":"621 N. 46th St.","city":"Rogers","state":"AR","zip":"72756","distance":"18.069791793823242","lon":"-94.176758","lat":"36.340534","theaterChainName":"Malco Theatre","ticketType":"STANDARD"},{"id":"4265","name":"Malco Pinnacle Hills","address":"2200 Bellview","city":"Rogers","state":"AR","zip":"72758","distance":"19.574954986572266","lon":"-94.173912","lat":"36.305882","theaterChainName":"Malco Theatre","ticketType":"STANDARD"},{"id":"4534","name":"Siloam Springs 6","address":"1102 S. Carl Street","city":"Siloam Springs","state":"AR","zip":"72761","distance":"21.885665893554688","lon":"-94.552254","lat":"36.173115","theaterChainName":"Center Cinemas","ticketType":"STANDARD"}]