[{"id":"4534","tribuneTheaterId":"9666","providerTheaterId":"","name":"Siloam Springs 6","address":"1102 S. Carl Street","city":"Siloam Springs","state":"AR","zip":"72761","distance":11.387757314742,"lon":"-94.552257","lat":"36.173116","theaterChainName":"Center Cinemas","ticketType":"STANDARD"},{"id":"1471","tribuneTheaterId":"7485","providerTheaterId":"","name":"Malco Razorback 6","address":"3956 N. Steele Blvd.","city":"Fayetteville","state":"AR","zip":"72703","distance":20.693760464583,"lon":"-94.156","lat":"36.1251","theaterChainName":"Malco Theatre","ticketType":"STANDARD"},{"id":"587","tribuneTheaterId":"7651","providerTheaterId":"460","name":"AMC Fiesta Square 16","address":"3033 North College","city":"Fayetteville","state":"AR","zip":"72703","distance":20.663371423532,"lon":"-94.148831","lat":"36.107878","theaterChainName":"AMC Theatres","ticketType":"STANDARD"},{"id":"2321","tribuneTheaterId":"4145","providerTheaterId":"","name":"Malco Sunset Cinema 9","address":"2940-G W. Sunset","city":"Springdale","state":"AR","zip":"72762","distance":21.911396148766,"lon":"-94.16318","lat":"36.176579","theaterChainName":"Malco Theatre","ticketType":"STANDARD"}]