[{"id":"1636","name":"Carmike Sugar Creek 10","address":"#10 Sugar Creek Center","city":"Bella Vista","state":"AR","zip":"72714","distance":"19.99785614013672","lon":"-94.237267","lat":"36.439381","theaterChainName":"Carmike Cinemas","ticketType":"STANDARD"},{"id":"3106","name":"Malco Rogers Towne Center","address":"621 N. 46th St.","city":"Rogers","state":"AR","zip":"72756","distance":"13.671537399291992","lon":"-94.176758","lat":"36.340534","theaterChainName":"Malco Theatre","ticketType":"STANDARD"},{"id":"4265","name":"Malco Pinnacle Hills","address":"2200 Bellview","city":"Rogers","state":"AR","zip":"72758","distance":"11.436702728271484","lon":"-94.173912","lat":"36.305882","theaterChainName":"Malco Theatre","ticketType":"STANDARD"},{"id":"4534","name":"Siloam Springs 6","address":"1102 S. Carl Street","city":"Siloam Springs","state":"AR","zip":"72761","distance":"17.331621170043945","lon":"-94.552254","lat":"36.173115","theaterChainName":"Center Cinemas","ticketType":"STANDARD"},{"id":"2321","name":"Malco Sunset Cinema 9","address":"2940-G W. Sunset","city":"Springdale","state":"AR","zip":"72762","distance":"4.811410903930664","lon":"-94.163177","lat":"36.176579","theaterChainName":"Malco Theatre","ticketType":"STANDARD"},{"id":"1471","name":"Malco Razorback 6","address":"3956 N. Steele Blvd.","city":"Fayetteville","state":"AR","zip":"72703","distance":"5.145487308502197","lon":"-94.155998","lat":"36.125099","theaterChainName":"Malco Theatre","ticketType":"STANDARD"},{"id":"587","name":"AMC Fiesta Square 16","address":"3033 North College","city":"Fayetteville","state":"AR","zip":"72703","distance":"6.0024566650390625","lon":"-94.148834","lat":"36.107880","theaterChainName":"AMC Theatres","ticketType":"STANDARD"}]