[{"id":"5963","name":"MovieLounge","address":"7601 Rogers Avenue","city":"Fort Smith","state":"AR","zip":"72903","distance":"22.950273513793945","lon":"-94.348625","lat":"35.353230","theaterChainName":"Independent Chains","ticketType":"STANDARD"},{"id":"1470","name":"Malco Mall Trio","address":"5111 Rogers Ave.","city":"Fort Smith","state":"AR","zip":"72904","distance":"24.014074325561523","lon":"-94.375549","lat":"35.369701","theaterChainName":"Malco Theatre","ticketType":"STANDARD"},{"id":"3391","name":"Malco Fort Smith Cinema 16","address":"1200 Waldron Rd., #140","city":"Fort Smith","state":"AR","zip":"72903","distance":"24.024412155151367","lon":"-94.375481","lat":"35.369850","theaterChainName":"Malco Theatre","ticketType":"STANDARD"},{"id":"2156","name":"Carmike 14 Fort Smith","address":"5716 Townson Ave.","city":"Fort Smith","state":"AR","zip":"72906","distance":"21.360748291015625","lon":"-94.424339","lat":"35.329388","theaterChainName":"Carmike Cinemas","ticketType":"STANDARD"},{"id":"1763","name":"Poteau Theatre","address":"2214 N Broadway","city":"Poteau","state":"OK","zip":"74953","distance":"14.93112564086914","lon":"-94.645081","lat":"35.038017","theaterChainName":"Independent Chains","ticketType":"STANDARD"}]