[{"id":"4397","name":"Malco Van Buren Cinema","address":"1636 North 12th Court","city":"Van Buren","state":"AR","zip":"72956","distance":"15.256103515625","lon":"-94.345566","lat":"35.460308","theaterChainName":"Malco Theatre","ticketType":"STANDARD"},{"id":"5963","name":"MovieLounge","address":"7601 Rogers Avenue","city":"Fort Smith","state":"AR","zip":"72903","distance":"22.473363876342773","lon":"-94.348625","lat":"35.353230","theaterChainName":"Independent Chains","ticketType":"STANDARD"},{"id":"1470","name":"Malco Mall Trio","address":"5111 Rogers Ave.","city":"Fort Smith","state":"AR","zip":"72904","distance":"21.148887634277344","lon":"-94.375549","lat":"35.369701","theaterChainName":"Malco Theatre","ticketType":"STANDARD"},{"id":"3391","name":"Malco Fort Smith Cinema 16","address":"1200 Waldron Rd., #140","city":"Fort Smith","state":"AR","zip":"72903","distance":"21.139036178588867","lon":"-94.375481","lat":"35.369850","theaterChainName":"Malco Theatre","ticketType":"STANDARD"},{"id":"2156","name":"Carmike 14 Fort Smith","address":"5716 Townson Ave.","city":"Fort Smith","state":"AR","zip":"72906","distance":"23.842151641845703","lon":"-94.424339","lat":"35.329388","theaterChainName":"Carmike Cinemas","ticketType":"STANDARD"}]