[{"id":"4397","name":"Malco Van Buren Cinema","address":"1636 North 12th Court","city":"Van Buren","state":"AR","zip":"72956","distance":"16.92878532409668","lon":"-94.345566","lat":"35.460308","theaterChainName":"Malco Theatre","ticketType":"STANDARD"},{"id":"5963","name":"MovieLounge","address":"7601 Rogers Avenue","city":"Fort Smith","state":"AR","zip":"72903","distance":"23.142770767211914","lon":"-94.348625","lat":"35.353230","theaterChainName":"Independent Chains","ticketType":"STANDARD"},{"id":"1470","name":"Malco Mall Trio","address":"5111 Rogers Ave.","city":"Fort Smith","state":"AR","zip":"72904","distance":"22.95493507385254","lon":"-94.375549","lat":"35.369701","theaterChainName":"Malco Theatre","ticketType":"STANDARD"},{"id":"3391","name":"Malco Fort Smith Cinema 16","address":"1200 Waldron Rd., #140","city":"Fort Smith","state":"AR","zip":"72903","distance":"22.944229125976562","lon":"-94.375481","lat":"35.369850","theaterChainName":"Malco Theatre","ticketType":"STANDARD"}]