[{"id":"4488","name":"Moore Warren Theatre","address":"1000 S. Telephone Rd.","city":"Moore","state":"OK","zip":"73160","distance":"24.487123489379883","lon":"-97.494400","lat":"35.328098","theaterChainName":"Independent Chains","ticketType":"STANDARD"},{"id":"647","name":"Kickingbird Cinema","address":"1225 East Danforth Rd","city":"Edmond","state":"OK","zip":"73034","distance":"7.882558822631836","lon":"-97.463699","lat":"35.667969","theaterChainName":"Independent Chains","ticketType":"STANDARD"},{"id":"1409","name":"Cinemark Tinseltown USA Oklahoma City","address":"6001 North Martin Luther King Ave","city":"Oklahoma City","state":"OK","zip":"73111","distance":"12.167869567871094","lon":"-97.479713","lat":"35.531666","theaterChainName":"Cinemark","ticketType":"STANDARD"},{"id":"2007","name":"AMC Quail Springs Mall 24","address":"2501 W. Memorial Rd.","city":"Oklahoma City","state":"OK","zip":"73134","distance":"13.574202537536621","lon":"-97.560440","lat":"35.612373","theaterChainName":"AMC Theatres","ticketType":"STANDARD"},{"id":"4867","name":"B&B Oklahoma City Windsor 10","address":"4623 A. N.W. 23rd St.","city":"Oklahoma City","state":"OK","zip":"73127","distance":"19.261438369750977","lon":"-97.604622","lat":"35.493923","theaterChainName":"B&B Theatres","ticketType":"STANDARD"},{"id":"1020","name":"Crossroads Movies 8","address":"7400 Pole Rd.","city":"Oklahoma City","state":"OK","zip":"73149","distance":"20.23232650756836","lon":"-97.485901","lat":"35.392693","theaterChainName":"Independent Chains","ticketType":"STANDARD"},{"id":"2276","name":"AMC Crossroads Mall 16","address":"1211 E I-240","city":"Oklahoma City","state":"OK","zip":"73149","distance":"20.311195373535156","lon":"-97.490166","lat":"35.393181","theaterChainName":"AMC Theatres","ticketType":"STANDARD"}]