[{"id":"647","tribuneTheaterId":"3990","providerTheaterId":"","name":"Kickingbird Cinema","address":"1225 East Danforth Rd","city":"Edmond","state":"OK","zip":"73034","distance":15.156177425581,"lon":"-97.463698","lat":"35.66797","theaterChainName":"Independent Chains","ticketType":"STANDARD"},{"id":"2007","tribuneTheaterId":"9047","providerTheaterId":"144","name":"AMC Quail Springs Mall 24","address":"2501 W. Memorial Rd.","city":"Oklahoma City","state":"OK","zip":"73134","distance":14.583615007559,"lon":"-97.56044","lat":"35.612372","theaterChainName":"AMC Theatres","ticketType":"STANDARD"},{"id":"4746","tribuneTheaterId":"9973","providerTheaterId":"","name":"89'er Theatre","address":"304 North Main","city":"Kingfisher","state":"OK","zip":"73750","distance":14.851514970005,"lon":"-97.93288","lat":"35.863272","theaterChainName":"Independent Chains","ticketType":"STANDARD"},{"id":"4393","tribuneTheaterId":"9440","providerTheaterId":"","name":"Dickinson West End Pointe 8 Theatre","address":"12825 NW 10th","city":"Yukon","state":"OK","zip":"73099","distance":22.538963919445,"lon":"-97.75491","lat":"35.479598","theaterChainName":"Starplex Cinemas","ticketType":"STANDARD"},{"id":"4867","tribuneTheaterId":"10165","providerTheaterId":"","name":"B&B Oklahoma City Windsor 10","address":"4623 A. N.W. 23rd St.","city":"Oklahoma City","state":"OK","zip":"73127","distance":21.561595816132,"lon":"-97.60462","lat":"35.493925","theaterChainName":"B&B Theatres","ticketType":"STANDARD"},{"id":"1409","tribuneTheaterId":"5251","providerTheaterId":"","name":"Cinemark Tinseltown USA Oklahoma City","address":"6001 North Martin Luther King Ave","city":"Oklahoma City","state":"OK","zip":"73111","distance":21.667883919543,"lon":"-97.479717","lat":"35.531667","theaterChainName":"Cinemark","ticketType":"STANDARD"},{"id":"1258","tribuneTheaterId":"7165","providerTheaterId":"","name":"Northpark 7","address":"12100 N. May Ave Ste. G","city":"Oklahoma City","state":"OK","zip":"73120","distance":21.906347727106,"lon":"-97.758654","lat":"35.489539","theaterChainName":"Starplex Cinemas","ticketType":"STANDARD"}]