[{"id":"1022","tribuneTheaterId":"6004","providerTheaterId":"","name":"Regal Spotlight Cinema 14","address":"1100 N Interstate Drive","city":"Norman","state":"OK","zip":"73072","distance":2.9231376288632,"lon":"-97.488282","lat":"35.231196","theaterChainName":"Regal Cinemas","ticketType":"STANDARD"},{"id":"4488","tribuneTheaterId":"9588","providerTheaterId":"","name":"Moore Warren Theatre","address":"1000 S. Telephone Rd.","city":"Moore","state":"OK","zip":"73160","distance":8.723311412627,"lon":"-97.4944","lat":"35.3281","theaterChainName":"Independent Chains","ticketType":"STANDARD"},{"id":"2276","tribuneTheaterId":"6859","providerTheaterId":"145","name":"AMC Crossroads Mall 16","address":"1211 E I-240","city":"Oklahoma City","state":"OK","zip":"73149","distance":13.010603812387,"lon":"-97.490165","lat":"35.39318","theaterChainName":"AMC Theatres","ticketType":"STANDARD"},{"id":"1020","tribuneTheaterId":"5870","providerTheaterId":"","name":"Crossroads Movies 8","address":"7400 Pole Rd.","city":"Oklahoma City","state":"OK","zip":"73149","distance":12.931937369199,"lon":"-97.485902","lat":"35.392691","theaterChainName":"Independent Chains","ticketType":"STANDARD"},{"id":"1409","tribuneTheaterId":"5251","providerTheaterId":"","name":"Cinemark Tinseltown USA Oklahoma City","address":"6001 North Martin Luther King Ave","city":"Oklahoma City","state":"OK","zip":"73111","distance":22.409776211611,"lon":"-97.479717","lat":"35.531667","theaterChainName":"Cinemark","ticketType":"STANDARD"},{"id":"4867","tribuneTheaterId":"10165","providerTheaterId":"","name":"B&B Oklahoma City Windsor 10","address":"4623 A. N.W. 23rd St.","city":"Oklahoma City","state":"OK","zip":"73127","distance":21.680975277818,"lon":"-97.60462","lat":"35.493925","theaterChainName":"B&B Theatres","ticketType":"STANDARD"}]