[{"id":"1409","tribuneTheaterId":"5251","providerTheaterId":"","name":"Cinemark Tinseltown USA Oklahoma City","address":"6001 North Martin Luther King Ave","city":"Oklahoma City","state":"OK","zip":"73111","distance":12.362597556708,"lon":"-97.479717","lat":"35.531667","theaterChainName":"Cinemark","ticketType":"STANDARD"},{"id":"1020","tribuneTheaterId":"5870","providerTheaterId":"","name":"Crossroads Movies 8","address":"7400 Pole Rd.","city":"Oklahoma City","state":"OK","zip":"73149","distance":13.193789175178,"lon":"-97.485902","lat":"35.392691","theaterChainName":"Independent Chains","ticketType":"STANDARD"},{"id":"2276","tribuneTheaterId":"6859","providerTheaterId":"145","name":"AMC Crossroads Mall 16","address":"1211 E I-240","city":"Oklahoma City","state":"OK","zip":"73149","distance":13.398822334378,"lon":"-97.490165","lat":"35.39318","theaterChainName":"AMC Theatres","ticketType":"STANDARD"},{"id":"4488","tribuneTheaterId":"9588","providerTheaterId":"","name":"Moore Warren Theatre","address":"1000 S. Telephone Rd.","city":"Moore","state":"OK","zip":"73160","distance":15.956908008794,"lon":"-97.4944","lat":"35.3281","theaterChainName":"Independent Chains","ticketType":"STANDARD"},{"id":"647","tribuneTheaterId":"3990","providerTheaterId":"","name":"Kickingbird Cinema","address":"1225 East Danforth Rd","city":"Edmond","state":"OK","zip":"73034","distance":17.293256242167,"lon":"-97.463698","lat":"35.66797","theaterChainName":"Independent Chains","ticketType":"STANDARD"},{"id":"4867","tribuneTheaterId":"10165","providerTheaterId":"","name":"B&B Oklahoma City Windsor 10","address":"4623 A. N.W. 23rd St.","city":"Oklahoma City","state":"OK","zip":"73127","distance":18.742522355354,"lon":"-97.60462","lat":"35.493925","theaterChainName":"B&B Theatres","ticketType":"STANDARD"},{"id":"2007","tribuneTheaterId":"9047","providerTheaterId":"144","name":"AMC Quail Springs Mall 24","address":"2501 W. Memorial Rd.","city":"Oklahoma City","state":"OK","zip":"73134","distance":18.87344227597,"lon":"-97.56044","lat":"35.612372","theaterChainName":"AMC Theatres","ticketType":"STANDARD"},{"id":"1022","tribuneTheaterId":"6004","providerTheaterId":"","name":"Regal Spotlight Cinema 14","address":"1100 N Interstate Drive","city":"Norman","state":"OK","zip":"73072","distance":20.593505160524,"lon":"-97.488282","lat":"35.231196","theaterChainName":"Regal Cinemas","ticketType":"STANDARD"},{"id":"4894","tribuneTheaterId":"10205","providerTheaterId":"","name":"Carmike Movies 6 Shawnee","address":"4901 N. Kickapoo Ste 1218","city":"Shawnee","state":"OK","zip":"74804","distance":20.294868014535,"lon":"-96.927838","lat":"35.386011","theaterChainName":"Carmike Cinemas","ticketType":"STANDARD"},{"id":"3159","tribuneTheaterId":"4775","providerTheaterId":"","name":"Carmike Hornbeck & Penthouse Twin","address":"125 North Bell","city":"Shawnee","state":"OK","zip":"74801","distance":22.09744291098,"lon":"-96.92195","lat":"35.328309","theaterChainName":"Carmike Cinemas","ticketType":"STANDARD"},{"id":"1657","tribuneTheaterId":"4778","providerTheaterId":"","name":"Carmike Cinema Centre 8","address":"3031 N Harrison","city":"Shawnee","state":"OK","zip":"74804","distance":21.695293216106,"lon":"-96.910919","lat":"35.363552","theaterChainName":"Carmike Cinemas","ticketType":"STANDARD"}]