[{"id":"2864","tribuneTheaterId":"1947","providerTheaterId":"","name":"Valley View Theatre","address":"2505 Valley View Drive","city":"Chickasha","state":"OK","zip":"73018","distance":18.255479419852,"lon":"-97.927167","lat":"35.025224","theaterChainName":"Independent Chains","ticketType":"STANDARD"},{"id":"5799","tribuneTheaterId":"11239","providerTheaterId":"","name":"Carmike Patriot 13","address":"2803 NW 67th Street","city":"Lawton","state":"OK","zip":"73505","distance":23.488153122926,"lon":"-98.474595","lat":"34.635689","theaterChainName":"Carmike Cinemas","ticketType":"STANDARD"},{"id":"3210","tribuneTheaterId":"5051","providerTheaterId":"","name":"Central Mall 12","address":"200 Southwest C Ave.","city":"Lawton","state":"OK","zip":"73501","distance":22.691783071843,"lon":"-98.391538","lat":"34.60402","theaterChainName":"Starplex Cinemas","ticketType":"STANDARD"},{"id":"2237","tribuneTheaterId":"4779","providerTheaterId":"","name":"Carmike 8 Lawton","address":"7102 NW Cache Rd","city":"Lawton","state":"OK","zip":"73507","distance":24.388093033061,"lon":"-98.478978","lat":"34.621786","theaterChainName":"Carmike Cinemas","ticketType":"STANDARD"}]