[{"id":"1022","name":"Regal Spotlight Cinema 14","address":"1100 N Interstate Drive","city":"Norman","state":"OK","zip":"73072","distance":"11.114198684692383","lon":"-97.488281","lat":"35.231197","theaterChainName":"Regal Cinemas","ticketType":"STANDARD"},{"id":"4488","name":"Moore Warren Theatre","address":"1000 S. Telephone Rd.","city":"Moore","state":"OK","zip":"73160","distance":"13.157674789428711","lon":"-97.494400","lat":"35.328098","theaterChainName":"Independent Chains","ticketType":"STANDARD"},{"id":"1409","name":"Cinemark Tinseltown USA Oklahoma City","address":"6001 North Martin Luther King Ave","city":"Oklahoma City","state":"OK","zip":"73111","distance":"23.12445640563965","lon":"-97.479713","lat":"35.531666","theaterChainName":"Cinemark","ticketType":"STANDARD"},{"id":"1020","name":"Crossroads Movies 8","address":"7400 Pole Rd.","city":"Oklahoma City","state":"OK","zip":"73149","distance":"15.493758201599121","lon":"-97.485901","lat":"35.392693","theaterChainName":"Independent Chains","ticketType":"STANDARD"},{"id":"2276","name":"AMC Crossroads Mall 16","address":"1211 E I-240","city":"Oklahoma City","state":"OK","zip":"73149","distance":"15.688453674316406","lon":"-97.490166","lat":"35.393181","theaterChainName":"AMC Theatres","ticketType":"STANDARD"},{"id":"4894","name":"Carmike Movies 6 Shawnee","address":"4901 N. Kickapoo Ste 1218","city":"Shawnee","state":"OK","zip":"74804","distance":"23.024280548095703","lon":"-96.927841","lat":"35.386009","theaterChainName":"Carmike Cinemas","ticketType":"STANDARD"},{"id":"3159","name":"Carmike Hornbeck & Penthouse Twin","address":"125 North Bell","city":"Shawnee","state":"OK","zip":"74801","distance":"21.827957153320312","lon":"-96.921951","lat":"35.328308","theaterChainName":"Carmike Cinemas","ticketType":"STANDARD"},{"id":"1657","name":"Carmike Cinema Centre 8","address":"3031 N Harrison","city":"Shawnee","state":"OK","zip":"74804","distance":"23.241134643554688","lon":"-96.910919","lat":"35.363552","theaterChainName":"Carmike Cinemas","ticketType":"STANDARD"}]