[{"id":"1022","name":"Regal Spotlight Cinema 14","address":"1100 N Interstate Drive","city":"Norman","state":"OK","zip":"73072","distance":"20.594837188720703","lon":"-97.488281","lat":"35.231197","theaterChainName":"Regal Cinemas","ticketType":"STANDARD"},{"id":"4488","name":"Moore Warren Theatre","address":"1000 S. Telephone Rd.","city":"Moore","state":"OK","zip":"73160","distance":"15.958123207092285","lon":"-97.494400","lat":"35.328098","theaterChainName":"Independent Chains","ticketType":"STANDARD"},{"id":"647","name":"Kickingbird Cinema","address":"1225 East Danforth Rd","city":"Edmond","state":"OK","zip":"73034","distance":"17.294273376464844","lon":"-97.463699","lat":"35.667969","theaterChainName":"Independent Chains","ticketType":"STANDARD"},{"id":"1409","name":"Cinemark Tinseltown USA Oklahoma City","address":"6001 North Martin Luther King Ave","city":"Oklahoma City","state":"OK","zip":"73111","distance":"12.363198280334473","lon":"-97.479713","lat":"35.531666","theaterChainName":"Cinemark","ticketType":"STANDARD"},{"id":"2007","name":"AMC Quail Springs Mall 24","address":"2501 W. Memorial Rd.","city":"Oklahoma City","state":"OK","zip":"73134","distance":"18.874683380126953","lon":"-97.560440","lat":"35.612373","theaterChainName":"AMC Theatres","ticketType":"STANDARD"},{"id":"4867","name":"B&B Oklahoma City Windsor 10","address":"4623 A. N.W. 23rd St.","city":"Oklahoma City","state":"OK","zip":"73127","distance":"18.743865966796875","lon":"-97.604622","lat":"35.493923","theaterChainName":"B&B Theatres","ticketType":"STANDARD"},{"id":"1020","name":"Crossroads Movies 8","address":"7400 Pole Rd.","city":"Oklahoma City","state":"OK","zip":"73149","distance":"13.1946439743042","lon":"-97.485901","lat":"35.392693","theaterChainName":"Independent Chains","ticketType":"STANDARD"},{"id":"2276","name":"AMC Crossroads Mall 16","address":"1211 E I-240","city":"Oklahoma City","state":"OK","zip":"73149","distance":"13.39980411529541","lon":"-97.490166","lat":"35.393181","theaterChainName":"AMC Theatres","ticketType":"STANDARD"},{"id":"4894","name":"Carmike Movies 6 Shawnee","address":"4901 N. Kickapoo Ste 1218","city":"Shawnee","state":"OK","zip":"74804","distance":"20.29593276977539","lon":"-96.927841","lat":"35.386009","theaterChainName":"Carmike Cinemas","ticketType":"STANDARD"},{"id":"3159","name":"Carmike Hornbeck & Penthouse Twin","address":"125 North Bell","city":"Shawnee","state":"OK","zip":"74801","distance":"22.09874153137207","lon":"-96.921951","lat":"35.328308","theaterChainName":"Carmike Cinemas","ticketType":"STANDARD"},{"id":"1657","name":"Carmike Cinema Centre 8","address":"3031 N Harrison","city":"Shawnee","state":"OK","zip":"74804","distance":"21.696575164794922","lon":"-96.910919","lat":"35.363552","theaterChainName":"Carmike Cinemas","ticketType":"STANDARD"}]