[{"id":"1022","tribuneTheaterId":"6004","providerTheaterId":"","name":"Regal Spotlight Cinema 14","address":"1100 N Interstate Drive","city":"Norman","state":"OK","zip":"73072","distance":10.368218110761,"lon":"-97.488282","lat":"35.231196","theaterChainName":"Regal Cinemas","ticketType":"STANDARD"},{"id":"4488","tribuneTheaterId":"9588","providerTheaterId":"","name":"Moore Warren Theatre","address":"1000 S. Telephone Rd.","city":"Moore","state":"OK","zip":"73160","distance":15.521333444067,"lon":"-97.4944","lat":"35.3281","theaterChainName":"Independent Chains","ticketType":"STANDARD"},{"id":"2276","tribuneTheaterId":"6859","providerTheaterId":"145","name":"AMC Crossroads Mall 16","address":"1211 E I-240","city":"Oklahoma City","state":"OK","zip":"73149","distance":19.30837902326,"lon":"-97.490165","lat":"35.39318","theaterChainName":"AMC Theatres","ticketType":"STANDARD"},{"id":"1020","tribuneTheaterId":"5870","providerTheaterId":"","name":"Crossroads Movies 8","address":"7400 Pole Rd.","city":"Oklahoma City","state":"OK","zip":"73149","distance":19.174170339861,"lon":"-97.485902","lat":"35.392691","theaterChainName":"Independent Chains","ticketType":"STANDARD"}]