[{"id":"1022","tribuneTheaterId":"6004","providerTheaterId":"","name":"Regal Spotlight Cinema 14","address":"1100 N Interstate Drive","city":"Norman","state":"OK","zip":"73072","distance":2.2370188009045,"lon":"-97.488282","lat":"35.231196","theaterChainName":"Regal Cinemas","ticketType":"STANDARD"},{"id":"4488","tribuneTheaterId":"9588","providerTheaterId":"","name":"Moore Warren Theatre","address":"1000 S. Telephone Rd.","city":"Moore","state":"OK","zip":"73160","distance":8.9388518995093,"lon":"-97.4944","lat":"35.3281","theaterChainName":"Independent Chains","ticketType":"STANDARD"},{"id":"1020","tribuneTheaterId":"5870","providerTheaterId":"","name":"Crossroads Movies 8","address":"7400 Pole Rd.","city":"Oklahoma City","state":"OK","zip":"73149","distance":13.38313671271,"lon":"-97.485902","lat":"35.392691","theaterChainName":"Independent Chains","ticketType":"STANDARD"},{"id":"2276","tribuneTheaterId":"6859","providerTheaterId":"145","name":"AMC Crossroads Mall 16","address":"1211 E I-240","city":"Oklahoma City","state":"OK","zip":"73149","distance":13.420896263237,"lon":"-97.490165","lat":"35.39318","theaterChainName":"AMC Theatres","ticketType":"STANDARD"},{"id":"4867","tribuneTheaterId":"10165","providerTheaterId":"","name":"B&B Oklahoma City Windsor 10","address":"4623 A. N.W. 23rd St.","city":"Oklahoma City","state":"OK","zip":"73127","distance":21.47951265493,"lon":"-97.60462","lat":"35.493925","theaterChainName":"B&B Theatres","ticketType":"STANDARD"},{"id":"1409","tribuneTheaterId":"5251","providerTheaterId":"","name":"Cinemark Tinseltown USA Oklahoma City","address":"6001 North Martin Luther King Ave","city":"Oklahoma City","state":"OK","zip":"73111","distance":22.986388375755,"lon":"-97.479717","lat":"35.531667","theaterChainName":"Cinemark","ticketType":"STANDARD"},{"id":"4393","tribuneTheaterId":"9440","providerTheaterId":"","name":"Dickinson West End Pointe 8 Theatre","address":"12825 NW 10th","city":"Yukon","state":"OK","zip":"73099","distance":24.674780628816,"lon":"-97.75491","lat":"35.479598","theaterChainName":"Starplex Cinemas","ticketType":"STANDARD"}]