[{"id":"1022","name":"Regal Spotlight Cinema 14","address":"1100 N Interstate Drive","city":"Norman","state":"OK","zip":"73072","distance":"2.237154006958008","lon":"-97.488281","lat":"35.231197","theaterChainName":"Regal Cinemas","ticketType":"STANDARD"},{"id":"4488","name":"Moore Warren Theatre","address":"1000 S. Telephone Rd.","city":"Moore","state":"OK","zip":"73160","distance":"8.939196586608887","lon":"-97.494400","lat":"35.328098","theaterChainName":"Independent Chains","ticketType":"STANDARD"},{"id":"1409","name":"Cinemark Tinseltown USA Oklahoma City","address":"6001 North Martin Luther King Ave","city":"Oklahoma City","state":"OK","zip":"73111","distance":"22.987642288208008","lon":"-97.479713","lat":"35.531666","theaterChainName":"Cinemark","ticketType":"STANDARD"},{"id":"4867","name":"B&B Oklahoma City Windsor 10","address":"4623 A. N.W. 23rd St.","city":"Oklahoma City","state":"OK","zip":"73127","distance":"21.480667114257812","lon":"-97.604622","lat":"35.493923","theaterChainName":"B&B Theatres","ticketType":"STANDARD"},{"id":"1020","name":"Crossroads Movies 8","address":"7400 Pole Rd.","city":"Oklahoma City","state":"OK","zip":"73149","distance":"13.38398265838623","lon":"-97.485901","lat":"35.392693","theaterChainName":"Independent Chains","ticketType":"STANDARD"},{"id":"2276","name":"AMC Crossroads Mall 16","address":"1211 E I-240","city":"Oklahoma City","state":"OK","zip":"73149","distance":"13.421696662902832","lon":"-97.490166","lat":"35.393181","theaterChainName":"AMC Theatres","ticketType":"STANDARD"},{"id":"4393","name":"Dickinson West End Pointe 8 Theatre","address":"12825 NW 10th","city":"Yukon","state":"OK","zip":"73099","distance":"24.6763973236084","lon":"-97.754913","lat":"35.479599","theaterChainName":"Starplex Cinemas","ticketType":"STANDARD"}]