[{"id":"4081","tribuneTheaterId":"2164","providerTheaterId":"","name":"B&B Reno Cinema 8","address":"3000 S. Country Club Road","city":"El Reno","state":"OK","zip":"73036","distance":7.8767525580827,"lon":"-97.974057","lat":"35.501833","theaterChainName":"B&B Theatres","ticketType":"STANDARD"},{"id":"1258","tribuneTheaterId":"7165","providerTheaterId":"","name":"Northpark 7","address":"12100 N. May Ave Ste. G","city":"Oklahoma City","state":"OK","zip":"73120","distance":12.249532544534,"lon":"-97.758654","lat":"35.489539","theaterChainName":"Starplex Cinemas","ticketType":"STANDARD"},{"id":"4393","tribuneTheaterId":"9440","providerTheaterId":"","name":"Dickinson West End Pointe 8 Theatre","address":"12825 NW 10th","city":"Yukon","state":"OK","zip":"73099","distance":12.064596282614,"lon":"-97.75491","lat":"35.479598","theaterChainName":"Starplex Cinemas","ticketType":"STANDARD"},{"id":"4867","tribuneTheaterId":"10165","providerTheaterId":"","name":"B&B Oklahoma City Windsor 10","address":"4623 A. N.W. 23rd St.","city":"Oklahoma City","state":"OK","zip":"73127","distance":20.155716494216,"lon":"-97.60462","lat":"35.493925","theaterChainName":"B&B Theatres","ticketType":"STANDARD"}]