[{"id":"1022","name":"Regal Spotlight Cinema 14","address":"1100 N Interstate Drive","city":"Norman","state":"OK","zip":"73072","distance":"11.774855613708496","lon":"-97.488281","lat":"35.231197","theaterChainName":"Regal Cinemas","ticketType":"STANDARD"},{"id":"4488","name":"Moore Warren Theatre","address":"1000 S. Telephone Rd.","city":"Moore","state":"OK","zip":"73160","distance":"5.651925086975098","lon":"-97.494400","lat":"35.328098","theaterChainName":"Independent Chains","ticketType":"STANDARD"},{"id":"647","name":"Kickingbird Cinema","address":"1225 East Danforth Rd","city":"Edmond","state":"OK","zip":"73034","distance":"19.759557723999023","lon":"-97.463699","lat":"35.667969","theaterChainName":"Independent Chains","ticketType":"STANDARD"},{"id":"1409","name":"Cinemark Tinseltown USA Oklahoma City","address":"6001 North Martin Luther King Ave","city":"Oklahoma City","state":"OK","zip":"73111","distance":"10.565999031066895","lon":"-97.479713","lat":"35.531666","theaterChainName":"Cinemark","ticketType":"STANDARD"},{"id":"2007","name":"AMC Quail Springs Mall 24","address":"2501 W. Memorial Rd.","city":"Oklahoma City","state":"OK","zip":"73134","distance":"15.21486759185791","lon":"-97.560440","lat":"35.612373","theaterChainName":"AMC Theatres","ticketType":"STANDARD"},{"id":"4867","name":"B&B Oklahoma City Windsor 10","address":"4623 A. N.W. 23rd St.","city":"Oklahoma City","state":"OK","zip":"73127","distance":"7.528672695159912","lon":"-97.604622","lat":"35.493923","theaterChainName":"B&B Theatres","ticketType":"STANDARD"},{"id":"1020","name":"Crossroads Movies 8","address":"7400 Pole Rd.","city":"Oklahoma City","state":"OK","zip":"73149","distance":"3.9882564544677734","lon":"-97.485901","lat":"35.392693","theaterChainName":"Independent Chains","ticketType":"STANDARD"},{"id":"2276","name":"AMC Crossroads Mall 16","address":"1211 E I-240","city":"Oklahoma City","state":"OK","zip":"73149","distance":"3.7484803199768066","lon":"-97.490166","lat":"35.393181","theaterChainName":"AMC Theatres","ticketType":"STANDARD"},{"id":"1258","name":"Northpark 7","address":"12100 N. May Ave Ste. G","city":"Oklahoma City","state":"OK","zip":"73120","distance":"13.209324836730957","lon":"-97.758652","lat":"35.489540","theaterChainName":"Starplex Cinemas","ticketType":"STANDARD"},{"id":"4393","name":"Dickinson West End Pointe 8 Theatre","address":"12825 NW 10th","city":"Yukon","state":"OK","zip":"73099","distance":"12.68828010559082","lon":"-97.754913","lat":"35.479599","theaterChainName":"Starplex Cinemas","ticketType":"STANDARD"},{"id":"4081","name":"B&B Reno Cinema 8","address":"3000 S. Country Club Road","city":"El Reno","state":"OK","zip":"73036","distance":"24.6844539642334","lon":"-97.974060","lat":"35.501835","theaterChainName":"B&B Theatres","ticketType":"STANDARD"}]