[{"id":"2864","name":"Valley View Theatre","address":"2505 Valley View Drive","city":"Chickasha","state":"OK","zip":"73018","distance":"22.706701278686523","lon":"-97.927170","lat":"35.025223","theaterChainName":"Independent Chains","ticketType":"STANDARD"},{"id":"1745","name":"Carmike 6 Duncan","address":"1501 Plato Rd","city":"Duncan","state":"OK","zip":"73533","distance":"21.804506301879883","lon":"-97.965897","lat":"34.534828","theaterChainName":"Carmike Cinemas","ticketType":"STANDARD"},{"id":"3210","name":"Central Mall 12","address":"200 Southwest C Ave.","city":"Lawton","state":"OK","zip":"73501","distance":"16.5537166595459","lon":"-98.391541","lat":"34.604019","theaterChainName":"Starplex Cinemas","ticketType":"STANDARD"},{"id":"5799","name":"Carmike Patriot 13","address":"2803 NW 67th Street","city":"Lawton","state":"OK","zip":"73505","distance":"18.679580688476562","lon":"-98.474594","lat":"34.635689","theaterChainName":"Carmike Cinemas","ticketType":"STANDARD"},{"id":"2237","name":"Carmike 8 Lawton","address":"7102 NW Cache Rd","city":"Lawton","state":"OK","zip":"73507","distance":"19.42951202392578","lon":"-98.478981","lat":"34.621784","theaterChainName":"Carmike Cinemas","ticketType":"STANDARD"}]