[{"id":"3210","tribuneTheaterId":"5051","providerTheaterId":"","name":"Central Mall 12","address":"200 Southwest C Ave.","city":"Lawton","state":"OK","zip":"73501","distance":8.537498391652,"lon":"-98.391538","lat":"34.60402","theaterChainName":"Starplex Cinemas","ticketType":"STANDARD"},{"id":"2237","tribuneTheaterId":"4779","providerTheaterId":"","name":"Carmike 8 Lawton","address":"7102 NW Cache Rd","city":"Lawton","state":"OK","zip":"73507","distance":11.063198096748,"lon":"-98.478978","lat":"34.621786","theaterChainName":"Carmike Cinemas","ticketType":"STANDARD"},{"id":"5799","tribuneTheaterId":"11239","providerTheaterId":"","name":"Carmike Patriot 13","address":"2803 NW 67th Street","city":"Lawton","state":"OK","zip":"73505","distance":11.812411199527,"lon":"-98.474595","lat":"34.635689","theaterChainName":"Carmike Cinemas","ticketType":"STANDARD"},{"id":"1745","tribuneTheaterId":"4777","providerTheaterId":"","name":"Carmike 6 Duncan","address":"1501 Plato Rd","city":"Duncan","state":"OK","zip":"73533","distance":24.296467161032,"lon":"-97.965893","lat":"34.534828","theaterChainName":"Carmike Cinemas","ticketType":"STANDARD"}]