[{"id":"2007","name":"AMC Quail Springs Mall 24","address":"2501 W. Memorial Rd.","city":"Oklahoma City","state":"OK","zip":"73134","distance":"22.823766708374023","lon":"-97.560440","lat":"35.612373","theaterChainName":"AMC Theatres","ticketType":"STANDARD"},{"id":"1258","name":"Northpark 7","address":"12100 N. May Ave Ste. G","city":"Oklahoma City","state":"OK","zip":"73120","distance":"20.42112159729004","lon":"-97.758652","lat":"35.489540","theaterChainName":"Starplex Cinemas","ticketType":"STANDARD"},{"id":"4393","name":"Dickinson West End Pointe 8 Theatre","address":"12825 NW 10th","city":"Yukon","state":"OK","zip":"73099","distance":"21.126657485961914","lon":"-97.754913","lat":"35.479599","theaterChainName":"Starplex Cinemas","ticketType":"STANDARD"},{"id":"4746","name":"89'er Theatre","address":"304 North Main","city":"Kingfisher","state":"OK","zip":"73750","distance":"7.814889430999756","lon":"-97.932877","lat":"35.863274","theaterChainName":"Independent Chains","ticketType":"STANDARD"},{"id":"4081","name":"B&B Reno Cinema 8","address":"3000 S. Country Club Road","city":"El Reno","state":"OK","zip":"73036","distance":"17.338815689086914","lon":"-97.974060","lat":"35.501835","theaterChainName":"B&B Theatres","ticketType":"STANDARD"}]