[{"id":"4027","tribuneTheaterId":"2160","providerTheaterId":"","name":"B&B Claremore Cinema 8","address":"1407 W. Country Club Rd.","city":"Claremore","state":"OK","zip":"74017","distance":3.7036182132292,"lon":"-95.625644","lat":"36.292387","theaterChainName":"B&B Theatres","ticketType":"STANDARD"},{"id":"3041","tribuneTheaterId":"5049","providerTheaterId":"","name":"Owasso 12","address":"12601 E. 86th St. N.","city":"Owasso","state":"OK","zip":"74055","distance":13.389771206585,"lon":"-95.833011","lat":"36.279622","theaterChainName":"Starplex Cinemas","ticketType":"STANDARD"},{"id":"4922","tribuneTheaterId":"10240","providerTheaterId":"","name":"Cinemark Broken Arrow","address":"1801 E. Hillside Drive","city":"Broken Arrow","state":"OK","zip":"74012","distance":21.428710576744,"lon":"-95.770472","lat":"36.063289","theaterChainName":"Cinemark","ticketType":"STANDARD"},{"id":"1319","tribuneTheaterId":"5247","providerTheaterId":"","name":"Cinemark Movies 8--Tulsa","address":"6808 S. Memorial #310","city":"Tulsa","state":"OK","zip":"74133","distance":24.885138441793,"lon":"-95.887143","lat":"36.063859","theaterChainName":"Cinemark","ticketType":"STANDARD"},{"id":"2965","tribuneTheaterId":"5250","providerTheaterId":"","name":"Cinemark Tulsa 16","address":"10802 E. 71st St South","city":"Tulsa","state":"OK","zip":"74133","distance":24.149400915258,"lon":"-95.856467","lat":"36.058445","theaterChainName":"Cinemark","ticketType":"STANDARD"},{"id":"5283","tribuneTheaterId":"10717","providerTheaterId":"","name":"Edison Park 8 Cinemas","address":"2235 Winkler Ave.","city":"Fort Myers","state":"FL","zip":"33901","distance":24.139072194428,"lon":"-95.88489","lat":"36.076349","theaterChainName":"Independent Chains","ticketType":"STANDARD"},{"id":"5146","tribuneTheaterId":"10552","providerTheaterId":"","name":"Circle Cinema","address":"8 S. Lewis Ave","city":"Tulsa","state":"OK","zip":"74104","distance":23.377598808284,"lon":"-95.9581","lat":"36.1596","theaterChainName":"Independent Chains","ticketType":"STANDARD"},{"id":"621","tribuneTheaterId":"8110","providerTheaterId":"143","name":"AMC Southroads 20","address":"4923 East 41st Street","city":"Tulsa","state":"OK","zip":"74135","distance":23.936571154859,"lon":"-95.919291","lat":"36.106648","theaterChainName":"AMC Theatres","ticketType":"STANDARD"},{"id":"1278","tribuneTheaterId":"6003","providerTheaterId":"","name":"Regal Promenade Palace 12","address":"4107 S. Yale","city":"Tulsa","state":"OK","zip":"74135","distance":24.133826141299,"lon":"-95.919909","lat":"36.103023","theaterChainName":"Regal Cinemas","ticketType":"STANDARD"}]