[{"id":"2965","name":"Cinemark Tulsa 16","address":"10802 E. 71st St South","city":"Tulsa","state":"OK","zip":"74133","distance":"24.150917053222656","lon":"-95.856468","lat":"36.058445","theaterChainName":"Cinemark","ticketType":"STANDARD"},{"id":"1319","name":"Cinemark Movies 8--Tulsa","address":"6808 S. Memorial #310","city":"Tulsa","state":"OK","zip":"74133","distance":"24.886804580688477","lon":"-95.887146","lat":"36.063858","theaterChainName":"Cinemark","ticketType":"STANDARD"},{"id":"5283","name":"Edison Park 8 Cinemas","address":"2235 Winkler Ave.","city":"Fort Myers","state":"FL","zip":"33901","distance":"24.14053726196289","lon":"-95.884888","lat":"36.076347","theaterChainName":"Independent Chains","ticketType":"STANDARD"},{"id":"4922","name":"Cinemark Broken Arrow","address":"1801 E. Hillside Drive","city":"Broken Arrow","state":"OK","zip":"74012","distance":"21.42995262145996","lon":"-95.770470","lat":"36.063290","theaterChainName":"Cinemark","ticketType":"STANDARD"},{"id":"1278","name":"Regal Promenade Palace 12","address":"4107 S. Yale","city":"Tulsa","state":"OK","zip":"74135","distance":"24.13514518737793","lon":"-95.919907","lat":"36.103024","theaterChainName":"Regal Cinemas","ticketType":"STANDARD"},{"id":"621","name":"AMC Southroads 20","address":"4923 East 41st Street","city":"Tulsa","state":"OK","zip":"74135","distance":"23.93792724609375","lon":"-95.919289","lat":"36.106647","theaterChainName":"AMC Theatres","ticketType":"STANDARD"},{"id":"5146","name":"Circle Cinema","address":"8 S. Lewis Ave","city":"Tulsa","state":"OK","zip":"74104","distance":"23.37895965576172","lon":"-95.958099","lat":"36.159599","theaterChainName":"Independent Chains","ticketType":"STANDARD"},{"id":"3041","name":"Owasso 12","address":"12601 E. 86th St. N.","city":"Owasso","state":"OK","zip":"74055","distance":"13.390334129333496","lon":"-95.833008","lat":"36.279621","theaterChainName":"Starplex Cinemas","ticketType":"STANDARD"},{"id":"4027","name":"B&B Claremore Cinema 8","address":"1407 W. Country Club Rd.","city":"Claremore","state":"OK","zip":"74017","distance":"3.7039566040039062","lon":"-95.625641","lat":"36.292385","theaterChainName":"B&B Theatres","ticketType":"STANDARD"}]