[{"id":"3041","tribuneTheaterId":"5049","providerTheaterId":"","name":"Owasso 12","address":"12601 E. 86th St. N.","city":"Owasso","state":"OK","zip":"74055","distance":12.082651532186,"lon":"-95.833011","lat":"36.279622","theaterChainName":"Starplex Cinemas","ticketType":"STANDARD"},{"id":"4027","tribuneTheaterId":"2160","providerTheaterId":"","name":"B&B Claremore Cinema 8","address":"1407 W. Country Club Rd.","city":"Claremore","state":"OK","zip":"74017","distance":17.921891315294,"lon":"-95.625644","lat":"36.292387","theaterChainName":"B&B Theatres","ticketType":"STANDARD"},{"id":"1880","tribuneTheaterId":"5998","providerTheaterId":"","name":"Regal Bartlesville Movies Stadium 8 ","address":"2350 SE Washington Blvd.","city":"Bartlesville","state":"OK","zip":"74006","distance":18.549653205944,"lon":"-95.935","lat":"36.7151","theaterChainName":"Regal Cinemas","ticketType":"STANDARD"},{"id":"5146","tribuneTheaterId":"10552","providerTheaterId":"","name":"Circle Cinema","address":"8 S. Lewis Ave","city":"Tulsa","state":"OK","zip":"74104","distance":20.520921480152,"lon":"-95.9581","lat":"36.1596","theaterChainName":"Independent Chains","ticketType":"STANDARD"},{"id":"1278","tribuneTheaterId":"6003","providerTheaterId":"","name":"Regal Promenade Palace 12","address":"4107 S. Yale","city":"Tulsa","state":"OK","zip":"74135","distance":24.076435214413,"lon":"-95.919909","lat":"36.103023","theaterChainName":"Regal Cinemas","ticketType":"STANDARD"},{"id":"1324","tribuneTheaterId":"5248","providerTheaterId":"","name":"Cinemark Cinema 8 Sand Springs","address":"1112 East Charles Page Blvd.","city":"Sand Springs","state":"OK","zip":"74063","distance":24.527955536293,"lon":"-96.091597","lat":"36.138136","theaterChainName":"Cinemark","ticketType":"STANDARD"},{"id":"621","tribuneTheaterId":"8110","providerTheaterId":"143","name":"AMC Southroads 20","address":"4923 East 41st Street","city":"Tulsa","state":"OK","zip":"74135","distance":23.82389986533,"lon":"-95.919291","lat":"36.106648","theaterChainName":"AMC Theatres","ticketType":"STANDARD"}]