[{"id":"1880","name":"Regal Bartlesville Movies Stadium 8 ","address":"2350 SE Washington Blvd.","city":"Bartlesville","state":"OK","zip":"74006","distance":"18.550729751586914","lon":"-95.934998","lat":"36.715099","theaterChainName":"Regal Cinemas","ticketType":"STANDARD"},{"id":"1278","name":"Regal Promenade Palace 12","address":"4107 S. Yale","city":"Tulsa","state":"OK","zip":"74135","distance":"24.077869415283203","lon":"-95.919907","lat":"36.103024","theaterChainName":"Regal Cinemas","ticketType":"STANDARD"},{"id":"621","name":"AMC Southroads 20","address":"4923 East 41st Street","city":"Tulsa","state":"OK","zip":"74135","distance":"23.825389862060547","lon":"-95.919289","lat":"36.106647","theaterChainName":"AMC Theatres","ticketType":"STANDARD"},{"id":"5146","name":"Circle Cinema","address":"8 S. Lewis Ave","city":"Tulsa","state":"OK","zip":"74104","distance":"20.522216796875","lon":"-95.958099","lat":"36.159599","theaterChainName":"Independent Chains","ticketType":"STANDARD"},{"id":"1324","name":"Cinemark Cinema 8 Sand Springs","address":"1112 East Charles Page Blvd.","city":"Sand Springs","state":"OK","zip":"74063","distance":"24.529373168945312","lon":"-96.091599","lat":"36.138138","theaterChainName":"Cinemark","ticketType":"STANDARD"},{"id":"3041","name":"Owasso 12","address":"12601 E. 86th St. N.","city":"Owasso","state":"OK","zip":"74055","distance":"12.083508491516113","lon":"-95.833008","lat":"36.279621","theaterChainName":"Starplex Cinemas","ticketType":"STANDARD"},{"id":"4027","name":"B&B Claremore Cinema 8","address":"1407 W. Country Club Rd.","city":"Claremore","state":"OK","zip":"74017","distance":"17.92326545715332","lon":"-95.625641","lat":"36.292385","theaterChainName":"B&B Theatres","ticketType":"STANDARD"}]