[{"id":"2284","name":"B&B Starworld 20","address":"10301 S. Memorial Drive","city":"Tulsa","state":"OK","zip":"74133","distance":"23.607769012451172","lon":"-95.882858","lat":"36.013889","theaterChainName":"B&B Theatres","ticketType":"STANDARD"},{"id":"5610","name":"Broken Arrow Warren Theatre","address":"1700 West Aspen Creek Drive","city":"Broken Arrow","state":"OK","zip":"74011","distance":"19.27444076538086","lon":"-95.809883","lat":"35.991341","theaterChainName":"Independent Chains","ticketType":"STANDARD"},{"id":"2965","name":"Cinemark Tulsa 16","address":"10802 E. 71st St South","city":"Tulsa","state":"OK","zip":"74133","distance":"23.953140258789062","lon":"-95.856468","lat":"36.058445","theaterChainName":"Cinemark","ticketType":"STANDARD"},{"id":"4922","name":"Cinemark Broken Arrow","address":"1801 E. Hillside Drive","city":"Broken Arrow","state":"OK","zip":"74012","distance":"20.467876434326172","lon":"-95.770470","lat":"36.063290","theaterChainName":"Cinemark","ticketType":"STANDARD"},{"id":"2238","name":"Carmike 6 Muskogee","address":"2812 West Shawnee BYpass","city":"Muskogee","state":"OK","zip":"74401","distance":"8.601957321166992","lon":"-95.398399","lat":"35.769699","theaterChainName":"Carmike Cinemas","ticketType":"STANDARD"},{"id":"1549","name":"B&B Muskogee Arrowhead Mall 10","address":"501 N Main, Space #102","city":"Muskogee","state":"OK","zip":"74401","distance":"10.707215309143066","lon":"-95.366898","lat":"35.752399","theaterChainName":"B&B Theatres","ticketType":"STANDARD"}]