[{"id":"2284","name":"B&B Starworld 20","address":"10301 S. Memorial Drive","city":"Tulsa","state":"OK","zip":"74133","distance":"21.76527976989746","lon":"-95.882858","lat":"36.013889","theaterChainName":"B&B Theatres","ticketType":"STANDARD"},{"id":"5610","name":"Broken Arrow Warren Theatre","address":"1700 West Aspen Creek Drive","city":"Broken Arrow","state":"OK","zip":"74011","distance":"21.853769302368164","lon":"-95.809883","lat":"35.991341","theaterChainName":"Independent Chains","ticketType":"STANDARD"},{"id":"5874","name":"AMC Tulsa Hills 12","address":"8307 South Olympia Avenue West","city":"Tulsa","state":"OK","zip":"74132","distance":"22.883769989013672","lon":"-96.005142","lat":"36.042500","theaterChainName":"AMC Theatres","ticketType":"STANDARD"},{"id":"3709","name":"B&B Sapulpa Cinema 8","address":"1245 New Sapulpa Road","city":"Sapulpa","state":"OK","zip":"74066","distance":"21.8890323638916","lon":"-96.096024","lat":"36.016792","theaterChainName":"B&B Theatres","ticketType":"STANDARD"},{"id":"1737","name":"Orpheum Theatre - Okmulgee","address":"210 W. 7th","city":"Okmulgee","state":"OK","zip":"74447","distance":"6.265811920166016","lon":"-95.973183","lat":"35.622074","theaterChainName":"Independent Chains","ticketType":"STANDARD"}]