[{"id":"2284","name":"B&B Starworld 20","address":"10301 S. Memorial Drive","city":"Tulsa","state":"OK","zip":"74133","distance":"20.9186954498291","lon":"-95.882858","lat":"36.013889","theaterChainName":"B&B Theatres","ticketType":"STANDARD"},{"id":"5610","name":"Broken Arrow Warren Theatre","address":"1700 West Aspen Creek Drive","city":"Broken Arrow","state":"OK","zip":"74011","distance":"16.66109275817871","lon":"-95.809883","lat":"35.991341","theaterChainName":"Independent Chains","ticketType":"STANDARD"},{"id":"2965","name":"Cinemark Tulsa 16","address":"10802 E. 71st St South","city":"Tulsa","state":"OK","zip":"74133","distance":"20.23770523071289","lon":"-95.856468","lat":"36.058445","theaterChainName":"Cinemark","ticketType":"STANDARD"},{"id":"1319","name":"Cinemark Movies 8--Tulsa","address":"6808 S. Memorial #310","city":"Tulsa","state":"OK","zip":"74133","distance":"21.981353759765625","lon":"-95.887146","lat":"36.063858","theaterChainName":"Cinemark","ticketType":"STANDARD"},{"id":"5283","name":"Edison Park 8 Cinemas","address":"2235 Winkler Ave.","city":"Fort Myers","state":"FL","zip":"33901","distance":"22.148656845092773","lon":"-95.884888","lat":"36.076347","theaterChainName":"Independent Chains","ticketType":"STANDARD"},{"id":"4922","name":"Cinemark Broken Arrow","address":"1801 E. Hillside Drive","city":"Broken Arrow","state":"OK","zip":"74012","distance":"15.908655166625977","lon":"-95.770470","lat":"36.063290","theaterChainName":"Cinemark","ticketType":"STANDARD"},{"id":"1278","name":"Regal Promenade Palace 12","address":"4107 S. Yale","city":"Tulsa","state":"OK","zip":"74135","distance":"24.647321701049805","lon":"-95.919907","lat":"36.103024","theaterChainName":"Regal Cinemas","ticketType":"STANDARD"},{"id":"621","name":"AMC Southroads 20","address":"4923 East 41st Street","city":"Tulsa","state":"OK","zip":"74135","distance":"24.714139938354492","lon":"-95.919289","lat":"36.106647","theaterChainName":"AMC Theatres","ticketType":"STANDARD"},{"id":"4027","name":"B&B Claremore Cinema 8","address":"1407 W. Country Club Rd.","city":"Claremore","state":"OK","zip":"74017","distance":"23.558631896972656","lon":"-95.625641","lat":"36.292385","theaterChainName":"B&B Theatres","ticketType":"STANDARD"},{"id":"2238","name":"Carmike 6 Muskogee","address":"2812 West Shawnee BYpass","city":"Muskogee","state":"OK","zip":"74401","distance":"14.877437591552734","lon":"-95.398399","lat":"35.769699","theaterChainName":"Carmike Cinemas","ticketType":"STANDARD"},{"id":"1549","name":"B&B Muskogee Arrowhead Mall 10","address":"501 N Main, Space #102","city":"Muskogee","state":"OK","zip":"74401","distance":"16.755342483520508","lon":"-95.366898","lat":"35.752399","theaterChainName":"B&B Theatres","ticketType":"STANDARD"}]