[{"id":"2238","tribuneTheaterId":"5753","providerTheaterId":"","name":"Carmike 6 Muskogee","address":"2812 West Shawnee BYpass","city":"Muskogee","state":"OK","zip":"74401","distance":14.876502125848,"lon":"-95.398399","lat":"35.769699","theaterChainName":"Carmike Cinemas","ticketType":"STANDARD"},{"id":"1549","tribuneTheaterId":"8610","providerTheaterId":"","name":"B&B Muskogee Arrowhead Mall 10","address":"501 N Main, Space #102","city":"Muskogee","state":"OK","zip":"74401","distance":16.754288467306,"lon":"-95.366898","lat":"35.752399","theaterChainName":"B&B Theatres","ticketType":"STANDARD"},{"id":"4922","tribuneTheaterId":"10240","providerTheaterId":"","name":"Cinemark Broken Arrow","address":"1801 E. Hillside Drive","city":"Broken Arrow","state":"OK","zip":"74012","distance":15.907810831594,"lon":"-95.770472","lat":"36.063289","theaterChainName":"Cinemark","ticketType":"STANDARD"},{"id":"5610","tribuneTheaterId":"11069","providerTheaterId":"","name":"Broken Arrow Warren Theatre","address":"1700 West Aspen Creek Drive","city":"Broken Arrow","state":"OK","zip":"74011","distance":16.660194803421,"lon":"-95.809885","lat":"35.991339","theaterChainName":"Independent Chains","ticketType":"STANDARD"},{"id":"2965","tribuneTheaterId":"5250","providerTheaterId":"","name":"Cinemark Tulsa 16","address":"10802 E. 71st St South","city":"Tulsa","state":"OK","zip":"74133","distance":20.236431251249,"lon":"-95.856467","lat":"36.058445","theaterChainName":"Cinemark","ticketType":"STANDARD"},{"id":"2284","tribuneTheaterId":"5970","providerTheaterId":"","name":"B&B Starworld 20","address":"10301 S. Memorial Drive","city":"Tulsa","state":"OK","zip":"74133","distance":20.917336676934,"lon":"-95.882856","lat":"36.013891","theaterChainName":"B&B Theatres","ticketType":"STANDARD"},{"id":"1319","tribuneTheaterId":"5247","providerTheaterId":"","name":"Cinemark Movies 8--Tulsa","address":"6808 S. Memorial #310","city":"Tulsa","state":"OK","zip":"74133","distance":21.97989735981,"lon":"-95.887143","lat":"36.063859","theaterChainName":"Cinemark","ticketType":"STANDARD"},{"id":"5283","tribuneTheaterId":"10717","providerTheaterId":"","name":"Edison Park 8 Cinemas","address":"2235 Winkler Ave.","city":"Fort Myers","state":"FL","zip":"33901","distance":22.147487411759,"lon":"-95.88489","lat":"36.076349","theaterChainName":"Independent Chains","ticketType":"STANDARD"},{"id":"4027","tribuneTheaterId":"2160","providerTheaterId":"","name":"B&B Claremore Cinema 8","address":"1407 W. Country Club Rd.","city":"Claremore","state":"OK","zip":"74017","distance":23.557366351361,"lon":"-95.625644","lat":"36.292387","theaterChainName":"B&B Theatres","ticketType":"STANDARD"},{"id":"1278","tribuneTheaterId":"6003","providerTheaterId":"","name":"Regal Promenade Palace 12","address":"4107 S. Yale","city":"Tulsa","state":"OK","zip":"74135","distance":24.645946162957,"lon":"-95.919909","lat":"36.103023","theaterChainName":"Regal Cinemas","ticketType":"STANDARD"},{"id":"621","tribuneTheaterId":"8110","providerTheaterId":"143","name":"AMC Southroads 20","address":"4923 East 41st Street","city":"Tulsa","state":"OK","zip":"74135","distance":24.712786363426,"lon":"-95.919291","lat":"36.106648","theaterChainName":"AMC Theatres","ticketType":"STANDARD"}]