[{"id":"4488","name":"Moore Warren Theatre","address":"1000 S. Telephone Rd.","city":"Moore","state":"OK","zip":"73160","distance":"24.36513328552246","lon":"-97.494400","lat":"35.328098","theaterChainName":"Independent Chains","ticketType":"STANDARD"},{"id":"1409","name":"Cinemark Tinseltown USA Oklahoma City","address":"6001 North Martin Luther King Ave","city":"Oklahoma City","state":"OK","zip":"73111","distance":"23.695661544799805","lon":"-97.479713","lat":"35.531666","theaterChainName":"Cinemark","ticketType":"STANDARD"},{"id":"1020","name":"Crossroads Movies 8","address":"7400 Pole Rd.","city":"Oklahoma City","state":"OK","zip":"73149","distance":"23.031862258911133","lon":"-97.485901","lat":"35.392693","theaterChainName":"Independent Chains","ticketType":"STANDARD"},{"id":"2276","name":"AMC Crossroads Mall 16","address":"1211 E I-240","city":"Oklahoma City","state":"OK","zip":"73149","distance":"23.267436981201172","lon":"-97.490166","lat":"35.393181","theaterChainName":"AMC Theatres","ticketType":"STANDARD"},{"id":"4894","name":"Carmike Movies 6 Shawnee","address":"4901 N. Kickapoo Ste 1218","city":"Shawnee","state":"OK","zip":"74804","distance":"8.95478343963623","lon":"-96.927841","lat":"35.386009","theaterChainName":"Carmike Cinemas","ticketType":"STANDARD"},{"id":"3159","name":"Carmike Hornbeck & Penthouse Twin","address":"125 North Bell","city":"Shawnee","state":"OK","zip":"74801","distance":"11.137472152709961","lon":"-96.921951","lat":"35.328308","theaterChainName":"Carmike Cinemas","ticketType":"STANDARD"},{"id":"1657","name":"Carmike Cinema Centre 8","address":"3031 N Harrison","city":"Shawnee","state":"OK","zip":"74804","distance":"10.410323143005371","lon":"-96.910919","lat":"35.363552","theaterChainName":"Carmike Cinemas","ticketType":"STANDARD"}]