[{"id":"4716","tribuneTheaterId":"9931","providerTheaterId":"","name":"Strothers Cinema","address":"110 E. Strother","city":"Seminole","state":"OK","zip":"74868","distance":9.3219178497744,"lon":"-96.656384","lat":"35.232408","theaterChainName":"Independent Chains","ticketType":"STANDARD"},{"id":"3159","tribuneTheaterId":"4775","providerTheaterId":"","name":"Carmike Hornbeck & Penthouse Twin","address":"125 North Bell","city":"Shawnee","state":"OK","zip":"74801","distance":16.432917490656,"lon":"-96.92195","lat":"35.328309","theaterChainName":"Carmike Cinemas","ticketType":"STANDARD"},{"id":"1657","tribuneTheaterId":"4778","providerTheaterId":"","name":"Carmike Cinema Centre 8","address":"3031 N Harrison","city":"Shawnee","state":"OK","zip":"74804","distance":18.224559612375,"lon":"-96.910919","lat":"35.363552","theaterChainName":"Carmike Cinemas","ticketType":"STANDARD"},{"id":"4894","tribuneTheaterId":"10205","providerTheaterId":"","name":"Carmike Movies 6 Shawnee","address":"4901 N. Kickapoo Ste 1218","city":"Shawnee","state":"OK","zip":"74804","distance":20.041253749832,"lon":"-96.927838","lat":"35.386011","theaterChainName":"Carmike Cinemas","ticketType":"STANDARD"},{"id":"5433","tribuneTheaterId":"10873","providerTheaterId":"","name":"Cinemark Ada","address":"1090 Hillside Dr.","city":"Ada","state":"OK","zip":"74820","distance":23.907290165767,"lon":"-96.665654","lat":"34.79245","theaterChainName":"Cinemark","ticketType":"STANDARD"}]