[{"id":"1657","tribuneTheaterId":"4778","providerTheaterId":"","name":"Carmike Cinema Centre 8","address":"3031 N Harrison","city":"Shawnee","state":"OK","zip":"74804","distance":15.584109075329,"lon":"-96.910919","lat":"35.363552","theaterChainName":"Carmike Cinemas","ticketType":"STANDARD"},{"id":"4894","tribuneTheaterId":"10205","providerTheaterId":"","name":"Carmike Movies 6 Shawnee","address":"4901 N. Kickapoo Ste 1218","city":"Shawnee","state":"OK","zip":"74804","distance":15.399496466817,"lon":"-96.927838","lat":"35.386011","theaterChainName":"Carmike Cinemas","ticketType":"STANDARD"},{"id":"3159","tribuneTheaterId":"4775","providerTheaterId":"","name":"Carmike Hornbeck & Penthouse Twin","address":"125 North Bell","city":"Shawnee","state":"OK","zip":"74801","distance":17.702470296999,"lon":"-96.92195","lat":"35.328309","theaterChainName":"Carmike Cinemas","ticketType":"STANDARD"},{"id":"4716","tribuneTheaterId":"9931","providerTheaterId":"","name":"Strothers Cinema","address":"110 E. Strother","city":"Seminole","state":"OK","zip":"74868","distance":19.377287478039,"lon":"-96.656384","lat":"35.232408","theaterChainName":"Independent Chains","ticketType":"STANDARD"},{"id":"5934","tribuneTheaterId":"11365","providerTheaterId":"","name":"Crystal Theatre","address":"401 W. Broadway","city":"Okemah","state":"OK","zip":"74859","distance":23.114194974201,"lon":"-96.301782","lat":"35.431381","theaterChainName":"Independent Chains","ticketType":"STANDARD"}]