[{"id":"4894","name":"Carmike Movies 6 Shawnee","address":"4901 N. Kickapoo Ste 1218","city":"Shawnee","state":"OK","zip":"74804","distance":"15.400870323181152","lon":"-96.927841","lat":"35.386009","theaterChainName":"Carmike Cinemas","ticketType":"STANDARD"},{"id":"3159","name":"Carmike Hornbeck & Penthouse Twin","address":"125 North Bell","city":"Shawnee","state":"OK","zip":"74801","distance":"17.70386505126953","lon":"-96.921951","lat":"35.328308","theaterChainName":"Carmike Cinemas","ticketType":"STANDARD"},{"id":"1657","name":"Carmike Cinema Centre 8","address":"3031 N Harrison","city":"Shawnee","state":"OK","zip":"74804","distance":"15.585281372070312","lon":"-96.910919","lat":"35.363552","theaterChainName":"Carmike Cinemas","ticketType":"STANDARD"},{"id":"5934","name":"Crystal Theatre","address":"401 W. Broadway","city":"Okemah","state":"OK","zip":"74859","distance":"23.115571975708008","lon":"-96.301781","lat":"35.431381","theaterChainName":"Independent Chains","ticketType":"STANDARD"},{"id":"4716","name":"Strothers Cinema","address":"110 E. Strother","city":"Seminole","state":"OK","zip":"74868","distance":"19.378665924072266","lon":"-96.656387","lat":"35.232407","theaterChainName":"Independent Chains","ticketType":"STANDARD"}]