[{"id":"2156","tribuneTheaterId":"6714","providerTheaterId":"","name":"Carmike 14 Fort Smith","address":"5716 Townson Ave.","city":"Fort Smith","state":"AR","zip":"72906","distance":6.6047241533142,"lon":"-94.424336","lat":"35.329386","theaterChainName":"Carmike Cinemas","ticketType":"STANDARD"},{"id":"5963","tribuneTheaterId":"11394","providerTheaterId":"","name":"MovieLounge","address":"7601 Rogers Avenue","city":"Fort Smith","state":"AR","zip":"72903","distance":10.43877303283,"lon":"-94.348624","lat":"35.353229","theaterChainName":"Independent Chains","ticketType":"STANDARD"},{"id":"1470","tribuneTheaterId":"6040","providerTheaterId":"","name":"Malco Mall Trio","address":"5111 Rogers Ave.","city":"Fort Smith","state":"AR","zip":"72904","distance":10.391876766968,"lon":"-94.375552","lat":"35.369702","theaterChainName":"Malco Theatre","ticketType":"STANDARD"},{"id":"3391","tribuneTheaterId":"3199","providerTheaterId":"","name":"Malco Fort Smith Cinema 16","address":"1200 Waldron Rd., #140","city":"Fort Smith","state":"AR","zip":"72903","distance":10.402752515408,"lon":"-94.375477","lat":"35.36985","theaterChainName":"Malco Theatre","ticketType":"STANDARD"},{"id":"1763","tribuneTheaterId":"1477","providerTheaterId":"","name":"Poteau Theatre","address":"2214 N Broadway","city":"Poteau","state":"OK","zip":"74953","distance":17.118016464263,"lon":"-94.645082","lat":"35.038018","theaterChainName":"Independent Chains","ticketType":"STANDARD"},{"id":"4397","tribuneTheaterId":"9450","providerTheaterId":"","name":"Malco Van Buren Cinema","address":"1636 North 12th Court","city":"Van Buren","state":"AR","zip":"72956","distance":16.679985820808,"lon":"-94.345565","lat":"35.460308","theaterChainName":"Malco Theatre","ticketType":"STANDARD"}]