[{"id":"4448","tribuneTheaterId":"9528","providerTheaterId":"160","name":"AMC Highland Village 12","address":"4090 Barton Creek","city":"Highland Village","state":"TX","zip":"75077","distance":3.8585409586087,"lon":"-97.086083","lat":"33.07521","theaterChainName":"AMC Theatres","ticketType":"STANDARD"},{"id":"5740","tribuneTheaterId":"11182","providerTheaterId":"","name":"Cinemark Roanoke and XD","address":"850 E. HWY 114","city":"Roanoke","state":"TX","zip":"76262","distance":6.0053783102717,"lon":"-97.217286","lat":"32.998458","theaterChainName":"Cinemark","ticketType":"STANDARD"},{"id":"583","tribuneTheaterId":"5322","providerTheaterId":"175","name":"AMC Grapevine Mills 30","address":"3150 Grapevine Mills Parkway","city":"Grapevine","state":"TX","zip":"76051","distance":6.0016290733647,"lon":"-97.044586","lat":"32.966646","theaterChainName":"AMC Theatres","ticketType":"STANDARD"},{"id":"227","tribuneTheaterId":"8243","providerTheaterId":"","name":"Cinemark Tinseltown Grapevine","address":"911 State Highway. 114 West","city":"Grapevine","state":"TX","zip":"76051","distance":7.333708418264,"lon":"-97.0878","lat":"32.924","theaterChainName":"Cinemark","ticketType":"STANDARD"},{"id":"4260","tribuneTheaterId":"5200","providerTheaterId":"","name":"Cinemark Vista Ridge Mall 15","address":"2401 S. Stemmons Freeway, Suite 4","city":"Lewisville","state":"TX","zip":"75067","distance":8.7824711000091,"lon":"-96.970664","lat":"33.001844","theaterChainName":"Cinemark","ticketType":"STANDARD"},{"id":"5390","tribuneTheaterId":"10827","providerTheaterId":"","name":"Carmike Hickory Creek 16","address":"8380 S.Stemmons Freeway","city":"Hickory Creek","state":"TX","zip":"75065","distance":8.2317447364668,"lon":"-97.037902","lat":"33.124483","theaterChainName":"Carmike Cinemas","ticketType":"STANDARD"},{"id":"4349","tribuneTheaterId":"9365","providerTheaterId":"","name":"Studio Movie Grill Lewisville","address":"1600 S. Stemmons Freeway","city":"Lewisville","state":"TX","zip":"75067","distance":7.8612012463483,"lon":"-96.983679","lat":"33.022887","theaterChainName":"Studio Movie Grill","ticketType":"SELECT_SEATING"},{"id":"3045","tribuneTheaterId":"8760","providerTheaterId":"","name":"Cinemark Movies 8 Lewisville","address":"420 Oakbend Drive","city":"Lewisville","state":"TX","zip":"75067","distance":8.114872809189,"lon":"-96.980696","lat":"33.009853","theaterChainName":"Cinemark","ticketType":"STANDARD"},{"id":"5584","tribuneTheaterId":"11036","providerTheaterId":"","name":"Moviehouse and Eatery","address":"250 Rufe Snow Drive","city":"Keller","state":"TX","zip":"76248","distance":9.2507123230624,"lon":"-97.231874","lat":"32.93189","theaterChainName":"Independent Chains","ticketType":"STANDARD"},{"id":"5476","tribuneTheaterId":"10919","providerTheaterId":"","name":"Studio Movie Grill Colleyville","address":"5655 Colleyville Blvd. #300","city":"Colleyville","state":"TX","zip":"76034","distance":9.4767134504722,"lon":"-97.146345","lat":"32.891532","theaterChainName":"Studio Movie Grill","ticketType":"SELECT_SEATING"},{"id":"3952","tribuneTheaterId":"8103","providerTheaterId":"","name":"Cinemark 14 Denton","address":"2825 Wind River","city":"Denton","state":"TX","zip":"76210","distance":10.381254641615,"lon":"-97.098944","lat":"33.176079","theaterChainName":"Cinemark","ticketType":"STANDARD"},{"id":"3673","tribuneTheaterId":"3115","providerTheaterId":"","name":"Central Park Movie Tavern","address":"2404 Airport Freeway","city":"Bedford","state":"TX","zip":"76022","distance":13.201683044581,"lon":"-97.130005","lat":"32.835941","theaterChainName":"Movie Tavern","ticketType":"STANDARD"},{"id":"5165","tribuneTheaterId":"10572","providerTheaterId":"","name":"Cinemark Alliance Town Center and XD","address":"9228 Sage Meadow Trail","city":"Fort Worth","state":"TX","zip":"76177","distance":14.06611838395,"lon":"-97.31565","lat":"32.907184","theaterChainName":"Cinemark","ticketType":"STANDARD"},{"id":"3916","tribuneTheaterId":"2407","providerTheaterId":"","name":"North East Mall 18 + Xtreme","address":"1101 Melbourne Road","city":"Hurst","state":"TX","zip":"76053","distance":14.471100577621,"lon":"-97.200798","lat":"32.828843","theaterChainName":"Cinemark","ticketType":"STANDARD"},{"id":"311","tribuneTheaterId":"7652","providerTheaterId":"840","name":"AMC Irving Mall Cinemas 14","address":"2433 Irving Mall","city":"Irving","state":"TX","zip":"75062","distance":14.701706333394,"lon":"-96.99563","lat":"32.841053","theaterChainName":"AMC Theatres","ticketType":"STANDARD"},{"id":"1076","tribuneTheaterId":"2932","providerTheaterId":"","name":"Denton Movie Tavern","address":"916 W University Drive","city":"Denton","state":"TX","zip":"76201","distance":14.22046489084,"lon":"-97.143162","lat":"33.231643","theaterChainName":"Movie Tavern","ticketType":"STANDARD"},{"id":"515","tribuneTheaterId":"3132","providerTheaterId":"","name":"Starplex Irving Cinema 10","address":"4205 W. Pioneer Drive","city":"Irving","state":"TX","zip":"75061","distance":14.861354179151,"lon":"-97.007246","lat":"32.833361","theaterChainName":"Starplex Cinemas","ticketType":"STANDARD"},{"id":"5739","tribuneTheaterId":"11181","providerTheaterId":"","name":"Studio Movie Grill The Colony","address":"4880 State Highway 121","city":"Lewisville","state":"TX","zip":"75056","distance":13.92466336851,"lon":"-96.883695","lat":"33.066972","theaterChainName":"Studio Movie Grill","ticketType":"SELECT_SEATING"},{"id":"229","tribuneTheaterId":"7494","providerTheaterId":"","name":"Cinemark 17 and IMAX","address":"11819 Webb Chapel","city":"Dallas","state":"TX","zip":"75234","distance":16.303578363068,"lon":"-96.874496","lat":"32.910622","theaterChainName":"Cinemark","ticketType":"STANDARD"},{"id":"3862","tribuneTheaterId":"6260","providerTheaterId":"","name":"Angelika Film Center Plano","address":"7205 Bishop Rd. Suite E6","city":"Plano","state":"TX","zip":"75024","distance":17.586575548897,"lon":"-96.8214","lat":"33.0762","theaterChainName":"Reading International, Inc","ticketType":"STANDARD"},{"id":"5460","tribuneTheaterId":"10903","providerTheaterId":"","name":"Studio Movie Grill NorthWest Highway","address":"10110 Technology Blvd","city":"Dallas","state":"TX","zip":"75220","distance":17.539890312738,"lon":"-96.893622","lat":"32.857761","theaterChainName":"Studio Movie Grill","ticketType":"SELECT_SEATING"},{"id":"327","tribuneTheaterId":"7323","providerTheaterId":"","name":"Cinemark West Plano and XD","address":"3800 Dallas Parkway","city":"Plano","state":"TX","zip":"75093","distance":16.875681327353,"lon":"-96.8294","lat":"33.0512","theaterChainName":"Cinemark","ticketType":"STANDARD"},{"id":"318","tribuneTheaterId":"8848","providerTheaterId":"","name":"UA Fossil Creek Stadium 11","address":"6100 N. Freeway","city":"Fort Worth","state":"TX","zip":"76137","distance":16.328056683249,"lon":"-97.311873","lat":"32.854383","theaterChainName":"United Artists","ticketType":"STANDARD"},{"id":"5275","tribuneTheaterId":"10709","providerTheaterId":"165","name":"AMC Eastchase 9","address":"8301 Ederville Road","city":"Fort Worth","state":"TX","zip":"76120","distance":18.934182779106,"lon":"-97.1723","lat":"32.7564","theaterChainName":"AMC Theatres","ticketType":"STANDARD"},{"id":"3710","tribuneTheaterId":"7974","providerTheaterId":"150","name":"AMC Valley View 16","address":"13331 Preston Road, Suite 2300","city":"Dallas","state":"TX","zip":"75240","distance":19.251298048734,"lon":"-96.808144","lat":"32.929328","theaterChainName":"AMC Theatres","ticketType":"STANDARD"},{"id":"3059","tribuneTheaterId":"8252","providerTheaterId":"260","name":"AMC Stonebriar 24","address":"2601 Preston Rd. Suite 300","city":"Frisco","state":"TX","zip":"75034","distance":18.580808335198,"lon":"-96.810265","lat":"33.099204","theaterChainName":"AMC Theatres","ticketType":"STANDARD"},{"id":"6038","tribuneTheaterId":"11442","providerTheaterId":"","name":"Studio Movie Grill Lincoln Square","address":"452 Lincoln Square","city":"Arlington","state":"TX","zip":"76001","distance":18.658677246948,"lon":"-97.098665","lat":"32.757306","theaterChainName":"Studio Movie Grill","ticketType":"SELECT_SEATING"},{"id":"5508","tribuneTheaterId":"11030","providerTheaterId":"","name":"AMC Village on the Parkway 9","address":"5100 Belt Line Road","city":"Dallas","state":"TX","zip":"75254","distance":18.028425595014,"lon":"-96.8206","lat":"32.9539","theaterChainName":"AMC Theatres","ticketType":"STANDARD"},{"id":"82","tribuneTheaterId":"6409","providerTheaterId":"","name":"Studio Movie Grill Plano","address":"4721 W. Park Blvd.","city":"Plano","state":"TX","zip":"75093","distance":19.128788664123,"lon":"-96.789089","lat":"33.027907","theaterChainName":"Studio Movie Grill","ticketType":"SELECT_SEATING"},{"id":"4977","tribuneTheaterId":"10340","providerTheaterId":"","name":"Cinemark Frisco Square and XD","address":"5655 Frisco Square Blvd","city":"Frisco","state":"TX","zip":"75034","distance":18.422198257042,"lon":"-96.837128","lat":"33.150088","theaterChainName":"Cinemark","ticketType":"STANDARD"},{"id":"231","tribuneTheaterId":"8859","providerTheaterId":"","name":"Cinemark Movies 10 Plano","address":"1818 Coit Road","city":"Plano","state":"TX","zip":"75075","distance":20.307334783955,"lon":"-96.768753","lat":"33.025095","theaterChainName":"Cinemark","ticketType":"STANDARD"},{"id":"4461","tribuneTheaterId":"9552","providerTheaterId":"","name":"Studio Movie Grill-Dallas Royal","address":"11170  N. Central Expressway","city":"Dallas","state":"TX","zip":"75243","distance":22.21343495452,"lon":"-96.767134","lat":"32.900083","theaterChainName":"Studio Movie Grill","ticketType":"SELECT_SEATING"},{"id":"383","tribuneTheaterId":"5317","providerTheaterId":"252","name":"AMC Palace 9","address":"220 E. 3rd St.","city":"Fort Worth","state":"TX","zip":"76102","distance":22.383610740185,"lon":"-97.330362","lat":"32.755615","theaterChainName":"AMC Theatres","ticketType":"STANDARD"},{"id":"268","tribuneTheaterId":"6401","providerTheaterId":"","name":"Highland Park Village Theatre","address":"32 Highland Park Village","city":"Dallas","state":"TX","zip":"75205","distance":22.415872418616,"lon":"-96.806642","lat":"32.836039","theaterChainName":"Independent Chains","ticketType":"STANDARD"},{"id":"5242","tribuneTheaterId":"10670","providerTheaterId":"","name":"Studio Movie Grill Spring Valley","address":"13933 N. Central Expressway","city":"Dallas","state":"TX","zip":"75243","distance":22.201602043328,"lon":"-96.750852","lat":"32.938882","theaterChainName":"Studio Movie Grill","ticketType":"SELECT_SEATING"},{"id":"4831","tribuneTheaterId":"10107","providerTheaterId":"","name":"Movie Tavern at West 7th Street","address":"2872 Crockett St.","city":"Fort Worth","state":"TX","zip":"76107","distance":23.599778342393,"lon":"-97.357863","lat":"32.750151","theaterChainName":"Movie Tavern","ticketType":"STANDARD"},{"id":"3107","tribuneTheaterId":"3102","providerTheaterId":"","name":"Texas Movie Bistro","address":"3980 Boat Club Road","city":"Lake Worth","state":"TX","zip":"76135","distance":22.849815708731,"lon":"-97.419242","lat":"32.812382","theaterChainName":"Independent Chains","ticketType":"STANDARD"},{"id":"382","tribuneTheaterId":"3068","providerTheaterId":"","name":"Movie Tavern at Green Oaks","address":"5727 W. I-20","city":"Arlington","state":"TX","zip":"76016","distance":24.608658189202,"lon":"-97.195466","lat":"32.676429","theaterChainName":"Movie Tavern","ticketType":"STANDARD"},{"id":"4960","tribuneTheaterId":"10320","providerTheaterId":"","name":"Lake Worth Movies 14","address":"6600 NW Loop 820","city":"Fort Worth","state":"TX","zip":"76135","distance":23.711691055559,"lon":"-97.430035","lat":"32.803797","theaterChainName":"Starplex Cinemas","ticketType":"STANDARD"},{"id":"3574","tribuneTheaterId":"5321","providerTheaterId":"158","name":"AMC The Parks at Arlington 18","address":"3811 South Cooper Street","city":"Arlington","state":"TX","zip":"76015","distance":23.697572124067,"lon":"-97.1325","lat":"32.684","theaterChainName":"AMC Theatres","ticketType":"STANDARD"},{"id":"4202","tribuneTheaterId":"4253","providerTheaterId":"159","name":"AMC NorthPark 15","address":"8687 N. Central Expressway","city":"Dallas","state":"TX","zip":"75225","distance":22.919490534481,"lon":"-96.772748","lat":"32.867231","theaterChainName":"AMC Theatres","ticketType":"STANDARD"},{"id":"5322","tribuneTheaterId":"10759","providerTheaterId":"","name":"Alamo Drafthouse Richardson","address":"100 S. Central Expressway","city":"Richardson","state":"TX","zip":"75080","distance":22.865367123296,"lon":"-96.7355","lat":"32.9501","theaterChainName":"Alamo Drafthouse","ticketType":"STANDARD"},{"id":"4313","tribuneTheaterId":"2218","providerTheaterId":"","name":"Studio Movie Grill - Arlington","address":"225 Merchants Row","city":"Arlington","state":"TX","zip":"76018","distance":23.81998362445,"lon":"-97.10927","lat":"32.682152","theaterChainName":"Studio Movie Grill","ticketType":"SELECT_SEATING"},{"id":"312","tribuneTheaterId":"2970","providerTheaterId":"","name":"FunAsia Cinema","address":"1210 E. Belt Line Rd.","city":"Richardson","state":"TX","zip":"75081","distance":24.737433292605,"lon":"-96.7037","lat":"32.9452","theaterChainName":"FunAsiA","ticketType":"STANDARD"},{"id":"3237","tribuneTheaterId":"3105","providerTheaterId":"","name":"Angelika Film Center & Cafe","address":"5321 E. Mockingbird Lane","city":"Dallas","state":"TX","zip":"75206","distance":23.839948179294,"lon":"-96.775194","lat":"32.838014","theaterChainName":"Reading International, Inc","ticketType":"STANDARD"}]