[{"id":"229","name":"Cinemark 17 and IMAX","address":"11819 Webb Chapel","city":"Dallas","state":"TX","zip":"75234","distance":"12.786593437194824","lon":"-96.874496","lat":"32.910622","theaterChainName":"Cinemark","ticketType":"STANDARD"},{"id":"5508","name":"AMC Village on the Parkway 9","address":"5100 Belt Line Road","city":"Dallas","state":"TX","zip":"75254","distance":"8.517672538757324","lon":"-96.820602","lat":"32.953899","theaterChainName":"AMC Theatres","ticketType":"STANDARD"},{"id":"4260","name":"Cinemark Vista Ridge Mall 15","address":"2401 S. Stemmons Freeway, Suite 4","city":"Lewisville","state":"TX","zip":"75067","distance":"14.05378532409668","lon":"-96.970665","lat":"33.001842","theaterChainName":"Cinemark","ticketType":"STANDARD"},{"id":"5739","name":"Studio Movie Grill The Colony","address":"4880 State Highway 121","city":"Lewisville","state":"TX","zip":"75056","distance":"8.564038276672363","lon":"-96.883698","lat":"33.066971","theaterChainName":"Studio Movie Grill","ticketType":"SELECT_SEATING"},{"id":"327","name":"Cinemark West Plano and XD","address":"3800 Dallas Parkway","city":"Plano","state":"TX","zip":"75093","distance":"5.3864641189575195","lon":"-96.829399","lat":"33.051201","theaterChainName":"Cinemark","ticketType":"STANDARD"},{"id":"3045","name":"Cinemark Movies 8 Lewisville","address":"420 Oakbend Drive","city":"Lewisville","state":"TX","zip":"75067","distance":"14.48575210571289","lon":"-96.980698","lat":"33.009853","theaterChainName":"Cinemark","ticketType":"STANDARD"},{"id":"3710","name":"AMC Valley View 16","address":"13331 Preston Road, Suite 2300","city":"Dallas","state":"TX","zip":"75240","distance":"9.625128746032715","lon":"-96.808144","lat":"32.929329","theaterChainName":"AMC Theatres","ticketType":"STANDARD"},{"id":"4349","name":"Studio Movie Grill Lewisville","address":"1600 S. Stemmons Freeway","city":"Lewisville","state":"TX","zip":"75067","distance":"14.488526344299316","lon":"-96.983681","lat":"33.022888","theaterChainName":"Studio Movie Grill","ticketType":"SELECT_SEATING"},{"id":"82","name":"Studio Movie Grill Plano","address":"4721 W. Park Blvd.","city":"Plano","state":"TX","zip":"75093","distance":"3.574991226196289","lon":"-96.789085","lat":"33.027908","theaterChainName":"Studio Movie Grill","ticketType":"SELECT_SEATING"},{"id":"3862","name":"Angelika Film Center Plano","address":"7205 Bishop Rd. Suite E6","city":"Plano","state":"TX","zip":"75024","distance":"5.1298604011535645","lon":"-96.821404","lat":"33.076199","theaterChainName":"Reading International, Inc","ticketType":"STANDARD"},{"id":"5460","name":"Studio Movie Grill NorthWest Highway","address":"10110 Technology Blvd","city":"Dallas","state":"TX","zip":"75220","distance":"16.39289665222168","lon":"-96.893623","lat":"32.857761","theaterChainName":"Studio Movie Grill","ticketType":"SELECT_SEATING"},{"id":"231","name":"Cinemark Movies 10 Plano","address":"1818 Coit Road","city":"Plano","state":"TX","zip":"75075","distance":"2.7854743003845215","lon":"-96.768753","lat":"33.025097","theaterChainName":"Cinemark","ticketType":"STANDARD"},{"id":"3059","name":"AMC Stonebriar 24","address":"2601 Preston Rd. Suite 300","city":"Frisco","state":"TX","zip":"75034","distance":"5.250583171844482","lon":"-96.810265","lat":"33.099205","theaterChainName":"AMC Theatres","ticketType":"STANDARD"},{"id":"5242","name":"Studio Movie Grill Spring Valley","address":"13933 N. Central Expressway","city":"Dallas","state":"TX","zip":"75243","distance":"8.066555976867676","lon":"-96.750854","lat":"32.938881","theaterChainName":"Studio Movie Grill","ticketType":"SELECT_SEATING"},{"id":"4461","name":"Studio Movie Grill-Dallas Royal","address":"11170  N. Central Expressway","city":"Dallas","state":"TX","zip":"75243","distance":"10.8507661819458","lon":"-96.767136","lat":"32.900082","theaterChainName":"Studio Movie Grill","ticketType":"SELECT_SEATING"},{"id":"583","name":"AMC Grapevine Mills 30","address":"3150 Grapevine Mills Parkway","city":"Grapevine","state":"TX","zip":"76051","distance":"18.86635398864746","lon":"-97.044586","lat":"32.966644","theaterChainName":"AMC Theatres","ticketType":"STANDARD"},{"id":"5322","name":"Alamo Drafthouse Richardson","address":"100 S. Central Expressway","city":"Richardson","state":"TX","zip":"75080","distance":"7.248596668243408","lon":"-96.735497","lat":"32.950100","theaterChainName":"Alamo Drafthouse","ticketType":"STANDARD"},{"id":"4202","name":"AMC NorthPark 15","address":"8687 N. Central Expressway","city":"Dallas","state":"TX","zip":"75225","distance":"13.143594741821289","lon":"-96.772751","lat":"32.867229","theaterChainName":"AMC Theatres","ticketType":"STANDARD"},{"id":"268","name":"Highland Park Village Theatre","address":"32 Highland Park Village","city":"Dallas","state":"TX","zip":"75205","distance":"15.666674613952637","lon":"-96.806641","lat":"32.836040","theaterChainName":"Independent Chains","ticketType":"STANDARD"},{"id":"311","name":"AMC Irving Mall Cinemas 14","address":"2433 Irving Mall","city":"Irving","state":"TX","zip":"75062","distance":"21.078392028808594","lon":"-96.995628","lat":"32.841053","theaterChainName":"AMC Theatres","ticketType":"STANDARD"},{"id":"4977","name":"Cinemark Frisco Square and XD","address":"5655 Frisco Square Blvd","city":"Frisco","state":"TX","zip":"75034","distance":"8.780312538146973","lon":"-96.837128","lat":"33.150089","theaterChainName":"Cinemark","ticketType":"STANDARD"},{"id":"3237","name":"Angelika Film Center & Cafe","address":"5321 E. Mockingbird Lane","city":"Dallas","state":"TX","zip":"75206","distance":"15.160222053527832","lon":"-96.775192","lat":"32.838013","theaterChainName":"Reading International, Inc","ticketType":"STANDARD"},{"id":"515","name":"Starplex Irving Cinema 10","address":"4205 W. Pioneer Drive","city":"Irving","state":"TX","zip":"75061","distance":"21.932031631469727","lon":"-97.007248","lat":"32.833363","theaterChainName":"Starplex Cinemas","ticketType":"STANDARD"},{"id":"312","name":"FunAsia Cinema","address":"1210 E. Belt Line Rd.","city":"Richardson","state":"TX","zip":"75081","distance":"7.821376800537109","lon":"-96.703697","lat":"32.945202","theaterChainName":"FunAsiA","ticketType":"STANDARD"},{"id":"227","name":"Cinemark Tinseltown Grapevine","address":"911 State Highway. 114 West","city":"Grapevine","state":"TX","zip":"76051","distance":"22.281509399414062","lon":"-97.087799","lat":"32.924000","theaterChainName":"Cinemark","ticketType":"STANDARD"},{"id":"5390","name":"Carmike Hickory Creek 16","address":"8380 S.Stemmons Freeway","city":"Hickory Creek","state":"TX","zip":"75065","distance":"18.096773147583008","lon":"-97.037903","lat":"33.124481","theaterChainName":"Carmike Cinemas","ticketType":"STANDARD"},{"id":"4448","name":"AMC Highland Village 12","address":"4090 Barton Creek","city":"Highland Village","state":"TX","zip":"75077","distance":"20.29127311706543","lon":"-97.086082","lat":"33.075211","theaterChainName":"AMC Theatres","ticketType":"STANDARD"},{"id":"2534","name":"Cinemark Legacy and XD","address":"7201 N. Central Expressway","city":"Plano","state":"TX","zip":"75025","distance":"2.9837396144866943","lon":"-96.688599","lat":"33.070900","theaterChainName":"Cinemark","ticketType":"STANDARD"},{"id":"5867","name":"Alamo Drafthouse Dallas","address":"1005 S Lamar St","city":"Dallas","state":"TX","zip":"75215","distance":"20.03145408630371","lon":"-96.799194","lat":"32.769917","theaterChainName":"Alamo Drafthouse","ticketType":"STANDARD"},{"id":"220","name":"UA Galaxy Theatre Stadium 10","address":"11801 McCree Road","city":"Dallas","state":"TX","zip":"75238","distance":"13.29296875","lon":"-96.675591","lat":"32.869534","theaterChainName":"United Artists","ticketType":"STANDARD"},{"id":"225","name":"Cinemark Hollywood USA Movies 15","address":"4040 South Shiloh Road","city":"Garland","state":"TX","zip":"75041","distance":"13.544275283813477","lon":"-96.664413","lat":"32.868549","theaterChainName":"Cinemark","ticketType":"STANDARD"},{"id":"4204","name":"Cinemark Allen 16","address":"921 State Highway 121","city":"Allen","state":"TX","zip":"75013","distance":"7.140894412994385","lon":"-96.674065","lat":"33.144131","theaterChainName":"Cinemark","ticketType":"STANDARD"},{"id":"4150","name":"AMC Firewheel 18","address":"100 Coneflower Drive","city":"Garland","state":"TX","zip":"75040","distance":"10.12658405303955","lon":"-96.614014","lat":"32.950474","theaterChainName":"AMC Theatres","ticketType":"STANDARD"},{"id":"3952","name":"Cinemark 14 Denton","address":"2825 Wind River","city":"Denton","state":"TX","zip":"76210","distance":"22.582866668701172","lon":"-97.098946","lat":"33.176079","theaterChainName":"Cinemark","ticketType":"STANDARD"},{"id":"5379","name":"B&B Wylie 12 with Marquee Suites & GS","address":"711 Woodbridge Parkway","city":"Wylie","state":"TX","zip":"75098","distance":"9.871905326843262","lon":"-96.577599","lat":"33.003399","theaterChainName":"B&B Theatres","ticketType":"STANDARD"},{"id":"749","name":"AMC Mesquite 30","address":"19919 Lyndon b Johnson Freeway","city":"Mesquite","state":"TX","zip":"75149","distance":"19.466567993164062","lon":"-96.627274","lat":"32.788612","theaterChainName":"AMC Theatres","ticketType":"STANDARD"},{"id":"226","name":"Cinemark Movies 14 - McKinney","address":"1701 S. Central Expressway","city":"McKinney","state":"TX","zip":"75069","distance":"10.798253059387207","lon":"-96.637955","lat":"33.187702","theaterChainName":"Cinemark","ticketType":"STANDARD"},{"id":"514","name":"Starplex Mesquite Cinema 10","address":"227 U.S. Highway 80 E.","city":"Mesquite","state":"TX","zip":"75150","distance":"19.937618255615234","lon":"-96.597504","lat":"32.791100","theaterChainName":"Starplex Cinemas","ticketType":"STANDARD"},{"id":"4115","name":"Cinemark 12 Rockwall","address":"2125 Summer Lee","city":"Rockwall","state":"TX","zip":"75032","distance":"18.700353622436523","lon":"-96.479790","lat":"32.891102","theaterChainName":"Cinemark","ticketType":"STANDARD"}]