[{"id":"225","tribuneTheaterId":"7961","providerTheaterId":"","name":"Cinemark Hollywood USA Movies 15","address":"4040 South Shiloh Road","city":"Garland","state":"TX","zip":"75041","distance":1.5467934394956,"lon":"-96.664415","lat":"32.868549","theaterChainName":"Cinemark","ticketType":"STANDARD"},{"id":"220","tribuneTheaterId":"7584","providerTheaterId":"","name":"UA Galaxy Theatre Stadium 10","address":"11801 McCree Road","city":"Dallas","state":"TX","zip":"75238","distance":2.1142850386356,"lon":"-96.675589","lat":"32.869533","theaterChainName":"United Artists","ticketType":"STANDARD"},{"id":"4150","tribuneTheaterId":"4254","providerTheaterId":"266","name":"AMC Firewheel 18","address":"100 Coneflower Drive","city":"Garland","state":"TX","zip":"75040","distance":5.1559230145837,"lon":"-96.614014","lat":"32.950474","theaterChainName":"AMC Theatres","ticketType":"STANDARD"},{"id":"749","tribuneTheaterId":"8366","providerTheaterId":"269","name":"AMC Mesquite 30","address":"19919 Lyndon b Johnson Freeway","city":"Mesquite","state":"TX","zip":"75149","distance":6.3240356281721,"lon":"-96.627277","lat":"32.788611","theaterChainName":"AMC Theatres","ticketType":"STANDARD"},{"id":"514","tribuneTheaterId":"6478","providerTheaterId":"","name":"Starplex Mesquite Cinema 10","address":"227 U.S. Highway 80 E.","city":"Mesquite","state":"TX","zip":"75150","distance":6.6050831457623,"lon":"-96.597504","lat":"32.7911","theaterChainName":"Starplex Cinemas","ticketType":"STANDARD"},{"id":"312","tribuneTheaterId":"2970","providerTheaterId":"","name":"FunAsia Cinema","address":"1210 E. Belt Line Rd.","city":"Richardson","state":"TX","zip":"75081","distance":5.8183973715732,"lon":"-96.7037","lat":"32.9452","theaterChainName":"FunAsiA","ticketType":"STANDARD"},{"id":"4461","tribuneTheaterId":"9552","providerTheaterId":"","name":"Studio Movie Grill-Dallas Royal","address":"11170  N. Central Expressway","city":"Dallas","state":"TX","zip":"75243","distance":7.4506767933853,"lon":"-96.767134","lat":"32.900083","theaterChainName":"Studio Movie Grill","ticketType":"SELECT_SEATING"},{"id":"5242","tribuneTheaterId":"10670","providerTheaterId":"","name":"Studio Movie Grill Spring Valley","address":"13933 N. Central Expressway","city":"Dallas","state":"TX","zip":"75243","distance":7.5776070879073,"lon":"-96.750852","lat":"32.938882","theaterChainName":"Studio Movie Grill","ticketType":"SELECT_SEATING"},{"id":"4202","tribuneTheaterId":"4253","providerTheaterId":"159","name":"AMC NorthPark 15","address":"8687 N. Central Expressway","city":"Dallas","state":"TX","zip":"75225","distance":7.6856073906047,"lon":"-96.772748","lat":"32.867231","theaterChainName":"AMC Theatres","ticketType":"STANDARD"},{"id":"3237","tribuneTheaterId":"3105","providerTheaterId":"","name":"Angelika Film Center & Cafe","address":"5321 E. Mockingbird Lane","city":"Dallas","state":"TX","zip":"75206","distance":8.2913889344568,"lon":"-96.775194","lat":"32.838014","theaterChainName":"Reading International, Inc","ticketType":"STANDARD"},{"id":"5322","tribuneTheaterId":"10759","providerTheaterId":"","name":"Alamo Drafthouse Richardson","address":"100 S. Central Expressway","city":"Richardson","state":"TX","zip":"75080","distance":7.3377480831907,"lon":"-96.7355","lat":"32.9501","theaterChainName":"Alamo Drafthouse","ticketType":"STANDARD"},{"id":"3710","tribuneTheaterId":"7974","providerTheaterId":"150","name":"AMC Valley View 16","address":"13331 Preston Road, Suite 2300","city":"Dallas","state":"TX","zip":"75240","distance":10.285830866227,"lon":"-96.808144","lat":"32.929328","theaterChainName":"AMC Theatres","ticketType":"STANDARD"},{"id":"5379","tribuneTheaterId":"10814","providerTheaterId":"","name":"B&B Wylie 12 with Marquee Suites & GS","address":"711 Woodbridge Parkway","city":"Wylie","state":"TX","zip":"75098","distance":9.3252720270711,"lon":"-96.5776","lat":"33.0034","theaterChainName":"B&B Theatres","ticketType":"STANDARD"},{"id":"268","tribuneTheaterId":"6401","providerTheaterId":"","name":"Highland Park Village Theatre","address":"32 Highland Park Village","city":"Dallas","state":"TX","zip":"75205","distance":10.064284090542,"lon":"-96.806642","lat":"32.836039","theaterChainName":"Independent Chains","ticketType":"STANDARD"},{"id":"4115","tribuneTheaterId":"7195","providerTheaterId":"","name":"Cinemark 12 Rockwall","address":"2125 Summer Lee","city":"Rockwall","state":"TX","zip":"75032","distance":9.3944640862678,"lon":"-96.479788","lat":"32.891102","theaterChainName":"Cinemark","ticketType":"STANDARD"},{"id":"5867","tribuneTheaterId":"11283","providerTheaterId":"","name":"Alamo Drafthouse Dallas","address":"1005 S Lamar St","city":"Dallas","state":"TX","zip":"75215","distance":11.894324941682,"lon":"-96.799191","lat":"32.769918","theaterChainName":"Alamo Drafthouse","ticketType":"STANDARD"},{"id":"5508","tribuneTheaterId":"11030","providerTheaterId":"","name":"AMC Village on the Parkway 9","address":"5100 Belt Line Road","city":"Dallas","state":"TX","zip":"75254","distance":11.61419827837,"lon":"-96.8206","lat":"32.9539","theaterChainName":"AMC Theatres","ticketType":"STANDARD"},{"id":"231","tribuneTheaterId":"8859","providerTheaterId":"","name":"Cinemark Movies 10 Plano","address":"1818 Coit Road","city":"Plano","state":"TX","zip":"75075","distance":12.494432469059,"lon":"-96.768753","lat":"33.025095","theaterChainName":"Cinemark","ticketType":"STANDARD"},{"id":"82","tribuneTheaterId":"6409","providerTheaterId":"","name":"Studio Movie Grill Plano","address":"4721 W. Park Blvd.","city":"Plano","state":"TX","zip":"75093","distance":13.375359643059,"lon":"-96.789089","lat":"33.027907","theaterChainName":"Studio Movie Grill","ticketType":"SELECT_SEATING"},{"id":"229","tribuneTheaterId":"7494","providerTheaterId":"","name":"Cinemark 17 and IMAX","address":"11819 Webb Chapel","city":"Dallas","state":"TX","zip":"75234","distance":13.711318100104,"lon":"-96.874496","lat":"32.910622","theaterChainName":"Cinemark","ticketType":"STANDARD"},{"id":"2534","tribuneTheaterId":"5201","providerTheaterId":"","name":"Cinemark Legacy and XD","address":"7201 N. Central Expressway","city":"Plano","state":"TX","zip":"75025","distance":13.514783402083,"lon":"-96.6886","lat":"33.0709","theaterChainName":"Cinemark","ticketType":"STANDARD"},{"id":"4095","tribuneTheaterId":"2165","providerTheaterId":"","name":"Starplex Cinemas Forney Stadium 12","address":"600 N. FM 548","city":"Forney","state":"TX","zip":"75126","distance":14.519558511439,"lon":"-96.446016","lat":"32.74795","theaterChainName":"Starplex Cinemas","ticketType":"STANDARD"},{"id":"5460","tribuneTheaterId":"10903","providerTheaterId":"","name":"Studio Movie Grill NorthWest Highway","address":"10110 Technology Blvd","city":"Dallas","state":"TX","zip":"75220","distance":14.730595948113,"lon":"-96.893622","lat":"32.857761","theaterChainName":"Studio Movie Grill","ticketType":"SELECT_SEATING"},{"id":"327","tribuneTheaterId":"7323","providerTheaterId":"","name":"Cinemark West Plano and XD","address":"3800 Dallas Parkway","city":"Plano","state":"TX","zip":"75093","distance":16.126154277778,"lon":"-96.8294","lat":"33.0512","theaterChainName":"Cinemark","ticketType":"STANDARD"},{"id":"4204","tribuneTheaterId":"4232","providerTheaterId":"","name":"Cinemark Allen 16","address":"921 State Highway 121","city":"Allen","state":"TX","zip":"75013","distance":18.390455130023,"lon":"-96.674066","lat":"33.144129","theaterChainName":"Cinemark","ticketType":"STANDARD"},{"id":"3059","tribuneTheaterId":"8252","providerTheaterId":"260","name":"AMC Stonebriar 24","address":"2601 Preston Rd. Suite 300","city":"Frisco","state":"TX","zip":"75034","distance":18.076420062169,"lon":"-96.810265","lat":"33.099204","theaterChainName":"AMC Theatres","ticketType":"STANDARD"},{"id":"3862","tribuneTheaterId":"6260","providerTheaterId":"","name":"Angelika Film Center Plano","address":"7205 Bishop Rd. Suite E6","city":"Plano","state":"TX","zip":"75024","distance":17.149460064283,"lon":"-96.8214","lat":"33.0762","theaterChainName":"Reading International, Inc","ticketType":"STANDARD"},{"id":"5739","tribuneTheaterId":"11181","providerTheaterId":"","name":"Studio Movie Grill The Colony","address":"4880 State Highway 121","city":"Lewisville","state":"TX","zip":"75056","distance":19.123146090324,"lon":"-96.883695","lat":"33.066972","theaterChainName":"Studio Movie Grill","ticketType":"SELECT_SEATING"},{"id":"228","tribuneTheaterId":"8242","providerTheaterId":"","name":"Cinemark Movies 14 Lancaster","address":"3250 W Pleasant Run Road","city":"Lancaster","state":"TX","zip":"75146","distance":21.825378876144,"lon":"-96.821126","lat":"32.602177","theaterChainName":"Cinemark","ticketType":"STANDARD"},{"id":"226","tribuneTheaterId":"7960","providerTheaterId":"","name":"Cinemark Movies 14 - McKinney","address":"1701 S. Central Expressway","city":"McKinney","state":"TX","zip":"75069","distance":21.302522052981,"lon":"-96.637952","lat":"33.187704","theaterChainName":"Cinemark","ticketType":"STANDARD"},{"id":"3045","tribuneTheaterId":"8760","providerTheaterId":"","name":"Cinemark Movies 8 Lewisville","address":"420 Oakbend Drive","city":"Lewisville","state":"TX","zip":"75067","distance":21.655639500133,"lon":"-96.980696","lat":"33.009853","theaterChainName":"Cinemark","ticketType":"STANDARD"},{"id":"311","tribuneTheaterId":"7652","providerTheaterId":"840","name":"AMC Irving Mall Cinemas 14","address":"2433 Irving Mall","city":"Irving","state":"TX","zip":"75062","distance":20.746136766957,"lon":"-96.99563","lat":"32.841053","theaterChainName":"AMC Theatres","ticketType":"STANDARD"},{"id":"4260","tribuneTheaterId":"5200","providerTheaterId":"","name":"Cinemark Vista Ridge Mall 15","address":"2401 S. Stemmons Freeway, Suite 4","city":"Lewisville","state":"TX","zip":"75067","distance":20.898837173622,"lon":"-96.970664","lat":"33.001844","theaterChainName":"Cinemark","ticketType":"STANDARD"},{"id":"4349","tribuneTheaterId":"9365","providerTheaterId":"","name":"Studio Movie Grill Lewisville","address":"1600 S. Stemmons Freeway","city":"Lewisville","state":"TX","zip":"75067","distance":22.198991472701,"lon":"-96.983679","lat":"33.022887","theaterChainName":"Studio Movie Grill","ticketType":"SELECT_SEATING"},{"id":"4977","tribuneTheaterId":"10340","providerTheaterId":"","name":"Cinemark Frisco Square and XD","address":"5655 Frisco Square Blvd","city":"Frisco","state":"TX","zip":"75034","distance":21.881005229493,"lon":"-96.837128","lat":"33.150088","theaterChainName":"Cinemark","ticketType":"STANDARD"},{"id":"515","tribuneTheaterId":"3132","providerTheaterId":"","name":"Starplex Irving Cinema 10","address":"4205 W. Pioneer Drive","city":"Irving","state":"TX","zip":"75061","distance":21.488097738537,"lon":"-97.007246","lat":"32.833361","theaterChainName":"Starplex Cinemas","ticketType":"STANDARD"},{"id":"4657","tribuneTheaterId":"9856","providerTheaterId":"","name":"Hometown Cinemas Terrell","address":"301 Tanger Drive","city":"Terrell","state":"TX","zip":"75160","distance":24.129688812045,"lon":"-96.282549","lat":"32.703012","theaterChainName":"Independent Chains","ticketType":"STANDARD"},{"id":"583","tribuneTheaterId":"5322","providerTheaterId":"175","name":"AMC Grapevine Mills 30","address":"3150 Grapevine Mills Parkway","city":"Grapevine","state":"TX","zip":"76051","distance":24.164922191637,"lon":"-97.044586","lat":"32.966646","theaterChainName":"AMC Theatres","ticketType":"STANDARD"}]