[{"id":"229","name":"Cinemark 17 and IMAX","address":"11819 Webb Chapel","city":"Dallas","state":"TX","zip":"75234","distance":"13.712322235107422","lon":"-96.874496","lat":"32.910622","theaterChainName":"Cinemark","ticketType":"STANDARD"},{"id":"5508","name":"AMC Village on the Parkway 9","address":"5100 Belt Line Road","city":"Dallas","state":"TX","zip":"75254","distance":"11.615178108215332","lon":"-96.820602","lat":"32.953899","theaterChainName":"AMC Theatres","ticketType":"STANDARD"},{"id":"4260","name":"Cinemark Vista Ridge Mall 15","address":"2401 S. Stemmons Freeway, Suite 4","city":"Lewisville","state":"TX","zip":"75067","distance":"20.900293350219727","lon":"-96.970665","lat":"33.001842","theaterChainName":"Cinemark","ticketType":"STANDARD"},{"id":"5739","name":"Studio Movie Grill The Colony","address":"4880 State Highway 121","city":"Lewisville","state":"TX","zip":"75056","distance":"19.12454605102539","lon":"-96.883698","lat":"33.066971","theaterChainName":"Studio Movie Grill","ticketType":"SELECT_SEATING"},{"id":"327","name":"Cinemark West Plano and XD","address":"3800 Dallas Parkway","city":"Plano","state":"TX","zip":"75093","distance":"16.1273250579834","lon":"-96.829399","lat":"33.051201","theaterChainName":"Cinemark","ticketType":"STANDARD"},{"id":"3045","name":"Cinemark Movies 8 Lewisville","address":"420 Oakbend Drive","city":"Lewisville","state":"TX","zip":"75067","distance":"21.657230377197266","lon":"-96.980698","lat":"33.009853","theaterChainName":"Cinemark","ticketType":"STANDARD"},{"id":"3710","name":"AMC Valley View 16","address":"13331 Preston Road, Suite 2300","city":"Dallas","state":"TX","zip":"75240","distance":"10.286615371704102","lon":"-96.808144","lat":"32.929329","theaterChainName":"AMC Theatres","ticketType":"STANDARD"},{"id":"4349","name":"Studio Movie Grill Lewisville","address":"1600 S. Stemmons Freeway","city":"Lewisville","state":"TX","zip":"75067","distance":"22.200647354125977","lon":"-96.983681","lat":"33.022888","theaterChainName":"Studio Movie Grill","ticketType":"SELECT_SEATING"},{"id":"82","name":"Studio Movie Grill Plano","address":"4721 W. Park Blvd.","city":"Plano","state":"TX","zip":"75093","distance":"13.376285552978516","lon":"-96.789085","lat":"33.027908","theaterChainName":"Studio Movie Grill","ticketType":"SELECT_SEATING"},{"id":"3862","name":"Angelika Film Center Plano","address":"7205 Bishop Rd. Suite E6","city":"Plano","state":"TX","zip":"75024","distance":"17.15073013305664","lon":"-96.821404","lat":"33.076199","theaterChainName":"Reading International, Inc","ticketType":"STANDARD"},{"id":"5460","name":"Studio Movie Grill NorthWest Highway","address":"10110 Technology Blvd","city":"Dallas","state":"TX","zip":"75220","distance":"14.73168659210205","lon":"-96.893623","lat":"32.857761","theaterChainName":"Studio Movie Grill","ticketType":"SELECT_SEATING"},{"id":"231","name":"Cinemark Movies 10 Plano","address":"1818 Coit Road","city":"Plano","state":"TX","zip":"75075","distance":"12.495473861694336","lon":"-96.768753","lat":"33.025097","theaterChainName":"Cinemark","ticketType":"STANDARD"},{"id":"3059","name":"AMC Stonebriar 24","address":"2601 Preston Rd. Suite 300","city":"Frisco","state":"TX","zip":"75034","distance":"18.07774543762207","lon":"-96.810265","lat":"33.099205","theaterChainName":"AMC Theatres","ticketType":"STANDARD"},{"id":"5242","name":"Studio Movie Grill Spring Valley","address":"13933 N. Central Expressway","city":"Dallas","state":"TX","zip":"75243","distance":"7.5783162117004395","lon":"-96.750854","lat":"32.938881","theaterChainName":"Studio Movie Grill","ticketType":"SELECT_SEATING"},{"id":"4461","name":"Studio Movie Grill-Dallas Royal","address":"11170  N. Central Expressway","city":"Dallas","state":"TX","zip":"75243","distance":"7.451347351074219","lon":"-96.767136","lat":"32.900082","theaterChainName":"Studio Movie Grill","ticketType":"SELECT_SEATING"},{"id":"583","name":"AMC Grapevine Mills 30","address":"3150 Grapevine Mills Parkway","city":"Grapevine","state":"TX","zip":"76051","distance":"24.166540145874023","lon":"-97.044586","lat":"32.966644","theaterChainName":"AMC Theatres","ticketType":"STANDARD"},{"id":"5322","name":"Alamo Drafthouse Richardson","address":"100 S. Central Expressway","city":"Richardson","state":"TX","zip":"75080","distance":"7.338211536407471","lon":"-96.735497","lat":"32.950100","theaterChainName":"Alamo Drafthouse","ticketType":"STANDARD"},{"id":"4202","name":"AMC NorthPark 15","address":"8687 N. Central Expressway","city":"Dallas","state":"TX","zip":"75225","distance":"7.686361789703369","lon":"-96.772751","lat":"32.867229","theaterChainName":"AMC Theatres","ticketType":"STANDARD"},{"id":"268","name":"Highland Park Village Theatre","address":"32 Highland Park Village","city":"Dallas","state":"TX","zip":"75205","distance":"10.064876556396484","lon":"-96.806641","lat":"32.836040","theaterChainName":"Independent Chains","ticketType":"STANDARD"},{"id":"311","name":"AMC Irving Mall Cinemas 14","address":"2433 Irving Mall","city":"Irving","state":"TX","zip":"75062","distance":"20.747426986694336","lon":"-96.995628","lat":"32.841053","theaterChainName":"AMC Theatres","ticketType":"STANDARD"},{"id":"4977","name":"Cinemark Frisco Square and XD","address":"5655 Frisco Square Blvd","city":"Frisco","state":"TX","zip":"75034","distance":"21.882583618164062","lon":"-96.837128","lat":"33.150089","theaterChainName":"Cinemark","ticketType":"STANDARD"},{"id":"3237","name":"Angelika Film Center & Cafe","address":"5321 E. Mockingbird Lane","city":"Dallas","state":"TX","zip":"75206","distance":"8.29190731048584","lon":"-96.775192","lat":"32.838013","theaterChainName":"Reading International, Inc","ticketType":"STANDARD"},{"id":"515","name":"Starplex Irving Cinema 10","address":"4205 W. Pioneer Drive","city":"Irving","state":"TX","zip":"75061","distance":"21.489620208740234","lon":"-97.007248","lat":"32.833363","theaterChainName":"Starplex Cinemas","ticketType":"STANDARD"},{"id":"312","name":"FunAsia Cinema","address":"1210 E. Belt Line Rd.","city":"Richardson","state":"TX","zip":"75081","distance":"5.818918704986572","lon":"-96.703697","lat":"32.945202","theaterChainName":"FunAsiA","ticketType":"STANDARD"},{"id":"2534","name":"Cinemark Legacy and XD","address":"7201 N. Central Expressway","city":"Plano","state":"TX","zip":"75025","distance":"13.515737533569336","lon":"-96.688599","lat":"33.070900","theaterChainName":"Cinemark","ticketType":"STANDARD"},{"id":"5867","name":"Alamo Drafthouse Dallas","address":"1005 S Lamar St","city":"Dallas","state":"TX","zip":"75215","distance":"11.895292282104492","lon":"-96.799194","lat":"32.769917","theaterChainName":"Alamo Drafthouse","ticketType":"STANDARD"},{"id":"220","name":"UA Galaxy Theatre Stadium 10","address":"11801 McCree Road","city":"Dallas","state":"TX","zip":"75238","distance":"2.1145591735839844","lon":"-96.675591","lat":"32.869534","theaterChainName":"United Artists","ticketType":"STANDARD"},{"id":"225","name":"Cinemark Hollywood USA Movies 15","address":"4040 South Shiloh Road","city":"Garland","state":"TX","zip":"75041","distance":"1.5468441247940063","lon":"-96.664413","lat":"32.868549","theaterChainName":"Cinemark","ticketType":"STANDARD"},{"id":"4204","name":"Cinemark Allen 16","address":"921 State Highway 121","city":"Allen","state":"TX","zip":"75013","distance":"18.391830444335938","lon":"-96.674065","lat":"33.144131","theaterChainName":"Cinemark","ticketType":"STANDARD"},{"id":"4150","name":"AMC Firewheel 18","address":"100 Coneflower Drive","city":"Garland","state":"TX","zip":"75040","distance":"5.156308174133301","lon":"-96.614014","lat":"32.950474","theaterChainName":"AMC Theatres","ticketType":"STANDARD"},{"id":"5379","name":"B&B Wylie 12 with Marquee Suites & GS","address":"711 Woodbridge Parkway","city":"Wylie","state":"TX","zip":"75098","distance":"9.325872421264648","lon":"-96.577599","lat":"33.003399","theaterChainName":"B&B Theatres","ticketType":"STANDARD"},{"id":"749","name":"AMC Mesquite 30","address":"19919 Lyndon b Johnson Freeway","city":"Mesquite","state":"TX","zip":"75149","distance":"6.3242316246032715","lon":"-96.627274","lat":"32.788612","theaterChainName":"AMC Theatres","ticketType":"STANDARD"},{"id":"226","name":"Cinemark Movies 14 - McKinney","address":"1701 S. Central Expressway","city":"McKinney","state":"TX","zip":"75069","distance":"21.303829193115234","lon":"-96.637955","lat":"33.187702","theaterChainName":"Cinemark","ticketType":"STANDARD"},{"id":"514","name":"Starplex Mesquite Cinema 10","address":"227 U.S. Highway 80 E.","city":"Mesquite","state":"TX","zip":"75150","distance":"6.605379104614258","lon":"-96.597504","lat":"32.791100","theaterChainName":"Starplex Cinemas","ticketType":"STANDARD"},{"id":"4115","name":"Cinemark 12 Rockwall","address":"2125 Summer Lee","city":"Rockwall","state":"TX","zip":"75032","distance":"9.394841194152832","lon":"-96.479790","lat":"32.891102","theaterChainName":"Cinemark","ticketType":"STANDARD"},{"id":"4095","name":"Starplex Cinemas Forney Stadium 12","address":"600 N. FM 548","city":"Forney","state":"TX","zip":"75126","distance":"14.520304679870605","lon":"-96.446014","lat":"32.747952","theaterChainName":"Starplex Cinemas","ticketType":"STANDARD"},{"id":"4657","name":"Hometown Cinemas Terrell","address":"301 Tanger Drive","city":"Terrell","state":"TX","zip":"75160","distance":"24.13117790222168","lon":"-96.282547","lat":"32.703011","theaterChainName":"Independent Chains","ticketType":"STANDARD"},{"id":"228","name":"Cinemark Movies 14 Lancaster","address":"3250 W Pleasant Run Road","city":"Lancaster","state":"TX","zip":"75146","distance":"21.826786041259766","lon":"-96.821129","lat":"32.602177","theaterChainName":"Cinemark","ticketType":"STANDARD"}]