[{"id":"3686","tribuneTheaterId":"4223","providerTheaterId":"","name":"Cinemark Sherman","address":"3310 Town Center Street","city":"Sherman","state":"TX","zip":"75092","distance":17.095436929864,"lon":"-96.61171","lat":"33.674929","theaterChainName":"Cinemark","ticketType":"STANDARD"},{"id":"5260","tribuneTheaterId":"10691","providerTheaterId":"","name":"Midway Theaters","address":"4800 Texoma Parkway","city":"Sherman","state":"TX","zip":"75090","distance":18.48062184061,"lon":"-96.5828","lat":"33.6854","theaterChainName":"Independent Chains","ticketType":"STANDARD"},{"id":"226","tribuneTheaterId":"7960","providerTheaterId":"","name":"Cinemark Movies 14 - McKinney","address":"1701 S. Central Expressway","city":"McKinney","state":"TX","zip":"75069","distance":18.921007372731,"lon":"-96.637952","lat":"33.187704","theaterChainName":"Cinemark","ticketType":"STANDARD"},{"id":"4204","tribuneTheaterId":"4232","providerTheaterId":"","name":"Cinemark Allen 16","address":"921 State Highway 121","city":"Allen","state":"TX","zip":"75013","distance":21.382042526206,"lon":"-96.674066","lat":"33.144129","theaterChainName":"Cinemark","ticketType":"STANDARD"},{"id":"4977","tribuneTheaterId":"10340","providerTheaterId":"","name":"Cinemark Frisco Square and XD","address":"5655 Frisco Square Blvd","city":"Frisco","state":"TX","zip":"75034","distance":21.525945275137,"lon":"-96.837128","lat":"33.150088","theaterChainName":"Cinemark","ticketType":"STANDARD"},{"id":"3059","tribuneTheaterId":"8252","providerTheaterId":"260","name":"AMC Stonebriar 24","address":"2601 Preston Rd. Suite 300","city":"Frisco","state":"TX","zip":"75034","distance":24.599752661271,"lon":"-96.810265","lat":"33.099204","theaterChainName":"AMC Theatres","ticketType":"STANDARD"}]