[{"id":"4977","tribuneTheaterId":"10340","providerTheaterId":"","name":"Cinemark Frisco Square and XD","address":"5655 Frisco Square Blvd","city":"Frisco","state":"TX","zip":"75034","distance":6.4203365451172,"lon":"-96.837128","lat":"33.150088","theaterChainName":"Cinemark","ticketType":"STANDARD"},{"id":"4204","tribuneTheaterId":"4232","providerTheaterId":"","name":"Cinemark Allen 16","address":"921 State Highway 121","city":"Allen","state":"TX","zip":"75013","distance":9.4703973363346,"lon":"-96.674066","lat":"33.144129","theaterChainName":"Cinemark","ticketType":"STANDARD"},{"id":"226","tribuneTheaterId":"7960","providerTheaterId":"","name":"Cinemark Movies 14 - McKinney","address":"1701 S. Central Expressway","city":"McKinney","state":"TX","zip":"75069","distance":9.6987788727899,"lon":"-96.637952","lat":"33.187704","theaterChainName":"Cinemark","ticketType":"STANDARD"},{"id":"3059","tribuneTheaterId":"8252","providerTheaterId":"260","name":"AMC Stonebriar 24","address":"2601 Preston Rd. Suite 300","city":"Frisco","state":"TX","zip":"75034","distance":9.5044698768782,"lon":"-96.810265","lat":"33.099204","theaterChainName":"AMC Theatres","ticketType":"STANDARD"},{"id":"3862","tribuneTheaterId":"6260","providerTheaterId":"","name":"Angelika Film Center Plano","address":"7205 Bishop Rd. Suite E6","city":"Plano","state":"TX","zip":"75024","distance":11.156758702432,"lon":"-96.8214","lat":"33.0762","theaterChainName":"Reading International, Inc","ticketType":"STANDARD"},{"id":"327","tribuneTheaterId":"7323","providerTheaterId":"","name":"Cinemark West Plano and XD","address":"3800 Dallas Parkway","city":"Plano","state":"TX","zip":"75093","distance":12.932716122469,"lon":"-96.8294","lat":"33.0512","theaterChainName":"Cinemark","ticketType":"STANDARD"},{"id":"5739","tribuneTheaterId":"11181","providerTheaterId":"","name":"Studio Movie Grill The Colony","address":"4880 State Highway 121","city":"Lewisville","state":"TX","zip":"75056","distance":12.759403624091,"lon":"-96.883695","lat":"33.066972","theaterChainName":"Studio Movie Grill","ticketType":"SELECT_SEATING"},{"id":"2534","tribuneTheaterId":"5201","providerTheaterId":"","name":"Cinemark Legacy and XD","address":"7201 N. Central Expressway","city":"Plano","state":"TX","zip":"75025","distance":12.984928845396,"lon":"-96.6886","lat":"33.0709","theaterChainName":"Cinemark","ticketType":"STANDARD"},{"id":"231","tribuneTheaterId":"8859","providerTheaterId":"","name":"Cinemark Movies 10 Plano","address":"1818 Coit Road","city":"Plano","state":"TX","zip":"75075","distance":14.667203817841,"lon":"-96.768753","lat":"33.025095","theaterChainName":"Cinemark","ticketType":"STANDARD"},{"id":"82","tribuneTheaterId":"6409","providerTheaterId":"","name":"Studio Movie Grill Plano","address":"4721 W. Park Blvd.","city":"Plano","state":"TX","zip":"75093","distance":14.396282967063,"lon":"-96.789089","lat":"33.027907","theaterChainName":"Studio Movie Grill","ticketType":"SELECT_SEATING"},{"id":"5390","tribuneTheaterId":"10827","providerTheaterId":"","name":"Carmike Hickory Creek 16","address":"8380 S.Stemmons Freeway","city":"Hickory Creek","state":"TX","zip":"75065","distance":16.007360586354,"lon":"-97.037902","lat":"33.124483","theaterChainName":"Carmike Cinemas","ticketType":"STANDARD"},{"id":"3952","tribuneTheaterId":"8103","providerTheaterId":"","name":"Cinemark 14 Denton","address":"2825 Wind River","city":"Denton","state":"TX","zip":"76210","distance":18.033058147755,"lon":"-97.098944","lat":"33.176079","theaterChainName":"Cinemark","ticketType":"STANDARD"},{"id":"4349","tribuneTheaterId":"9365","providerTheaterId":"","name":"Studio Movie Grill Lewisville","address":"1600 S. Stemmons Freeway","city":"Lewisville","state":"TX","zip":"75067","distance":18.32767570604,"lon":"-96.983679","lat":"33.022887","theaterChainName":"Studio Movie Grill","ticketType":"SELECT_SEATING"},{"id":"1076","tribuneTheaterId":"2932","providerTheaterId":"","name":"Denton Movie Tavern","address":"916 W University Drive","city":"Denton","state":"TX","zip":"76201","distance":20.100457914491,"lon":"-97.143162","lat":"33.231643","theaterChainName":"Movie Tavern","ticketType":"STANDARD"},{"id":"4260","tribuneTheaterId":"5200","providerTheaterId":"","name":"Cinemark Vista Ridge Mall 15","address":"2401 S. Stemmons Freeway, Suite 4","city":"Lewisville","state":"TX","zip":"75067","distance":19.106516963471,"lon":"-96.970664","lat":"33.001844","theaterChainName":"Cinemark","ticketType":"STANDARD"},{"id":"3045","tribuneTheaterId":"8760","providerTheaterId":"","name":"Cinemark Movies 8 Lewisville","address":"420 Oakbend Drive","city":"Lewisville","state":"TX","zip":"75067","distance":18.961718561145,"lon":"-96.980696","lat":"33.009853","theaterChainName":"Cinemark","ticketType":"STANDARD"},{"id":"5379","tribuneTheaterId":"10814","providerTheaterId":"","name":"B&B Wylie 12 with Marquee Suites & GS","address":"711 Woodbridge Parkway","city":"Wylie","state":"TX","zip":"75098","distance":20.434640629151,"lon":"-96.5776","lat":"33.0034","theaterChainName":"B&B Theatres","ticketType":"STANDARD"},{"id":"5242","tribuneTheaterId":"10670","providerTheaterId":"","name":"Studio Movie Grill Spring Valley","address":"13933 N. Central Expressway","city":"Dallas","state":"TX","zip":"75243","distance":20.70391691125,"lon":"-96.750852","lat":"32.938882","theaterChainName":"Studio Movie Grill","ticketType":"SELECT_SEATING"},{"id":"4448","tribuneTheaterId":"9528","providerTheaterId":"160","name":"AMC Highland Village 12","address":"4090 Barton Creek","city":"Highland Village","state":"TX","zip":"75077","distance":20.160552456322,"lon":"-97.086083","lat":"33.07521","theaterChainName":"AMC Theatres","ticketType":"STANDARD"},{"id":"5322","tribuneTheaterId":"10759","providerTheaterId":"","name":"Alamo Drafthouse Richardson","address":"100 S. Central Expressway","city":"Richardson","state":"TX","zip":"75080","distance":20.069381425314,"lon":"-96.7355","lat":"32.9501","theaterChainName":"Alamo Drafthouse","ticketType":"STANDARD"},{"id":"5508","tribuneTheaterId":"11030","providerTheaterId":"","name":"AMC Village on the Parkway 9","address":"5100 Belt Line Road","city":"Dallas","state":"TX","zip":"75254","distance":19.559506383424,"lon":"-96.8206","lat":"32.9539","theaterChainName":"AMC Theatres","ticketType":"STANDARD"},{"id":"3710","tribuneTheaterId":"7974","providerTheaterId":"150","name":"AMC Valley View 16","address":"13331 Preston Road, Suite 2300","city":"Dallas","state":"TX","zip":"75240","distance":21.215631971128,"lon":"-96.808144","lat":"32.929328","theaterChainName":"AMC Theatres","ticketType":"STANDARD"},{"id":"312","tribuneTheaterId":"2970","providerTheaterId":"","name":"FunAsia Cinema","address":"1210 E. Belt Line Rd.","city":"Richardson","state":"TX","zip":"75081","distance":20.795058120076,"lon":"-96.7037","lat":"32.9452","theaterChainName":"FunAsiA","ticketType":"STANDARD"},{"id":"583","tribuneTheaterId":"5322","providerTheaterId":"175","name":"AMC Grapevine Mills 30","address":"3150 Grapevine Mills Parkway","city":"Grapevine","state":"TX","zip":"76051","distance":23.555991231792,"lon":"-97.044586","lat":"32.966646","theaterChainName":"AMC Theatres","ticketType":"STANDARD"},{"id":"229","tribuneTheaterId":"7494","providerTheaterId":"","name":"Cinemark 17 and IMAX","address":"11819 Webb Chapel","city":"Dallas","state":"TX","zip":"75234","distance":22.95666724886,"lon":"-96.874496","lat":"32.910622","theaterChainName":"Cinemark","ticketType":"STANDARD"},{"id":"4461","tribuneTheaterId":"9552","providerTheaterId":"","name":"Studio Movie Grill-Dallas Royal","address":"11170  N. Central Expressway","city":"Dallas","state":"TX","zip":"75243","distance":23.281032547563,"lon":"-96.767134","lat":"32.900083","theaterChainName":"Studio Movie Grill","ticketType":"SELECT_SEATING"},{"id":"4150","tribuneTheaterId":"4254","providerTheaterId":"266","name":"AMC Firewheel 18","address":"100 Coneflower Drive","city":"Garland","state":"TX","zip":"75040","distance":22.360163268888,"lon":"-96.614014","lat":"32.950474","theaterChainName":"AMC Theatres","ticketType":"STANDARD"}]