[{"id":"4115","tribuneTheaterId":"7195","providerTheaterId":"","name":"Cinemark 12 Rockwall","address":"2125 Summer Lee","city":"Rockwall","state":"TX","zip":"75032","distance":4.5790858570251,"lon":"-96.479788","lat":"32.891102","theaterChainName":"Cinemark","ticketType":"STANDARD"},{"id":"5379","tribuneTheaterId":"10814","providerTheaterId":"","name":"B&B Wylie 12 with Marquee Suites & GS","address":"711 Woodbridge Parkway","city":"Wylie","state":"TX","zip":"75098","distance":8.7166805283785,"lon":"-96.5776","lat":"33.0034","theaterChainName":"B&B Theatres","ticketType":"STANDARD"},{"id":"4150","tribuneTheaterId":"4254","providerTheaterId":"266","name":"AMC Firewheel 18","address":"100 Coneflower Drive","city":"Garland","state":"TX","zip":"75040","distance":9.9852587649459,"lon":"-96.614014","lat":"32.950474","theaterChainName":"AMC Theatres","ticketType":"STANDARD"},{"id":"220","tribuneTheaterId":"7584","providerTheaterId":"","name":"UA Galaxy Theatre Stadium 10","address":"11801 McCree Road","city":"Dallas","state":"TX","zip":"75238","distance":14.635706895835,"lon":"-96.675589","lat":"32.869533","theaterChainName":"United Artists","ticketType":"STANDARD"},{"id":"225","tribuneTheaterId":"7961","providerTheaterId":"","name":"Cinemark Hollywood USA Movies 15","address":"4040 South Shiloh Road","city":"Garland","state":"TX","zip":"75041","distance":14.06411833693,"lon":"-96.664415","lat":"32.868549","theaterChainName":"Cinemark","ticketType":"STANDARD"},{"id":"4095","tribuneTheaterId":"2165","providerTheaterId":"","name":"Starplex Cinemas Forney Stadium 12","address":"600 N. FM 548","city":"Forney","state":"TX","zip":"75126","distance":13.907180487982,"lon":"-96.446016","lat":"32.74795","theaterChainName":"Starplex Cinemas","ticketType":"STANDARD"},{"id":"514","tribuneTheaterId":"6478","providerTheaterId":"","name":"Starplex Mesquite Cinema 10","address":"227 U.S. Highway 80 E.","city":"Mesquite","state":"TX","zip":"75150","distance":14.176423865887,"lon":"-96.597504","lat":"32.7911","theaterChainName":"Starplex Cinemas","ticketType":"STANDARD"},{"id":"749","tribuneTheaterId":"8366","providerTheaterId":"269","name":"AMC Mesquite 30","address":"19919 Lyndon b Johnson Freeway","city":"Mesquite","state":"TX","zip":"75149","distance":15.458643617832,"lon":"-96.627277","lat":"32.788611","theaterChainName":"AMC Theatres","ticketType":"STANDARD"},{"id":"312","tribuneTheaterId":"2970","providerTheaterId":"","name":"FunAsia Cinema","address":"1210 E. Belt Line Rd.","city":"Richardson","state":"TX","zip":"75081","distance":15.187780096504,"lon":"-96.7037","lat":"32.9452","theaterChainName":"FunAsiA","ticketType":"STANDARD"},{"id":"5322","tribuneTheaterId":"10759","providerTheaterId":"","name":"Alamo Drafthouse Richardson","address":"100 S. Central Expressway","city":"Richardson","state":"TX","zip":"75080","distance":17.028706595975,"lon":"-96.7355","lat":"32.9501","theaterChainName":"Alamo Drafthouse","ticketType":"STANDARD"},{"id":"2534","tribuneTheaterId":"5201","providerTheaterId":"","name":"Cinemark Legacy and XD","address":"7201 N. Central Expressway","city":"Plano","state":"TX","zip":"75025","distance":16.588639542989,"lon":"-96.6886","lat":"33.0709","theaterChainName":"Cinemark","ticketType":"STANDARD"},{"id":"5242","tribuneTheaterId":"10670","providerTheaterId":"","name":"Studio Movie Grill Spring Valley","address":"13933 N. Central Expressway","city":"Dallas","state":"TX","zip":"75243","distance":17.934006419333,"lon":"-96.750852","lat":"32.938882","theaterChainName":"Studio Movie Grill","ticketType":"SELECT_SEATING"},{"id":"231","tribuneTheaterId":"8859","providerTheaterId":"","name":"Cinemark Movies 10 Plano","address":"1818 Coit Road","city":"Plano","state":"TX","zip":"75075","distance":19.660744513838,"lon":"-96.768753","lat":"33.025095","theaterChainName":"Cinemark","ticketType":"STANDARD"},{"id":"4461","tribuneTheaterId":"9552","providerTheaterId":"","name":"Studio Movie Grill-Dallas Royal","address":"11170  N. Central Expressway","city":"Dallas","state":"TX","zip":"75243","distance":19.170816636141,"lon":"-96.767134","lat":"32.900083","theaterChainName":"Studio Movie Grill","ticketType":"SELECT_SEATING"},{"id":"4204","tribuneTheaterId":"4232","providerTheaterId":"","name":"Cinemark Allen 16","address":"921 State Highway 121","city":"Allen","state":"TX","zip":"75013","distance":19.035427115416,"lon":"-96.674066","lat":"33.144129","theaterChainName":"Cinemark","ticketType":"STANDARD"},{"id":"4202","tribuneTheaterId":"4253","providerTheaterId":"159","name":"AMC NorthPark 15","address":"8687 N. Central Expressway","city":"Dallas","state":"TX","zip":"75225","distance":20.015188728521,"lon":"-96.772748","lat":"32.867231","theaterChainName":"AMC Theatres","ticketType":"STANDARD"},{"id":"4657","tribuneTheaterId":"9856","providerTheaterId":"","name":"Hometown Cinemas Terrell","address":"301 Tanger Drive","city":"Terrell","state":"TX","zip":"75160","distance":19.36052132802,"lon":"-96.282549","lat":"32.703012","theaterChainName":"Independent Chains","ticketType":"STANDARD"},{"id":"82","tribuneTheaterId":"6409","providerTheaterId":"","name":"Studio Movie Grill Plano","address":"4721 W. Park Blvd.","city":"Plano","state":"TX","zip":"75093","distance":20.848519318087,"lon":"-96.789089","lat":"33.027907","theaterChainName":"Studio Movie Grill","ticketType":"SELECT_SEATING"},{"id":"226","tribuneTheaterId":"7960","providerTheaterId":"","name":"Cinemark Movies 14 - McKinney","address":"1701 S. Central Expressway","city":"McKinney","state":"TX","zip":"75069","distance":20.013763295352,"lon":"-96.637952","lat":"33.187704","theaterChainName":"Cinemark","ticketType":"STANDARD"},{"id":"3237","tribuneTheaterId":"3105","providerTheaterId":"","name":"Angelika Film Center & Cafe","address":"5321 E. Mockingbird Lane","city":"Dallas","state":"TX","zip":"75206","distance":20.812009521002,"lon":"-96.775194","lat":"32.838014","theaterChainName":"Reading International, Inc","ticketType":"STANDARD"},{"id":"5508","tribuneTheaterId":"11030","providerTheaterId":"","name":"AMC Village on the Parkway 9","address":"5100 Belt Line Road","city":"Dallas","state":"TX","zip":"75254","distance":21.964576433364,"lon":"-96.8206","lat":"32.9539","theaterChainName":"AMC Theatres","ticketType":"STANDARD"},{"id":"3710","tribuneTheaterId":"7974","providerTheaterId":"150","name":"AMC Valley View 16","address":"13331 Preston Road, Suite 2300","city":"Dallas","state":"TX","zip":"75240","distance":21.287276344146,"lon":"-96.808144","lat":"32.929328","theaterChainName":"AMC Theatres","ticketType":"STANDARD"},{"id":"1923","tribuneTheaterId":"2296","providerTheaterId":"","name":"Majestic 12 Theatres","address":"1401 Joe Ramsey Blvd.","city":"Greenville","state":"TX","zip":"75401","distance":22.974991480526,"lon":"-96.096715","lat":"33.113121","theaterChainName":"Independent Chains","ticketType":"STANDARD"},{"id":"268","tribuneTheaterId":"6401","providerTheaterId":"","name":"Highland Park Village Theatre","address":"32 Highland Park Village","city":"Dallas","state":"TX","zip":"75205","distance":22.564871346855,"lon":"-96.806642","lat":"32.836039","theaterChainName":"Independent Chains","ticketType":"STANDARD"},{"id":"3059","tribuneTheaterId":"8252","providerTheaterId":"260","name":"AMC Stonebriar 24","address":"2601 Preston Rd. Suite 300","city":"Frisco","state":"TX","zip":"75034","distance":23.728535727415,"lon":"-96.810265","lat":"33.099204","theaterChainName":"AMC Theatres","ticketType":"STANDARD"},{"id":"327","tribuneTheaterId":"7323","providerTheaterId":"","name":"Cinemark West Plano and XD","address":"3800 Dallas Parkway","city":"Plano","state":"TX","zip":"75093","distance":23.539734952071,"lon":"-96.8294","lat":"33.0512","theaterChainName":"Cinemark","ticketType":"STANDARD"},{"id":"3862","tribuneTheaterId":"6260","providerTheaterId":"","name":"Angelika Film Center Plano","address":"7205 Bishop Rd. Suite E6","city":"Plano","state":"TX","zip":"75024","distance":23.679181977932,"lon":"-96.8214","lat":"33.0762","theaterChainName":"Reading International, Inc","ticketType":"STANDARD"},{"id":"5867","tribuneTheaterId":"11283","providerTheaterId":"","name":"Alamo Drafthouse Dallas","address":"1005 S Lamar St","city":"Dallas","state":"TX","zip":"75215","distance":24.15970061116,"lon":"-96.799191","lat":"32.769918","theaterChainName":"Alamo Drafthouse","ticketType":"STANDARD"}]