[{"id":"3686","tribuneTheaterId":"4223","providerTheaterId":"","name":"Cinemark Sherman","address":"3310 Town Center Street","city":"Sherman","state":"TX","zip":"75092","distance":2.6350621722621,"lon":"-96.61171","lat":"33.674929","theaterChainName":"Cinemark","ticketType":"STANDARD"},{"id":"5260","tribuneTheaterId":"10691","providerTheaterId":"","name":"Midway Theaters","address":"4800 Texoma Parkway","city":"Sherman","state":"TX","zip":"75090","distance":3.9092586514077,"lon":"-96.5828","lat":"33.6854","theaterChainName":"Independent Chains","ticketType":"STANDARD"},{"id":"1890","tribuneTheaterId":"1928","providerTheaterId":"","name":"Majestic 6 Theatre","address":"231 State Highway 121","city":"Bonham","state":"TX","zip":"75418","distance":24.460927454417,"lon":"-96.201557","lat":"33.567941","theaterChainName":"Independent Chains","ticketType":"STANDARD"},{"id":"5778","tribuneTheaterId":"11218","providerTheaterId":"","name":"The District Cinema","address":"4216 S. Highway 69\/75","city":"Durant","state":"OK","zip":"74701","distance":24.601565125303,"lon":"-96.413537","lat":"33.949923","theaterChainName":"Independent Chains","ticketType":"STANDARD"}]