[{"id":"4095","tribuneTheaterId":"2165","providerTheaterId":"","name":"Starplex Cinemas Forney Stadium 12","address":"600 N. FM 548","city":"Forney","state":"TX","zip":"75126","distance":8.3141406119827,"lon":"-96.446016","lat":"32.74795","theaterChainName":"Starplex Cinemas","ticketType":"STANDARD"},{"id":"4657","tribuneTheaterId":"9856","providerTheaterId":"","name":"Hometown Cinemas Terrell","address":"301 Tanger Drive","city":"Terrell","state":"TX","zip":"75160","distance":11.335035534545,"lon":"-96.282549","lat":"32.703012","theaterChainName":"Independent Chains","ticketType":"STANDARD"},{"id":"514","tribuneTheaterId":"6478","providerTheaterId":"","name":"Starplex Mesquite Cinema 10","address":"227 U.S. Highway 80 E.","city":"Mesquite","state":"TX","zip":"75150","distance":13.964825636925,"lon":"-96.597504","lat":"32.7911","theaterChainName":"Starplex Cinemas","ticketType":"STANDARD"},{"id":"749","tribuneTheaterId":"8366","providerTheaterId":"269","name":"AMC Mesquite 30","address":"19919 Lyndon b Johnson Freeway","city":"Mesquite","state":"TX","zip":"75149","distance":14.922642577989,"lon":"-96.627277","lat":"32.788611","theaterChainName":"AMC Theatres","ticketType":"STANDARD"},{"id":"4115","tribuneTheaterId":"7195","providerTheaterId":"","name":"Cinemark 12 Rockwall","address":"2125 Summer Lee","city":"Rockwall","state":"TX","zip":"75032","distance":18.238829747031,"lon":"-96.479788","lat":"32.891102","theaterChainName":"Cinemark","ticketType":"STANDARD"},{"id":"220","tribuneTheaterId":"7584","providerTheaterId":"","name":"UA Galaxy Theatre Stadium 10","address":"11801 McCree Road","city":"Dallas","state":"TX","zip":"75238","distance":21.020415682374,"lon":"-96.675589","lat":"32.869533","theaterChainName":"United Artists","ticketType":"STANDARD"},{"id":"225","tribuneTheaterId":"7961","providerTheaterId":"","name":"Cinemark Hollywood USA Movies 15","address":"4040 South Shiloh Road","city":"Garland","state":"TX","zip":"75041","distance":20.57738876376,"lon":"-96.664415","lat":"32.868549","theaterChainName":"Cinemark","ticketType":"STANDARD"},{"id":"228","tribuneTheaterId":"8242","providerTheaterId":"","name":"Cinemark Movies 14 Lancaster","address":"3250 W Pleasant Run Road","city":"Lancaster","state":"TX","zip":"75146","distance":21.335403329643,"lon":"-96.821126","lat":"32.602177","theaterChainName":"Cinemark","ticketType":"STANDARD"},{"id":"5867","tribuneTheaterId":"11283","providerTheaterId":"","name":"Alamo Drafthouse Dallas","address":"1005 S Lamar St","city":"Dallas","state":"TX","zip":"75215","distance":22.246868086798,"lon":"-96.799191","lat":"32.769918","theaterChainName":"Alamo Drafthouse","ticketType":"STANDARD"},{"id":"4150","tribuneTheaterId":"4254","providerTheaterId":"266","name":"AMC Firewheel 18","address":"100 Coneflower Drive","city":"Garland","state":"TX","zip":"75040","distance":24.107955432919,"lon":"-96.614014","lat":"32.950474","theaterChainName":"AMC Theatres","ticketType":"STANDARD"},{"id":"3237","tribuneTheaterId":"3105","providerTheaterId":"","name":"Angelika Film Center & Cafe","address":"5321 E. Mockingbird Lane","city":"Dallas","state":"TX","zip":"75206","distance":23.56613258693,"lon":"-96.775194","lat":"32.838014","theaterChainName":"Reading International, Inc","ticketType":"STANDARD"},{"id":"268","tribuneTheaterId":"6401","providerTheaterId":"","name":"Highland Park Village Theatre","address":"32 Highland Park Village","city":"Dallas","state":"TX","zip":"75205","distance":24.952552897748,"lon":"-96.806642","lat":"32.836039","theaterChainName":"Independent Chains","ticketType":"STANDARD"},{"id":"4202","tribuneTheaterId":"4253","providerTheaterId":"159","name":"AMC NorthPark 15","address":"8687 N. Central Expressway","city":"Dallas","state":"TX","zip":"75225","distance":24.752396178903,"lon":"-96.772748","lat":"32.867231","theaterChainName":"AMC Theatres","ticketType":"STANDARD"}]