[{"id":"1923","tribuneTheaterId":"2296","providerTheaterId":"","name":"Majestic 12 Theatres","address":"1401 Joe Ramsey Blvd.","city":"Greenville","state":"TX","zip":"75401","distance":8.804803580584,"lon":"-96.096715","lat":"33.113121","theaterChainName":"Independent Chains","ticketType":"STANDARD"},{"id":"4115","tribuneTheaterId":"7195","providerTheaterId":"","name":"Cinemark 12 Rockwall","address":"2125 Summer Lee","city":"Rockwall","state":"TX","zip":"75032","distance":18.560834620502,"lon":"-96.479788","lat":"32.891102","theaterChainName":"Cinemark","ticketType":"STANDARD"},{"id":"5379","tribuneTheaterId":"10814","providerTheaterId":"","name":"B&B Wylie 12 with Marquee Suites & GS","address":"711 Woodbridge Parkway","city":"Wylie","state":"TX","zip":"75098","distance":20.11314607082,"lon":"-96.5776","lat":"33.0034","theaterChainName":"B&B Theatres","ticketType":"STANDARD"},{"id":"4150","tribuneTheaterId":"4254","providerTheaterId":"266","name":"AMC Firewheel 18","address":"100 Coneflower Drive","city":"Garland","state":"TX","zip":"75040","distance":23.198023836738,"lon":"-96.614014","lat":"32.950474","theaterChainName":"AMC Theatres","ticketType":"STANDARD"},{"id":"226","tribuneTheaterId":"7960","providerTheaterId":"","name":"Cinemark Movies 14 - McKinney","address":"1701 S. Central Expressway","city":"McKinney","state":"TX","zip":"75069","distance":24.508747054323,"lon":"-96.637952","lat":"33.187704","theaterChainName":"Cinemark","ticketType":"STANDARD"}]