[{"id":"226","tribuneTheaterId":"7960","providerTheaterId":"","name":"Cinemark Movies 14 - McKinney","address":"1701 S. Central Expressway","city":"McKinney","state":"TX","zip":"75069","distance":16.49342823868,"lon":"-96.637952","lat":"33.187704","theaterChainName":"Cinemark","ticketType":"STANDARD"},{"id":"4204","tribuneTheaterId":"4232","providerTheaterId":"","name":"Cinemark Allen 16","address":"921 State Highway 121","city":"Allen","state":"TX","zip":"75013","distance":19.864996662149,"lon":"-96.674066","lat":"33.144129","theaterChainName":"Cinemark","ticketType":"STANDARD"},{"id":"1890","tribuneTheaterId":"1928","providerTheaterId":"","name":"Majestic 6 Theatre","address":"231 State Highway 121","city":"Bonham","state":"TX","zip":"75418","distance":21.106362175542,"lon":"-96.201557","lat":"33.567941","theaterChainName":"Independent Chains","ticketType":"STANDARD"},{"id":"1923","tribuneTheaterId":"2296","providerTheaterId":"","name":"Majestic 12 Theatres","address":"1401 Joe Ramsey Blvd.","city":"Greenville","state":"TX","zip":"75401","distance":21.573806614685,"lon":"-96.096715","lat":"33.113121","theaterChainName":"Independent Chains","ticketType":"STANDARD"},{"id":"5379","tribuneTheaterId":"10814","providerTheaterId":"","name":"B&B Wylie 12 with Marquee Suites & GS","address":"711 Woodbridge Parkway","city":"Wylie","state":"TX","zip":"75098","distance":23.559509020039,"lon":"-96.5776","lat":"33.0034","theaterChainName":"B&B Theatres","ticketType":"STANDARD"},{"id":"2534","tribuneTheaterId":"5201","providerTheaterId":"","name":"Cinemark Legacy and XD","address":"7201 N. Central Expressway","city":"Plano","state":"TX","zip":"75025","distance":23.70638533048,"lon":"-96.6886","lat":"33.0709","theaterChainName":"Cinemark","ticketType":"STANDARD"}]