[{"id":"226","tribuneTheaterId":"7960","providerTheaterId":"","name":"Cinemark Movies 14 - McKinney","address":"1701 S. Central Expressway","city":"McKinney","state":"TX","zip":"75069","distance":15.739887149442,"lon":"-96.637952","lat":"33.187704","theaterChainName":"Cinemark","ticketType":"STANDARD"},{"id":"4204","tribuneTheaterId":"4232","providerTheaterId":"","name":"Cinemark Allen 16","address":"921 State Highway 121","city":"Allen","state":"TX","zip":"75013","distance":19.392910816516,"lon":"-96.674066","lat":"33.144129","theaterChainName":"Cinemark","ticketType":"STANDARD"},{"id":"1890","tribuneTheaterId":"1928","providerTheaterId":"","name":"Majestic 6 Theatre","address":"231 State Highway 121","city":"Bonham","state":"TX","zip":"75418","distance":20.713458934328,"lon":"-96.201557","lat":"33.567941","theaterChainName":"Independent Chains","ticketType":"STANDARD"},{"id":"5260","tribuneTheaterId":"10691","providerTheaterId":"","name":"Midway Theaters","address":"4800 Texoma Parkway","city":"Sherman","state":"TX","zip":"75090","distance":23.331296466371,"lon":"-96.5828","lat":"33.6854","theaterChainName":"Independent Chains","ticketType":"STANDARD"},{"id":"3686","tribuneTheaterId":"4223","providerTheaterId":"","name":"Cinemark Sherman","address":"3310 Town Center Street","city":"Sherman","state":"TX","zip":"75092","distance":23.200823208536,"lon":"-96.61171","lat":"33.674929","theaterChainName":"Cinemark","ticketType":"STANDARD"},{"id":"2534","tribuneTheaterId":"5201","providerTheaterId":"","name":"Cinemark Legacy and XD","address":"7201 N. Central Expressway","city":"Plano","state":"TX","zip":"75025","distance":23.995506658038,"lon":"-96.6886","lat":"33.0709","theaterChainName":"Cinemark","ticketType":"STANDARD"}]