[{"id":"1838","tribuneTheaterId":"6815","providerTheaterId":"","name":"Carmike 10 Longview","address":"201 Tall Pines Rd.","city":"Longview","state":"TX","zip":"75605","distance":5.0148831527688,"lon":"-94.747438","lat":"32.537795","theaterChainName":"Carmike Cinemas","ticketType":"STANDARD"},{"id":"4153","tribuneTheaterId":"5140","providerTheaterId":"","name":"Regal Longview Stadium 14","address":"3070 N. Eastman Road","city":"Longview","state":"TX","zip":"75605","distance":5.1382802980136,"lon":"-94.7244","lat":"32.545783","theaterChainName":"Regal Cinemas","ticketType":"STANDARD"},{"id":"2187","tribuneTheaterId":"3976","providerTheaterId":"","name":"Four Star Cinema","address":"1607 US Hwy 259 S","city":"Kilgore","state":"TX","zip":"75662","distance":10.056079382259,"lon":"-94.856697","lat":"32.395758","theaterChainName":"Independent Chains","ticketType":"STANDARD"},{"id":"1929","tribuneTheaterId":"1486","providerTheaterId":"","name":"Circle Plaza Cinema 3","address":"1301 Lone Star St.","city":"Henderson","state":"TX","zip":"75652","distance":21.706925971456,"lon":"-94.783997","lat":"32.164501","theaterChainName":"Independent Chains","ticketType":"STANDARD"},{"id":"1922","tribuneTheaterId":"1831","providerTheaterId":"","name":"Marshall Cinema - Marshall, TX","address":"1901 East Travis Street","city":"Marshall","state":"TX","zip":"75670","distance":21.625021992898,"lon":"-94.348285","lat":"32.542084","theaterChainName":"Independent Chains","ticketType":"STANDARD"}]