[{"id":"2187","tribuneTheaterId":"3976","providerTheaterId":"","name":"Four Star Cinema","address":"1607 US Hwy 259 S","city":"Kilgore","state":"TX","zip":"75662","distance":2.3208214451212,"lon":"-94.856697","lat":"32.395758","theaterChainName":"Independent Chains","ticketType":"STANDARD"},{"id":"1838","tribuneTheaterId":"6815","providerTheaterId":"","name":"Carmike 10 Longview","address":"201 Tall Pines Rd.","city":"Longview","state":"TX","zip":"75605","distance":13.515029069938,"lon":"-94.747438","lat":"32.537795","theaterChainName":"Carmike Cinemas","ticketType":"STANDARD"},{"id":"4153","tribuneTheaterId":"5140","providerTheaterId":"","name":"Regal Longview Stadium 14","address":"3070 N. Eastman Road","city":"Longview","state":"TX","zip":"75605","distance":14.811446024595,"lon":"-94.7244","lat":"32.545783","theaterChainName":"Regal Cinemas","ticketType":"STANDARD"},{"id":"1929","tribuneTheaterId":"1486","providerTheaterId":"","name":"Circle Plaza Cinema 3","address":"1301 Lone Star St.","city":"Henderson","state":"TX","zip":"75652","distance":16.68711228671,"lon":"-94.783997","lat":"32.164501","theaterChainName":"Independent Chains","ticketType":"STANDARD"},{"id":"3980","tribuneTheaterId":"186","providerTheaterId":"","name":"Time Square Cinema","address":"5201 S. Broadway Ave. Suite 170","city":"Tyler","state":"TX","zip":"75703","distance":24.792321130909,"lon":"-95.304798","lat":"32.292476","theaterChainName":"Independent Chains","ticketType":"STANDARD"}]