[{"id":"1838","name":"Carmike 10 Longview","address":"201 Tall Pines Rd.","city":"Longview","state":"TX","zip":"75605","distance":"13.516048431396484","lon":"-94.747437","lat":"32.537796","theaterChainName":"Carmike Cinemas","ticketType":"STANDARD"},{"id":"4153","name":"Regal Longview Stadium 14","address":"3070 N. Eastman Road","city":"Longview","state":"TX","zip":"75605","distance":"14.81236457824707","lon":"-94.724403","lat":"32.545784","theaterChainName":"Regal Cinemas","ticketType":"STANDARD"},{"id":"2187","name":"Four Star Cinema","address":"1607 US Hwy 259 S","city":"Kilgore","state":"TX","zip":"75662","distance":"2.321165084838867","lon":"-94.856697","lat":"32.395760","theaterChainName":"Independent Chains","ticketType":"STANDARD"},{"id":"1929","name":"Circle Plaza Cinema 3","address":"1301 Lone Star St.","city":"Henderson","state":"TX","zip":"75652","distance":"16.68828773498535","lon":"-94.783997","lat":"32.164501","theaterChainName":"Independent Chains","ticketType":"STANDARD"},{"id":"3980","name":"Time Square Cinema","address":"5201 S. Broadway Ave. Suite 170","city":"Tyler","state":"TX","zip":"75703","distance":"24.7934627532959","lon":"-95.304794","lat":"32.292477","theaterChainName":"Independent Chains","ticketType":"STANDARD"}]