[{"id":"2187","name":"Four Star Cinema","address":"1607 US Hwy 259 S","city":"Kilgore","state":"TX","zip":"75662","distance":"20.70781898498535","lon":"-94.856697","lat":"32.395760","theaterChainName":"Independent Chains","ticketType":"STANDARD"},{"id":"3980","name":"Time Square Cinema","address":"5201 S. Broadway Ave. Suite 170","city":"Tyler","state":"TX","zip":"75703","distance":"10.327476501464844","lon":"-95.304794","lat":"32.292477","theaterChainName":"Independent Chains","ticketType":"STANDARD"},{"id":"1919","name":"Regal Tyler Rose Stadium 14","address":"1250 Loop 323 S. SW","city":"Tyler","state":"TX","zip":"75701","distance":"9.448721885681152","lon":"-95.338455","lat":"32.335094","theaterChainName":"Regal Cinemas","ticketType":"STANDARD"},{"id":"4016","name":"Carmike 14 Tyler","address":"7415 S. Broadway","city":"Tyler","state":"TX","zip":"75703","distance":"11.890922546386719","lon":"-95.309303","lat":"32.268463","theaterChainName":"Carmike Cinemas","ticketType":"STANDARD"},{"id":"5664","name":"Studio Movie Grill Tyler","address":"8954 S. Broadway Ave","city":"Tyler","state":"TX","zip":"75703","distance":"12.604523658752441","lon":"-95.307999","lat":"32.256199","theaterChainName":"Studio Movie Grill","ticketType":"SELECT_SEATING"}]