[{"id":"1919","tribuneTheaterId":"6006","providerTheaterId":"","name":"Regal Tyler Rose Stadium 14","address":"1250 Loop 323 S. SW","city":"Tyler","state":"TX","zip":"75701","distance":9.4481531591443,"lon":"-95.338454","lat":"32.335096","theaterChainName":"Regal Cinemas","ticketType":"STANDARD"},{"id":"3980","tribuneTheaterId":"186","providerTheaterId":"","name":"Time Square Cinema","address":"5201 S. Broadway Ave. Suite 170","city":"Tyler","state":"TX","zip":"75703","distance":10.32712014121,"lon":"-95.304798","lat":"32.292476","theaterChainName":"Independent Chains","ticketType":"STANDARD"},{"id":"5664","tribuneTheaterId":"11132","providerTheaterId":"","name":"Studio Movie Grill Tyler","address":"8954 S. Broadway Ave","city":"Tyler","state":"TX","zip":"75703","distance":12.603835500656,"lon":"-95.308","lat":"32.2562","theaterChainName":"Studio Movie Grill","ticketType":"SELECT_SEATING"},{"id":"4016","tribuneTheaterId":"4792","providerTheaterId":"","name":"Carmike 14 Tyler","address":"7415 S. Broadway","city":"Tyler","state":"TX","zip":"75703","distance":11.89013638757,"lon":"-95.309301","lat":"32.268465","theaterChainName":"Carmike Cinemas","ticketType":"STANDARD"},{"id":"2187","tribuneTheaterId":"3976","providerTheaterId":"","name":"Four Star Cinema","address":"1607 US Hwy 259 S","city":"Kilgore","state":"TX","zip":"75662","distance":20.706449868081,"lon":"-94.856697","lat":"32.395758","theaterChainName":"Independent Chains","ticketType":"STANDARD"}]