[{"id":"1919","tribuneTheaterId":"6006","providerTheaterId":"","name":"Regal Tyler Rose Stadium 14","address":"1250 Loop 323 S. SW","city":"Tyler","state":"TX","zip":"75701","distance":2.4511386161034,"lon":"-95.338454","lat":"32.335096","theaterChainName":"Regal Cinemas","ticketType":"STANDARD"},{"id":"3980","tribuneTheaterId":"186","providerTheaterId":"","name":"Time Square Cinema","address":"5201 S. Broadway Ave. Suite 170","city":"Tyler","state":"TX","zip":"75703","distance":4.0700757227546,"lon":"-95.304798","lat":"32.292476","theaterChainName":"Independent Chains","ticketType":"STANDARD"},{"id":"5664","tribuneTheaterId":"11132","providerTheaterId":"","name":"Studio Movie Grill Tyler","address":"8954 S. Broadway Ave","city":"Tyler","state":"TX","zip":"75703","distance":6.5831172723578,"lon":"-95.308","lat":"32.2562","theaterChainName":"Studio Movie Grill","ticketType":"SELECT_SEATING"},{"id":"4016","tribuneTheaterId":"4792","providerTheaterId":"","name":"Carmike 14 Tyler","address":"7415 S. Broadway","city":"Tyler","state":"TX","zip":"75703","distance":5.7433448921884,"lon":"-95.309301","lat":"32.268465","theaterChainName":"Carmike Cinemas","ticketType":"STANDARD"}]