[{"id":"3980","name":"Time Square Cinema","address":"5201 S. Broadway Ave. Suite 170","city":"Tyler","state":"TX","zip":"75703","distance":"18.605012893676758","lon":"-95.304794","lat":"32.292477","theaterChainName":"Independent Chains","ticketType":"STANDARD"},{"id":"1919","name":"Regal Tyler Rose Stadium 14","address":"1250 Loop 323 S. SW","city":"Tyler","state":"TX","zip":"75701","distance":"20.83953857421875","lon":"-95.338455","lat":"32.335094","theaterChainName":"Regal Cinemas","ticketType":"STANDARD"},{"id":"4016","name":"Carmike 14 Tyler","address":"7415 S. Broadway","city":"Tyler","state":"TX","zip":"75703","distance":"16.9669132232666","lon":"-95.309303","lat":"32.268463","theaterChainName":"Carmike Cinemas","ticketType":"STANDARD"},{"id":"5664","name":"Studio Movie Grill Tyler","address":"8954 S. Broadway Ave","city":"Tyler","state":"TX","zip":"75703","distance":"16.21772003173828","lon":"-95.307999","lat":"32.256199","theaterChainName":"Studio Movie Grill","ticketType":"SELECT_SEATING"},{"id":"3979","name":"Jackson Cinema 3","address":"1710 S. Jackson St.","city":"Jacksonville","state":"TX","zip":"75766","distance":"11.613389015197754","lon":"-95.257439","lat":"31.945372","theaterChainName":"Independent Chains","ticketType":"STANDARD"},{"id":"1754","name":"Schulman Dogwood 6","address":"545 E. Palestine Ave.","city":"Palestine","state":"TX","zip":"75801","distance":"22.12264060974121","lon":"-95.626160","lat":"31.773401","theaterChainName":"Schulman Theatres","ticketType":"STANDARD"}]