[{"id":"2187","tribuneTheaterId":"3976","providerTheaterId":"","name":"Four Star Cinema","address":"1607 US Hwy 259 S","city":"Kilgore","state":"TX","zip":"75662","distance":20.369045169125,"lon":"-94.856697","lat":"32.395758","theaterChainName":"Independent Chains","ticketType":"STANDARD"},{"id":"1838","tribuneTheaterId":"6815","providerTheaterId":"","name":"Carmike 10 Longview","address":"201 Tall Pines Rd.","city":"Longview","state":"TX","zip":"75605","distance":20.566046583171,"lon":"-94.747438","lat":"32.537795","theaterChainName":"Carmike Cinemas","ticketType":"STANDARD"},{"id":"4153","tribuneTheaterId":"5140","providerTheaterId":"","name":"Regal Longview Stadium 14","address":"3070 N. Eastman Road","city":"Longview","state":"TX","zip":"75605","distance":21.730011817061,"lon":"-94.7244","lat":"32.545783","theaterChainName":"Regal Cinemas","ticketType":"STANDARD"},{"id":"1919","tribuneTheaterId":"6006","providerTheaterId":"","name":"Regal Tyler Rose Stadium 14","address":"1250 Loop 323 S. SW","city":"Tyler","state":"TX","zip":"75701","distance":24.330185904531,"lon":"-95.338454","lat":"32.335096","theaterChainName":"Regal Cinemas","ticketType":"STANDARD"}]