[{"id":"3979","tribuneTheaterId":"1636","providerTheaterId":"","name":"Jackson Cinema 3","address":"1710 S. Jackson St.","city":"Jacksonville","state":"TX","zip":"75766","distance":11.612626914864,"lon":"-95.257441","lat":"31.945372","theaterChainName":"Independent Chains","ticketType":"STANDARD"},{"id":"5664","tribuneTheaterId":"11132","providerTheaterId":"","name":"Studio Movie Grill Tyler","address":"8954 S. Broadway Ave","city":"Tyler","state":"TX","zip":"75703","distance":16.216803537076,"lon":"-95.308","lat":"32.2562","theaterChainName":"Studio Movie Grill","ticketType":"SELECT_SEATING"},{"id":"4016","tribuneTheaterId":"4792","providerTheaterId":"","name":"Carmike 14 Tyler","address":"7415 S. Broadway","city":"Tyler","state":"TX","zip":"75703","distance":16.966077766087,"lon":"-95.309301","lat":"32.268465","theaterChainName":"Carmike Cinemas","ticketType":"STANDARD"},{"id":"3980","tribuneTheaterId":"186","providerTheaterId":"","name":"Time Square Cinema","address":"5201 S. Broadway Ave. Suite 170","city":"Tyler","state":"TX","zip":"75703","distance":18.603784087098,"lon":"-95.304798","lat":"32.292476","theaterChainName":"Independent Chains","ticketType":"STANDARD"},{"id":"1919","tribuneTheaterId":"6006","providerTheaterId":"","name":"Regal Tyler Rose Stadium 14","address":"1250 Loop 323 S. SW","city":"Tyler","state":"TX","zip":"75701","distance":20.838397969754,"lon":"-95.338454","lat":"32.335096","theaterChainName":"Regal Cinemas","ticketType":"STANDARD"},{"id":"1754","tribuneTheaterId":"1918","providerTheaterId":"","name":"Schulman Dogwood 6","address":"545 E. Palestine Ave.","city":"Palestine","state":"TX","zip":"75801","distance":22.121199200266,"lon":"-95.626159","lat":"31.773401","theaterChainName":"Schulman Theatres","ticketType":"STANDARD"}]