[{"id":"2784","tribuneTheaterId":"2233","providerTheaterId":"","name":"City Lights Theaters Weatherford","address":"1000 Cinema Drive","city":"Hudson Oaks","state":"TX","zip":"76087","distance":7.5092213314734,"lon":"-97.71623","lat":"32.754084","theaterChainName":"Schulman Theatres","ticketType":"STANDARD"},{"id":"3696","tribuneTheaterId":"3207","providerTheaterId":"","name":"Ridgmar 13 + Xtreme","address":"2300 Green Oaks Road","city":"Fort Worth","state":"TX","zip":"76116","distance":10.062488603163,"lon":"-97.437158","lat":"32.73952","theaterChainName":"Cinemark","ticketType":"STANDARD"},{"id":"4304","tribuneTheaterId":"2277","providerTheaterId":"","name":"Starplex Hulen Stadium 10","address":"6330 Hulen Bend Blvd","city":"Fort Worth","state":"TX","zip":"76132","distance":11.909433695164,"lon":"-97.404667","lat":"32.660532","theaterChainName":"Starplex Cinemas","ticketType":"STANDARD"},{"id":"4960","tribuneTheaterId":"10320","providerTheaterId":"","name":"Lake Worth Movies 14","address":"6600 NW Loop 820","city":"Fort Worth","state":"TX","zip":"76135","distance":12.373744873545,"lon":"-97.430035","lat":"32.803797","theaterChainName":"Starplex Cinemas","ticketType":"STANDARD"},{"id":"4412","tribuneTheaterId":"9471","providerTheaterId":"","name":"Hulen Movie Tavern","address":"4920 S. Hulen Road","city":"Fort Worth","state":"TX","zip":"76132","distance":11.871342639871,"lon":"-97.401457","lat":"32.678219","theaterChainName":"Movie Tavern","ticketType":"STANDARD"},{"id":"3107","tribuneTheaterId":"3102","providerTheaterId":"","name":"Texas Movie Bistro","address":"3980 Boat Club Road","city":"Lake Worth","state":"TX","zip":"76135","distance":13.2284351097,"lon":"-97.419242","lat":"32.812382","theaterChainName":"Independent Chains","ticketType":"STANDARD"},{"id":"4831","tribuneTheaterId":"10107","providerTheaterId":"","name":"Movie Tavern at West 7th Street","address":"2872 Crockett St.","city":"Fort Worth","state":"TX","zip":"76107","distance":14.708529269683,"lon":"-97.357863","lat":"32.750151","theaterChainName":"Movie Tavern","ticketType":"STANDARD"},{"id":"383","tribuneTheaterId":"5317","providerTheaterId":"252","name":"AMC Palace 9","address":"220 E. 3rd St.","city":"Fort Worth","state":"TX","zip":"76102","distance":16.350548726817,"lon":"-97.330362","lat":"32.755615","theaterChainName":"AMC Theatres","ticketType":"STANDARD"},{"id":"519","tribuneTheaterId":"2080","providerTheaterId":"","name":"America Cinemas","address":"4200 South Freeway","city":"Fort Worth","state":"TX","zip":"76115","distance":16.313017747212,"lon":"-97.323804","lat":"32.686994","theaterChainName":"Independent Chains","ticketType":"STANDARD"},{"id":"5982","tribuneTheaterId":"11418","providerTheaterId":"","name":"AMC Burleson 14","address":"301 W Rendon Crowley Road","city":"Burleson","state":"TX","zip":"76028","distance":18.385454268126,"lon":"-97.324355","lat":"32.576332","theaterChainName":"AMC Theatres","ticketType":"STANDARD"},{"id":"492","tribuneTheaterId":"8750","providerTheaterId":"","name":"Regal Burleson Movies Stadium 14 ","address":"301 W. Rendon-Crowley Road","city":"Burleson","state":"TX","zip":"76028","distance":18.405600907036,"lon":"-97.324069","lat":"32.576164","theaterChainName":"Regal Cinemas","ticketType":"STANDARD"},{"id":"4541","tribuneTheaterId":"9674","providerTheaterId":"","name":"Premiere Burleson Cinema","address":"1581 SW Wilshire Blvd.","city":"Burleson","state":"TX","zip":"76028","distance":19.599363272981,"lon":"-97.347357","lat":"32.516648","theaterChainName":"Premiere Cinemas","ticketType":"STANDARD"},{"id":"318","tribuneTheaterId":"8848","providerTheaterId":"","name":"UA Fossil Creek Stadium 11","address":"6100 N. Freeway","city":"Fort Worth","state":"TX","zip":"76137","distance":20.02465216974,"lon":"-97.311873","lat":"32.854383","theaterChainName":"United Artists","ticketType":"STANDARD"},{"id":"2839","tribuneTheaterId":"3010","providerTheaterId":"","name":"Showbiz Granbury 6","address":"1201 Water's Edge Drive","city":"Granbury","state":"TX","zip":"76048","distance":21.042481123425,"lon":"-97.77512","lat":"32.432203","theaterChainName":"ShowBiz Cinemas","ticketType":"STANDARD"},{"id":"5165","tribuneTheaterId":"10572","providerTheaterId":"","name":"Cinemark Alliance Town Center and XD","address":"9228 Sage Meadow Trail","city":"Fort Worth","state":"TX","zip":"76177","distance":22.00819524982,"lon":"-97.31565","lat":"32.907184","theaterChainName":"Cinemark","ticketType":"STANDARD"},{"id":"382","tribuneTheaterId":"3068","providerTheaterId":"","name":"Movie Tavern at Green Oaks","address":"5727 W. I-20","city":"Arlington","state":"TX","zip":"76016","distance":23.808225375241,"lon":"-97.195466","lat":"32.676429","theaterChainName":"Movie Tavern","ticketType":"STANDARD"}]