[{"id":"382","name":"Movie Tavern at Green Oaks","address":"5727 W. I-20","city":"Arlington","state":"TX","zip":"76016","distance":"23.809587478637695","lon":"-97.195465","lat":"32.676430","theaterChainName":"Movie Tavern","ticketType":"STANDARD"},{"id":"519","name":"America Cinemas","address":"4200 South Freeway","city":"Fort Worth","state":"TX","zip":"76115","distance":"16.313709259033203","lon":"-97.323807","lat":"32.686993","theaterChainName":"Independent Chains","ticketType":"STANDARD"},{"id":"383","name":"AMC Palace 9","address":"220 E. 3rd St.","city":"Fort Worth","state":"TX","zip":"76102","distance":"16.351470947265625","lon":"-97.330360","lat":"32.755615","theaterChainName":"AMC Theatres","ticketType":"STANDARD"},{"id":"492","name":"Regal Burleson Movies Stadium 14 ","address":"301 W. Rendon-Crowley Road","city":"Burleson","state":"TX","zip":"76028","distance":"18.40677261352539","lon":"-97.324066","lat":"32.576164","theaterChainName":"Regal Cinemas","ticketType":"STANDARD"},{"id":"5982","name":"AMC Burleson 14","address":"301 W Rendon Crowley Road","city":"Burleson","state":"TX","zip":"76028","distance":"18.38642692565918","lon":"-97.324356","lat":"32.576332","theaterChainName":"AMC Theatres","ticketType":"STANDARD"},{"id":"318","name":"UA Fossil Creek Stadium 11","address":"6100 N. Freeway","city":"Fort Worth","state":"TX","zip":"76137","distance":"20.02558135986328","lon":"-97.311874","lat":"32.854382","theaterChainName":"United Artists","ticketType":"STANDARD"},{"id":"4831","name":"Movie Tavern at West 7th Street","address":"2872 Crockett St.","city":"Fort Worth","state":"TX","zip":"76107","distance":"14.709202766418457","lon":"-97.357864","lat":"32.750153","theaterChainName":"Movie Tavern","ticketType":"STANDARD"},{"id":"4541","name":"Premiere Burleson Cinema","address":"1581 SW Wilshire Blvd.","city":"Burleson","state":"TX","zip":"76028","distance":"19.600461959838867","lon":"-97.347359","lat":"32.516647","theaterChainName":"Premiere Cinemas","ticketType":"STANDARD"},{"id":"4412","name":"Hulen Movie Tavern","address":"4920 S. Hulen Road","city":"Fort Worth","state":"TX","zip":"76132","distance":"11.87182331085205","lon":"-97.401459","lat":"32.678219","theaterChainName":"Movie Tavern","ticketType":"STANDARD"},{"id":"4304","name":"Starplex Hulen Stadium 10","address":"6330 Hulen Bend Blvd","city":"Fort Worth","state":"TX","zip":"76132","distance":"11.90978717803955","lon":"-97.404671","lat":"32.660534","theaterChainName":"Starplex Cinemas","ticketType":"STANDARD"},{"id":"5165","name":"Cinemark Alliance Town Center and XD","address":"9228 Sage Meadow Trail","city":"Fort Worth","state":"TX","zip":"76177","distance":"22.009357452392578","lon":"-97.315651","lat":"32.907185","theaterChainName":"Cinemark","ticketType":"STANDARD"},{"id":"3696","name":"Ridgmar 13 + Xtreme","address":"2300 Green Oaks Road","city":"Fort Worth","state":"TX","zip":"76116","distance":"10.063018798828125","lon":"-97.437157","lat":"32.739521","theaterChainName":"Cinemark","ticketType":"STANDARD"},{"id":"3107","name":"Texas Movie Bistro","address":"3980 Boat Club Road","city":"Lake Worth","state":"TX","zip":"76135","distance":"13.22901439666748","lon":"-97.419243","lat":"32.812382","theaterChainName":"Independent Chains","ticketType":"STANDARD"},{"id":"4960","name":"Lake Worth Movies 14","address":"6600 NW Loop 820","city":"Fort Worth","state":"TX","zip":"76135","distance":"12.374224662780762","lon":"-97.430038","lat":"32.803799","theaterChainName":"Starplex Cinemas","ticketType":"STANDARD"},{"id":"2839","name":"Showbiz Granbury 6","address":"1201 Water's Edge Drive","city":"Granbury","state":"TX","zip":"76048","distance":"21.04414176940918","lon":"-97.775124","lat":"32.432201","theaterChainName":"ShowBiz Cinemas","ticketType":"STANDARD"},{"id":"2784","name":"City Lights Theaters Weatherford","address":"1000 Cinema Drive","city":"Hudson Oaks","state":"TX","zip":"76087","distance":"7.509957790374756","lon":"-97.716232","lat":"32.754086","theaterChainName":"Schulman Theatres","ticketType":"STANDARD"}]