[{"id":"229","name":"Cinemark 17 and IMAX","address":"11819 Webb Chapel","city":"Dallas","state":"TX","zip":"75234","distance":"17.855087280273438","lon":"-96.874496","lat":"32.910622","theaterChainName":"Cinemark","ticketType":"STANDARD"},{"id":"5508","name":"AMC Village on the Parkway 9","address":"5100 Belt Line Road","city":"Dallas","state":"TX","zip":"75254","distance":"22.173906326293945","lon":"-96.820602","lat":"32.953899","theaterChainName":"AMC Theatres","ticketType":"STANDARD"},{"id":"4260","name":"Cinemark Vista Ridge Mall 15","address":"2401 S. Stemmons Freeway, Suite 4","city":"Lewisville","state":"TX","zip":"75067","distance":"20.503469467163086","lon":"-96.970665","lat":"33.001842","theaterChainName":"Cinemark","ticketType":"STANDARD"},{"id":"3045","name":"Cinemark Movies 8 Lewisville","address":"420 Oakbend Drive","city":"Lewisville","state":"TX","zip":"75067","distance":"20.85658073425293","lon":"-96.980698","lat":"33.009853","theaterChainName":"Cinemark","ticketType":"STANDARD"},{"id":"3710","name":"AMC Valley View 16","address":"13331 Preston Road, Suite 2300","city":"Dallas","state":"TX","zip":"75240","distance":"21.503000259399414","lon":"-96.808144","lat":"32.929329","theaterChainName":"AMC Theatres","ticketType":"STANDARD"},{"id":"4349","name":"Studio Movie Grill Lewisville","address":"1600 S. Stemmons Freeway","city":"Lewisville","state":"TX","zip":"75067","distance":"21.6751708984375","lon":"-96.983681","lat":"33.022888","theaterChainName":"Studio Movie Grill","ticketType":"SELECT_SEATING"},{"id":"5460","name":"Studio Movie Grill NorthWest Highway","address":"10110 Technology Blvd","city":"Dallas","state":"TX","zip":"75220","distance":"14.511688232421875","lon":"-96.893623","lat":"32.857761","theaterChainName":"Studio Movie Grill","ticketType":"SELECT_SEATING"},{"id":"5242","name":"Studio Movie Grill Spring Valley","address":"13933 N. Central Expressway","city":"Dallas","state":"TX","zip":"75243","distance":"24.47286605834961","lon":"-96.750854","lat":"32.938881","theaterChainName":"Studio Movie Grill","ticketType":"SELECT_SEATING"},{"id":"4461","name":"Studio Movie Grill-Dallas Royal","address":"11170  N. Central Expressway","city":"Dallas","state":"TX","zip":"75243","distance":"22.131139755249023","lon":"-96.767136","lat":"32.900082","theaterChainName":"Studio Movie Grill","ticketType":"SELECT_SEATING"},{"id":"583","name":"AMC Grapevine Mills 30","address":"3150 Grapevine Mills Parkway","city":"Grapevine","state":"TX","zip":"76051","distance":"17.157302856445312","lon":"-97.044586","lat":"32.966644","theaterChainName":"AMC Theatres","ticketType":"STANDARD"},{"id":"4202","name":"AMC NorthPark 15","address":"8687 N. Central Expressway","city":"Dallas","state":"TX","zip":"75225","distance":"20.660385131835938","lon":"-96.772751","lat":"32.867229","theaterChainName":"AMC Theatres","ticketType":"STANDARD"},{"id":"268","name":"Highland Park Village Theatre","address":"32 Highland Park Village","city":"Dallas","state":"TX","zip":"75205","distance":"17.91299819946289","lon":"-96.806641","lat":"32.836040","theaterChainName":"Independent Chains","ticketType":"STANDARD"},{"id":"311","name":"AMC Irving Mall Cinemas 14","address":"2433 Irving Mall","city":"Irving","state":"TX","zip":"75062","distance":"9.748360633850098","lon":"-96.995628","lat":"32.841053","theaterChainName":"AMC Theatres","ticketType":"STANDARD"},{"id":"3237","name":"Angelika Film Center & Cafe","address":"5321 E. Mockingbird Lane","city":"Dallas","state":"TX","zip":"75206","distance":"19.621013641357422","lon":"-96.775192","lat":"32.838013","theaterChainName":"Reading International, Inc","ticketType":"STANDARD"},{"id":"515","name":"Starplex Irving Cinema 10","address":"4205 W. Pioneer Drive","city":"Irving","state":"TX","zip":"75061","distance":"8.94923210144043","lon":"-97.007248","lat":"32.833363","theaterChainName":"Starplex Cinemas","ticketType":"STANDARD"},{"id":"227","name":"Cinemark Tinseltown Grapevine","address":"911 State Highway. 114 West","city":"Grapevine","state":"TX","zip":"76051","distance":"14.071366310119629","lon":"-97.087799","lat":"32.924000","theaterChainName":"Cinemark","ticketType":"STANDARD"},{"id":"4448","name":"AMC Highland Village 12","address":"4090 Barton Creek","city":"Highland Village","state":"TX","zip":"75077","distance":"24.517263412475586","lon":"-97.086082","lat":"33.075211","theaterChainName":"AMC Theatres","ticketType":"STANDARD"},{"id":"5867","name":"Alamo Drafthouse Dallas","address":"1005 S Lamar St","city":"Dallas","state":"TX","zip":"75215","distance":"16.822450637817383","lon":"-96.799194","lat":"32.769917","theaterChainName":"Alamo Drafthouse","ticketType":"STANDARD"},{"id":"5476","name":"Studio Movie Grill Colleyville","address":"5655 Colleyville Blvd. #300","city":"Colleyville","state":"TX","zip":"76034","distance":"12.390715599060059","lon":"-97.146347","lat":"32.891533","theaterChainName":"Studio Movie Grill","ticketType":"SELECT_SEATING"},{"id":"3673","name":"Central Park Movie Tavern","address":"2404 Airport Freeway","city":"Bedford","state":"TX","zip":"76022","distance":"8.44510269165039","lon":"-97.130005","lat":"32.835941","theaterChainName":"Movie Tavern","ticketType":"STANDARD"},{"id":"6038","name":"Studio Movie Grill Lincoln Square","address":"452 Lincoln Square","city":"Arlington","state":"TX","zip":"76001","distance":"2.7154064178466797","lon":"-97.098663","lat":"32.757305","theaterChainName":"Studio Movie Grill","ticketType":"SELECT_SEATING"},{"id":"228","name":"Cinemark Movies 14 Lancaster","address":"3250 W Pleasant Run Road","city":"Lancaster","state":"TX","zip":"75146","distance":"17.265262603759766","lon":"-96.821129","lat":"32.602177","theaterChainName":"Cinemark","ticketType":"STANDARD"},{"id":"6131","name":"Grand Prairie Premiere LUX Cine","address":"510 E. Westchester Parkway","city":"Grand Prairie","state":"TX","zip":"75052","distance":"5.637617588043213","lon":"-97.003502","lat":"32.673225","theaterChainName":"Premiere Cinemas","ticketType":"STANDARD"},{"id":"5865","name":"Turtle Creek 9","address":"1000 Turtle Creek Drive Suite A5","city":"Hattiesburg","state":"MS","zip":"39402","distance":"5.661966800689697","lon":"-97.003502","lat":"32.672619","theaterChainName":"Independent Chains","ticketType":"STANDARD"},{"id":"230","name":"Cinemark Movies 16 Grand Prairie","address":"220 Westchester Parkway","city":"Grand Prairie","state":"TX","zip":"75052","distance":"5.38215970993042","lon":"-97.009018","lat":"32.673153","theaterChainName":"Cinemark","ticketType":"STANDARD"},{"id":"4313","name":"Studio Movie Grill - Arlington","address":"225 Merchants Row","city":"Arlington","state":"TX","zip":"76018","distance":"3.0641794204711914","lon":"-97.109268","lat":"32.682152","theaterChainName":"Studio Movie Grill","ticketType":"SELECT_SEATING"},{"id":"3905","name":"Cinemark 14 Cedar Hill","address":"280 Uptown Blvd.","city":"Cedar Hill","state":"TX","zip":"75104","distance":"11.748120307922363","lon":"-96.949966","lat":"32.592194","theaterChainName":"Cinemark","ticketType":"STANDARD"},{"id":"3574","name":"AMC The Parks at Arlington 18","address":"3811 South Cooper Street","city":"Arlington","state":"TX","zip":"76015","distance":"3.8398306369781494","lon":"-97.132500","lat":"32.683998","theaterChainName":"AMC Theatres","ticketType":"STANDARD"},{"id":"4033","name":"Cinemark 12 Mansfield and XD","address":"2041 Highway 287 Suite 901","city":"Mansfield","state":"TX","zip":"76063","distance":"9.286947250366211","lon":"-97.148804","lat":"32.598099","theaterChainName":"Cinemark","ticketType":"STANDARD"},{"id":"5275","name":"AMC Eastchase 9","address":"8301 Ederville Road","city":"Fort Worth","state":"TX","zip":"76120","distance":"5.776430606842041","lon":"-97.172302","lat":"32.756401","theaterChainName":"AMC Theatres","ticketType":"STANDARD"},{"id":"382","name":"Movie Tavern at Green Oaks","address":"5727 W. I-20","city":"Arlington","state":"TX","zip":"76016","distance":"7.231837272644043","lon":"-97.195465","lat":"32.676430","theaterChainName":"Movie Tavern","ticketType":"STANDARD"},{"id":"3916","name":"North East Mall 18 + Xtreme","address":"1101 Melbourne Road","city":"Hurst","state":"TX","zip":"76053","distance":"10.163559913635254","lon":"-97.200798","lat":"32.828842","theaterChainName":"Cinemark","ticketType":"STANDARD"},{"id":"519","name":"America Cinemas","address":"4200 South Freeway","city":"Fort Worth","state":"TX","zip":"76115","distance":"14.213233947753906","lon":"-97.323807","lat":"32.686993","theaterChainName":"Independent Chains","ticketType":"STANDARD"},{"id":"383","name":"AMC Palace 9","address":"220 E. 3rd St.","city":"Fort Worth","state":"TX","zip":"76102","distance":"14.604142189025879","lon":"-97.330360","lat":"32.755615","theaterChainName":"AMC Theatres","ticketType":"STANDARD"},{"id":"5584","name":"Moviehouse and Eatery","address":"250 Rufe Snow Drive","city":"Keller","state":"TX","zip":"76248","distance":"16.99017333984375","lon":"-97.231873","lat":"32.931889","theaterChainName":"Independent Chains","ticketType":"STANDARD"},{"id":"492","name":"Regal Burleson Movies Stadium 14 ","address":"301 W. Rendon-Crowley Road","city":"Burleson","state":"TX","zip":"76028","distance":"17.22454833984375","lon":"-97.324066","lat":"32.576164","theaterChainName":"Regal Cinemas","ticketType":"STANDARD"},{"id":"5982","name":"AMC Burleson 14","address":"301 W Rendon Crowley Road","city":"Burleson","state":"TX","zip":"76028","distance":"17.23159408569336","lon":"-97.324356","lat":"32.576332","theaterChainName":"AMC Theatres","ticketType":"STANDARD"},{"id":"318","name":"UA Fossil Creek Stadium 11","address":"6100 N. Freeway","city":"Fort Worth","state":"TX","zip":"76137","distance":"16.219707489013672","lon":"-97.311874","lat":"32.854382","theaterChainName":"United Artists","ticketType":"STANDARD"},{"id":"4831","name":"Movie Tavern at West 7th Street","address":"2872 Crockett St.","city":"Fort Worth","state":"TX","zip":"76107","distance":"16.130615234375","lon":"-97.357864","lat":"32.750153","theaterChainName":"Movie Tavern","ticketType":"STANDARD"},{"id":"5740","name":"Cinemark Roanoke and XD","address":"850 E. HWY 114","city":"Roanoke","state":"TX","zip":"76262","distance":"20.74249267578125","lon":"-97.217285","lat":"32.998459","theaterChainName":"Cinemark","ticketType":"STANDARD"},{"id":"4541","name":"Premiere Burleson Cinema","address":"1581 SW Wilshire Blvd.","city":"Burleson","state":"TX","zip":"76028","distance":"20.872005462646484","lon":"-97.347359","lat":"32.516647","theaterChainName":"Premiere Cinemas","ticketType":"STANDARD"},{"id":"4412","name":"Hulen Movie Tavern","address":"4920 S. Hulen Road","city":"Fort Worth","state":"TX","zip":"76132","distance":"18.768125534057617","lon":"-97.401459","lat":"32.678219","theaterChainName":"Movie Tavern","ticketType":"STANDARD"},{"id":"4304","name":"Starplex Hulen Stadium 10","address":"6330 Hulen Bend Blvd","city":"Fort Worth","state":"TX","zip":"76132","distance":"19.180435180664062","lon":"-97.404671","lat":"32.660534","theaterChainName":"Starplex Cinemas","ticketType":"STANDARD"},{"id":"5165","name":"Cinemark Alliance Town Center and XD","address":"9228 Sage Meadow Trail","city":"Fort Worth","state":"TX","zip":"76177","distance":"18.701013565063477","lon":"-97.315651","lat":"32.907185","theaterChainName":"Cinemark","ticketType":"STANDARD"},{"id":"3696","name":"Ridgmar 13 + Xtreme","address":"2300 Green Oaks Road","city":"Fort Worth","state":"TX","zip":"76116","distance":"20.65134620666504","lon":"-97.437157","lat":"32.739521","theaterChainName":"Cinemark","ticketType":"STANDARD"},{"id":"3107","name":"Texas Movie Bistro","address":"3980 Boat Club Road","city":"Lake Worth","state":"TX","zip":"76135","distance":"20.56643295288086","lon":"-97.419243","lat":"32.812382","theaterChainName":"Independent Chains","ticketType":"STANDARD"},{"id":"4960","name":"Lake Worth Movies 14","address":"6600 NW Loop 820","city":"Fort Worth","state":"TX","zip":"76135","distance":"20.994333267211914","lon":"-97.430038","lat":"32.803799","theaterChainName":"Starplex Cinemas","ticketType":"STANDARD"}]