[{"id":"5275","tribuneTheaterId":"10709","providerTheaterId":"165","name":"AMC Eastchase 9","address":"8301 Ederville Road","city":"Fort Worth","state":"TX","zip":"76120","distance":2.1853044440249,"lon":"-97.1723","lat":"32.7564","theaterChainName":"AMC Theatres","ticketType":"STANDARD"},{"id":"6038","tribuneTheaterId":"11442","providerTheaterId":"","name":"Studio Movie Grill Lincoln Square","address":"452 Lincoln Square","city":"Arlington","state":"TX","zip":"76001","distance":2.1120658794032,"lon":"-97.098665","lat":"32.757306","theaterChainName":"Studio Movie Grill","ticketType":"SELECT_SEATING"},{"id":"3673","tribuneTheaterId":"3115","providerTheaterId":"","name":"Central Park Movie Tavern","address":"2404 Airport Freeway","city":"Bedford","state":"TX","zip":"76022","distance":5.6684199398949,"lon":"-97.130005","lat":"32.835941","theaterChainName":"Movie Tavern","ticketType":"STANDARD"},{"id":"4313","tribuneTheaterId":"2218","providerTheaterId":"","name":"Studio Movie Grill - Arlington","address":"225 Merchants Row","city":"Arlington","state":"TX","zip":"76018","distance":5.181306894134,"lon":"-97.10927","lat":"32.682152","theaterChainName":"Studio Movie Grill","ticketType":"SELECT_SEATING"},{"id":"3574","tribuneTheaterId":"5321","providerTheaterId":"158","name":"AMC The Parks at Arlington 18","address":"3811 South Cooper Street","city":"Arlington","state":"TX","zip":"76015","distance":4.8383788230781,"lon":"-97.1325","lat":"32.684","theaterChainName":"AMC Theatres","ticketType":"STANDARD"},{"id":"382","tribuneTheaterId":"3068","providerTheaterId":"","name":"Movie Tavern at Green Oaks","address":"5727 W. I-20","city":"Arlington","state":"TX","zip":"76016","distance":6.4158570988371,"lon":"-97.195466","lat":"32.676429","theaterChainName":"Movie Tavern","ticketType":"STANDARD"},{"id":"3916","tribuneTheaterId":"2407","providerTheaterId":"","name":"North East Mall 18 + Xtreme","address":"1101 Melbourne Road","city":"Hurst","state":"TX","zip":"76053","distance":6.4370423724727,"lon":"-97.200798","lat":"32.828843","theaterChainName":"Cinemark","ticketType":"STANDARD"},{"id":"515","tribuneTheaterId":"3132","providerTheaterId":"","name":"Starplex Irving Cinema 10","address":"4205 W. Pioneer Drive","city":"Irving","state":"TX","zip":"75061","distance":9.2170097337321,"lon":"-97.007246","lat":"32.833361","theaterChainName":"Starplex Cinemas","ticketType":"STANDARD"},{"id":"5476","tribuneTheaterId":"10919","providerTheaterId":"","name":"Studio Movie Grill Colleyville","address":"5655 Colleyville Blvd. #300","city":"Colleyville","state":"TX","zip":"76034","distance":9.52615425212,"lon":"-97.146345","lat":"32.891532","theaterChainName":"Studio Movie Grill","ticketType":"SELECT_SEATING"},{"id":"311","tribuneTheaterId":"7652","providerTheaterId":"840","name":"AMC Irving Mall Cinemas 14","address":"2433 Irving Mall","city":"Irving","state":"TX","zip":"75062","distance":10.075235963933,"lon":"-96.99563","lat":"32.841053","theaterChainName":"AMC Theatres","ticketType":"STANDARD"},{"id":"6131","tribuneTheaterId":"11548","providerTheaterId":"","name":"Grand Prairie Premiere LUX Cine","address":"510 E. Westchester Parkway","city":"Grand Prairie","state":"TX","zip":"75052","distance":9.4555474159966,"lon":"-97.003503","lat":"32.673225","theaterChainName":"Premiere Cinemas","ticketType":"STANDARD"},{"id":"230","tribuneTheaterId":"7962","providerTheaterId":"","name":"Cinemark Movies 16 Grand Prairie","address":"220 Westchester Parkway","city":"Grand Prairie","state":"TX","zip":"75052","distance":9.201576474575,"lon":"-97.00902","lat":"32.673154","theaterChainName":"Cinemark","ticketType":"STANDARD"},{"id":"5865","tribuneTheaterId":"11279","providerTheaterId":"","name":"Turtle Creek 9","address":"1000 Turtle Creek Drive Suite A5","city":"Hattiesburg","state":"MS","zip":"39402","distance":9.4803420560172,"lon":"-97.003503","lat":"32.672619","theaterChainName":"Independent Chains","ticketType":"STANDARD"},{"id":"4033","tribuneTheaterId":"4226","providerTheaterId":"","name":"Cinemark 12 Mansfield and XD","address":"2041 Highway 287 Suite 901","city":"Mansfield","state":"TX","zip":"76063","distance":10.802374915798,"lon":"-97.1488","lat":"32.5981","theaterChainName":"Cinemark","ticketType":"STANDARD"},{"id":"383","tribuneTheaterId":"5317","providerTheaterId":"252","name":"AMC Palace 9","address":"220 E. 3rd St.","city":"Fort Worth","state":"TX","zip":"76102","distance":11.364072594904,"lon":"-97.330362","lat":"32.755615","theaterChainName":"AMC Theatres","ticketType":"STANDARD"},{"id":"519","tribuneTheaterId":"2080","providerTheaterId":"","name":"America Cinemas","address":"4200 South Freeway","city":"Fort Worth","state":"TX","zip":"76115","distance":11.9222938134,"lon":"-97.323804","lat":"32.686994","theaterChainName":"Independent Chains","ticketType":"STANDARD"},{"id":"227","tribuneTheaterId":"8243","providerTheaterId":"","name":"Cinemark Tinseltown Grapevine","address":"911 State Highway. 114 West","city":"Grapevine","state":"TX","zip":"76051","distance":12.058592965175,"lon":"-97.0878","lat":"32.924","theaterChainName":"Cinemark","ticketType":"STANDARD"},{"id":"4831","tribuneTheaterId":"10107","providerTheaterId":"","name":"Movie Tavern at West 7th Street","address":"2872 Crockett St.","city":"Fort Worth","state":"TX","zip":"76107","distance":12.964650754938,"lon":"-97.357863","lat":"32.750151","theaterChainName":"Movie Tavern","ticketType":"STANDARD"},{"id":"318","tribuneTheaterId":"8848","providerTheaterId":"","name":"UA Fossil Creek Stadium 11","address":"6100 N. Freeway","city":"Fort Worth","state":"TX","zip":"76137","distance":12.403831047506,"lon":"-97.311873","lat":"32.854383","theaterChainName":"United Artists","ticketType":"STANDARD"},{"id":"5584","tribuneTheaterId":"11036","providerTheaterId":"","name":"Moviehouse and Eatery","address":"250 Rufe Snow Drive","city":"Keller","state":"TX","zip":"76248","distance":13.521208423483,"lon":"-97.231874","lat":"32.93189","theaterChainName":"Independent Chains","ticketType":"STANDARD"},{"id":"3905","tribuneTheaterId":"8357","providerTheaterId":"","name":"Cinemark 14 Cedar Hill","address":"280 Uptown Blvd.","city":"Cedar Hill","state":"TX","zip":"75104","distance":15.509686624362,"lon":"-96.949963","lat":"32.592195","theaterChainName":"Cinemark","ticketType":"STANDARD"},{"id":"5165","tribuneTheaterId":"10572","providerTheaterId":"","name":"Cinemark Alliance Town Center and XD","address":"9228 Sage Meadow Trail","city":"Fort Worth","state":"TX","zip":"76177","distance":14.908535459394,"lon":"-97.31565","lat":"32.907184","theaterChainName":"Cinemark","ticketType":"STANDARD"},{"id":"492","tribuneTheaterId":"8750","providerTheaterId":"","name":"Regal Burleson Movies Stadium 14 ","address":"301 W. Rendon-Crowley Road","city":"Burleson","state":"TX","zip":"76028","distance":16.497677269514,"lon":"-97.324069","lat":"32.576164","theaterChainName":"Regal Cinemas","ticketType":"STANDARD"},{"id":"4412","tribuneTheaterId":"9471","providerTheaterId":"","name":"Hulen Movie Tavern","address":"4920 S. Hulen Road","city":"Fort Worth","state":"TX","zip":"76132","distance":16.36177500206,"lon":"-97.401457","lat":"32.678219","theaterChainName":"Movie Tavern","ticketType":"STANDARD"},{"id":"583","tribuneTheaterId":"5322","providerTheaterId":"175","name":"AMC Grapevine Mills 30","address":"3150 Grapevine Mills Parkway","city":"Grapevine","state":"TX","zip":"76051","distance":15.59747005254,"lon":"-97.044586","lat":"32.966646","theaterChainName":"AMC Theatres","ticketType":"STANDARD"},{"id":"4304","tribuneTheaterId":"2277","providerTheaterId":"","name":"Starplex Hulen Stadium 10","address":"6330 Hulen Bend Blvd","city":"Fort Worth","state":"TX","zip":"76132","distance":16.966648611956,"lon":"-97.404667","lat":"32.660532","theaterChainName":"Starplex Cinemas","ticketType":"STANDARD"},{"id":"5982","tribuneTheaterId":"11418","providerTheaterId":"","name":"AMC Burleson 14","address":"301 W Rendon Crowley Road","city":"Burleson","state":"TX","zip":"76028","distance":16.500138139812,"lon":"-97.324355","lat":"32.576332","theaterChainName":"AMC Theatres","ticketType":"STANDARD"},{"id":"5460","tribuneTheaterId":"10903","providerTheaterId":"","name":"Studio Movie Grill NorthWest Highway","address":"10110 Technology Blvd","city":"Dallas","state":"TX","zip":"75220","distance":15.734286093072,"lon":"-96.893622","lat":"32.857761","theaterChainName":"Studio Movie Grill","ticketType":"SELECT_SEATING"},{"id":"5740","tribuneTheaterId":"11182","providerTheaterId":"","name":"Cinemark Roanoke and XD","address":"850 E. HWY 114","city":"Roanoke","state":"TX","zip":"76262","distance":17.555517470582,"lon":"-97.217286","lat":"32.998458","theaterChainName":"Cinemark","ticketType":"STANDARD"},{"id":"4960","tribuneTheaterId":"10320","providerTheaterId":"","name":"Lake Worth Movies 14","address":"6600 NW Loop 820","city":"Fort Worth","state":"TX","zip":"76135","distance":17.492294439372,"lon":"-97.430035","lat":"32.803797","theaterChainName":"Starplex Cinemas","ticketType":"STANDARD"},{"id":"3107","tribuneTheaterId":"3102","providerTheaterId":"","name":"Texas Movie Bistro","address":"3980 Boat Club Road","city":"Lake Worth","state":"TX","zip":"76135","distance":17.008074422517,"lon":"-97.419242","lat":"32.812382","theaterChainName":"Independent Chains","ticketType":"STANDARD"},{"id":"5867","tribuneTheaterId":"11283","providerTheaterId":"","name":"Alamo Drafthouse Dallas","address":"1005 S Lamar St","city":"Dallas","state":"TX","zip":"75215","distance":19.530658519339,"lon":"-96.799191","lat":"32.769918","theaterChainName":"Alamo Drafthouse","ticketType":"STANDARD"},{"id":"229","tribuneTheaterId":"7494","providerTheaterId":"","name":"Cinemark 17 and IMAX","address":"11819 Webb Chapel","city":"Dallas","state":"TX","zip":"75234","distance":18.587284984634,"lon":"-96.874496","lat":"32.910622","theaterChainName":"Cinemark","ticketType":"STANDARD"},{"id":"3696","tribuneTheaterId":"3207","providerTheaterId":"","name":"Ridgmar 13 + Xtreme","address":"2300 Green Oaks Road","city":"Fort Worth","state":"TX","zip":"76116","distance":17.599165915585,"lon":"-97.437158","lat":"32.73952","theaterChainName":"Cinemark","ticketType":"STANDARD"},{"id":"4541","tribuneTheaterId":"9674","providerTheaterId":"","name":"Premiere Burleson Cinema","address":"1581 SW Wilshire Blvd.","city":"Burleson","state":"TX","zip":"76028","distance":20.540165067499,"lon":"-97.347357","lat":"32.516648","theaterChainName":"Premiere Cinemas","ticketType":"STANDARD"},{"id":"4260","tribuneTheaterId":"5200","providerTheaterId":"","name":"Cinemark Vista Ridge Mall 15","address":"2401 S. Stemmons Freeway, Suite 4","city":"Lewisville","state":"TX","zip":"75067","distance":19.594761976768,"lon":"-96.970664","lat":"33.001844","theaterChainName":"Cinemark","ticketType":"STANDARD"},{"id":"3045","tribuneTheaterId":"8760","providerTheaterId":"","name":"Cinemark Movies 8 Lewisville","address":"420 Oakbend Drive","city":"Lewisville","state":"TX","zip":"75067","distance":19.810506669032,"lon":"-96.980696","lat":"33.009853","theaterChainName":"Cinemark","ticketType":"STANDARD"},{"id":"228","tribuneTheaterId":"8242","providerTheaterId":"","name":"Cinemark Movies 14 Lancaster","address":"3250 W Pleasant Run Road","city":"Lancaster","state":"TX","zip":"75146","distance":21.043328954879,"lon":"-96.821126","lat":"32.602177","theaterChainName":"Cinemark","ticketType":"STANDARD"},{"id":"4349","tribuneTheaterId":"9365","providerTheaterId":"","name":"Studio Movie Grill Lewisville","address":"1600 S. Stemmons Freeway","city":"Lewisville","state":"TX","zip":"75067","distance":20.543374628231,"lon":"-96.983679","lat":"33.022887","theaterChainName":"Studio Movie Grill","ticketType":"SELECT_SEATING"},{"id":"268","tribuneTheaterId":"6401","providerTheaterId":"","name":"Highland Park Village Theatre","address":"32 Highland Park Village","city":"Dallas","state":"TX","zip":"75205","distance":19.884687092694,"lon":"-96.806642","lat":"32.836039","theaterChainName":"Independent Chains","ticketType":"STANDARD"},{"id":"4202","tribuneTheaterId":"4253","providerTheaterId":"159","name":"AMC NorthPark 15","address":"8687 N. Central Expressway","city":"Dallas","state":"TX","zip":"75225","distance":22.432991213919,"lon":"-96.772748","lat":"32.867231","theaterChainName":"AMC Theatres","ticketType":"STANDARD"},{"id":"3237","tribuneTheaterId":"3105","providerTheaterId":"","name":"Angelika Film Center & Cafe","address":"5321 E. Mockingbird Lane","city":"Dallas","state":"TX","zip":"75206","distance":21.677606858098,"lon":"-96.775194","lat":"32.838014","theaterChainName":"Reading International, Inc","ticketType":"STANDARD"},{"id":"5508","tribuneTheaterId":"11030","providerTheaterId":"","name":"AMC Village on the Parkway 9","address":"5100 Belt Line Road","city":"Dallas","state":"TX","zip":"75254","distance":22.876781337535,"lon":"-96.8206","lat":"32.9539","theaterChainName":"AMC Theatres","ticketType":"STANDARD"},{"id":"3710","tribuneTheaterId":"7974","providerTheaterId":"150","name":"AMC Valley View 16","address":"13331 Preston Road, Suite 2300","city":"Dallas","state":"TX","zip":"75240","distance":22.501629601882,"lon":"-96.808144","lat":"32.929328","theaterChainName":"AMC Theatres","ticketType":"STANDARD"},{"id":"4448","tribuneTheaterId":"9528","providerTheaterId":"160","name":"AMC Highland Village 12","address":"4090 Barton Creek","city":"Highland Village","state":"TX","zip":"75077","distance":22.372622679216,"lon":"-97.086083","lat":"33.07521","theaterChainName":"AMC Theatres","ticketType":"STANDARD"},{"id":"4461","tribuneTheaterId":"9552","providerTheaterId":"","name":"Studio Movie Grill-Dallas Royal","address":"11170  N. Central Expressway","city":"Dallas","state":"TX","zip":"75243","distance":23.612572842067,"lon":"-96.767134","lat":"32.900083","theaterChainName":"Studio Movie Grill","ticketType":"SELECT_SEATING"}]