[{"id":"4033","name":"Cinemark 12 Mansfield and XD","address":"2041 Highway 287 Suite 901","city":"Mansfield","state":"TX","zip":"76063","distance":"20.257749557495117","lon":"-97.148804","lat":"32.598099","theaterChainName":"Cinemark","ticketType":"STANDARD"},{"id":"382","name":"Movie Tavern at Green Oaks","address":"5727 W. I-20","city":"Arlington","state":"TX","zip":"76016","distance":"23.9979190826416","lon":"-97.195465","lat":"32.676430","theaterChainName":"Movie Tavern","ticketType":"STANDARD"},{"id":"519","name":"America Cinemas","address":"4200 South Freeway","city":"Fort Worth","state":"TX","zip":"76115","distance":"23.392932891845703","lon":"-97.323807","lat":"32.686993","theaterChainName":"Independent Chains","ticketType":"STANDARD"},{"id":"492","name":"Regal Burleson Movies Stadium 14 ","address":"301 W. Rendon-Crowley Road","city":"Burleson","state":"TX","zip":"76028","distance":"15.736442565917969","lon":"-97.324066","lat":"32.576164","theaterChainName":"Regal Cinemas","ticketType":"STANDARD"},{"id":"5982","name":"AMC Burleson 14","address":"301 W Rendon Crowley Road","city":"Burleson","state":"TX","zip":"76028","distance":"15.747605323791504","lon":"-97.324356","lat":"32.576332","theaterChainName":"AMC Theatres","ticketType":"STANDARD"},{"id":"4541","name":"Premiere Burleson Cinema","address":"1581 SW Wilshire Blvd.","city":"Burleson","state":"TX","zip":"76028","distance":"11.657249450683594","lon":"-97.347359","lat":"32.516647","theaterChainName":"Premiere Cinemas","ticketType":"STANDARD"},{"id":"1333","name":"Cinemark Cinema 6 Cleburne","address":"1643 W. Henderson St.","city":"Cleburne","state":"TX","zip":"76031","distance":"4.982706069946289","lon":"-97.416458","lat":"32.348701","theaterChainName":"Cinemark","ticketType":"STANDARD"},{"id":"4412","name":"Hulen Movie Tavern","address":"4920 S. Hulen Road","city":"Fort Worth","state":"TX","zip":"76132","distance":"23.148731231689453","lon":"-97.401459","lat":"32.678219","theaterChainName":"Movie Tavern","ticketType":"STANDARD"},{"id":"4304","name":"Starplex Hulen Stadium 10","address":"6330 Hulen Bend Blvd","city":"Fort Worth","state":"TX","zip":"76132","distance":"21.982938766479492","lon":"-97.404671","lat":"32.660534","theaterChainName":"Starplex Cinemas","ticketType":"STANDARD"}]