[{"id":"229","name":"Cinemark 17 and IMAX","address":"11819 Webb Chapel","city":"Dallas","state":"TX","zip":"75234","distance":"14.174506187438965","lon":"-96.874496","lat":"32.910622","theaterChainName":"Cinemark","ticketType":"STANDARD"},{"id":"5508","name":"AMC Village on the Parkway 9","address":"5100 Belt Line Road","city":"Dallas","state":"TX","zip":"75254","distance":"18.30775260925293","lon":"-96.820602","lat":"32.953899","theaterChainName":"AMC Theatres","ticketType":"STANDARD"},{"id":"4260","name":"Cinemark Vista Ridge Mall 15","address":"2401 S. Stemmons Freeway, Suite 4","city":"Lewisville","state":"TX","zip":"75067","distance":"14.171429634094238","lon":"-96.970665","lat":"33.001842","theaterChainName":"Cinemark","ticketType":"STANDARD"},{"id":"5739","name":"Studio Movie Grill The Colony","address":"4880 State Highway 121","city":"Lewisville","state":"TX","zip":"75056","distance":"20.72627830505371","lon":"-96.883698","lat":"33.066971","theaterChainName":"Studio Movie Grill","ticketType":"SELECT_SEATING"},{"id":"327","name":"Cinemark West Plano and XD","address":"3800 Dallas Parkway","city":"Plano","state":"TX","zip":"75093","distance":"21.964771270751953","lon":"-96.829399","lat":"33.051201","theaterChainName":"Cinemark","ticketType":"STANDARD"},{"id":"3045","name":"Cinemark Movies 8 Lewisville","address":"420 Oakbend Drive","city":"Lewisville","state":"TX","zip":"75067","distance":"14.36481761932373","lon":"-96.980698","lat":"33.009853","theaterChainName":"Cinemark","ticketType":"STANDARD"},{"id":"3710","name":"AMC Valley View 16","address":"13331 Preston Road, Suite 2300","city":"Dallas","state":"TX","zip":"75240","distance":"18.21937370300293","lon":"-96.808144","lat":"32.929329","theaterChainName":"AMC Theatres","ticketType":"STANDARD"},{"id":"4349","name":"Studio Movie Grill Lewisville","address":"1600 S. Stemmons Freeway","city":"Lewisville","state":"TX","zip":"75067","distance":"15.089015007019043","lon":"-96.983681","lat":"33.022888","theaterChainName":"Studio Movie Grill","ticketType":"SELECT_SEATING"},{"id":"82","name":"Studio Movie Grill Plano","address":"4721 W. Park Blvd.","city":"Plano","state":"TX","zip":"75093","distance":"22.653961181640625","lon":"-96.789085","lat":"33.027908","theaterChainName":"Studio Movie Grill","ticketType":"SELECT_SEATING"},{"id":"3862","name":"Angelika Film Center Plano","address":"7205 Bishop Rd. Suite E6","city":"Plano","state":"TX","zip":"75024","distance":"23.52952766418457","lon":"-96.821404","lat":"33.076199","theaterChainName":"Reading International, Inc","ticketType":"STANDARD"},{"id":"5460","name":"Studio Movie Grill NorthWest Highway","address":"10110 Technology Blvd","city":"Dallas","state":"TX","zip":"75220","distance":"12.015288352966309","lon":"-96.893623","lat":"32.857761","theaterChainName":"Studio Movie Grill","ticketType":"SELECT_SEATING"},{"id":"231","name":"Cinemark Movies 10 Plano","address":"1818 Coit Road","city":"Plano","state":"TX","zip":"75075","distance":"23.481430053710938","lon":"-96.768753","lat":"33.025097","theaterChainName":"Cinemark","ticketType":"STANDARD"},{"id":"5242","name":"Studio Movie Grill Spring Valley","address":"13933 N. Central Expressway","city":"Dallas","state":"TX","zip":"75243","distance":"21.54779815673828","lon":"-96.750854","lat":"32.938881","theaterChainName":"Studio Movie Grill","ticketType":"SELECT_SEATING"},{"id":"4461","name":"Studio Movie Grill-Dallas Royal","address":"11170  N. Central Expressway","city":"Dallas","state":"TX","zip":"75243","distance":"19.821744918823242","lon":"-96.767136","lat":"32.900082","theaterChainName":"Studio Movie Grill","ticketType":"SELECT_SEATING"},{"id":"583","name":"AMC Grapevine Mills 30","address":"3150 Grapevine Mills Parkway","city":"Grapevine","state":"TX","zip":"76051","distance":"10.159875869750977","lon":"-97.044586","lat":"32.966644","theaterChainName":"AMC Theatres","ticketType":"STANDARD"},{"id":"5322","name":"Alamo Drafthouse Richardson","address":"100 S. Central Expressway","city":"Richardson","state":"TX","zip":"75080","distance":"22.66092300415039","lon":"-96.735497","lat":"32.950100","theaterChainName":"Alamo Drafthouse","ticketType":"STANDARD"},{"id":"4202","name":"AMC NorthPark 15","address":"8687 N. Central Expressway","city":"Dallas","state":"TX","zip":"75225","distance":"19.044462203979492","lon":"-96.772751","lat":"32.867229","theaterChainName":"AMC Theatres","ticketType":"STANDARD"},{"id":"268","name":"Highland Park Village Theatre","address":"32 Highland Park Village","city":"Dallas","state":"TX","zip":"75205","distance":"16.883136749267578","lon":"-96.806641","lat":"32.836040","theaterChainName":"Independent Chains","ticketType":"STANDARD"},{"id":"311","name":"AMC Irving Mall Cinemas 14","address":"2433 Irving Mall","city":"Irving","state":"TX","zip":"75062","distance":"5.983346462249756","lon":"-96.995628","lat":"32.841053","theaterChainName":"AMC Theatres","ticketType":"STANDARD"},{"id":"3237","name":"Angelika Film Center & Cafe","address":"5321 E. Mockingbird Lane","city":"Dallas","state":"TX","zip":"75206","distance":"18.712907791137695","lon":"-96.775192","lat":"32.838013","theaterChainName":"Reading International, Inc","ticketType":"STANDARD"},{"id":"515","name":"Starplex Irving Cinema 10","address":"4205 W. Pioneer Drive","city":"Irving","state":"TX","zip":"75061","distance":"5.244779586791992","lon":"-97.007248","lat":"32.833363","theaterChainName":"Starplex Cinemas","ticketType":"STANDARD"},{"id":"312","name":"FunAsia Cinema","address":"1210 E. Belt Line Rd.","city":"Richardson","state":"TX","zip":"75081","distance":"24.26368522644043","lon":"-96.703697","lat":"32.945202","theaterChainName":"FunAsiA","ticketType":"STANDARD"},{"id":"227","name":"Cinemark Tinseltown Grapevine","address":"911 State Highway. 114 West","city":"Grapevine","state":"TX","zip":"76051","distance":"6.765881061553955","lon":"-97.087799","lat":"32.924000","theaterChainName":"Cinemark","ticketType":"STANDARD"},{"id":"5390","name":"Carmike Hickory Creek 16","address":"8380 S.Stemmons Freeway","city":"Hickory Creek","state":"TX","zip":"75065","distance":"20.88146209716797","lon":"-97.037903","lat":"33.124481","theaterChainName":"Carmike Cinemas","ticketType":"STANDARD"},{"id":"4448","name":"AMC Highland Village 12","address":"4090 Barton Creek","city":"Highland Village","state":"TX","zip":"75077","distance":"17.204235076904297","lon":"-97.086082","lat":"33.075211","theaterChainName":"AMC Theatres","ticketType":"STANDARD"},{"id":"5867","name":"Alamo Drafthouse Dallas","address":"1005 S Lamar St","city":"Dallas","state":"TX","zip":"75215","distance":"17.743343353271484","lon":"-96.799194","lat":"32.769917","theaterChainName":"Alamo Drafthouse","ticketType":"STANDARD"},{"id":"220","name":"UA Galaxy Theatre Stadium 10","address":"11801 McCree Road","city":"Dallas","state":"TX","zip":"75238","distance":"24.655027389526367","lon":"-96.675591","lat":"32.869534","theaterChainName":"United Artists","ticketType":"STANDARD"},{"id":"5476","name":"Studio Movie Grill Colleyville","address":"5655 Colleyville Blvd. #300","city":"Colleyville","state":"TX","zip":"76034","distance":"5.328433990478516","lon":"-97.146347","lat":"32.891533","theaterChainName":"Studio Movie Grill","ticketType":"SELECT_SEATING"},{"id":"3673","name":"Central Park Movie Tavern","address":"2404 Airport Freeway","city":"Bedford","state":"TX","zip":"76022","distance":"2.0156164169311523","lon":"-97.130005","lat":"32.835941","theaterChainName":"Movie Tavern","ticketType":"STANDARD"},{"id":"3952","name":"Cinemark 14 Denton","address":"2825 Wind River","city":"Denton","state":"TX","zip":"76210","distance":"24.162120819091797","lon":"-97.098946","lat":"33.176079","theaterChainName":"Cinemark","ticketType":"STANDARD"},{"id":"6038","name":"Studio Movie Grill Lincoln Square","address":"452 Lincoln Square","city":"Arlington","state":"TX","zip":"76001","distance":"4.775097846984863","lon":"-97.098663","lat":"32.757305","theaterChainName":"Studio Movie Grill","ticketType":"SELECT_SEATING"},{"id":"228","name":"Cinemark Movies 14 Lancaster","address":"3250 W Pleasant Run Road","city":"Lancaster","state":"TX","zip":"75146","distance":"22.30787467956543","lon":"-96.821129","lat":"32.602177","theaterChainName":"Cinemark","ticketType":"STANDARD"},{"id":"6131","name":"Grand Prairie Premiere LUX Cine","address":"510 E. Westchester Parkway","city":"Grand Prairie","state":"TX","zip":"75052","distance":"11.902555465698242","lon":"-97.003502","lat":"32.673225","theaterChainName":"Premiere Cinemas","ticketType":"STANDARD"},{"id":"5865","name":"Turtle Creek 9","address":"1000 Turtle Creek Drive Suite A5","city":"Hattiesburg","state":"MS","zip":"39402","distance":"11.939846992492676","lon":"-97.003502","lat":"32.672619","theaterChainName":"Independent Chains","ticketType":"STANDARD"},{"id":"230","name":"Cinemark Movies 16 Grand Prairie","address":"220 Westchester Parkway","city":"Grand Prairie","state":"TX","zip":"75052","distance":"11.763873100280762","lon":"-97.009018","lat":"32.673153","theaterChainName":"Cinemark","ticketType":"STANDARD"},{"id":"4313","name":"Studio Movie Grill - Arlington","address":"225 Merchants Row","city":"Arlington","state":"TX","zip":"76018","distance":"9.991902351379395","lon":"-97.109268","lat":"32.682152","theaterChainName":"Studio Movie Grill","ticketType":"SELECT_SEATING"},{"id":"3905","name":"Cinemark 14 Cedar Hill","address":"280 Uptown Blvd.","city":"Cedar Hill","state":"TX","zip":"75104","distance":"18.307640075683594","lon":"-96.949966","lat":"32.592194","theaterChainName":"Cinemark","ticketType":"STANDARD"},{"id":"3574","name":"AMC The Parks at Arlington 18","address":"3811 South Cooper Street","city":"Arlington","state":"TX","zip":"76015","distance":"10.051238059997559","lon":"-97.132500","lat":"32.683998","theaterChainName":"AMC Theatres","ticketType":"STANDARD"},{"id":"4033","name":"Cinemark 12 Mansfield and XD","address":"2041 Highway 287 Suite 901","city":"Mansfield","state":"TX","zip":"76063","distance":"16.05788803100586","lon":"-97.148804","lat":"32.598099","theaterChainName":"Cinemark","ticketType":"STANDARD"},{"id":"5275","name":"AMC Eastchase 9","address":"8301 Ederville Road","city":"Fort Worth","state":"TX","zip":"76120","distance":"6.513556003570557","lon":"-97.172302","lat":"32.756401","theaterChainName":"AMC Theatres","ticketType":"STANDARD"},{"id":"382","name":"Movie Tavern at Green Oaks","address":"5727 W. I-20","city":"Arlington","state":"TX","zip":"76016","distance":"11.831929206848145","lon":"-97.195465","lat":"32.676430","theaterChainName":"Movie Tavern","ticketType":"STANDARD"},{"id":"3916","name":"North East Mall 18 + Xtreme","address":"1101 Melbourne Road","city":"Hurst","state":"TX","zip":"76053","distance":"6.017672538757324","lon":"-97.200798","lat":"32.828842","theaterChainName":"Cinemark","ticketType":"STANDARD"},{"id":"519","name":"America Cinemas","address":"4200 South Freeway","city":"Fort Worth","state":"TX","zip":"76115","distance":"16.31526756286621","lon":"-97.323807","lat":"32.686993","theaterChainName":"Independent Chains","ticketType":"STANDARD"},{"id":"383","name":"AMC Palace 9","address":"220 E. 3rd St.","city":"Fort Worth","state":"TX","zip":"76102","distance":"14.39979076385498","lon":"-97.330360","lat":"32.755615","theaterChainName":"AMC Theatres","ticketType":"STANDARD"},{"id":"5584","name":"Moviehouse and Eatery","address":"250 Rufe Snow Drive","city":"Keller","state":"TX","zip":"76248","distance":"10.68661880493164","lon":"-97.231873","lat":"32.931889","theaterChainName":"Independent Chains","ticketType":"STANDARD"},{"id":"492","name":"Regal Burleson Movies Stadium 14 ","address":"301 W. Rendon-Crowley Road","city":"Burleson","state":"TX","zip":"76028","distance":"21.74811363220215","lon":"-97.324066","lat":"32.576164","theaterChainName":"Regal Cinemas","ticketType":"STANDARD"},{"id":"5982","name":"AMC Burleson 14","address":"301 W Rendon Crowley Road","city":"Burleson","state":"TX","zip":"76028","distance":"21.74911880493164","lon":"-97.324356","lat":"32.576332","theaterChainName":"AMC Theatres","ticketType":"STANDARD"},{"id":"318","name":"UA Fossil Creek Stadium 11","address":"6100 N. Freeway","city":"Fort Worth","state":"TX","zip":"76137","distance":"12.612022399902344","lon":"-97.311874","lat":"32.854382","theaterChainName":"United Artists","ticketType":"STANDARD"},{"id":"4831","name":"Movie Tavern at West 7th Street","address":"2872 Crockett St.","city":"Fort Worth","state":"TX","zip":"76107","distance":"16.03217315673828","lon":"-97.357864","lat":"32.750153","theaterChainName":"Movie Tavern","ticketType":"STANDARD"},{"id":"5740","name":"Cinemark Roanoke and XD","address":"850 E. HWY 114","city":"Roanoke","state":"TX","zip":"76262","distance":"13.77924919128418","lon":"-97.217285","lat":"32.998459","theaterChainName":"Cinemark","ticketType":"STANDARD"},{"id":"4412","name":"Hulen Movie Tavern","address":"4920 S. Hulen Road","city":"Fort Worth","state":"TX","zip":"76132","distance":"20.431921005249023","lon":"-97.401459","lat":"32.678219","theaterChainName":"Movie Tavern","ticketType":"STANDARD"},{"id":"4304","name":"Starplex Hulen Stadium 10","address":"6330 Hulen Bend Blvd","city":"Fort Worth","state":"TX","zip":"76132","distance":"21.229206085205078","lon":"-97.404671","lat":"32.660534","theaterChainName":"Starplex Cinemas","ticketType":"STANDARD"},{"id":"5165","name":"Cinemark Alliance Town Center and XD","address":"9228 Sage Meadow Trail","city":"Fort Worth","state":"TX","zip":"76177","distance":"13.852821350097656","lon":"-97.315651","lat":"32.907185","theaterChainName":"Cinemark","ticketType":"STANDARD"},{"id":"3696","name":"Ridgmar 13 + Xtreme","address":"2300 Green Oaks Road","city":"Fort Worth","state":"TX","zip":"76116","distance":"20.641176223754883","lon":"-97.437157","lat":"32.739521","theaterChainName":"Cinemark","ticketType":"STANDARD"},{"id":"3107","name":"Texas Movie Bistro","address":"3980 Boat Club Road","city":"Lake Worth","state":"TX","zip":"76135","distance":"18.72568130493164","lon":"-97.419243","lat":"32.812382","theaterChainName":"Independent Chains","ticketType":"STANDARD"},{"id":"4960","name":"Lake Worth Movies 14","address":"6600 NW Loop 820","city":"Fort Worth","state":"TX","zip":"76135","distance":"19.39141845703125","lon":"-97.430038","lat":"32.803799","theaterChainName":"Starplex Cinemas","ticketType":"STANDARD"}]