[{"id":"3673","tribuneTheaterId":"3115","providerTheaterId":"","name":"Central Park Movie Tavern","address":"2404 Airport Freeway","city":"Bedford","state":"TX","zip":"76022","distance":2.0154248371822,"lon":"-97.130005","lat":"32.835941","theaterChainName":"Movie Tavern","ticketType":"STANDARD"},{"id":"515","tribuneTheaterId":"3132","providerTheaterId":"","name":"Starplex Irving Cinema 10","address":"4205 W. Pioneer Drive","city":"Irving","state":"TX","zip":"75061","distance":5.244648382783,"lon":"-97.007246","lat":"32.833361","theaterChainName":"Starplex Cinemas","ticketType":"STANDARD"},{"id":"6038","tribuneTheaterId":"11442","providerTheaterId":"","name":"Studio Movie Grill Lincoln Square","address":"452 Lincoln Square","city":"Arlington","state":"TX","zip":"76001","distance":4.7746909420629,"lon":"-97.098665","lat":"32.757306","theaterChainName":"Studio Movie Grill","ticketType":"SELECT_SEATING"},{"id":"3916","tribuneTheaterId":"2407","providerTheaterId":"","name":"North East Mall 18 + Xtreme","address":"1101 Melbourne Road","city":"Hurst","state":"TX","zip":"76053","distance":6.0172129610225,"lon":"-97.200798","lat":"32.828843","theaterChainName":"Cinemark","ticketType":"STANDARD"},{"id":"311","tribuneTheaterId":"7652","providerTheaterId":"840","name":"AMC Irving Mall Cinemas 14","address":"2433 Irving Mall","city":"Irving","state":"TX","zip":"75062","distance":5.9829770089821,"lon":"-96.99563","lat":"32.841053","theaterChainName":"AMC Theatres","ticketType":"STANDARD"},{"id":"5476","tribuneTheaterId":"10919","providerTheaterId":"","name":"Studio Movie Grill Colleyville","address":"5655 Colleyville Blvd. #300","city":"Colleyville","state":"TX","zip":"76034","distance":5.3279848479905,"lon":"-97.146345","lat":"32.891532","theaterChainName":"Studio Movie Grill","ticketType":"SELECT_SEATING"},{"id":"227","tribuneTheaterId":"8243","providerTheaterId":"","name":"Cinemark Tinseltown Grapevine","address":"911 State Highway. 114 West","city":"Grapevine","state":"TX","zip":"76051","distance":6.765531125004,"lon":"-97.0878","lat":"32.924","theaterChainName":"Cinemark","ticketType":"STANDARD"},{"id":"5275","tribuneTheaterId":"10709","providerTheaterId":"165","name":"AMC Eastchase 9","address":"8301 Ederville Road","city":"Fort Worth","state":"TX","zip":"76120","distance":6.5130218933972,"lon":"-97.1723","lat":"32.7564","theaterChainName":"AMC Theatres","ticketType":"STANDARD"},{"id":"583","tribuneTheaterId":"5322","providerTheaterId":"175","name":"AMC Grapevine Mills 30","address":"3150 Grapevine Mills Parkway","city":"Grapevine","state":"TX","zip":"76051","distance":10.159438741264,"lon":"-97.044586","lat":"32.966646","theaterChainName":"AMC Theatres","ticketType":"STANDARD"},{"id":"4313","tribuneTheaterId":"2218","providerTheaterId":"","name":"Studio Movie Grill - Arlington","address":"225 Merchants Row","city":"Arlington","state":"TX","zip":"76018","distance":9.9912177391342,"lon":"-97.10927","lat":"32.682152","theaterChainName":"Studio Movie Grill","ticketType":"SELECT_SEATING"},{"id":"5584","tribuneTheaterId":"11036","providerTheaterId":"","name":"Moviehouse and Eatery","address":"250 Rufe Snow Drive","city":"Keller","state":"TX","zip":"76248","distance":10.686055761547,"lon":"-97.231874","lat":"32.93189","theaterChainName":"Independent Chains","ticketType":"STANDARD"},{"id":"3574","tribuneTheaterId":"5321","providerTheaterId":"158","name":"AMC The Parks at Arlington 18","address":"3811 South Cooper Street","city":"Arlington","state":"TX","zip":"76015","distance":10.050421547254,"lon":"-97.1325","lat":"32.684","theaterChainName":"AMC Theatres","ticketType":"STANDARD"},{"id":"5865","tribuneTheaterId":"11279","providerTheaterId":"","name":"Turtle Creek 9","address":"1000 Turtle Creek Drive Suite A5","city":"Hattiesburg","state":"MS","zip":"39402","distance":11.939063211972,"lon":"-97.003503","lat":"32.672619","theaterChainName":"Independent Chains","ticketType":"STANDARD"},{"id":"382","tribuneTheaterId":"3068","providerTheaterId":"","name":"Movie Tavern at Green Oaks","address":"5727 W. I-20","city":"Arlington","state":"TX","zip":"76016","distance":11.831178520893,"lon":"-97.195466","lat":"32.676429","theaterChainName":"Movie Tavern","ticketType":"STANDARD"},{"id":"230","tribuneTheaterId":"7962","providerTheaterId":"","name":"Cinemark Movies 16 Grand Prairie","address":"220 Westchester Parkway","city":"Grand Prairie","state":"TX","zip":"75052","distance":11.763016653157,"lon":"-97.00902","lat":"32.673154","theaterChainName":"Cinemark","ticketType":"STANDARD"},{"id":"318","tribuneTheaterId":"8848","providerTheaterId":"","name":"UA Fossil Creek Stadium 11","address":"6100 N. Freeway","city":"Fort Worth","state":"TX","zip":"76137","distance":12.611097557074,"lon":"-97.311873","lat":"32.854383","theaterChainName":"United Artists","ticketType":"STANDARD"},{"id":"6131","tribuneTheaterId":"11548","providerTheaterId":"","name":"Grand Prairie Premiere LUX Cine","address":"510 E. Westchester Parkway","city":"Grand Prairie","state":"TX","zip":"75052","distance":11.901807143691,"lon":"-97.003503","lat":"32.673225","theaterChainName":"Premiere Cinemas","ticketType":"STANDARD"},{"id":"5460","tribuneTheaterId":"10903","providerTheaterId":"","name":"Studio Movie Grill NorthWest Highway","address":"10110 Technology Blvd","city":"Dallas","state":"TX","zip":"75220","distance":12.014712322449,"lon":"-96.893622","lat":"32.857761","theaterChainName":"Studio Movie Grill","ticketType":"SELECT_SEATING"},{"id":"229","tribuneTheaterId":"7494","providerTheaterId":"","name":"Cinemark 17 and IMAX","address":"11819 Webb Chapel","city":"Dallas","state":"TX","zip":"75234","distance":14.173763363593,"lon":"-96.874496","lat":"32.910622","theaterChainName":"Cinemark","ticketType":"STANDARD"},{"id":"5740","tribuneTheaterId":"11182","providerTheaterId":"","name":"Cinemark Roanoke and XD","address":"850 E. HWY 114","city":"Roanoke","state":"TX","zip":"76262","distance":13.778369630362,"lon":"-97.217286","lat":"32.998458","theaterChainName":"Cinemark","ticketType":"STANDARD"},{"id":"5165","tribuneTheaterId":"10572","providerTheaterId":"","name":"Cinemark Alliance Town Center and XD","address":"9228 Sage Meadow Trail","city":"Fort Worth","state":"TX","zip":"76177","distance":13.851837065741,"lon":"-97.31565","lat":"32.907184","theaterChainName":"Cinemark","ticketType":"STANDARD"},{"id":"383","tribuneTheaterId":"5317","providerTheaterId":"252","name":"AMC Palace 9","address":"220 E. 3rd St.","city":"Fort Worth","state":"TX","zip":"76102","distance":14.398890175288,"lon":"-97.330362","lat":"32.755615","theaterChainName":"AMC Theatres","ticketType":"STANDARD"},{"id":"4260","tribuneTheaterId":"5200","providerTheaterId":"","name":"Cinemark Vista Ridge Mall 15","address":"2401 S. Stemmons Freeway, Suite 4","city":"Lewisville","state":"TX","zip":"75067","distance":14.170759823189,"lon":"-96.970664","lat":"33.001844","theaterChainName":"Cinemark","ticketType":"STANDARD"},{"id":"4349","tribuneTheaterId":"9365","providerTheaterId":"","name":"Studio Movie Grill Lewisville","address":"1600 S. Stemmons Freeway","city":"Lewisville","state":"TX","zip":"75067","distance":15.088135174378,"lon":"-96.983679","lat":"33.022887","theaterChainName":"Studio Movie Grill","ticketType":"SELECT_SEATING"},{"id":"3045","tribuneTheaterId":"8760","providerTheaterId":"","name":"Cinemark Movies 8 Lewisville","address":"420 Oakbend Drive","city":"Lewisville","state":"TX","zip":"75067","distance":14.364036927981,"lon":"-96.980696","lat":"33.009853","theaterChainName":"Cinemark","ticketType":"STANDARD"},{"id":"4831","tribuneTheaterId":"10107","providerTheaterId":"","name":"Movie Tavern at West 7th Street","address":"2872 Crockett St.","city":"Fort Worth","state":"TX","zip":"76107","distance":16.031040220011,"lon":"-97.357863","lat":"32.750151","theaterChainName":"Movie Tavern","ticketType":"STANDARD"},{"id":"268","tribuneTheaterId":"6401","providerTheaterId":"","name":"Highland Park Village Theatre","address":"32 Highland Park Village","city":"Dallas","state":"TX","zip":"75205","distance":16.882096953708,"lon":"-96.806642","lat":"32.836039","theaterChainName":"Independent Chains","ticketType":"STANDARD"},{"id":"519","tribuneTheaterId":"2080","providerTheaterId":"","name":"America Cinemas","address":"4200 South Freeway","city":"Fort Worth","state":"TX","zip":"76115","distance":16.313969442472,"lon":"-97.323804","lat":"32.686994","theaterChainName":"Independent Chains","ticketType":"STANDARD"},{"id":"4033","tribuneTheaterId":"4226","providerTheaterId":"","name":"Cinemark 12 Mansfield and XD","address":"2041 Highway 287 Suite 901","city":"Mansfield","state":"TX","zip":"76063","distance":16.056699801118,"lon":"-97.1488","lat":"32.5981","theaterChainName":"Cinemark","ticketType":"STANDARD"},{"id":"4448","tribuneTheaterId":"9528","providerTheaterId":"160","name":"AMC Highland Village 12","address":"4090 Barton Creek","city":"Highland Village","state":"TX","zip":"75077","distance":17.203183519832,"lon":"-97.086083","lat":"33.07521","theaterChainName":"AMC Theatres","ticketType":"STANDARD"},{"id":"4202","tribuneTheaterId":"4253","providerTheaterId":"159","name":"AMC NorthPark 15","address":"8687 N. Central Expressway","city":"Dallas","state":"TX","zip":"75225","distance":19.043555811577,"lon":"-96.772748","lat":"32.867231","theaterChainName":"AMC Theatres","ticketType":"STANDARD"},{"id":"3905","tribuneTheaterId":"8357","providerTheaterId":"","name":"Cinemark 14 Cedar Hill","address":"280 Uptown Blvd.","city":"Cedar Hill","state":"TX","zip":"75104","distance":18.30650759419,"lon":"-96.949963","lat":"32.592195","theaterChainName":"Cinemark","ticketType":"STANDARD"},{"id":"5508","tribuneTheaterId":"11030","providerTheaterId":"","name":"AMC Village on the Parkway 9","address":"5100 Belt Line Road","city":"Dallas","state":"TX","zip":"75254","distance":18.306863563886,"lon":"-96.8206","lat":"32.9539","theaterChainName":"AMC Theatres","ticketType":"STANDARD"},{"id":"3107","tribuneTheaterId":"3102","providerTheaterId":"","name":"Texas Movie Bistro","address":"3980 Boat Club Road","city":"Lake Worth","state":"TX","zip":"76135","distance":18.724380556869,"lon":"-97.419242","lat":"32.812382","theaterChainName":"Independent Chains","ticketType":"STANDARD"},{"id":"3237","tribuneTheaterId":"3105","providerTheaterId":"","name":"Angelika Film Center & Cafe","address":"5321 E. Mockingbird Lane","city":"Dallas","state":"TX","zip":"75206","distance":18.711740184443,"lon":"-96.775194","lat":"32.838014","theaterChainName":"Reading International, Inc","ticketType":"STANDARD"},{"id":"3710","tribuneTheaterId":"7974","providerTheaterId":"150","name":"AMC Valley View 16","address":"13331 Preston Road, Suite 2300","city":"Dallas","state":"TX","zip":"75240","distance":18.218300402093,"lon":"-96.808144","lat":"32.929328","theaterChainName":"AMC Theatres","ticketType":"STANDARD"},{"id":"5867","tribuneTheaterId":"11283","providerTheaterId":"","name":"Alamo Drafthouse Dallas","address":"1005 S Lamar St","city":"Dallas","state":"TX","zip":"75215","distance":17.742484132259,"lon":"-96.799191","lat":"32.769918","theaterChainName":"Alamo Drafthouse","ticketType":"STANDARD"},{"id":"4960","tribuneTheaterId":"10320","providerTheaterId":"","name":"Lake Worth Movies 14","address":"6600 NW Loop 820","city":"Fort Worth","state":"TX","zip":"76135","distance":19.389935263809,"lon":"-97.430035","lat":"32.803797","theaterChainName":"Starplex Cinemas","ticketType":"STANDARD"},{"id":"4461","tribuneTheaterId":"9552","providerTheaterId":"","name":"Studio Movie Grill-Dallas Royal","address":"11170  N. Central Expressway","city":"Dallas","state":"TX","zip":"75243","distance":19.820730057766,"lon":"-96.767134","lat":"32.900083","theaterChainName":"Studio Movie Grill","ticketType":"SELECT_SEATING"},{"id":"4412","tribuneTheaterId":"9471","providerTheaterId":"","name":"Hulen Movie Tavern","address":"4920 S. Hulen Road","city":"Fort Worth","state":"TX","zip":"76132","distance":20.430459176797,"lon":"-97.401457","lat":"32.678219","theaterChainName":"Movie Tavern","ticketType":"STANDARD"},{"id":"4304","tribuneTheaterId":"2277","providerTheaterId":"","name":"Starplex Hulen Stadium 10","address":"6330 Hulen Bend Blvd","city":"Fort Worth","state":"TX","zip":"76132","distance":21.227677955978,"lon":"-97.404667","lat":"32.660532","theaterChainName":"Starplex Cinemas","ticketType":"STANDARD"},{"id":"3696","tribuneTheaterId":"3207","providerTheaterId":"","name":"Ridgmar 13 + Xtreme","address":"2300 Green Oaks Road","city":"Fort Worth","state":"TX","zip":"76116","distance":20.639892104783,"lon":"-97.437158","lat":"32.73952","theaterChainName":"Cinemark","ticketType":"STANDARD"},{"id":"492","tribuneTheaterId":"8750","providerTheaterId":"","name":"Regal Burleson Movies Stadium 14 ","address":"301 W. Rendon-Crowley Road","city":"Burleson","state":"TX","zip":"76028","distance":21.746783955211,"lon":"-97.324069","lat":"32.576164","theaterChainName":"Regal Cinemas","ticketType":"STANDARD"},{"id":"5982","tribuneTheaterId":"11418","providerTheaterId":"","name":"AMC Burleson 14","address":"301 W Rendon Crowley Road","city":"Burleson","state":"TX","zip":"76028","distance":21.747643355907,"lon":"-97.324355","lat":"32.576332","theaterChainName":"AMC Theatres","ticketType":"STANDARD"},{"id":"5242","tribuneTheaterId":"10670","providerTheaterId":"","name":"Studio Movie Grill Spring Valley","address":"13933 N. Central Expressway","city":"Dallas","state":"TX","zip":"75243","distance":21.546725437809,"lon":"-96.750852","lat":"32.938882","theaterChainName":"Studio Movie Grill","ticketType":"SELECT_SEATING"},{"id":"5390","tribuneTheaterId":"10827","providerTheaterId":"","name":"Carmike Hickory Creek 16","address":"8380 S.Stemmons Freeway","city":"Hickory Creek","state":"TX","zip":"75065","distance":20.880364150212,"lon":"-97.037902","lat":"33.124483","theaterChainName":"Carmike Cinemas","ticketType":"STANDARD"},{"id":"5739","tribuneTheaterId":"11181","providerTheaterId":"","name":"Studio Movie Grill The Colony","address":"4880 State Highway 121","city":"Lewisville","state":"TX","zip":"75056","distance":20.725240193172,"lon":"-96.883695","lat":"33.066972","theaterChainName":"Studio Movie Grill","ticketType":"SELECT_SEATING"},{"id":"82","tribuneTheaterId":"6409","providerTheaterId":"","name":"Studio Movie Grill Plano","address":"4721 W. Park Blvd.","city":"Plano","state":"TX","zip":"75093","distance":22.652437470819,"lon":"-96.789089","lat":"33.027907","theaterChainName":"Studio Movie Grill","ticketType":"SELECT_SEATING"},{"id":"327","tribuneTheaterId":"7323","providerTheaterId":"","name":"Cinemark West Plano and XD","address":"3800 Dallas Parkway","city":"Plano","state":"TX","zip":"75093","distance":21.963430492404,"lon":"-96.8294","lat":"33.0512","theaterChainName":"Cinemark","ticketType":"STANDARD"},{"id":"5322","tribuneTheaterId":"10759","providerTheaterId":"","name":"Alamo Drafthouse Richardson","address":"100 S. Central Expressway","city":"Richardson","state":"TX","zip":"75080","distance":22.659433973431,"lon":"-96.7355","lat":"32.9501","theaterChainName":"Alamo Drafthouse","ticketType":"STANDARD"},{"id":"228","tribuneTheaterId":"8242","providerTheaterId":"","name":"Cinemark Movies 14 Lancaster","address":"3250 W Pleasant Run Road","city":"Lancaster","state":"TX","zip":"75146","distance":22.306622515996,"lon":"-96.821126","lat":"32.602177","theaterChainName":"Cinemark","ticketType":"STANDARD"},{"id":"312","tribuneTheaterId":"2970","providerTheaterId":"","name":"FunAsia Cinema","address":"1210 E. Belt Line Rd.","city":"Richardson","state":"TX","zip":"75081","distance":24.262086651746,"lon":"-96.7037","lat":"32.9452","theaterChainName":"FunAsiA","ticketType":"STANDARD"},{"id":"220","tribuneTheaterId":"7584","providerTheaterId":"","name":"UA Galaxy Theatre Stadium 10","address":"11801 McCree Road","city":"Dallas","state":"TX","zip":"75238","distance":24.653675759523,"lon":"-96.675589","lat":"32.869533","theaterChainName":"United Artists","ticketType":"STANDARD"},{"id":"3952","tribuneTheaterId":"8103","providerTheaterId":"","name":"Cinemark 14 Denton","address":"2825 Wind River","city":"Denton","state":"TX","zip":"76210","distance":24.160688363711,"lon":"-97.098944","lat":"33.176079","theaterChainName":"Cinemark","ticketType":"STANDARD"},{"id":"3862","tribuneTheaterId":"6260","providerTheaterId":"","name":"Angelika Film Center Plano","address":"7205 Bishop Rd. Suite E6","city":"Plano","state":"TX","zip":"75024","distance":23.528376899862,"lon":"-96.8214","lat":"33.0762","theaterChainName":"Reading International, Inc","ticketType":"STANDARD"},{"id":"231","tribuneTheaterId":"8859","providerTheaterId":"","name":"Cinemark Movies 10 Plano","address":"1818 Coit Road","city":"Plano","state":"TX","zip":"75075","distance":23.480002705427,"lon":"-96.768753","lat":"33.025095","theaterChainName":"Cinemark","ticketType":"STANDARD"}]