[{"id":"4313","name":"Studio Movie Grill - Arlington","address":"225 Merchants Row","city":"Arlington","state":"TX","zip":"76018","distance":"23.677845001220703","lon":"-97.109268","lat":"32.682152","theaterChainName":"Studio Movie Grill","ticketType":"SELECT_SEATING"},{"id":"3574","name":"AMC The Parks at Arlington 18","address":"3811 South Cooper Street","city":"Arlington","state":"TX","zip":"76015","distance":"23.086261749267578","lon":"-97.132500","lat":"32.683998","theaterChainName":"AMC Theatres","ticketType":"STANDARD"},{"id":"4033","name":"Cinemark 12 Mansfield and XD","address":"2041 Highway 287 Suite 901","city":"Mansfield","state":"TX","zip":"76063","distance":"17.589399337768555","lon":"-97.148804","lat":"32.598099","theaterChainName":"Cinemark","ticketType":"STANDARD"},{"id":"382","name":"Movie Tavern at Green Oaks","address":"5727 W. I-20","city":"Arlington","state":"TX","zip":"76016","distance":"21.021196365356445","lon":"-97.195465","lat":"32.676430","theaterChainName":"Movie Tavern","ticketType":"STANDARD"},{"id":"519","name":"America Cinemas","address":"4200 South Freeway","city":"Fort Worth","state":"TX","zip":"76115","distance":"20.267839431762695","lon":"-97.323807","lat":"32.686993","theaterChainName":"Independent Chains","ticketType":"STANDARD"},{"id":"492","name":"Regal Burleson Movies Stadium 14 ","address":"301 W. Rendon-Crowley Road","city":"Burleson","state":"TX","zip":"76028","distance":"12.61075210571289","lon":"-97.324066","lat":"32.576164","theaterChainName":"Regal Cinemas","ticketType":"STANDARD"},{"id":"5982","name":"AMC Burleson 14","address":"301 W Rendon Crowley Road","city":"Burleson","state":"TX","zip":"76028","distance":"12.621997833251953","lon":"-97.324356","lat":"32.576332","theaterChainName":"AMC Theatres","ticketType":"STANDARD"},{"id":"4831","name":"Movie Tavern at West 7th Street","address":"2872 Crockett St.","city":"Fort Worth","state":"TX","zip":"76107","distance":"24.68852424621582","lon":"-97.357864","lat":"32.750153","theaterChainName":"Movie Tavern","ticketType":"STANDARD"},{"id":"4541","name":"Premiere Burleson Cinema","address":"1581 SW Wilshire Blvd.","city":"Burleson","state":"TX","zip":"76028","distance":"8.564783096313477","lon":"-97.347359","lat":"32.516647","theaterChainName":"Premiere Cinemas","ticketType":"STANDARD"},{"id":"1333","name":"Cinemark Cinema 6 Cleburne","address":"1643 W. Henderson St.","city":"Cleburne","state":"TX","zip":"76031","distance":"5.991600513458252","lon":"-97.416458","lat":"32.348701","theaterChainName":"Cinemark","ticketType":"STANDARD"},{"id":"4412","name":"Hulen Movie Tavern","address":"4920 S. Hulen Road","city":"Fort Worth","state":"TX","zip":"76132","distance":"20.111312866210938","lon":"-97.401459","lat":"32.678219","theaterChainName":"Movie Tavern","ticketType":"STANDARD"},{"id":"4304","name":"Starplex Hulen Stadium 10","address":"6330 Hulen Bend Blvd","city":"Fort Worth","state":"TX","zip":"76132","distance":"18.96142578125","lon":"-97.404671","lat":"32.660534","theaterChainName":"Starplex Cinemas","ticketType":"STANDARD"},{"id":"3696","name":"Ridgmar 13 + Xtreme","address":"2300 Green Oaks Road","city":"Fort Worth","state":"TX","zip":"76116","distance":"24.716026306152344","lon":"-97.437157","lat":"32.739521","theaterChainName":"Cinemark","ticketType":"STANDARD"}]