[{"id":"4541","tribuneTheaterId":"9674","providerTheaterId":"","name":"Premiere Burleson Cinema","address":"1581 SW Wilshire Blvd.","city":"Burleson","state":"TX","zip":"76028","distance":4.6809331155273,"lon":"-97.347357","lat":"32.516648","theaterChainName":"Premiere Cinemas","ticketType":"STANDARD"},{"id":"1333","tribuneTheaterId":"4212","providerTheaterId":"","name":"Cinemark Cinema 6 Cleburne","address":"1643 W. Henderson St.","city":"Cleburne","state":"TX","zip":"76031","distance":8.1746107991261,"lon":"-97.416458","lat":"32.3487","theaterChainName":"Cinemark","ticketType":"STANDARD"},{"id":"492","tribuneTheaterId":"8750","providerTheaterId":"","name":"Regal Burleson Movies Stadium 14 ","address":"301 W. Rendon-Crowley Road","city":"Burleson","state":"TX","zip":"76028","distance":8.8182249338694,"lon":"-97.324069","lat":"32.576164","theaterChainName":"Regal Cinemas","ticketType":"STANDARD"},{"id":"5982","tribuneTheaterId":"11418","providerTheaterId":"","name":"AMC Burleson 14","address":"301 W Rendon Crowley Road","city":"Burleson","state":"TX","zip":"76028","distance":8.8197585322451,"lon":"-97.324355","lat":"32.576332","theaterChainName":"AMC Theatres","ticketType":"STANDARD"},{"id":"4304","tribuneTheaterId":"2277","providerTheaterId":"","name":"Starplex Hulen Stadium 10","address":"6330 Hulen Bend Blvd","city":"Fort Worth","state":"TX","zip":"76132","distance":13.421737729443,"lon":"-97.404667","lat":"32.660532","theaterChainName":"Starplex Cinemas","ticketType":"STANDARD"},{"id":"4412","tribuneTheaterId":"9471","providerTheaterId":"","name":"Hulen Movie Tavern","address":"4920 S. Hulen Road","city":"Fort Worth","state":"TX","zip":"76132","distance":14.642198383168,"lon":"-97.401457","lat":"32.678219","theaterChainName":"Movie Tavern","ticketType":"STANDARD"},{"id":"519","tribuneTheaterId":"2080","providerTheaterId":"","name":"America Cinemas","address":"4200 South Freeway","city":"Fort Worth","state":"TX","zip":"76115","distance":15.898730795408,"lon":"-97.323804","lat":"32.686994","theaterChainName":"Independent Chains","ticketType":"STANDARD"},{"id":"4033","tribuneTheaterId":"4226","providerTheaterId":"","name":"Cinemark 12 Mansfield and XD","address":"2041 Highway 287 Suite 901","city":"Mansfield","state":"TX","zip":"76063","distance":17.289531908932,"lon":"-97.1488","lat":"32.5981","theaterChainName":"Cinemark","ticketType":"STANDARD"},{"id":"3696","tribuneTheaterId":"3207","providerTheaterId":"","name":"Ridgmar 13 + Xtreme","address":"2300 Green Oaks Road","city":"Fort Worth","state":"TX","zip":"76116","distance":18.993983391109,"lon":"-97.437158","lat":"32.73952","theaterChainName":"Cinemark","ticketType":"STANDARD"},{"id":"382","tribuneTheaterId":"3068","providerTheaterId":"","name":"Movie Tavern at Green Oaks","address":"5727 W. I-20","city":"Arlington","state":"TX","zip":"76016","distance":18.81880132118,"lon":"-97.195466","lat":"32.676429","theaterChainName":"Movie Tavern","ticketType":"STANDARD"},{"id":"383","tribuneTheaterId":"5317","providerTheaterId":"252","name":"AMC Palace 9","address":"220 E. 3rd St.","city":"Fort Worth","state":"TX","zip":"76102","distance":20.409284098259,"lon":"-97.330362","lat":"32.755615","theaterChainName":"AMC Theatres","ticketType":"STANDARD"},{"id":"4831","tribuneTheaterId":"10107","providerTheaterId":"","name":"Movie Tavern at West 7th Street","address":"2872 Crockett St.","city":"Fort Worth","state":"TX","zip":"76107","distance":19.772993068212,"lon":"-97.357863","lat":"32.750151","theaterChainName":"Movie Tavern","ticketType":"STANDARD"},{"id":"2839","tribuneTheaterId":"3010","providerTheaterId":"","name":"Showbiz Granbury 6","address":"1201 Water's Edge Drive","city":"Granbury","state":"TX","zip":"76048","distance":21.934317771324,"lon":"-97.77512","lat":"32.432203","theaterChainName":"ShowBiz Cinemas","ticketType":"STANDARD"},{"id":"3574","tribuneTheaterId":"5321","providerTheaterId":"158","name":"AMC The Parks at Arlington 18","address":"3811 South Cooper Street","city":"Arlington","state":"TX","zip":"76015","distance":21.698530524864,"lon":"-97.1325","lat":"32.684","theaterChainName":"AMC Theatres","ticketType":"STANDARD"},{"id":"4313","tribuneTheaterId":"2218","providerTheaterId":"","name":"Studio Movie Grill - Arlington","address":"225 Merchants Row","city":"Arlington","state":"TX","zip":"76018","distance":22.608432952686,"lon":"-97.10927","lat":"32.682152","theaterChainName":"Studio Movie Grill","ticketType":"SELECT_SEATING"},{"id":"5275","tribuneTheaterId":"10709","providerTheaterId":"165","name":"AMC Eastchase 9","address":"8301 Ederville Road","city":"Fort Worth","state":"TX","zip":"76120","distance":24.064133555892,"lon":"-97.1723","lat":"32.7564","theaterChainName":"AMC Theatres","ticketType":"STANDARD"},{"id":"3107","tribuneTheaterId":"3102","providerTheaterId":"","name":"Texas Movie Bistro","address":"3980 Boat Club Road","city":"Lake Worth","state":"TX","zip":"76135","distance":23.935234249548,"lon":"-97.419242","lat":"32.812382","theaterChainName":"Independent Chains","ticketType":"STANDARD"},{"id":"4960","tribuneTheaterId":"10320","providerTheaterId":"","name":"Lake Worth Movies 14","address":"6600 NW Loop 820","city":"Fort Worth","state":"TX","zip":"76135","distance":23.379479242278,"lon":"-97.430035","lat":"32.803797","theaterChainName":"Starplex Cinemas","ticketType":"STANDARD"}]