[{"id":"228","name":"Cinemark Movies 14 Lancaster","address":"3250 W Pleasant Run Road","city":"Lancaster","state":"TX","zip":"75146","distance":"24.12911033630371","lon":"-96.821129","lat":"32.602177","theaterChainName":"Cinemark","ticketType":"STANDARD"},{"id":"3905","name":"Cinemark 14 Cedar Hill","address":"280 Uptown Blvd.","city":"Cedar Hill","state":"TX","zip":"75104","distance":"20.7319278717041","lon":"-96.949966","lat":"32.592194","theaterChainName":"Cinemark","ticketType":"STANDARD"},{"id":"4033","name":"Cinemark 12 Mansfield and XD","address":"2041 Highway 287 Suite 901","city":"Mansfield","state":"TX","zip":"76063","distance":"21.83175277709961","lon":"-97.148804","lat":"32.598099","theaterChainName":"Cinemark","ticketType":"STANDARD"},{"id":"4758","name":"Showbiz Waxahachie 12","address":"108 Broadhead Road","city":"Waxahachie","state":"TX","zip":"75165","distance":"14.127307891845703","lon":"-96.816872","lat":"32.400593","theaterChainName":"ShowBiz Cinemas","ticketType":"STANDARD"},{"id":"4541","name":"Premiere Burleson Cinema","address":"1581 SW Wilshire Blvd.","city":"Burleson","state":"TX","zip":"76028","distance":"23.97042465209961","lon":"-97.347359","lat":"32.516647","theaterChainName":"Premiere Cinemas","ticketType":"STANDARD"},{"id":"1333","name":"Cinemark Cinema 6 Cleburne","address":"1643 W. Henderson St.","city":"Cleburne","state":"TX","zip":"76031","distance":"22.989484786987305","lon":"-97.416458","lat":"32.348701","theaterChainName":"Cinemark","ticketType":"STANDARD"}]