[{"id":"4758","tribuneTheaterId":"9993","providerTheaterId":"","name":"Showbiz Waxahachie 12","address":"108 Broadhead Road","city":"Waxahachie","state":"TX","zip":"75165","distance":14.126614773177,"lon":"-96.816868","lat":"32.400591","theaterChainName":"ShowBiz Cinemas","ticketType":"STANDARD"},{"id":"3905","tribuneTheaterId":"8357","providerTheaterId":"","name":"Cinemark 14 Cedar Hill","address":"280 Uptown Blvd.","city":"Cedar Hill","state":"TX","zip":"75104","distance":20.730862235486,"lon":"-96.949963","lat":"32.592195","theaterChainName":"Cinemark","ticketType":"STANDARD"},{"id":"4033","tribuneTheaterId":"4226","providerTheaterId":"","name":"Cinemark 12 Mansfield and XD","address":"2041 Highway 287 Suite 901","city":"Mansfield","state":"TX","zip":"76063","distance":21.830479304182,"lon":"-97.1488","lat":"32.5981","theaterChainName":"Cinemark","ticketType":"STANDARD"},{"id":"1333","tribuneTheaterId":"4212","providerTheaterId":"","name":"Cinemark Cinema 6 Cleburne","address":"1643 W. Henderson St.","city":"Cleburne","state":"TX","zip":"76031","distance":22.988026708954,"lon":"-97.416458","lat":"32.3487","theaterChainName":"Cinemark","ticketType":"STANDARD"},{"id":"4541","tribuneTheaterId":"9674","providerTheaterId":"","name":"Premiere Burleson Cinema","address":"1581 SW Wilshire Blvd.","city":"Burleson","state":"TX","zip":"76028","distance":23.968922949969,"lon":"-97.347357","lat":"32.516648","theaterChainName":"Premiere Cinemas","ticketType":"STANDARD"},{"id":"228","tribuneTheaterId":"8242","providerTheaterId":"","name":"Cinemark Movies 14 Lancaster","address":"3250 W Pleasant Run Road","city":"Lancaster","state":"TX","zip":"75146","distance":24.127798088063,"lon":"-96.821126","lat":"32.602177","theaterChainName":"Cinemark","ticketType":"STANDARD"}]