[{"id":"1333","tribuneTheaterId":"4212","providerTheaterId":"","name":"Cinemark Cinema 6 Cleburne","address":"1643 W. Henderson St.","city":"Cleburne","state":"TX","zip":"76031","distance":7.1843041279741,"lon":"-97.416458","lat":"32.3487","theaterChainName":"Cinemark","ticketType":"STANDARD"},{"id":"4541","tribuneTheaterId":"9674","providerTheaterId":"","name":"Premiere Burleson Cinema","address":"1581 SW Wilshire Blvd.","city":"Burleson","state":"TX","zip":"76028","distance":18.241531585769,"lon":"-97.347357","lat":"32.516648","theaterChainName":"Premiere Cinemas","ticketType":"STANDARD"},{"id":"5982","tribuneTheaterId":"11418","providerTheaterId":"","name":"AMC Burleson 14","address":"301 W Rendon Crowley Road","city":"Burleson","state":"TX","zip":"76028","distance":22.46960498683,"lon":"-97.324355","lat":"32.576332","theaterChainName":"AMC Theatres","ticketType":"STANDARD"},{"id":"492","tribuneTheaterId":"8750","providerTheaterId":"","name":"Regal Burleson Movies Stadium 14 ","address":"301 W. Rendon-Crowley Road","city":"Burleson","state":"TX","zip":"76028","distance":22.459960063949,"lon":"-97.324069","lat":"32.576164","theaterChainName":"Regal Cinemas","ticketType":"STANDARD"}]