[{"id":"583","name":"AMC Grapevine Mills 30","address":"3150 Grapevine Mills Parkway","city":"Grapevine","state":"TX","zip":"76051","distance":"22.09161376953125","lon":"-97.044586","lat":"32.966644","theaterChainName":"AMC Theatres","ticketType":"STANDARD"},{"id":"311","name":"AMC Irving Mall Cinemas 14","address":"2433 Irving Mall","city":"Irving","state":"TX","zip":"75062","distance":"21.25440788269043","lon":"-96.995628","lat":"32.841053","theaterChainName":"AMC Theatres","ticketType":"STANDARD"},{"id":"515","name":"Starplex Irving Cinema 10","address":"4205 W. Pioneer Drive","city":"Irving","state":"TX","zip":"75061","distance":"20.493553161621094","lon":"-97.007248","lat":"32.833363","theaterChainName":"Starplex Cinemas","ticketType":"STANDARD"},{"id":"227","name":"Cinemark Tinseltown Grapevine","address":"911 State Highway. 114 West","city":"Grapevine","state":"TX","zip":"76051","distance":"18.36675262451172","lon":"-97.087799","lat":"32.924000","theaterChainName":"Cinemark","ticketType":"STANDARD"},{"id":"5476","name":"Studio Movie Grill Colleyville","address":"5655 Colleyville Blvd. #300","city":"Colleyville","state":"TX","zip":"76034","distance":"14.297100067138672","lon":"-97.146347","lat":"32.891533","theaterChainName":"Studio Movie Grill","ticketType":"SELECT_SEATING"},{"id":"3673","name":"Central Park Movie Tavern","address":"2404 Airport Freeway","city":"Bedford","state":"TX","zip":"76022","distance":"13.582703590393066","lon":"-97.130005","lat":"32.835941","theaterChainName":"Movie Tavern","ticketType":"STANDARD"},{"id":"6038","name":"Studio Movie Grill Lincoln Square","address":"452 Lincoln Square","city":"Arlington","state":"TX","zip":"76001","distance":"14.960803985595703","lon":"-97.098663","lat":"32.757305","theaterChainName":"Studio Movie Grill","ticketType":"SELECT_SEATING"},{"id":"6131","name":"Grand Prairie Premiere LUX Cine","address":"510 E. Westchester Parkway","city":"Grand Prairie","state":"TX","zip":"75052","distance":"21.727405548095703","lon":"-97.003502","lat":"32.673225","theaterChainName":"Premiere Cinemas","ticketType":"STANDARD"},{"id":"5865","name":"Turtle Creek 9","address":"1000 Turtle Creek Drive Suite A5","city":"Hattiesburg","state":"MS","zip":"39402","distance":"21.741884231567383","lon":"-97.003502","lat":"32.672619","theaterChainName":"Independent Chains","ticketType":"STANDARD"},{"id":"230","name":"Cinemark Movies 16 Grand Prairie","address":"220 Westchester Parkway","city":"Grand Prairie","state":"TX","zip":"75052","distance":"21.42825698852539","lon":"-97.009018","lat":"32.673153","theaterChainName":"Cinemark","ticketType":"STANDARD"},{"id":"4313","name":"Studio Movie Grill - Arlington","address":"225 Merchants Row","city":"Arlington","state":"TX","zip":"76018","distance":"15.814401626586914","lon":"-97.109268","lat":"32.682152","theaterChainName":"Studio Movie Grill","ticketType":"SELECT_SEATING"},{"id":"3574","name":"AMC The Parks at Arlington 18","address":"3811 South Cooper Street","city":"Arlington","state":"TX","zip":"76015","distance":"14.549057006835938","lon":"-97.132500","lat":"32.683998","theaterChainName":"AMC Theatres","ticketType":"STANDARD"},{"id":"4033","name":"Cinemark 12 Mansfield and XD","address":"2041 Highway 287 Suite 901","city":"Mansfield","state":"TX","zip":"76063","distance":"17.410367965698242","lon":"-97.148804","lat":"32.598099","theaterChainName":"Cinemark","ticketType":"STANDARD"},{"id":"5275","name":"AMC Eastchase 9","address":"8301 Ederville Road","city":"Fort Worth","state":"TX","zip":"76120","distance":"10.72834587097168","lon":"-97.172302","lat":"32.756401","theaterChainName":"AMC Theatres","ticketType":"STANDARD"},{"id":"382","name":"Movie Tavern at Green Oaks","address":"5727 W. I-20","city":"Arlington","state":"TX","zip":"76016","distance":"11.74195671081543","lon":"-97.195465","lat":"32.676430","theaterChainName":"Movie Tavern","ticketType":"STANDARD"},{"id":"3916","name":"North East Mall 18 + Xtreme","address":"1101 Melbourne Road","city":"Hurst","state":"TX","zip":"76053","distance":"9.522095680236816","lon":"-97.200798","lat":"32.828842","theaterChainName":"Cinemark","ticketType":"STANDARD"},{"id":"519","name":"America Cinemas","address":"4200 South Freeway","city":"Fort Worth","state":"TX","zip":"76115","distance":"6.744484901428223","lon":"-97.323807","lat":"32.686993","theaterChainName":"Independent Chains","ticketType":"STANDARD"},{"id":"383","name":"AMC Palace 9","address":"220 E. 3rd St.","city":"Fort Worth","state":"TX","zip":"76102","distance":"2.254887342453003","lon":"-97.330360","lat":"32.755615","theaterChainName":"AMC Theatres","ticketType":"STANDARD"},{"id":"5584","name":"Moviehouse and Eatery","address":"250 Rufe Snow Drive","city":"Keller","state":"TX","zip":"76248","distance":"12.621466636657715","lon":"-97.231873","lat":"32.931889","theaterChainName":"Independent Chains","ticketType":"STANDARD"},{"id":"492","name":"Regal Burleson Movies Stadium 14 ","address":"301 W. Rendon-Crowley Road","city":"Burleson","state":"TX","zip":"76028","distance":"14.271561622619629","lon":"-97.324066","lat":"32.576164","theaterChainName":"Regal Cinemas","ticketType":"STANDARD"},{"id":"5982","name":"AMC Burleson 14","address":"301 W Rendon Crowley Road","city":"Burleson","state":"TX","zip":"76028","distance":"14.257964134216309","lon":"-97.324356","lat":"32.576332","theaterChainName":"AMC Theatres","ticketType":"STANDARD"},{"id":"318","name":"UA Fossil Creek Stadium 11","address":"6100 N. Freeway","city":"Fort Worth","state":"TX","zip":"76137","distance":"5.638645172119141","lon":"-97.311874","lat":"32.854382","theaterChainName":"United Artists","ticketType":"STANDARD"},{"id":"4831","name":"Movie Tavern at West 7th Street","address":"2872 Crockett St.","city":"Fort Worth","state":"TX","zip":"76107","distance":"2.146876335144043","lon":"-97.357864","lat":"32.750153","theaterChainName":"Movie Tavern","ticketType":"STANDARD"},{"id":"5740","name":"Cinemark Roanoke and XD","address":"850 E. HWY 114","city":"Roanoke","state":"TX","zip":"76262","distance":"17.001304626464844","lon":"-97.217285","lat":"32.998459","theaterChainName":"Cinemark","ticketType":"STANDARD"},{"id":"4541","name":"Premiere Burleson Cinema","address":"1581 SW Wilshire Blvd.","city":"Burleson","state":"TX","zip":"76028","distance":"18.277978897094727","lon":"-97.347359","lat":"32.516647","theaterChainName":"Premiere Cinemas","ticketType":"STANDARD"},{"id":"4412","name":"Hulen Movie Tavern","address":"4920 S. Hulen Road","city":"Fort Worth","state":"TX","zip":"76132","distance":"7.612882614135742","lon":"-97.401459","lat":"32.678219","theaterChainName":"Movie Tavern","ticketType":"STANDARD"},{"id":"4304","name":"Starplex Hulen Stadium 10","address":"6330 Hulen Bend Blvd","city":"Fort Worth","state":"TX","zip":"76132","distance":"8.824787139892578","lon":"-97.404671","lat":"32.660534","theaterChainName":"Starplex Cinemas","ticketType":"STANDARD"},{"id":"5165","name":"Cinemark Alliance Town Center and XD","address":"9228 Sage Meadow Trail","city":"Fort Worth","state":"TX","zip":"76177","distance":"9.000675201416016","lon":"-97.315651","lat":"32.907185","theaterChainName":"Cinemark","ticketType":"STANDARD"},{"id":"3696","name":"Ridgmar 13 + Xtreme","address":"2300 Green Oaks Road","city":"Fort Worth","state":"TX","zip":"76116","distance":"5.591744422912598","lon":"-97.437157","lat":"32.739521","theaterChainName":"Cinemark","ticketType":"STANDARD"},{"id":"3107","name":"Texas Movie Bistro","address":"3980 Boat Club Road","city":"Lake Worth","state":"TX","zip":"76135","distance":"4.332395076751709","lon":"-97.419243","lat":"32.812382","theaterChainName":"Independent Chains","ticketType":"STANDARD"},{"id":"4960","name":"Lake Worth Movies 14","address":"6600 NW Loop 820","city":"Fort Worth","state":"TX","zip":"76135","distance":"4.654184818267822","lon":"-97.430038","lat":"32.803799","theaterChainName":"Starplex Cinemas","ticketType":"STANDARD"},{"id":"2784","name":"City Lights Theaters Weatherford","address":"1000 Cinema Drive","city":"Hudson Oaks","state":"TX","zip":"76087","distance":"21.09446907043457","lon":"-97.716232","lat":"32.754086","theaterChainName":"Schulman Theatres","ticketType":"STANDARD"}]