[{"id":"3045","name":"Cinemark Movies 8 Lewisville","address":"420 Oakbend Drive","city":"Lewisville","state":"TX","zip":"75067","distance":"24.636655807495117","lon":"-96.980698","lat":"33.009853","theaterChainName":"Cinemark","ticketType":"STANDARD"},{"id":"4349","name":"Studio Movie Grill Lewisville","address":"1600 S. Stemmons Freeway","city":"Lewisville","state":"TX","zip":"75067","distance":"23.858640670776367","lon":"-96.983681","lat":"33.022888","theaterChainName":"Studio Movie Grill","ticketType":"SELECT_SEATING"},{"id":"583","name":"AMC Grapevine Mills 30","address":"3150 Grapevine Mills Parkway","city":"Grapevine","state":"TX","zip":"76051","distance":"24.81311798095703","lon":"-97.044586","lat":"32.966644","theaterChainName":"AMC Theatres","ticketType":"STANDARD"},{"id":"5390","name":"Carmike Hickory Creek 16","address":"8380 S.Stemmons Freeway","city":"Hickory Creek","state":"TX","zip":"75065","distance":"16.796205520629883","lon":"-97.037903","lat":"33.124481","theaterChainName":"Carmike Cinemas","ticketType":"STANDARD"},{"id":"4448","name":"AMC Highland Village 12","address":"4090 Barton Creek","city":"Highland Village","state":"TX","zip":"75077","distance":"17.251869201660156","lon":"-97.086082","lat":"33.075211","theaterChainName":"AMC Theatres","ticketType":"STANDARD"},{"id":"3952","name":"Cinemark 14 Denton","address":"2825 Wind River","city":"Denton","state":"TX","zip":"76210","distance":"11.83825969696045","lon":"-97.098946","lat":"33.176079","theaterChainName":"Cinemark","ticketType":"STANDARD"},{"id":"5584","name":"Moviehouse and Eatery","address":"250 Rufe Snow Drive","city":"Keller","state":"TX","zip":"76248","distance":"23.687515258789062","lon":"-97.231873","lat":"32.931889","theaterChainName":"Independent Chains","ticketType":"STANDARD"},{"id":"5740","name":"Cinemark Roanoke and XD","address":"850 E. HWY 114","city":"Roanoke","state":"TX","zip":"76262","distance":"19.218631744384766","lon":"-97.217285","lat":"32.998459","theaterChainName":"Cinemark","ticketType":"STANDARD"},{"id":"1076","name":"Denton Movie Tavern","address":"916 W University Drive","city":"Denton","state":"TX","zip":"76201","distance":"7.742288589477539","lon":"-97.143166","lat":"33.231644","theaterChainName":"Movie Tavern","ticketType":"STANDARD"},{"id":"2398","name":"Plaza Cinema IV","address":"920 W. Thompson St.","city":"Decatur","state":"TX","zip":"76234","distance":"19.245832443237305","lon":"-97.595047","lat":"33.222965","theaterChainName":"Independent Chains","ticketType":"STANDARD"}]