[{"id":"5406","name":"DMAX Cinema","address":"4319 N. Interstate 35","city":"Gainesville","state":"TX","zip":"76240","distance":"22.13624382019043","lon":"-97.154762","lat":"33.675892","theaterChainName":"R\/C Theatres","ticketType":"STANDARD"},{"id":"4977","name":"Cinemark Frisco Square and XD","address":"5655 Frisco Square Blvd","city":"Frisco","state":"TX","zip":"75034","distance":"24.46944808959961","lon":"-96.837128","lat":"33.150089","theaterChainName":"Cinemark","ticketType":"STANDARD"},{"id":"5390","name":"Carmike Hickory Creek 16","address":"8380 S.Stemmons Freeway","city":"Hickory Creek","state":"TX","zip":"75065","distance":"18.0374698638916","lon":"-97.037903","lat":"33.124481","theaterChainName":"Carmike Cinemas","ticketType":"STANDARD"},{"id":"4448","name":"AMC Highland Village 12","address":"4090 Barton Creek","city":"Highland Village","state":"TX","zip":"75077","distance":"20.189041137695312","lon":"-97.086082","lat":"33.075211","theaterChainName":"AMC Theatres","ticketType":"STANDARD"},{"id":"3952","name":"Cinemark 14 Denton","address":"2825 Wind River","city":"Denton","state":"TX","zip":"76210","distance":"13.332878112792969","lon":"-97.098946","lat":"33.176079","theaterChainName":"Cinemark","ticketType":"STANDARD"},{"id":"5740","name":"Cinemark Roanoke and XD","address":"850 E. HWY 114","city":"Roanoke","state":"TX","zip":"76262","distance":"24.812942504882812","lon":"-97.217285","lat":"32.998459","theaterChainName":"Cinemark","ticketType":"STANDARD"},{"id":"1076","name":"Denton Movie Tavern","address":"916 W University Drive","city":"Denton","state":"TX","zip":"76201","distance":"8.891993522644043","lon":"-97.143166","lat":"33.231644","theaterChainName":"Movie Tavern","ticketType":"STANDARD"}]