[{"id":"3590","name":"Premiere Temple 16","address":"3111 S. 31st Street","city":"Temple","state":"TX","zip":"76502","distance":"20.112659454345703","lon":"-97.366859","lat":"31.070244","theaterChainName":"Premiere Cinemas","ticketType":"STANDARD"},{"id":"5431","name":"Cinemark Temple and XD","address":"4501 S. General Bruce Dr.","city":"Temple","state":"TX","zip":"76502","distance":"18.153650283813477","lon":"-97.397827","lat":"31.085485","theaterChainName":"Cinemark","ticketType":"STANDARD"},{"id":"5179","name":"Grand Avenue Theater","address":"2809 Oakmark Dr.","city":"Belton","state":"TX","zip":"76513","distance":"16.206451416015625","lon":"-97.459229","lat":"31.085970","theaterChainName":"Independent Chains","ticketType":"STANDARD"},{"id":"4494","name":"Cinemark at Market Heights","address":"201 E. Central Texas Expressway","city":"Harker Heights","state":"TX","zip":"76548","distance":"15.974148750305176","lon":"-97.665794","lat":"31.075758","theaterChainName":"Cinemark","ticketType":"STANDARD"},{"id":"1891","name":"Regal Killeen Stadium 14","address":"2501 East Central Texas Expressway","city":"Killeen","state":"TX","zip":"76543","distance":"16.142505645751953","lon":"-97.710716","lat":"31.089466","theaterChainName":"Regal Cinemas","ticketType":"STANDARD"},{"id":"4942","name":"Cinergy Cinemas","address":"402 Constitution Drive","city":"Copperas Cove","state":"TX","zip":"76522","distance":"21.103734970092773","lon":"-97.871147","lat":"31.116150","theaterChainName":"Independent Chains","ticketType":"STANDARD"}]