[{"id":"668","name":"Tinseltown Pflugerville","address":"15436 FM 1825","city":"Pflugerville","state":"TX","zip":"78660","distance":"24.005809783935547","lon":"-97.663696","lat":"30.447750","theaterChainName":"Cinemark","ticketType":"STANDARD"},{"id":"5062","name":"Flix Brewhouse by Galaxy Theatres","address":"2200 S. Interstate Hwy 35 Suite B1","city":"Round Rock","state":"TX","zip":"78681","distance":"22.290159225463867","lon":"-97.679993","lat":"30.488407","theaterChainName":"Flix Brewhouse","ticketType":"STANDARD"},{"id":"5027","name":"Cinemark Stone Hill Town Center","address":"18820 Hilltop Commercial Dr.","city":"Pflugerville","state":"TX","zip":"78660","distance":"20.734189987182617","lon":"-97.598320","lat":"30.470261","theaterChainName":"Cinemark","ticketType":"STANDARD"},{"id":"666","name":"Cinemark Movies 8 Round Rock","address":"2132 N Mays St","city":"Round Rock","state":"TX","zip":"78664","distance":"20.516263961791992","lon":"-97.690559","lat":"30.531103","theaterChainName":"Cinemark","ticketType":"STANDARD"},{"id":"4269","name":"Cinemark Round Rock","address":"4401 N. IH-35","city":"Round Rock","state":"TX","zip":"78664","distance":"18.945465087890625","lon":"-97.688522","lat":"30.562817","theaterChainName":"Cinemark","ticketType":"STANDARD"},{"id":"4307","name":"City Lights Theatres - Georgetown 12","address":"420 Wolf Ranch Parkway","city":"Georgetown","state":"TX","zip":"78628","distance":"15.856711387634277","lon":"-97.690559","lat":"30.649736","theaterChainName":"Schulman Theatres","ticketType":"STANDARD"},{"id":"3590","name":"Premiere Temple 16","address":"3111 S. 31st Street","city":"Temple","state":"TX","zip":"76502","distance":"23.299312591552734","lon":"-97.366859","lat":"31.070244","theaterChainName":"Premiere Cinemas","ticketType":"STANDARD"},{"id":"5431","name":"Cinemark Temple and XD","address":"4501 S. General Bruce Dr.","city":"Temple","state":"TX","zip":"76502","distance":"24.049894332885742","lon":"-97.397827","lat":"31.085485","theaterChainName":"Cinemark","ticketType":"STANDARD"},{"id":"5179","name":"Grand Avenue Theater","address":"2809 Oakmark Dr.","city":"Belton","state":"TX","zip":"76513","distance":"23.934202194213867","lon":"-97.459229","lat":"31.085970","theaterChainName":"Independent Chains","ticketType":"STANDARD"}]