[{"id":"5179","tribuneTheaterId":"10592","providerTheaterId":"","name":"Grand Avenue Theater","address":"2809 Oakmark Dr.","city":"Belton","state":"TX","zip":"76513","distance":3.2329169266879,"lon":"-97.459231","lat":"31.085969","theaterChainName":"Independent Chains","ticketType":"STANDARD"},{"id":"5431","tribuneTheaterId":"10869","providerTheaterId":"","name":"Cinemark Temple and XD","address":"4501 S. General Bruce Dr.","city":"Temple","state":"TX","zip":"76502","distance":6.186818540371,"lon":"-97.397824","lat":"31.085485","theaterChainName":"Cinemark","ticketType":"STANDARD"},{"id":"3590","tribuneTheaterId":"5079","providerTheaterId":"","name":"Premiere Temple 16","address":"3111 S. 31st Street","city":"Temple","state":"TX","zip":"76502","distance":7.6359603984556,"lon":"-97.366857","lat":"31.070243","theaterChainName":"Premiere Cinemas","ticketType":"STANDARD"},{"id":"4494","tribuneTheaterId":"9595","providerTheaterId":"","name":"Cinemark at Market Heights","address":"201 E. Central Texas Expressway","city":"Harker Heights","state":"TX","zip":"76548","distance":10.350238004251,"lon":"-97.665791","lat":"31.075758","theaterChainName":"Cinemark","ticketType":"STANDARD"},{"id":"1891","tribuneTheaterId":"6005","providerTheaterId":"","name":"Regal Killeen Stadium 14","address":"2501 East Central Texas Expressway","city":"Killeen","state":"TX","zip":"76543","distance":13.141137934631,"lon":"-97.710716","lat":"31.089467","theaterChainName":"Regal Cinemas","ticketType":"STANDARD"},{"id":"4942","tribuneTheaterId":"10295","providerTheaterId":"","name":"Cinergy Cinemas","address":"402 Constitution Drive","city":"Copperas Cove","state":"TX","zip":"76522","distance":22.808788838712,"lon":"-97.871146","lat":"31.116149","theaterChainName":"Independent Chains","ticketType":"STANDARD"}]