[{"id":"4307","name":"City Lights Theatres - Georgetown 12","address":"420 Wolf Ranch Parkway","city":"Georgetown","state":"TX","zip":"78628","distance":"24.099523544311523","lon":"-97.690559","lat":"30.649736","theaterChainName":"Schulman Theatres","ticketType":"STANDARD"},{"id":"3590","name":"Premiere Temple 16","address":"3111 S. 31st Street","city":"Temple","state":"TX","zip":"76502","distance":"13.192731857299805","lon":"-97.366859","lat":"31.070244","theaterChainName":"Premiere Cinemas","ticketType":"STANDARD"},{"id":"5431","name":"Cinemark Temple and XD","address":"4501 S. General Bruce Dr.","city":"Temple","state":"TX","zip":"76502","distance":"14.216780662536621","lon":"-97.397827","lat":"31.085485","theaterChainName":"Cinemark","ticketType":"STANDARD"},{"id":"5179","name":"Grand Avenue Theater","address":"2809 Oakmark Dr.","city":"Belton","state":"TX","zip":"76513","distance":"14.883764266967773","lon":"-97.459229","lat":"31.085970","theaterChainName":"Independent Chains","ticketType":"STANDARD"},{"id":"4494","name":"Cinemark at Market Heights","address":"201 E. Central Texas Expressway","city":"Harker Heights","state":"TX","zip":"76548","distance":"21.408178329467773","lon":"-97.665794","lat":"31.075758","theaterChainName":"Cinemark","ticketType":"STANDARD"},{"id":"1891","name":"Regal Killeen Stadium 14","address":"2501 East Central Texas Expressway","city":"Killeen","state":"TX","zip":"76543","distance":"24.08692169189453","lon":"-97.710716","lat":"31.089466","theaterChainName":"Regal Cinemas","ticketType":"STANDARD"}]