[{"id":"3590","name":"Premiere Temple 16","address":"3111 S. 31st Street","city":"Temple","state":"TX","zip":"76502","distance":"12.903400421142578","lon":"-97.366859","lat":"31.070244","theaterChainName":"Premiere Cinemas","ticketType":"STANDARD"},{"id":"5431","name":"Cinemark Temple and XD","address":"4501 S. General Bruce Dr.","city":"Temple","state":"TX","zip":"76502","distance":"11.61788558959961","lon":"-97.397827","lat":"31.085485","theaterChainName":"Cinemark","ticketType":"STANDARD"},{"id":"5179","name":"Grand Avenue Theater","address":"2809 Oakmark Dr.","city":"Belton","state":"TX","zip":"76513","distance":"11.922735214233398","lon":"-97.459229","lat":"31.085970","theaterChainName":"Independent Chains","ticketType":"STANDARD"},{"id":"4494","name":"Cinemark at Market Heights","address":"201 E. Central Texas Expressway","city":"Harker Heights","state":"TX","zip":"76548","distance":"19.473726272583008","lon":"-97.665794","lat":"31.075758","theaterChainName":"Cinemark","ticketType":"STANDARD"},{"id":"1891","name":"Regal Killeen Stadium 14","address":"2501 East Central Texas Expressway","city":"Killeen","state":"TX","zip":"76543","distance":"21.076784133911133","lon":"-97.710716","lat":"31.089466","theaterChainName":"Regal Cinemas","ticketType":"STANDARD"},{"id":"1293","name":"Regal Jewel Cinema 16","address":"7200 Woodway Drive","city":"Waco","state":"TX","zip":"76712","distance":"21.367740631103516","lon":"-97.197845","lat":"31.503942","theaterChainName":"Regal Cinemas","ticketType":"STANDARD"},{"id":"6100","name":"Premiere Waco Cinema 6","address":"410 North Valley Mills Drive","city":"Waco","state":"TX","zip":"76710","distance":"23.683143615722656","lon":"-97.168442","lat":"31.527081","theaterChainName":"Premiere Cinemas","ticketType":"STANDARD"},{"id":"747","name":"Starplex Waco Galaxy 16","address":"333 S. Valley Mills Dr.","city":"Waco","state":"TX","zip":"76710","distance":"23.877199172973633","lon":"-97.159836","lat":"31.524969","theaterChainName":"Starplex Cinemas","ticketType":"STANDARD"}]