[{"id":"5179","tribuneTheaterId":"10592","providerTheaterId":"","name":"Grand Avenue Theater","address":"2809 Oakmark Dr.","city":"Belton","state":"TX","zip":"76513","distance":11.922166591927,"lon":"-97.459231","lat":"31.085969","theaterChainName":"Independent Chains","ticketType":"STANDARD"},{"id":"5431","tribuneTheaterId":"10869","providerTheaterId":"","name":"Cinemark Temple and XD","address":"4501 S. General Bruce Dr.","city":"Temple","state":"TX","zip":"76502","distance":11.61721541992,"lon":"-97.397824","lat":"31.085485","theaterChainName":"Cinemark","ticketType":"STANDARD"},{"id":"3590","tribuneTheaterId":"5079","providerTheaterId":"","name":"Premiere Temple 16","address":"3111 S. 31st Street","city":"Temple","state":"TX","zip":"76502","distance":12.902661943994,"lon":"-97.366857","lat":"31.070243","theaterChainName":"Premiere Cinemas","ticketType":"STANDARD"},{"id":"4494","tribuneTheaterId":"9595","providerTheaterId":"","name":"Cinemark at Market Heights","address":"201 E. Central Texas Expressway","city":"Harker Heights","state":"TX","zip":"76548","distance":19.472543515481,"lon":"-97.665791","lat":"31.075758","theaterChainName":"Cinemark","ticketType":"STANDARD"},{"id":"1891","tribuneTheaterId":"6005","providerTheaterId":"","name":"Regal Killeen Stadium 14","address":"2501 East Central Texas Expressway","city":"Killeen","state":"TX","zip":"76543","distance":21.075625694055,"lon":"-97.710716","lat":"31.089467","theaterChainName":"Regal Cinemas","ticketType":"STANDARD"},{"id":"1293","tribuneTheaterId":"9081","providerTheaterId":"","name":"Regal Jewel Cinema 16","address":"7200 Woodway Drive","city":"Waco","state":"TX","zip":"76712","distance":21.366193103029,"lon":"-97.197847","lat":"31.503942","theaterChainName":"Regal Cinemas","ticketType":"STANDARD"},{"id":"747","tribuneTheaterId":"6952","providerTheaterId":"","name":"Starplex Waco Galaxy 16","address":"333 S. Valley Mills Dr.","city":"Waco","state":"TX","zip":"76710","distance":23.875593920955,"lon":"-97.159835","lat":"31.524969","theaterChainName":"Starplex Cinemas","ticketType":"STANDARD"},{"id":"6100","tribuneTheaterId":"11514","providerTheaterId":"","name":"Premiere Waco Cinema 6","address":"410 North Valley Mills Drive","city":"Waco","state":"TX","zip":"76710","distance":23.681547735882,"lon":"-97.168442","lat":"31.527081","theaterChainName":"Premiere Cinemas","ticketType":"STANDARD"}]