[{"id":"747","tribuneTheaterId":"6952","providerTheaterId":"","name":"Starplex Waco Galaxy 16","address":"333 S. Valley Mills Dr.","city":"Waco","state":"TX","zip":"76710","distance":15.413137614453,"lon":"-97.159835","lat":"31.524969","theaterChainName":"Starplex Cinemas","ticketType":"STANDARD"},{"id":"6100","tribuneTheaterId":"11514","providerTheaterId":"","name":"Premiere Waco Cinema 6","address":"410 North Valley Mills Drive","city":"Waco","state":"TX","zip":"76710","distance":15.695779296161,"lon":"-97.168442","lat":"31.527081","theaterChainName":"Premiere Cinemas","ticketType":"STANDARD"},{"id":"1293","tribuneTheaterId":"9081","providerTheaterId":"","name":"Regal Jewel Cinema 16","address":"7200 Woodway Drive","city":"Waco","state":"TX","zip":"76712","distance":14.832701696836,"lon":"-97.197847","lat":"31.503942","theaterChainName":"Regal Cinemas","ticketType":"STANDARD"},{"id":"5612","tribuneTheaterId":"11071","providerTheaterId":"","name":"Waco Hippodrome Theatre","address":"724 Austin Ave.","city":"Waco","state":"TX","zip":"76710","distance":17.089304032356,"lon":"-97.133944","lat":"31.554478","theaterChainName":"Independent Chains","ticketType":"STANDARD"},{"id":"5431","tribuneTheaterId":"10869","providerTheaterId":"","name":"Cinemark Temple and XD","address":"4501 S. General Bruce Dr.","city":"Temple","state":"TX","zip":"76502","distance":23.908461347021,"lon":"-97.397824","lat":"31.085485","theaterChainName":"Cinemark","ticketType":"STANDARD"},{"id":"3590","tribuneTheaterId":"5079","providerTheaterId":"","name":"Premiere Temple 16","address":"3111 S. 31st Street","city":"Temple","state":"TX","zip":"76502","distance":23.285119753663,"lon":"-97.366857","lat":"31.070243","theaterChainName":"Premiere Cinemas","ticketType":"STANDARD"}]