[{"id":"3590","name":"Premiere Temple 16","address":"3111 S. 31st Street","city":"Temple","state":"TX","zip":"76502","distance":"23.2867488861084","lon":"-97.366859","lat":"31.070244","theaterChainName":"Premiere Cinemas","ticketType":"STANDARD"},{"id":"5431","name":"Cinemark Temple and XD","address":"4501 S. General Bruce Dr.","city":"Temple","state":"TX","zip":"76502","distance":"23.910205841064453","lon":"-97.397827","lat":"31.085485","theaterChainName":"Cinemark","ticketType":"STANDARD"},{"id":"1293","name":"Regal Jewel Cinema 16","address":"7200 Woodway Drive","city":"Waco","state":"TX","zip":"76712","distance":"14.833738327026367","lon":"-97.197845","lat":"31.503942","theaterChainName":"Regal Cinemas","ticketType":"STANDARD"},{"id":"6100","name":"Premiere Waco Cinema 6","address":"410 North Valley Mills Drive","city":"Waco","state":"TX","zip":"76710","distance":"15.696816444396973","lon":"-97.168442","lat":"31.527081","theaterChainName":"Premiere Cinemas","ticketType":"STANDARD"},{"id":"747","name":"Starplex Waco Galaxy 16","address":"333 S. Valley Mills Dr.","city":"Waco","state":"TX","zip":"76710","distance":"15.414205551147461","lon":"-97.159836","lat":"31.524969","theaterChainName":"Starplex Cinemas","ticketType":"STANDARD"},{"id":"5612","name":"Waco Hippodrome Theatre","address":"724 Austin Ave.","city":"Waco","state":"TX","zip":"76710","distance":"17.090391159057617","lon":"-97.133942","lat":"31.554478","theaterChainName":"Independent Chains","ticketType":"STANDARD"}]