[{"id":"5431","name":"Cinemark Temple and XD","address":"4501 S. General Bruce Dr.","city":"Temple","state":"TX","zip":"76502","distance":"24.7111759185791","lon":"-97.397827","lat":"31.085485","theaterChainName":"Cinemark","ticketType":"STANDARD"},{"id":"5179","name":"Grand Avenue Theater","address":"2809 Oakmark Dr.","city":"Belton","state":"TX","zip":"76513","distance":"24.97300148010254","lon":"-97.459229","lat":"31.085970","theaterChainName":"Independent Chains","ticketType":"STANDARD"},{"id":"1293","name":"Regal Jewel Cinema 16","address":"7200 Woodway Drive","city":"Waco","state":"TX","zip":"76712","distance":"12.317272186279297","lon":"-97.197845","lat":"31.503942","theaterChainName":"Regal Cinemas","ticketType":"STANDARD"},{"id":"6100","name":"Premiere Waco Cinema 6","address":"410 North Valley Mills Drive","city":"Waco","state":"TX","zip":"76710","distance":"14.518839836120605","lon":"-97.168442","lat":"31.527081","theaterChainName":"Premiere Cinemas","ticketType":"STANDARD"},{"id":"747","name":"Starplex Waco Galaxy 16","address":"333 S. Valley Mills Dr.","city":"Waco","state":"TX","zip":"76710","distance":"14.929303169250488","lon":"-97.159836","lat":"31.524969","theaterChainName":"Starplex Cinemas","ticketType":"STANDARD"},{"id":"5612","name":"Waco Hippodrome Theatre","address":"724 Austin Ave.","city":"Waco","state":"TX","zip":"76710","distance":"17.161752700805664","lon":"-97.133942","lat":"31.554478","theaterChainName":"Independent Chains","ticketType":"STANDARD"}]