[{"id":"1293","name":"Regal Jewel Cinema 16","address":"7200 Woodway Drive","city":"Waco","state":"TX","zip":"76712","distance":"14.845762252807617","lon":"-97.197845","lat":"31.503942","theaterChainName":"Regal Cinemas","ticketType":"STANDARD"},{"id":"6100","name":"Premiere Waco Cinema 6","address":"410 North Valley Mills Drive","city":"Waco","state":"TX","zip":"76710","distance":"14.814963340759277","lon":"-97.168442","lat":"31.527081","theaterChainName":"Premiere Cinemas","ticketType":"STANDARD"},{"id":"747","name":"Starplex Waco Galaxy 16","address":"333 S. Valley Mills Dr.","city":"Waco","state":"TX","zip":"76710","distance":"14.386373519897461","lon":"-97.159836","lat":"31.524969","theaterChainName":"Starplex Cinemas","ticketType":"STANDARD"},{"id":"5612","name":"Waco Hippodrome Theatre","address":"724 Austin Ave.","city":"Waco","state":"TX","zip":"76710","distance":"15.266703605651855","lon":"-97.133942","lat":"31.554478","theaterChainName":"Independent Chains","ticketType":"STANDARD"}]