[{"id":"2761","name":"Edwards Greenway Palace Stadium 24 & RPX","address":"3839 Weslayan","city":"Houston","state":"TX","zip":"77027","distance":"17.226099014282227","lon":"-95.440727","lat":"29.731016","theaterChainName":"Edwards Theatres","ticketType":"STANDARD"},{"id":"2895","name":"Edwards Houston Marq*E Stadium 23","address":"7620 Katy Freeway","city":"Houston","state":"TX","zip":"77024","distance":"13.38372802734375","lon":"-95.463486","lat":"29.785910","theaterChainName":"Edwards Theatres","ticketType":"STANDARD"},{"id":"342","name":"AMC Studio 30 Houston","address":"2949 Dunvale","city":"Houston","state":"TX","zip":"77063","distance":"17.37081527709961","lon":"-95.511932","lat":"29.731888","theaterChainName":"AMC Theatres","ticketType":"STANDARD"},{"id":"291","name":"Cinemark Tinseltown 290","address":"12920 NW Freeway","city":"Houston","state":"TX","zip":"77040","distance":"9.411752700805664","lon":"-95.496536","lat":"29.846624","theaterChainName":"Cinemark","ticketType":"STANDARD"},{"id":"842","name":"Cinemark Tinseltown Jacinto City","address":"11450 East Freeway","city":"Jacinto City","state":"TX","zip":"77029","distance":"20.20506477355957","lon":"-95.229248","lat":"29.768421","theaterChainName":"Cinemark","ticketType":"STANDARD"},{"id":"4328","name":"Cinemark Memorial City","address":"310 Memorial City Mall","city":"Houston","state":"TX","zip":"77024","distance":"14.565656661987305","lon":"-95.541016","lat":"29.780098","theaterChainName":"Cinemark","ticketType":"STANDARD"},{"id":"4711","name":"Studio Movie Grill City Centre","address":"805 Town ","city":"Houston","state":"TX","zip":"77024","distance":"14.92009162902832","lon":"-95.561066","lat":"29.781305","theaterChainName":"Studio Movie Grill","ticketType":"SELECT_SEATING"},{"id":"5050","name":"Premiere Renaissance","address":"12300 N Freeway #400","city":"Houston","state":"TX","zip":"77060","distance":"3.6884992122650146","lon":"-95.415001","lat":"29.945601","theaterChainName":"Premiere Cinemas","ticketType":"STANDARD"},{"id":"5937","name":"ShowBiz Fall Creek 10","address":"4811 Canyon Lakes Trace Drive","city":"Humble","state":"TX","zip":"77396","distance":"13.509526252746582","lon":"-95.242371","lat":"29.936569","theaterChainName":"ShowBiz Cinemas","ticketType":"STANDARD"},{"id":"345","name":"AMC Loews Fountains 18","address":"11225 Fountain Lake Drive","city":"Stafford","state":"TX","zip":"77477","distance":"24.49747085571289","lon":"-95.584335","lat":"29.641193","theaterChainName":"AMC Theatres","ticketType":"STANDARD"},{"id":"4183","name":"Richey Road Movie Tavern","address":"15719 I-45 N.","city":"Houston","state":"TX","zip":"77090","distance":"2.423236846923828","lon":"-95.426384","lat":"29.995453","theaterChainName":"Movie Tavern","ticketType":"STANDARD"},{"id":"2823","name":"AMC Willowbrook 24","address":"17145 Tomball Parkway","city":"Houston","state":"TX","zip":"77064","distance":"5.051372528076172","lon":"-95.541183","lat":"29.953180","theaterChainName":"AMC Theatres","ticketType":"STANDARD"},{"id":"4545","name":"Deerbrook Movie Tavern","address":"9630 FM 1960 Bypass West","city":"Humble","state":"TX","zip":"77338","distance":"11.178072929382324","lon":"-95.277817","lat":"30.003780","theaterChainName":"Movie Tavern","ticketType":"STANDARD"},{"id":"4418","name":"Willowbrook Movie Tavern","address":"18359 Tomball Parkway","city":"Houston","state":"TX","zip":"77070","distance":"5.651004314422607","lon":"-95.555321","lat":"29.964659","theaterChainName":"Movie Tavern","ticketType":"STANDARD"},{"id":"5202","name":"Edwards West Oaks Stadium 14 & RPX","address":"700 W Oaks Mall","city":"Houston","state":"TX","zip":"77082","distance":"20.524049758911133","lon":"-95.647797","lat":"29.729799","theaterChainName":"Edwards Theatres","ticketType":"STANDARD"},{"id":"223","name":"AMC Deerbrook Mall 24","address":"20131 Highway 59 N.","city":"Humble","state":"TX","zip":"77338","distance":"11.59883975982666","lon":"-95.271858","lat":"30.009867","theaterChainName":"AMC Theatres","ticketType":"STANDARD"},{"id":"4144","name":"Carmike Yorktown 15","address":"15900 Yorktown Crossing","city":"Houston","state":"TX","zip":"77084","distance":"13.773137092590332","lon":"-95.648697","lat":"29.862600","theaterChainName":"Carmike Cinemas","ticketType":"STANDARD"},{"id":"4210","name":"Studio Movie Grill - Copperfield","address":"8580 Highway 6 North","city":"Houston","state":"TX","zip":"77095","distance":"11.430384635925293","lon":"-95.630669","lat":"29.901310","theaterChainName":"Studio Movie Grill","ticketType":"SELECT_SEATING"},{"id":"126","name":"AMC Loews Spring 10","address":"20115 Holzwarth Road","city":"Spring","state":"TX","zip":"77388","distance":"5.566128253936768","lon":"-95.438042","lat":"30.057322","theaterChainName":"AMC Theatres","ticketType":"STANDARD"},{"id":"5270","name":"Star Cinema Vintage Park","address":"114 Vintage Park Blvd.","city":"Houston","state":"TX","zip":"77070","distance":"6.771921634674072","lon":"-95.574303","lat":"29.994699","theaterChainName":"Alamo Drafthouse","ticketType":"STANDARD"},{"id":"4924","name":"ShowBiz Kingwood 14","address":"350 Northpark Dr.","city":"Kingwood","state":"TX","zip":"77339","distance":"14.405933380126953","lon":"-95.243973","lat":"30.067165","theaterChainName":"ShowBiz Cinemas","ticketType":"STANDARD"},{"id":"5360","name":"Cinemark Spring-Klein","address":"21440 Kuykendahl Road","city":"Spring","state":"TX","zip":"77379","distance":"7.50917911529541","lon":"-95.516998","lat":"30.077499","theaterChainName":"Cinemark","ticketType":"STANDARD"},{"id":"4465","name":"Santikos Silverado 19 IMAX","address":"24720 Tomball Parkway","city":"Tomball","state":"TX","zip":"77375","distance":"9.543636322021484","lon":"-95.605133","lat":"30.041424","theaterChainName":"Santikos Theatres","ticketType":"STANDARD"},{"id":"4248","name":"Alamo-Mason Park","address":"531 South Mason Rd.","city":"Katy","state":"TX","zip":"77450","distance":"22.186410903930664","lon":"-95.749283","lat":"29.776466","theaterChainName":"Alamo Drafthouse","ticketType":"STANDARD"},{"id":"4132","name":"Cinemark 12 Cypress","address":"25720 Northwest Fwy.","city":"Cypress","state":"TX","zip":"77429","distance":"13.554088592529297","lon":"-95.688675","lat":"29.969961","theaterChainName":"Cinemark","ticketType":"STANDARD"},{"id":"2454","name":"Cinemark 19 and XD Katy","address":"1030 W. Grand Pkwy North","city":"Katy","state":"TX","zip":"77449","distance":"22.960025787353516","lon":"-95.774590","lat":"29.786749","theaterChainName":"Cinemark","ticketType":"STANDARD"},{"id":"1167","name":"Conroe Star Cinema Grill","address":"2000 I-45 North","city":"Conroe","state":"TX","zip":"77301","distance":"24.211318969726562","lon":"-95.475998","lat":"30.329800","theaterChainName":"Independent Chains","ticketType":"STANDARD"},{"id":"4024","name":"Cinemark at Market Street","address":"9595 Six Pines Drive #8200","city":"The Woodlands","state":"TX","zip":"77380","distance":"12.689178466796875","lon":"-95.463463","lat":"30.163240","theaterChainName":"Cinemark","ticketType":"STANDARD"},{"id":"234","name":"Cinemark Tinseltown 17 & XD Woodlands","address":"1600 Lake Robbins Drive","city":"The Woodlands","state":"TX","zip":"77380","distance":"12.592392921447754","lon":"-95.458694","lat":"30.161812","theaterChainName":"Cinemark","ticketType":"STANDARD"},{"id":"3413","name":"Premiere Tomball Cinema 6","address":"28497 Tomball Parkway","city":"Tomball","state":"TX","zip":"77375","distance":"12.589725494384766","lon":"-95.632004","lat":"30.087601","theaterChainName":"Premiere Cinemas","ticketType":"STANDARD"}]