[{"id":"2761","name":"Edwards Greenway Palace Stadium 24 & RPX","address":"3839 Weslayan","city":"Houston","state":"TX","zip":"77027","distance":"8.123345375061035","lon":"-95.440727","lat":"29.731016","theaterChainName":"Edwards Theatres","ticketType":"STANDARD"},{"id":"2895","name":"Edwards Houston Marq*E Stadium 23","address":"7620 Katy Freeway","city":"Houston","state":"TX","zip":"77024","distance":"8.114304542541504","lon":"-95.463486","lat":"29.785910","theaterChainName":"Edwards Theatres","ticketType":"STANDARD"},{"id":"342","name":"AMC Studio 30 Houston","address":"2949 Dunvale","city":"Houston","state":"TX","zip":"77063","distance":"11.875690460205078","lon":"-95.511932","lat":"29.731888","theaterChainName":"AMC Theatres","ticketType":"STANDARD"},{"id":"291","name":"Cinemark Tinseltown 290","address":"12920 NW Freeway","city":"Houston","state":"TX","zip":"77040","distance":"10.61967945098877","lon":"-95.496536","lat":"29.846624","theaterChainName":"Cinemark","ticketType":"STANDARD"},{"id":"842","name":"Cinemark Tinseltown Jacinto City","address":"11450 East Freeway","city":"Jacinto City","state":"TX","zip":"77029","distance":"6.292450428009033","lon":"-95.229248","lat":"29.768421","theaterChainName":"Cinemark","ticketType":"STANDARD"},{"id":"4328","name":"Cinemark Memorial City","address":"310 Memorial City Mall","city":"Houston","state":"TX","zip":"77024","distance":"12.780954360961914","lon":"-95.541016","lat":"29.780098","theaterChainName":"Cinemark","ticketType":"STANDARD"},{"id":"4711","name":"Studio Movie Grill City Centre","address":"805 Town ","city":"Houston","state":"TX","zip":"77024","distance":"13.971705436706543","lon":"-95.561066","lat":"29.781305","theaterChainName":"Studio Movie Grill","ticketType":"SELECT_SEATING"},{"id":"5050","name":"Premiere Renaissance","address":"12300 N Freeway #400","city":"Houston","state":"TX","zip":"77060","distance":"11.481592178344727","lon":"-95.415001","lat":"29.945601","theaterChainName":"Premiere Cinemas","ticketType":"STANDARD"},{"id":"5897","name":"Studio Movie Grill Pearland","address":"8440 South Sam Houston Easy Parkway","city":"Houston","state":"TX","zip":"77075","distance":"14.1163330078125","lon":"-95.268204","lat":"29.599800","theaterChainName":"Studio Movie Grill","ticketType":"SELECT_SEATING"},{"id":"4098","name":"Cinema Latino de Pasadena","address":"2233 Southmore Ave.","city":"Pasadena","state":"TX","zip":"77502","distance":"11.464475631713867","lon":"-95.180504","lat":"29.692553","theaterChainName":"Independent Chains","ticketType":"STANDARD"},{"id":"4028","name":"Cinemark at Pearland and XD","address":"Hwy. 288 and Hwy. 518","city":"Pearland","state":"TX","zip":"77581","distance":"17.47214698791504","lon":"-95.385231","lat":"29.549137","theaterChainName":"Cinemark","ticketType":"STANDARD"},{"id":"1166","name":"Pearland Premiere Cinema 6","address":"5050 W. Broadway","city":"Pearland","state":"TX","zip":"77581","distance":"16.57378578186035","lon":"-95.299072","lat":"29.558733","theaterChainName":"Premiere Cinemas","ticketType":"STANDARD"},{"id":"5937","name":"ShowBiz Fall Creek 10","address":"4811 Canyon Lakes Trace Drive","city":"Humble","state":"TX","zip":"77396","distance":"10.934253692626953","lon":"-95.242371","lat":"29.936569","theaterChainName":"ShowBiz Cinemas","ticketType":"STANDARD"},{"id":"656","name":"AMC Gulf Pointe 30","address":"11801 S. Sam Houston Parkway","city":"Houston","state":"TX","zip":"77089","distance":"15.00123119354248","lon":"-95.212807","lat":"29.604891","theaterChainName":"AMC Theatres","ticketType":"STANDARD"},{"id":"345","name":"AMC Loews Fountains 18","address":"11225 Fountain Lake Drive","city":"Stafford","state":"TX","zip":"77477","distance":"18.744333267211914","lon":"-95.584335","lat":"29.641193","theaterChainName":"AMC Theatres","ticketType":"STANDARD"},{"id":"235","name":"Cinemark Hollywood Movies 20","address":"2101 East Beltway 8","city":"Pasadena","state":"TX","zip":"77503","distance":"13.248784065246582","lon":"-95.153595","lat":"29.680487","theaterChainName":"Cinemark","ticketType":"STANDARD"},{"id":"4183","name":"Richey Road Movie Tavern","address":"15719 I-45 N.","city":"Houston","state":"TX","zip":"77090","distance":"14.894000053405762","lon":"-95.426384","lat":"29.995453","theaterChainName":"Movie Tavern","ticketType":"STANDARD"},{"id":"2823","name":"AMC Willowbrook 24","address":"17145 Tomball Parkway","city":"Houston","state":"TX","zip":"77064","distance":"16.676189422607422","lon":"-95.541183","lat":"29.953180","theaterChainName":"AMC Theatres","ticketType":"STANDARD"},{"id":"4545","name":"Deerbrook Movie Tavern","address":"9630 FM 1960 Bypass West","city":"Humble","state":"TX","zip":"77338","distance":"14.597238540649414","lon":"-95.277817","lat":"30.003780","theaterChainName":"Movie Tavern","ticketType":"STANDARD"},{"id":"5142","name":"Star Cinema Grill Missouri City","address":"4811 Highway 6","city":"Missouri City","state":"TX","zip":"77459","distance":"21.353816986083984","lon":"-95.581398","lat":"29.579599","theaterChainName":"Independent Chains","ticketType":"STANDARD"},{"id":"4418","name":"Willowbrook Movie Tavern","address":"18359 Tomball Parkway","city":"Houston","state":"TX","zip":"77070","distance":"17.83465003967285","lon":"-95.555321","lat":"29.964659","theaterChainName":"Movie Tavern","ticketType":"STANDARD"},{"id":"5202","name":"Edwards West Oaks Stadium 14 & RPX","address":"700 W Oaks Mall","city":"Houston","state":"TX","zip":"77082","distance":"19.6929874420166","lon":"-95.647797","lat":"29.729799","theaterChainName":"Edwards Theatres","ticketType":"STANDARD"},{"id":"223","name":"AMC Deerbrook Mall 24","address":"20131 Highway 59 N.","city":"Humble","state":"TX","zip":"77338","distance":"15.085386276245117","lon":"-95.271858","lat":"30.009867","theaterChainName":"AMC Theatres","ticketType":"STANDARD"},{"id":"4144","name":"Carmike Yorktown 15","address":"15900 Yorktown Crossing","city":"Houston","state":"TX","zip":"77084","distance":"19.700950622558594","lon":"-95.648697","lat":"29.862600","theaterChainName":"Carmike Cinemas","ticketType":"STANDARD"},{"id":"4210","name":"Studio Movie Grill - Copperfield","address":"8580 Highway 6 North","city":"Houston","state":"TX","zip":"77095","distance":"19.469270706176758","lon":"-95.630669","lat":"29.901310","theaterChainName":"Studio Movie Grill","ticketType":"SELECT_SEATING"},{"id":"657","name":"AMC First Colony 24","address":"3301 Town Centre Blvd. S.","city":"Sugar Land","state":"TX","zip":"77479","distance":"23.062084197998047","lon":"-95.627380","lat":"29.587154","theaterChainName":"AMC Theatres","ticketType":"STANDARD"},{"id":"126","name":"AMC Loews Spring 10","address":"20115 Holzwarth Road","city":"Spring","state":"TX","zip":"77388","distance":"19.127378463745117","lon":"-95.438042","lat":"30.057322","theaterChainName":"AMC Theatres","ticketType":"STANDARD"},{"id":"5270","name":"Star Cinema Vintage Park","address":"114 Vintage Park Blvd.","city":"Houston","state":"TX","zip":"77070","distance":"20.06281852722168","lon":"-95.574303","lat":"29.994699","theaterChainName":"Alamo Drafthouse","ticketType":"STANDARD"},{"id":"5869","name":"Star Cinema Grill Baybrook","address":"702 Baybrook Mall","city":"Friendswood","state":"TX","zip":"77546","distance":"20.41089630126953","lon":"-95.150238","lat":"29.545830","theaterChainName":"Independent Chains","ticketType":"STANDARD"},{"id":"4924","name":"ShowBiz Kingwood 14","address":"350 Northpark Dr.","city":"Kingwood","state":"TX","zip":"77339","distance":"19.333171844482422","lon":"-95.243973","lat":"30.067165","theaterChainName":"ShowBiz Cinemas","ticketType":"STANDARD"},{"id":"6144","name":"District Theatres","address":"1020 W NASA Parkway","city":"Webster","state":"TX","zip":"77598","distance":"21.891372680664062","lon":"-95.130356","lat":"29.531416","theaterChainName":"Star Cinema Grill","ticketType":"STANDARD"},{"id":"1283","name":"Filmworks Baxter Avenue 8 Theatres","address":"1250 Bardstown Road","city":"Louisville","state":"KY","zip":"40204","distance":"21.891372680664062","lon":"-95.130356","lat":"29.531416","theaterChainName":"Independent Chains","ticketType":"STANDARD"},{"id":"1155","name":"Premiere Nasa Dollar 8","address":"20833 Gulf Freeway","city":"Webster","state":"TX","zip":"77598","distance":"22.278114318847656","lon":"-95.127327","lat":"29.526455","theaterChainName":"Premiere Cinemas","ticketType":"STANDARD"},{"id":"5360","name":"Cinemark Spring-Klein","address":"21440 Kuykendahl Road","city":"Spring","state":"TX","zip":"77379","distance":"22.407926559448242","lon":"-95.516998","lat":"30.077499","theaterChainName":"Cinemark","ticketType":"STANDARD"},{"id":"3071","name":"Cinemark 18 Webster","address":"20915 Gulf Freeway","city":"Webster","state":"TX","zip":"77598","distance":"22.34830665588379","lon":"-95.124756","lat":"29.526697","theaterChainName":"Cinemark","ticketType":"STANDARD"},{"id":"4465","name":"Santikos Silverado 19 IMAX","address":"24720 Tomball Parkway","city":"Tomball","state":"TX","zip":"77375","distance":"23.636014938354492","lon":"-95.605133","lat":"30.041424","theaterChainName":"Santikos Theatres","ticketType":"STANDARD"},{"id":"4132","name":"Cinemark 12 Cypress","address":"25720 Northwest Fwy.","city":"Cypress","state":"TX","zip":"77429","distance":"24.644554138183594","lon":"-95.688675","lat":"29.969961","theaterChainName":"Cinemark","ticketType":"STANDARD"},{"id":"3483","name":"Premiere Cinema 11","address":"1518 San Jacinto Mall","city":"Baytown","state":"TX","zip":"77521","distance":"20.723453521728516","lon":"-94.983200","lat":"29.800247","theaterChainName":"Premiere Cinemas","ticketType":"STANDARD"}]