[{"id":"842","tribuneTheaterId":"9174","providerTheaterId":"","name":"Cinemark Tinseltown Jacinto City","address":"11450 East Freeway","city":"Jacinto City","state":"TX","zip":"77029","distance":6.1282994008509,"lon":"-95.229245","lat":"29.768421","theaterChainName":"Cinemark","ticketType":"STANDARD"},{"id":"2761","tribuneTheaterId":"4860","providerTheaterId":"","name":"Edwards Greenway Palace Stadium 24 & RPX","address":"3839 Weslayan","city":"Houston","state":"TX","zip":"77027","distance":7.3908933240561,"lon":"-95.440731","lat":"29.731016","theaterChainName":"Edwards Theatres","ticketType":"STANDARD"},{"id":"5897","tribuneTheaterId":"11319","providerTheaterId":"","name":"Studio Movie Grill Pearland","address":"8440 South Sam Houston Easy Parkway","city":"Houston","state":"TX","zip":"77075","distance":9.0964696021106,"lon":"-95.2682","lat":"29.5998","theaterChainName":"Studio Movie Grill","ticketType":"SELECT_SEATING"},{"id":"4098","tribuneTheaterId":"2013","providerTheaterId":"","name":"Cinema Latino de Pasadena","address":"2233 Southmore Ave.","city":"Pasadena","state":"TX","zip":"77502","distance":8.5244056135746,"lon":"-95.180507","lat":"29.692552","theaterChainName":"Independent Chains","ticketType":"STANDARD"},{"id":"656","tribuneTheaterId":"8112","providerTheaterId":"268","name":"AMC Gulf Pointe 30","address":"11801 S. Sam Houston Parkway","city":"Houston","state":"TX","zip":"77089","distance":10.377322667443,"lon":"-95.212809","lat":"29.60489","theaterChainName":"AMC Theatres","ticketType":"STANDARD"},{"id":"235","tribuneTheaterId":"8619","providerTheaterId":"","name":"Cinemark Hollywood Movies 20","address":"2101 East Beltway 8","city":"Pasadena","state":"TX","zip":"77503","distance":10.307198523634,"lon":"-95.153596","lat":"29.680486","theaterChainName":"Cinemark","ticketType":"STANDARD"},{"id":"2895","tribuneTheaterId":"4859","providerTheaterId":"","name":"Edwards Houston Marq*E Stadium 23","address":"7620 Katy Freeway","city":"Houston","state":"TX","zip":"77024","distance":9.7235786344667,"lon":"-95.463488","lat":"29.78591","theaterChainName":"Edwards Theatres","ticketType":"STANDARD"},{"id":"1166","tribuneTheaterId":"5072","providerTheaterId":"","name":"Pearland Premiere Cinema 6","address":"5050 W. Broadway","city":"Pearland","state":"TX","zip":"77581","distance":11.487862331847,"lon":"-95.299069","lat":"29.558733","theaterChainName":"Premiere Cinemas","ticketType":"STANDARD"},{"id":"342","tribuneTheaterId":"7808","providerTheaterId":"255","name":"AMC Studio 30 Houston","address":"2949 Dunvale","city":"Houston","state":"TX","zip":"77063","distance":11.659813890012,"lon":"-95.511929","lat":"29.731887","theaterChainName":"AMC Theatres","ticketType":"STANDARD"},{"id":"4028","tribuneTheaterId":"4225","providerTheaterId":"","name":"Cinemark at Pearland and XD","address":"Hwy. 288 and Hwy. 518","city":"Pearland","state":"TX","zip":"77581","distance":12.755573200049,"lon":"-95.385232","lat":"29.549137","theaterChainName":"Cinemark","ticketType":"STANDARD"},{"id":"4328","tribuneTheaterId":"9302","providerTheaterId":"","name":"Cinemark Memorial City","address":"310 Memorial City Mall","city":"Houston","state":"TX","zip":"77024","distance":13.935531667524,"lon":"-95.541015","lat":"29.780098","theaterChainName":"Cinemark","ticketType":"STANDARD"},{"id":"291","tribuneTheaterId":"8355","providerTheaterId":"","name":"Cinemark Tinseltown 290","address":"12920 NW Freeway","city":"Houston","state":"TX","zip":"77040","distance":13.653688148679,"lon":"-95.496534","lat":"29.846625","theaterChainName":"Cinemark","ticketType":"STANDARD"},{"id":"5869","tribuneTheaterId":"11285","providerTheaterId":"","name":"Star Cinema Grill Baybrook","address":"702 Baybrook Mall","city":"Friendswood","state":"TX","zip":"77546","distance":15.910622089807,"lon":"-95.150239","lat":"29.54583","theaterChainName":"Independent Chains","ticketType":"STANDARD"},{"id":"5937","tribuneTheaterId":"11368","providerTheaterId":"","name":"ShowBiz Fall Creek 10","address":"4811 Canyon Lakes Trace Drive","city":"Humble","state":"TX","zip":"77396","distance":15.354103031225,"lon":"-95.242369","lat":"29.93657","theaterChainName":"ShowBiz Cinemas","ticketType":"STANDARD"},{"id":"4711","tribuneTheaterId":"9925","providerTheaterId":"","name":"Studio Movie Grill City Centre","address":"805 Town ","city":"Houston","state":"TX","zip":"77024","distance":15.116332761077,"lon":"-95.561066","lat":"29.781305","theaterChainName":"Studio Movie Grill","ticketType":"SELECT_SEATING"},{"id":"5050","tribuneTheaterId":"10429","providerTheaterId":"","name":"Premiere Renaissance","address":"12300 N Freeway #400","city":"Houston","state":"TX","zip":"77060","distance":16.369041855522,"lon":"-95.415","lat":"29.9456","theaterChainName":"Premiere Cinemas","ticketType":"STANDARD"},{"id":"345","tribuneTheaterId":"8544","providerTheaterId":"2430","name":"AMC Loews Fountains 18","address":"11225 Fountain Lake Drive","city":"Stafford","state":"TX","zip":"77477","distance":16.996338111364,"lon":"-95.584338","lat":"29.641193","theaterChainName":"AMC Theatres","ticketType":"STANDARD"},{"id":"1283","tribuneTheaterId":"3080","providerTheaterId":"","name":"Filmworks Baxter Avenue 8 Theatres","address":"1250 Bardstown Road","city":"Louisville","state":"KY","zip":"40204","distance":17.44023429073,"lon":"-95.130357","lat":"29.531416","theaterChainName":"Independent Chains","ticketType":"STANDARD"},{"id":"6144","tribuneTheaterId":"11566","providerTheaterId":"","name":"District Theatres","address":"1020 W NASA Parkway","city":"Webster","state":"TX","zip":"77598","distance":17.44023429073,"lon":"-95.130357","lat":"29.531416","theaterChainName":"Star Cinema Grill","ticketType":"STANDARD"},{"id":"1155","tribuneTheaterId":"5076","providerTheaterId":"","name":"Premiere Nasa Dollar 8","address":"20833 Gulf Freeway","city":"Webster","state":"TX","zip":"77598","distance":17.819752521524,"lon":"-95.12733","lat":"29.526455","theaterChainName":"Premiere Cinemas","ticketType":"STANDARD"},{"id":"5142","tribuneTheaterId":"10548","providerTheaterId":"","name":"Star Cinema Grill Missouri City","address":"4811 Highway 6","city":"Missouri City","state":"TX","zip":"77459","distance":18.717413747663,"lon":"-95.5814","lat":"29.5796","theaterChainName":"Independent Chains","ticketType":"STANDARD"},{"id":"3071","tribuneTheaterId":"8548","providerTheaterId":"","name":"Cinemark 18 Webster","address":"20915 Gulf Freeway","city":"Webster","state":"TX","zip":"77598","distance":17.906598781734,"lon":"-95.124757","lat":"29.526697","theaterChainName":"Cinemark","ticketType":"STANDARD"},{"id":"4545","tribuneTheaterId":"9678","providerTheaterId":"","name":"Deerbrook Movie Tavern","address":"9630 FM 1960 Bypass West","city":"Humble","state":"TX","zip":"77338","distance":19.4651804455,"lon":"-95.277815","lat":"30.003781","theaterChainName":"Movie Tavern","ticketType":"STANDARD"},{"id":"657","tribuneTheaterId":"8461","providerTheaterId":"262","name":"AMC First Colony 24","address":"3301 Town Centre Blvd. S.","city":"Sugar Land","state":"TX","zip":"77479","distance":20.861064840916,"lon":"-95.627382","lat":"29.587154","theaterChainName":"AMC Theatres","ticketType":"STANDARD"},{"id":"3483","tribuneTheaterId":"5078","providerTheaterId":"","name":"Premiere Cinema 11","address":"1518 San Jacinto Mall","city":"Baytown","state":"TX","zip":"77521","distance":20.745485219977,"lon":"-94.983201","lat":"29.800248","theaterChainName":"Premiere Cinemas","ticketType":"STANDARD"},{"id":"2823","tribuneTheaterId":"7975","providerTheaterId":"162","name":"AMC Willowbrook 24","address":"17145 Tomball Parkway","city":"Houston","state":"TX","zip":"77064","distance":20.725399461206,"lon":"-95.541181","lat":"29.95318","theaterChainName":"AMC Theatres","ticketType":"STANDARD"},{"id":"5202","tribuneTheaterId":"10626","providerTheaterId":"","name":"Edwards West Oaks Stadium 14 & RPX","address":"700 W Oaks Mall","city":"Houston","state":"TX","zip":"77082","distance":19.803932354123,"lon":"-95.6478","lat":"29.7298","theaterChainName":"Edwards Theatres","ticketType":"STANDARD"},{"id":"4183","tribuneTheaterId":"2074","providerTheaterId":"","name":"Richey Road Movie Tavern","address":"15719 I-45 N.","city":"Houston","state":"TX","zip":"77090","distance":19.839099156003,"lon":"-95.426387","lat":"29.995453","theaterChainName":"Movie Tavern","ticketType":"STANDARD"},{"id":"223","tribuneTheaterId":"7807","providerTheaterId":"179","name":"AMC Deerbrook Mall 24","address":"20131 Highway 59 N.","city":"Humble","state":"TX","zip":"77338","distance":19.928684568287,"lon":"-95.27186","lat":"30.009867","theaterChainName":"AMC Theatres","ticketType":"STANDARD"},{"id":"4418","tribuneTheaterId":"9485","providerTheaterId":"","name":"Willowbrook Movie Tavern","address":"18359 Tomball Parkway","city":"Houston","state":"TX","zip":"77070","distance":21.878114166052,"lon":"-95.55532","lat":"29.964659","theaterChainName":"Movie Tavern","ticketType":"STANDARD"},{"id":"4144","tribuneTheaterId":"2369","providerTheaterId":"","name":"Carmike Yorktown 15","address":"15900 Yorktown Crossing","city":"Houston","state":"TX","zip":"77084","distance":22.025135414309,"lon":"-95.6487","lat":"29.8626","theaterChainName":"Carmike Cinemas","ticketType":"STANDARD"},{"id":"4210","tribuneTheaterId":"3994","providerTheaterId":"","name":"Studio Movie Grill - Copperfield","address":"8580 Highway 6 North","city":"Houston","state":"TX","zip":"77095","distance":22.394937601862,"lon":"-95.630665","lat":"29.90131","theaterChainName":"Studio Movie Grill","ticketType":"SELECT_SEATING"},{"id":"5270","tribuneTheaterId":"10704","providerTheaterId":"","name":"Star Cinema Vintage Park","address":"114 Vintage Park Blvd.","city":"Houston","state":"TX","zip":"77070","distance":24.197832542914,"lon":"-95.5743","lat":"29.9947","theaterChainName":"Alamo Drafthouse","ticketType":"STANDARD"},{"id":"4924","tribuneTheaterId":"10244","providerTheaterId":"","name":"ShowBiz Kingwood 14","address":"350 Northpark Dr.","city":"Kingwood","state":"TX","zip":"77339","distance":24.105646144546,"lon":"-95.243976","lat":"30.067165","theaterChainName":"ShowBiz Cinemas","ticketType":"STANDARD"},{"id":"126","tribuneTheaterId":"8948","providerTheaterId":"2426","name":"AMC Loews Spring 10","address":"20115 Holzwarth Road","city":"Spring","state":"TX","zip":"77388","distance":24.117137113459,"lon":"-95.438039","lat":"30.057322","theaterChainName":"AMC Theatres","ticketType":"STANDARD"}]