[{"id":"2761","name":"Edwards Greenway Palace Stadium 24 & RPX","address":"3839 Weslayan","city":"Houston","state":"TX","zip":"77027","distance":"15.0385103225708","lon":"-95.440727","lat":"29.731016","theaterChainName":"Edwards Theatres","ticketType":"STANDARD"},{"id":"2895","name":"Edwards Houston Marq*E Stadium 23","address":"7620 Katy Freeway","city":"Houston","state":"TX","zip":"77024","distance":"13.359914779663086","lon":"-95.463486","lat":"29.785910","theaterChainName":"Edwards Theatres","ticketType":"STANDARD"},{"id":"342","name":"AMC Studio 30 Houston","address":"2949 Dunvale","city":"Houston","state":"TX","zip":"77063","distance":"17.965871810913086","lon":"-95.511932","lat":"29.731888","theaterChainName":"AMC Theatres","ticketType":"STANDARD"},{"id":"291","name":"Cinemark Tinseltown 290","address":"12920 NW Freeway","city":"Houston","state":"TX","zip":"77040","distance":"13.241079330444336","lon":"-95.496536","lat":"29.846624","theaterChainName":"Cinemark","ticketType":"STANDARD"},{"id":"842","name":"Cinemark Tinseltown Jacinto City","address":"11450 East Freeway","city":"Jacinto City","state":"TX","zip":"77029","distance":"9.779728889465332","lon":"-95.229248","lat":"29.768421","theaterChainName":"Cinemark","ticketType":"STANDARD"},{"id":"4328","name":"Cinemark Memorial City","address":"310 Memorial City Mall","city":"Houston","state":"TX","zip":"77024","distance":"17.49847984313965","lon":"-95.541016","lat":"29.780098","theaterChainName":"Cinemark","ticketType":"STANDARD"},{"id":"4711","name":"Studio Movie Grill City Centre","address":"805 Town ","city":"Houston","state":"TX","zip":"77024","distance":"18.5244083404541","lon":"-95.561066","lat":"29.781305","theaterChainName":"Studio Movie Grill","ticketType":"SELECT_SEATING"},{"id":"5050","name":"Premiere Renaissance","address":"12300 N Freeway #400","city":"Houston","state":"TX","zip":"77060","distance":"8.371659278869629","lon":"-95.415001","lat":"29.945601","theaterChainName":"Premiere Cinemas","ticketType":"STANDARD"},{"id":"5897","name":"Studio Movie Grill Pearland","address":"8440 South Sam Houston Easy Parkway","city":"Houston","state":"TX","zip":"77075","distance":"20.87053680419922","lon":"-95.268204","lat":"29.599800","theaterChainName":"Studio Movie Grill","ticketType":"SELECT_SEATING"},{"id":"4098","name":"Cinema Latino de Pasadena","address":"2233 Southmore Ave.","city":"Pasadena","state":"TX","zip":"77502","distance":"15.7340087890625","lon":"-95.180504","lat":"29.692553","theaterChainName":"Independent Chains","ticketType":"STANDARD"},{"id":"1166","name":"Pearland Premiere Cinema 6","address":"5050 W. Broadway","city":"Pearland","state":"TX","zip":"77581","distance":"23.69990348815918","lon":"-95.299072","lat":"29.558733","theaterChainName":"Premiere Cinemas","ticketType":"STANDARD"},{"id":"5937","name":"ShowBiz Fall Creek 10","address":"4811 Canyon Lakes Trace Drive","city":"Humble","state":"TX","zip":"77396","distance":"3.5111114978790283","lon":"-95.242371","lat":"29.936569","theaterChainName":"ShowBiz Cinemas","ticketType":"STANDARD"},{"id":"656","name":"AMC Gulf Pointe 30","address":"11801 S. Sam Houston Parkway","city":"Houston","state":"TX","zip":"77089","distance":"20.945085525512695","lon":"-95.212807","lat":"29.604891","theaterChainName":"AMC Theatres","ticketType":"STANDARD"},{"id":"235","name":"Cinemark Hollywood Movies 20","address":"2101 East Beltway 8","city":"Pasadena","state":"TX","zip":"77503","distance":"17.179059982299805","lon":"-95.153595","lat":"29.680487","theaterChainName":"Cinemark","ticketType":"STANDARD"},{"id":"4183","name":"Richey Road Movie Tavern","address":"15719 I-45 N.","city":"Houston","state":"TX","zip":"77090","distance":"10.677224159240723","lon":"-95.426384","lat":"29.995453","theaterChainName":"Movie Tavern","ticketType":"STANDARD"},{"id":"2823","name":"AMC Willowbrook 24","address":"17145 Tomball Parkway","city":"Houston","state":"TX","zip":"77064","distance":"15.76321029663086","lon":"-95.541183","lat":"29.953180","theaterChainName":"AMC Theatres","ticketType":"STANDARD"},{"id":"4545","name":"Deerbrook Movie Tavern","address":"9630 FM 1960 Bypass West","city":"Humble","state":"TX","zip":"77338","distance":"7.079624652862549","lon":"-95.277817","lat":"30.003780","theaterChainName":"Movie Tavern","ticketType":"STANDARD"},{"id":"4418","name":"Willowbrook Movie Tavern","address":"18359 Tomball Parkway","city":"Houston","state":"TX","zip":"77070","distance":"16.776620864868164","lon":"-95.555321","lat":"29.964659","theaterChainName":"Movie Tavern","ticketType":"STANDARD"},{"id":"5202","name":"Edwards West Oaks Stadium 14 & RPX","address":"700 W Oaks Mall","city":"Houston","state":"TX","zip":"77082","distance":"24.786087036132812","lon":"-95.647797","lat":"29.729799","theaterChainName":"Edwards Theatres","ticketType":"STANDARD"},{"id":"223","name":"AMC Deerbrook Mall 24","address":"20131 Highway 59 N.","city":"Humble","state":"TX","zip":"77338","distance":"7.5277934074401855","lon":"-95.271858","lat":"30.009867","theaterChainName":"AMC Theatres","ticketType":"STANDARD"},{"id":"4144","name":"Carmike Yorktown 15","address":"15900 Yorktown Crossing","city":"Houston","state":"TX","zip":"77084","distance":"21.96672248840332","lon":"-95.648697","lat":"29.862600","theaterChainName":"Carmike Cinemas","ticketType":"STANDARD"},{"id":"4210","name":"Studio Movie Grill - Copperfield","address":"8580 Highway 6 North","city":"Houston","state":"TX","zip":"77095","distance":"20.717538833618164","lon":"-95.630669","lat":"29.901310","theaterChainName":"Studio Movie Grill","ticketType":"SELECT_SEATING"},{"id":"126","name":"AMC Loews Spring 10","address":"20115 Holzwarth Road","city":"Spring","state":"TX","zip":"77388","distance":"14.143959045410156","lon":"-95.438042","lat":"30.057322","theaterChainName":"AMC Theatres","ticketType":"STANDARD"},{"id":"5270","name":"Star Cinema Vintage Park","address":"114 Vintage Park Blvd.","city":"Houston","state":"TX","zip":"77070","distance":"18.490741729736328","lon":"-95.574303","lat":"29.994699","theaterChainName":"Alamo Drafthouse","ticketType":"STANDARD"},{"id":"4924","name":"ShowBiz Kingwood 14","address":"350 Northpark Dr.","city":"Kingwood","state":"TX","zip":"77339","distance":"11.704890251159668","lon":"-95.243973","lat":"30.067165","theaterChainName":"ShowBiz Cinemas","ticketType":"STANDARD"},{"id":"5360","name":"Cinemark Spring-Klein","address":"21440 Kuykendahl Road","city":"Spring","state":"TX","zip":"77379","distance":"18.46623992919922","lon":"-95.516998","lat":"30.077499","theaterChainName":"Cinemark","ticketType":"STANDARD"},{"id":"4465","name":"Santikos Silverado 19 IMAX","address":"24720 Tomball Parkway","city":"Tomball","state":"TX","zip":"77375","distance":"21.47408676147461","lon":"-95.605133","lat":"30.041424","theaterChainName":"Santikos Theatres","ticketType":"STANDARD"},{"id":"4132","name":"Cinemark 12 Cypress","address":"25720 Northwest Fwy.","city":"Cypress","state":"TX","zip":"77429","distance":"24.64204978942871","lon":"-95.688675","lat":"29.969961","theaterChainName":"Cinemark","ticketType":"STANDARD"},{"id":"4024","name":"Cinemark at Market Street","address":"9595 Six Pines Drive #8200","city":"The Woodlands","state":"TX","zip":"77380","distance":"21.007587432861328","lon":"-95.463463","lat":"30.163240","theaterChainName":"Cinemark","ticketType":"STANDARD"},{"id":"234","name":"Cinemark Tinseltown 17 & XD Woodlands","address":"1600 Lake Robbins Drive","city":"The Woodlands","state":"TX","zip":"77380","distance":"20.7784366607666","lon":"-95.458694","lat":"30.161812","theaterChainName":"Cinemark","ticketType":"STANDARD"},{"id":"3413","name":"Premiere Tomball Cinema 6","address":"28497 Tomball Parkway","city":"Tomball","state":"TX","zip":"77375","distance":"24.435253143310547","lon":"-95.632004","lat":"30.087601","theaterChainName":"Premiere Cinemas","ticketType":"STANDARD"},{"id":"3483","name":"Premiere Cinema 11","address":"1518 San Jacinto Mall","city":"Baytown","state":"TX","zip":"77521","distance":"19.38156509399414","lon":"-94.983200","lat":"29.800247","theaterChainName":"Premiere Cinemas","ticketType":"STANDARD"},{"id":"5936","name":"ShowBiz Baytown 10","address":"10550 Interstate 10","city":"Baytown","state":"TX","zip":"77523","distance":"24.00741958618164","lon":"-94.895584","lat":"29.819151","theaterChainName":"ShowBiz Cinemas","ticketType":"STANDARD"}]