[{"id":"4144","tribuneTheaterId":"2369","providerTheaterId":"","name":"Carmike Yorktown 15","address":"15900 Yorktown Crossing","city":"Houston","state":"TX","zip":"77084","distance":1.5217625655424,"lon":"-95.6487","lat":"29.8626","theaterChainName":"Carmike Cinemas","ticketType":"STANDARD"},{"id":"4210","tribuneTheaterId":"3994","providerTheaterId":"","name":"Studio Movie Grill - Copperfield","address":"8580 Highway 6 North","city":"Houston","state":"TX","zip":"77095","distance":4.3899753866577,"lon":"-95.630665","lat":"29.90131","theaterChainName":"Studio Movie Grill","ticketType":"SELECT_SEATING"},{"id":"5202","tribuneTheaterId":"10626","providerTheaterId":"","name":"Edwards West Oaks Stadium 14 & RPX","address":"700 W Oaks Mall","city":"Houston","state":"TX","zip":"77082","distance":7.9382170713896,"lon":"-95.6478","lat":"29.7298","theaterChainName":"Edwards Theatres","ticketType":"STANDARD"},{"id":"4248","tribuneTheaterId":"2076","providerTheaterId":"","name":"Alamo-Mason Park","address":"531 South Mason Rd.","city":"Katy","state":"TX","zip":"77450","distance":6.9975166018655,"lon":"-95.749283","lat":"29.776467","theaterChainName":"Alamo Drafthouse","ticketType":"STANDARD"},{"id":"4711","tribuneTheaterId":"9925","providerTheaterId":"","name":"Studio Movie Grill City Centre","address":"805 Town ","city":"Houston","state":"TX","zip":"77024","distance":7.4562747091561,"lon":"-95.561066","lat":"29.781305","theaterChainName":"Studio Movie Grill","ticketType":"SELECT_SEATING"},{"id":"2454","tribuneTheaterId":"4168","providerTheaterId":"","name":"Cinemark 19 and XD Katy","address":"1030 W. Grand Pkwy North","city":"Katy","state":"TX","zip":"77449","distance":7.8078586326674,"lon":"-95.774592","lat":"29.786748","theaterChainName":"Cinemark","ticketType":"STANDARD"},{"id":"4132","tribuneTheaterId":"8819","providerTheaterId":"","name":"Cinemark 12 Cypress","address":"25720 Northwest Fwy.","city":"Cypress","state":"TX","zip":"77429","distance":8.8453172244261,"lon":"-95.688674","lat":"29.969962","theaterChainName":"Cinemark","ticketType":"STANDARD"},{"id":"4328","tribuneTheaterId":"9302","providerTheaterId":"","name":"Cinemark Memorial City","address":"310 Memorial City Mall","city":"Houston","state":"TX","zip":"77024","distance":8.506536320522,"lon":"-95.541015","lat":"29.780098","theaterChainName":"Cinemark","ticketType":"STANDARD"},{"id":"4418","tribuneTheaterId":"9485","providerTheaterId":"","name":"Willowbrook Movie Tavern","address":"18359 Tomball Parkway","city":"Houston","state":"TX","zip":"77070","distance":10.514598153037,"lon":"-95.55532","lat":"29.964659","theaterChainName":"Movie Tavern","ticketType":"STANDARD"},{"id":"291","tribuneTheaterId":"8355","providerTheaterId":"","name":"Cinemark Tinseltown 290","address":"12920 NW Freeway","city":"Houston","state":"TX","zip":"77040","distance":9.9359457851527,"lon":"-95.496534","lat":"29.846625","theaterChainName":"Cinemark","ticketType":"STANDARD"},{"id":"2823","tribuneTheaterId":"7975","providerTheaterId":"162","name":"AMC Willowbrook 24","address":"17145 Tomball Parkway","city":"Houston","state":"TX","zip":"77064","distance":10.466001832138,"lon":"-95.541181","lat":"29.95318","theaterChainName":"AMC Theatres","ticketType":"STANDARD"},{"id":"2673","tribuneTheaterId":"9154","providerTheaterId":"148","name":"AMC Katy Mills 20","address":"5000 Katy Mills Circle","city":"Katy","state":"TX","zip":"77494","distance":10.108647867585,"lon":"-95.809504","lat":"29.772652","theaterChainName":"AMC Theatres","ticketType":"STANDARD"},{"id":"342","tribuneTheaterId":"7808","providerTheaterId":"255","name":"AMC Studio 30 Houston","address":"2949 Dunvale","city":"Houston","state":"TX","zip":"77063","distance":11.88730329145,"lon":"-95.511929","lat":"29.731887","theaterChainName":"AMC Theatres","ticketType":"STANDARD"},{"id":"5270","tribuneTheaterId":"10704","providerTheaterId":"","name":"Star Cinema Vintage Park","address":"114 Vintage Park Blvd.","city":"Houston","state":"TX","zip":"77070","distance":11.670003132104,"lon":"-95.5743","lat":"29.9947","theaterChainName":"Alamo Drafthouse","ticketType":"STANDARD"},{"id":"5346","tribuneTheaterId":"10784","providerTheaterId":"","name":"Santikos Palladium AVX Entertainment","address":"7301 Grand Parkway","city":"Richmond","state":"TX","zip":"77407","distance":12.996791489527,"lon":"-95.7495","lat":"29.6718","theaterChainName":"Santikos Theatres","ticketType":"STANDARD"},{"id":"2895","tribuneTheaterId":"4859","providerTheaterId":"","name":"Edwards Houston Marq*E Stadium 23","address":"7620 Katy Freeway","city":"Houston","state":"TX","zip":"77024","distance":12.576013713451,"lon":"-95.463488","lat":"29.78591","theaterChainName":"Edwards Theatres","ticketType":"STANDARD"},{"id":"4465","tribuneTheaterId":"9556","providerTheaterId":"","name":"Santikos Silverado 19 IMAX","address":"24720 Tomball Parkway","city":"Tomball","state":"TX","zip":"77375","distance":14.063495190883,"lon":"-95.60513","lat":"30.041423","theaterChainName":"Santikos Theatres","ticketType":"STANDARD"},{"id":"2761","tribuneTheaterId":"4860","providerTheaterId":"","name":"Edwards Greenway Palace Stadium 24 & RPX","address":"3839 Weslayan","city":"Houston","state":"TX","zip":"77027","distance":15.409867320733,"lon":"-95.440731","lat":"29.731016","theaterChainName":"Edwards Theatres","ticketType":"STANDARD"},{"id":"345","tribuneTheaterId":"8544","providerTheaterId":"2430","name":"AMC Loews Fountains 18","address":"11225 Fountain Lake Drive","city":"Stafford","state":"TX","zip":"77477","distance":14.772531194004,"lon":"-95.584338","lat":"29.641193","theaterChainName":"AMC Theatres","ticketType":"STANDARD"},{"id":"3413","tribuneTheaterId":"5075","providerTheaterId":"","name":"Premiere Tomball Cinema 6","address":"28497 Tomball Parkway","city":"Tomball","state":"TX","zip":"77375","distance":16.928564175085,"lon":"-95.632","lat":"30.0876","theaterChainName":"Premiere Cinemas","ticketType":"STANDARD"},{"id":"5050","tribuneTheaterId":"10429","providerTheaterId":"","name":"Premiere Renaissance","address":"12300 N Freeway #400","city":"Houston","state":"TX","zip":"77060","distance":16.392395695756,"lon":"-95.415","lat":"29.9456","theaterChainName":"Premiere Cinemas","ticketType":"STANDARD"},{"id":"5360","tribuneTheaterId":"10799","providerTheaterId":"","name":"Cinemark Spring-Klein","address":"21440 Kuykendahl Road","city":"Spring","state":"TX","zip":"77379","distance":18.328461006715,"lon":"-95.517","lat":"30.0775","theaterChainName":"Cinemark","ticketType":"STANDARD"},{"id":"4183","tribuneTheaterId":"2074","providerTheaterId":"","name":"Richey Road Movie Tavern","address":"15719 I-45 N.","city":"Houston","state":"TX","zip":"77090","distance":17.581038864496,"lon":"-95.426387","lat":"29.995453","theaterChainName":"Movie Tavern","ticketType":"STANDARD"},{"id":"657","tribuneTheaterId":"8461","providerTheaterId":"262","name":"AMC First Colony 24","address":"3301 Town Centre Blvd. S.","city":"Sugar Land","state":"TX","zip":"77479","distance":17.869609494681,"lon":"-95.627382","lat":"29.587154","theaterChainName":"AMC Theatres","ticketType":"STANDARD"},{"id":"5142","tribuneTheaterId":"10548","providerTheaterId":"","name":"Star Cinema Grill Missouri City","address":"4811 Highway 6","city":"Missouri City","state":"TX","zip":"77459","distance":18.902338729063,"lon":"-95.5814","lat":"29.5796","theaterChainName":"Independent Chains","ticketType":"STANDARD"},{"id":"126","tribuneTheaterId":"8948","providerTheaterId":"2426","name":"AMC Loews Spring 10","address":"20115 Holzwarth Road","city":"Spring","state":"TX","zip":"77388","distance":19.937148952815,"lon":"-95.438039","lat":"30.057322","theaterChainName":"AMC Theatres","ticketType":"STANDARD"},{"id":"4196","tribuneTheaterId":"4227","providerTheaterId":"","name":"Cinemark 12 Rosenberg","address":"3420 Vista Drive","city":"Rosenberg","state":"TX","zip":"77471","distance":21.396302326633,"lon":"-95.761669","lat":"29.546601","theaterChainName":"Cinemark","ticketType":"STANDARD"}]