[{"id":"4183","name":"Richey Road Movie Tavern","address":"15719 I-45 N.","city":"Houston","state":"TX","zip":"77090","distance":"21.963531494140625","lon":"-95.426384","lat":"29.995453","theaterChainName":"Movie Tavern","ticketType":"STANDARD"},{"id":"4545","name":"Deerbrook Movie Tavern","address":"9630 FM 1960 Bypass West","city":"Humble","state":"TX","zip":"77338","distance":"23.75309181213379","lon":"-95.277817","lat":"30.003780","theaterChainName":"Movie Tavern","ticketType":"STANDARD"},{"id":"4418","name":"Willowbrook Movie Tavern","address":"18359 Tomball Parkway","city":"Houston","state":"TX","zip":"77070","distance":"24.804975509643555","lon":"-95.555321","lat":"29.964659","theaterChainName":"Movie Tavern","ticketType":"STANDARD"},{"id":"223","name":"AMC Deerbrook Mall 24","address":"20131 Highway 59 N.","city":"Humble","state":"TX","zip":"77338","distance":"23.537256240844727","lon":"-95.271858","lat":"30.009867","theaterChainName":"AMC Theatres","ticketType":"STANDARD"},{"id":"126","name":"AMC Loews Spring 10","address":"20115 Holzwarth Road","city":"Spring","state":"TX","zip":"77388","distance":"17.6539306640625","lon":"-95.438042","lat":"30.057322","theaterChainName":"AMC Theatres","ticketType":"STANDARD"},{"id":"5270","name":"Star Cinema Vintage Park","address":"114 Vintage Park Blvd.","city":"Houston","state":"TX","zip":"77070","distance":"23.130002975463867","lon":"-95.574303","lat":"29.994699","theaterChainName":"Alamo Drafthouse","ticketType":"STANDARD"},{"id":"4924","name":"ShowBiz Kingwood 14","address":"350 Northpark Dr.","city":"Kingwood","state":"TX","zip":"77339","distance":"21.04226303100586","lon":"-95.243973","lat":"30.067165","theaterChainName":"ShowBiz Cinemas","ticketType":"STANDARD"},{"id":"5360","name":"Cinemark Spring-Klein","address":"21440 Kuykendahl Road","city":"Spring","state":"TX","zip":"77379","distance":"16.685884475708008","lon":"-95.516998","lat":"30.077499","theaterChainName":"Cinemark","ticketType":"STANDARD"},{"id":"4465","name":"Santikos Silverado 19 IMAX","address":"24720 Tomball Parkway","city":"Tomball","state":"TX","zip":"77375","distance":"20.826631546020508","lon":"-95.605133","lat":"30.041424","theaterChainName":"Santikos Theatres","ticketType":"STANDARD"},{"id":"1167","name":"Conroe Star Cinema Grill","address":"2000 I-45 North","city":"Conroe","state":"TX","zip":"77301","distance":"1.833115577697754","lon":"-95.475998","lat":"30.329800","theaterChainName":"Independent Chains","ticketType":"STANDARD"},{"id":"4045","name":"The Grand 14 - Conroe","address":"4029 I-45 North","city":"Conroe","state":"TX","zip":"77304","distance":"4.597017288208008","lon":"-95.487885","lat":"30.371695","theaterChainName":"Southern Theatres","ticketType":"STANDARD"},{"id":"4024","name":"Cinemark at Market Street","address":"9595 Six Pines Drive #8200","city":"The Woodlands","state":"TX","zip":"77380","distance":"10.333477973937988","lon":"-95.463463","lat":"30.163240","theaterChainName":"Cinemark","ticketType":"STANDARD"},{"id":"234","name":"Cinemark Tinseltown 17 & XD Woodlands","address":"1600 Lake Robbins Drive","city":"The Woodlands","state":"TX","zip":"77380","distance":"10.418340682983398","lon":"-95.458694","lat":"30.161812","theaterChainName":"Cinemark","ticketType":"STANDARD"},{"id":"3413","name":"Premiere Tomball Cinema 6","address":"28497 Tomball Parkway","city":"Tomball","state":"TX","zip":"77375","distance":"18.87201690673828","lon":"-95.632004","lat":"30.087601","theaterChainName":"Premiere Cinemas","ticketType":"STANDARD"}]