[{"id":"1167","tribuneTheaterId":"2982","providerTheaterId":"","name":"Conroe Star Cinema Grill","address":"2000 I-45 North","city":"Conroe","state":"TX","zip":"77301","distance":6.1623863060862,"lon":"-95.475998","lat":"30.3298","theaterChainName":"Independent Chains","ticketType":"STANDARD"},{"id":"4045","tribuneTheaterId":"5090","providerTheaterId":"","name":"The Grand 14 - Conroe","address":"4029 I-45 North","city":"Conroe","state":"TX","zip":"77304","distance":8.3886243862447,"lon":"-95.487885","lat":"30.371694","theaterChainName":"Southern Theatres","ticketType":"STANDARD"},{"id":"4024","tribuneTheaterId":"4210","providerTheaterId":"","name":"Cinemark at Market Street","address":"9595 Six Pines Drive #8200","city":"The Woodlands","state":"TX","zip":"77380","distance":10.019609710632,"lon":"-95.463461","lat":"30.163241","theaterChainName":"Cinemark","ticketType":"STANDARD"},{"id":"234","tribuneTheaterId":"8102","providerTheaterId":"","name":"Cinemark Tinseltown 17 & XD Woodlands","address":"1600 Lake Robbins Drive","city":"The Woodlands","state":"TX","zip":"77380","distance":9.9747790947359,"lon":"-95.458698","lat":"30.161812","theaterChainName":"Cinemark","ticketType":"STANDARD"},{"id":"126","tribuneTheaterId":"8948","providerTheaterId":"2426","name":"AMC Loews Spring 10","address":"20115 Holzwarth Road","city":"Spring","state":"TX","zip":"77388","distance":16.447425928863,"lon":"-95.438039","lat":"30.057322","theaterChainName":"AMC Theatres","ticketType":"STANDARD"},{"id":"5360","tribuneTheaterId":"10799","providerTheaterId":"","name":"Cinemark Spring-Klein","address":"21440 Kuykendahl Road","city":"Spring","state":"TX","zip":"77379","distance":16.752598810633,"lon":"-95.517","lat":"30.0775","theaterChainName":"Cinemark","ticketType":"STANDARD"},{"id":"4924","tribuneTheaterId":"10244","providerTheaterId":"","name":"ShowBiz Kingwood 14","address":"350 Northpark Dr.","city":"Kingwood","state":"TX","zip":"77339","distance":17.535023927278,"lon":"-95.243976","lat":"30.067165","theaterChainName":"ShowBiz Cinemas","ticketType":"STANDARD"},{"id":"4183","tribuneTheaterId":"2074","providerTheaterId":"","name":"Richey Road Movie Tavern","address":"15719 I-45 N.","city":"Houston","state":"TX","zip":"77090","distance":20.555291854968,"lon":"-95.426387","lat":"29.995453","theaterChainName":"Movie Tavern","ticketType":"STANDARD"},{"id":"3413","tribuneTheaterId":"5075","providerTheaterId":"","name":"Premiere Tomball Cinema 6","address":"28497 Tomball Parkway","city":"Tomball","state":"TX","zip":"77375","distance":20.43313366448,"lon":"-95.632","lat":"30.0876","theaterChainName":"Premiere Cinemas","ticketType":"STANDARD"},{"id":"4545","tribuneTheaterId":"9678","providerTheaterId":"","name":"Deerbrook Movie Tavern","address":"9630 FM 1960 Bypass West","city":"Humble","state":"TX","zip":"77338","distance":20.793509447514,"lon":"-95.277815","lat":"30.003781","theaterChainName":"Movie Tavern","ticketType":"STANDARD"},{"id":"223","tribuneTheaterId":"7807","providerTheaterId":"179","name":"AMC Deerbrook Mall 24","address":"20131 Highway 59 N.","city":"Humble","state":"TX","zip":"77338","distance":20.50572750349,"lon":"-95.27186","lat":"30.009867","theaterChainName":"AMC Theatres","ticketType":"STANDARD"},{"id":"4465","tribuneTheaterId":"9556","providerTheaterId":"","name":"Santikos Silverado 19 IMAX","address":"24720 Tomball Parkway","city":"Tomball","state":"TX","zip":"77375","distance":21.7292613018,"lon":"-95.60513","lat":"30.041423","theaterChainName":"Santikos Theatres","ticketType":"STANDARD"},{"id":"5270","tribuneTheaterId":"10704","providerTheaterId":"","name":"Star Cinema Vintage Park","address":"114 Vintage Park Blvd.","city":"Houston","state":"TX","zip":"77070","distance":23.417149949413,"lon":"-95.5743","lat":"29.9947","theaterChainName":"Alamo Drafthouse","ticketType":"STANDARD"},{"id":"5050","tribuneTheaterId":"10429","providerTheaterId":"","name":"Premiere Renaissance","address":"12300 N Freeway #400","city":"Houston","state":"TX","zip":"77060","distance":23.912833552677,"lon":"-95.415","lat":"29.9456","theaterChainName":"Premiere Cinemas","ticketType":"STANDARD"},{"id":"4418","tribuneTheaterId":"9485","providerTheaterId":"","name":"Willowbrook Movie Tavern","address":"18359 Tomball Parkway","city":"Houston","state":"TX","zip":"77070","distance":24.758084497916,"lon":"-95.55532","lat":"29.964659","theaterChainName":"Movie Tavern","ticketType":"STANDARD"}]