[{"id":"1167","tribuneTheaterId":"2982","providerTheaterId":"","name":"Conroe Star Cinema Grill","address":"2000 I-45 North","city":"Conroe","state":"TX","zip":"77301","distance":17.428283142074,"lon":"-95.475998","lat":"30.3298","theaterChainName":"Independent Chains","ticketType":"STANDARD"},{"id":"4045","tribuneTheaterId":"5090","providerTheaterId":"","name":"The Grand 14 - Conroe","address":"4029 I-45 North","city":"Conroe","state":"TX","zip":"77304","distance":17.598933020365,"lon":"-95.487885","lat":"30.371694","theaterChainName":"Southern Theatres","ticketType":"STANDARD"},{"id":"234","tribuneTheaterId":"8102","providerTheaterId":"","name":"Cinemark Tinseltown 17 & XD Woodlands","address":"1600 Lake Robbins Drive","city":"The Woodlands","state":"TX","zip":"77380","distance":22.62601210481,"lon":"-95.458698","lat":"30.161812","theaterChainName":"Cinemark","ticketType":"STANDARD"},{"id":"4024","tribuneTheaterId":"4210","providerTheaterId":"","name":"Cinemark at Market Street","address":"9595 Six Pines Drive #8200","city":"The Woodlands","state":"TX","zip":"77380","distance":22.75524107982,"lon":"-95.463461","lat":"30.163241","theaterChainName":"Cinemark","ticketType":"STANDARD"},{"id":"4924","tribuneTheaterId":"10244","providerTheaterId":"","name":"ShowBiz Kingwood 14","address":"350 Northpark Dr.","city":"Kingwood","state":"TX","zip":"77339","distance":22.935882693829,"lon":"-95.243976","lat":"30.067165","theaterChainName":"ShowBiz Cinemas","ticketType":"STANDARD"}]