[{"id":"4924","name":"ShowBiz Kingwood 14","address":"350 Northpark Dr.","city":"Kingwood","state":"TX","zip":"77339","distance":"22.93720817565918","lon":"-95.243973","lat":"30.067165","theaterChainName":"ShowBiz Cinemas","ticketType":"STANDARD"},{"id":"1167","name":"Conroe Star Cinema Grill","address":"2000 I-45 North","city":"Conroe","state":"TX","zip":"77301","distance":"17.429340362548828","lon":"-95.475998","lat":"30.329800","theaterChainName":"Independent Chains","ticketType":"STANDARD"},{"id":"4045","name":"The Grand 14 - Conroe","address":"4029 I-45 North","city":"Conroe","state":"TX","zip":"77304","distance":"17.599973678588867","lon":"-95.487885","lat":"30.371695","theaterChainName":"Southern Theatres","ticketType":"STANDARD"},{"id":"4024","name":"Cinemark at Market Street","address":"9595 Six Pines Drive #8200","city":"The Woodlands","state":"TX","zip":"77380","distance":"22.756715774536133","lon":"-95.463463","lat":"30.163240","theaterChainName":"Cinemark","ticketType":"STANDARD"},{"id":"234","name":"Cinemark Tinseltown 17 & XD Woodlands","address":"1600 Lake Robbins Drive","city":"The Woodlands","state":"TX","zip":"77380","distance":"22.627233505249023","lon":"-95.458694","lat":"30.161812","theaterChainName":"Cinemark","ticketType":"STANDARD"}]