[{"id":"223","tribuneTheaterId":"7807","providerTheaterId":"179","name":"AMC Deerbrook Mall 24","address":"20131 Highway 59 N.","city":"Humble","state":"TX","zip":"77338","distance":0.75103351614136,"lon":"-95.27186","lat":"30.009867","theaterChainName":"AMC Theatres","ticketType":"STANDARD"},{"id":"4545","tribuneTheaterId":"9678","providerTheaterId":"","name":"Deerbrook Movie Tavern","address":"9630 FM 1960 Bypass West","city":"Humble","state":"TX","zip":"77338","distance":0.28118828673692,"lon":"-95.277815","lat":"30.003781","theaterChainName":"Movie Tavern","ticketType":"STANDARD"},{"id":"5937","tribuneTheaterId":"11368","providerTheaterId":"","name":"ShowBiz Fall Creek 10","address":"4811 Canyon Lakes Trace Drive","city":"Humble","state":"TX","zip":"77396","distance":5.2478605353252,"lon":"-95.242369","lat":"29.93657","theaterChainName":"ShowBiz Cinemas","ticketType":"STANDARD"},{"id":"4924","tribuneTheaterId":"10244","providerTheaterId":"","name":"ShowBiz Kingwood 14","address":"350 Northpark Dr.","city":"Kingwood","state":"TX","zip":"77339","distance":4.9291514347055,"lon":"-95.243976","lat":"30.067165","theaterChainName":"ShowBiz Cinemas","ticketType":"STANDARD"},{"id":"4183","tribuneTheaterId":"2074","providerTheaterId":"","name":"Richey Road Movie Tavern","address":"15719 I-45 N.","city":"Houston","state":"TX","zip":"77090","distance":8.6304256211316,"lon":"-95.426387","lat":"29.995453","theaterChainName":"Movie Tavern","ticketType":"STANDARD"},{"id":"5050","tribuneTheaterId":"10429","providerTheaterId":"","name":"Premiere Renaissance","address":"12300 N Freeway #400","city":"Houston","state":"TX","zip":"77060","distance":8.9010051466554,"lon":"-95.415","lat":"29.9456","theaterChainName":"Premiere Cinemas","ticketType":"STANDARD"},{"id":"126","tribuneTheaterId":"8948","providerTheaterId":"2426","name":"AMC Loews Spring 10","address":"20115 Holzwarth Road","city":"Spring","state":"TX","zip":"77388","distance":10.004373304677,"lon":"-95.438039","lat":"30.057322","theaterChainName":"AMC Theatres","ticketType":"STANDARD"},{"id":"234","tribuneTheaterId":"8102","providerTheaterId":"","name":"Cinemark Tinseltown 17 & XD Woodlands","address":"1600 Lake Robbins Drive","city":"The Woodlands","state":"TX","zip":"77380","distance":15.156239582814,"lon":"-95.458698","lat":"30.161812","theaterChainName":"Cinemark","ticketType":"STANDARD"},{"id":"2823","tribuneTheaterId":"7975","providerTheaterId":"162","name":"AMC Willowbrook 24","address":"17145 Tomball Parkway","city":"Houston","state":"TX","zip":"77064","distance":15.87662963064,"lon":"-95.541181","lat":"29.95318","theaterChainName":"AMC Theatres","ticketType":"STANDARD"},{"id":"4024","tribuneTheaterId":"4210","providerTheaterId":"","name":"Cinemark at Market Street","address":"9595 Six Pines Drive #8200","city":"The Woodlands","state":"TX","zip":"77380","distance":15.42569449075,"lon":"-95.463461","lat":"30.163241","theaterChainName":"Cinemark","ticketType":"STANDARD"},{"id":"5360","tribuneTheaterId":"10799","providerTheaterId":"","name":"Cinemark Spring-Klein","address":"21440 Kuykendahl Road","city":"Spring","state":"TX","zip":"77379","distance":14.914601362232,"lon":"-95.517","lat":"30.0775","theaterChainName":"Cinemark","ticketType":"STANDARD"},{"id":"5270","tribuneTheaterId":"10704","providerTheaterId":"","name":"Star Cinema Vintage Park","address":"114 Vintage Park Blvd.","city":"Houston","state":"TX","zip":"77070","distance":17.472482846048,"lon":"-95.5743","lat":"29.9947","theaterChainName":"Alamo Drafthouse","ticketType":"STANDARD"},{"id":"4418","tribuneTheaterId":"9485","providerTheaterId":"","name":"Willowbrook Movie Tavern","address":"18359 Tomball Parkway","city":"Houston","state":"TX","zip":"77070","distance":16.553030318585,"lon":"-95.55532","lat":"29.964659","theaterChainName":"Movie Tavern","ticketType":"STANDARD"},{"id":"842","tribuneTheaterId":"9174","providerTheaterId":"","name":"Cinemark Tinseltown Jacinto City","address":"11450 East Freeway","city":"Jacinto City","state":"TX","zip":"77029","distance":16.593404555332,"lon":"-95.229245","lat":"29.768421","theaterChainName":"Cinemark","ticketType":"STANDARD"},{"id":"291","tribuneTheaterId":"8355","providerTheaterId":"","name":"Cinemark Tinseltown 290","address":"12920 NW Freeway","city":"Houston","state":"TX","zip":"77040","distance":16.812244849223,"lon":"-95.496534","lat":"29.846625","theaterChainName":"Cinemark","ticketType":"STANDARD"},{"id":"4465","tribuneTheaterId":"9556","providerTheaterId":"","name":"Santikos Silverado 19 IMAX","address":"24720 Tomball Parkway","city":"Tomball","state":"TX","zip":"77375","distance":19.472144892637,"lon":"-95.60513","lat":"30.041423","theaterChainName":"Santikos Theatres","ticketType":"STANDARD"},{"id":"2895","tribuneTheaterId":"4859","providerTheaterId":"","name":"Edwards Houston Marq*E Stadium 23","address":"7620 Katy Freeway","city":"Houston","state":"TX","zip":"77024","distance":18.568782829984,"lon":"-95.463488","lat":"29.78591","theaterChainName":"Edwards Theatres","ticketType":"STANDARD"},{"id":"2761","tribuneTheaterId":"4860","providerTheaterId":"","name":"Edwards Greenway Palace Stadium 24 & RPX","address":"3839 Weslayan","city":"Houston","state":"TX","zip":"77027","distance":21.116188189459,"lon":"-95.440731","lat":"29.731016","theaterChainName":"Edwards Theatres","ticketType":"STANDARD"},{"id":"3413","tribuneTheaterId":"5075","providerTheaterId":"","name":"Premiere Tomball Cinema 6","address":"28497 Tomball Parkway","city":"Tomball","state":"TX","zip":"77375","distance":21.684748086735,"lon":"-95.632","lat":"30.0876","theaterChainName":"Premiere Cinemas","ticketType":"STANDARD"},{"id":"3483","tribuneTheaterId":"5078","providerTheaterId":"","name":"Premiere Cinema 11","address":"1518 San Jacinto Mall","city":"Baytown","state":"TX","zip":"77521","distance":22.79793204264,"lon":"-94.983201","lat":"29.800248","theaterChainName":"Premiere Cinemas","ticketType":"STANDARD"},{"id":"4328","tribuneTheaterId":"9302","providerTheaterId":"","name":"Cinemark Memorial City","address":"310 Memorial City Mall","city":"Houston","state":"TX","zip":"77024","distance":21.893761684488,"lon":"-95.541015","lat":"29.780098","theaterChainName":"Cinemark","ticketType":"STANDARD"},{"id":"4711","tribuneTheaterId":"9925","providerTheaterId":"","name":"Studio Movie Grill City Centre","address":"805 Town ","city":"Houston","state":"TX","zip":"77024","distance":22.702424751806,"lon":"-95.561066","lat":"29.781305","theaterChainName":"Studio Movie Grill","ticketType":"SELECT_SEATING"},{"id":"4210","tribuneTheaterId":"3994","providerTheaterId":"","name":"Studio Movie Grill - Copperfield","address":"8580 Highway 6 North","city":"Houston","state":"TX","zip":"77095","distance":22.019682167236,"lon":"-95.630665","lat":"29.90131","theaterChainName":"Studio Movie Grill","ticketType":"SELECT_SEATING"},{"id":"4098","tribuneTheaterId":"2013","providerTheaterId":"","name":"Cinema Latino de Pasadena","address":"2233 Southmore Ave.","city":"Pasadena","state":"TX","zip":"77502","distance":22.376829979868,"lon":"-95.180507","lat":"29.692552","theaterChainName":"Independent Chains","ticketType":"STANDARD"},{"id":"342","tribuneTheaterId":"7808","providerTheaterId":"255","name":"AMC Studio 30 Houston","address":"2949 Dunvale","city":"Houston","state":"TX","zip":"77063","distance":23.2961154732,"lon":"-95.511929","lat":"29.731887","theaterChainName":"AMC Theatres","ticketType":"STANDARD"},{"id":"4144","tribuneTheaterId":"2369","providerTheaterId":"","name":"Carmike Yorktown 15","address":"15900 Yorktown Crossing","city":"Houston","state":"TX","zip":"77084","distance":24.007700528124,"lon":"-95.6487","lat":"29.8626","theaterChainName":"Carmike Cinemas","ticketType":"STANDARD"},{"id":"235","tribuneTheaterId":"8619","providerTheaterId":"","name":"Cinemark Hollywood Movies 20","address":"2101 East Beltway 8","city":"Pasadena","state":"TX","zip":"77503","distance":23.656529838585,"lon":"-95.153596","lat":"29.680486","theaterChainName":"Cinemark","ticketType":"STANDARD"},{"id":"4132","tribuneTheaterId":"8819","providerTheaterId":"","name":"Cinemark 12 Cypress","address":"25720 Northwest Fwy.","city":"Cypress","state":"TX","zip":"77429","distance":24.421388341833,"lon":"-95.688674","lat":"29.969962","theaterChainName":"Cinemark","ticketType":"STANDARD"}]