[{"id":"4045","tribuneTheaterId":"5090","providerTheaterId":"","name":"The Grand 14 - Conroe","address":"4029 I-45 North","city":"Conroe","state":"TX","zip":"77304","distance":14.060976574194,"lon":"-95.487885","lat":"30.371694","theaterChainName":"Southern Theatres","ticketType":"STANDARD"},{"id":"1167","tribuneTheaterId":"2982","providerTheaterId":"","name":"Conroe Star Cinema Grill","address":"2000 I-45 North","city":"Conroe","state":"TX","zip":"77301","distance":15.911077744709,"lon":"-95.475998","lat":"30.3298","theaterChainName":"Independent Chains","ticketType":"STANDARD"},{"id":"1153","tribuneTheaterId":"6143","providerTheaterId":"","name":"CineStar of Huntsville","address":"3027 11 Street","city":"Huntsville","state":"TX","zip":"77340","distance":20.656558720846,"lon":"-95.574092","lat":"30.716328","theaterChainName":"Independent Chains","ticketType":"STANDARD"},{"id":"3413","tribuneTheaterId":"5075","providerTheaterId":"","name":"Premiere Tomball Cinema 6","address":"28497 Tomball Parkway","city":"Tomball","state":"TX","zip":"77375","distance":24.860726795427,"lon":"-95.632","lat":"30.0876","theaterChainName":"Premiere Cinemas","ticketType":"STANDARD"},{"id":"4024","tribuneTheaterId":"4210","providerTheaterId":"","name":"Cinemark at Market Street","address":"9595 Six Pines Drive #8200","city":"The Woodlands","state":"TX","zip":"77380","distance":24.173068872738,"lon":"-95.463461","lat":"30.163241","theaterChainName":"Cinemark","ticketType":"STANDARD"},{"id":"234","tribuneTheaterId":"8102","providerTheaterId":"","name":"Cinemark Tinseltown 17 & XD Woodlands","address":"1600 Lake Robbins Drive","city":"The Woodlands","state":"TX","zip":"77380","distance":24.424765627198,"lon":"-95.458698","lat":"30.161812","theaterChainName":"Cinemark","ticketType":"STANDARD"}]