[{"id":"5050","name":"Premiere Renaissance","address":"12300 N Freeway #400","city":"Houston","state":"TX","zip":"77060","distance":"19.586668014526367","lon":"-95.415001","lat":"29.945601","theaterChainName":"Premiere Cinemas","ticketType":"STANDARD"},{"id":"5937","name":"ShowBiz Fall Creek 10","address":"4811 Canyon Lakes Trace Drive","city":"Humble","state":"TX","zip":"77396","distance":"15.521989822387695","lon":"-95.242371","lat":"29.936569","theaterChainName":"ShowBiz Cinemas","ticketType":"STANDARD"},{"id":"4183","name":"Richey Road Movie Tavern","address":"15719 I-45 N.","city":"Houston","state":"TX","zip":"77090","distance":"17.67717742919922","lon":"-95.426384","lat":"29.995453","theaterChainName":"Movie Tavern","ticketType":"STANDARD"},{"id":"2823","name":"AMC Willowbrook 24","address":"17145 Tomball Parkway","city":"Houston","state":"TX","zip":"77064","distance":"24.927196502685547","lon":"-95.541183","lat":"29.953180","theaterChainName":"AMC Theatres","ticketType":"STANDARD"},{"id":"4545","name":"Deerbrook Movie Tavern","address":"9630 FM 1960 Bypass West","city":"Humble","state":"TX","zip":"77338","distance":"11.669780731201172","lon":"-95.277817","lat":"30.003780","theaterChainName":"Movie Tavern","ticketType":"STANDARD"},{"id":"223","name":"AMC Deerbrook Mall 24","address":"20131 Highway 59 N.","city":"Humble","state":"TX","zip":"77338","distance":"11.141303062438965","lon":"-95.271858","lat":"30.009867","theaterChainName":"AMC Theatres","ticketType":"STANDARD"},{"id":"126","name":"AMC Loews Spring 10","address":"20115 Holzwarth Road","city":"Spring","state":"TX","zip":"77388","distance":"15.94311237335205","lon":"-95.438042","lat":"30.057322","theaterChainName":"AMC Theatres","ticketType":"STANDARD"},{"id":"4924","name":"ShowBiz Kingwood 14","address":"350 Northpark Dr.","city":"Kingwood","state":"TX","zip":"77339","distance":"6.8453369140625","lon":"-95.243973","lat":"30.067165","theaterChainName":"ShowBiz Cinemas","ticketType":"STANDARD"},{"id":"5360","name":"Cinemark Spring-Klein","address":"21440 Kuykendahl Road","city":"Spring","state":"TX","zip":"77379","distance":"19.859249114990234","lon":"-95.516998","lat":"30.077499","theaterChainName":"Cinemark","ticketType":"STANDARD"},{"id":"1167","name":"Conroe Star Cinema Grill","address":"2000 I-45 North","city":"Conroe","state":"TX","zip":"77301","distance":"20.40740966796875","lon":"-95.475998","lat":"30.329800","theaterChainName":"Independent Chains","ticketType":"STANDARD"},{"id":"4045","name":"The Grand 14 - Conroe","address":"4029 I-45 North","city":"Conroe","state":"TX","zip":"77304","distance":"22.749418258666992","lon":"-95.487885","lat":"30.371695","theaterChainName":"Southern Theatres","ticketType":"STANDARD"},{"id":"4024","name":"Cinemark at Market Street","address":"9595 Six Pines Drive #8200","city":"The Woodlands","state":"TX","zip":"77380","distance":"15.864006042480469","lon":"-95.463463","lat":"30.163240","theaterChainName":"Cinemark","ticketType":"STANDARD"},{"id":"234","name":"Cinemark Tinseltown 17 & XD Woodlands","address":"1600 Lake Robbins Drive","city":"The Woodlands","state":"TX","zip":"77380","distance":"15.57729434967041","lon":"-95.458694","lat":"30.161812","theaterChainName":"Cinemark","ticketType":"STANDARD"}]