[{"id":"3413","tribuneTheaterId":"5075","providerTheaterId":"","name":"Premiere Tomball Cinema 6","address":"28497 Tomball Parkway","city":"Tomball","state":"TX","zip":"77375","distance":1.1841481840608,"lon":"-95.632","lat":"30.0876","theaterChainName":"Premiere Cinemas","ticketType":"STANDARD"},{"id":"4465","tribuneTheaterId":"9556","providerTheaterId":"","name":"Santikos Silverado 19 IMAX","address":"24720 Tomball Parkway","city":"Tomball","state":"TX","zip":"77375","distance":2.4159308587162,"lon":"-95.60513","lat":"30.041423","theaterChainName":"Santikos Theatres","ticketType":"STANDARD"},{"id":"5360","tribuneTheaterId":"10799","providerTheaterId":"","name":"Cinemark Spring-Klein","address":"21440 Kuykendahl Road","city":"Spring","state":"TX","zip":"77379","distance":6.1694536451921,"lon":"-95.517","lat":"30.0775","theaterChainName":"Cinemark","ticketType":"STANDARD"},{"id":"5270","tribuneTheaterId":"10704","providerTheaterId":"","name":"Star Cinema Vintage Park","address":"114 Vintage Park Blvd.","city":"Houston","state":"TX","zip":"77070","distance":6.1196471423768,"lon":"-95.5743","lat":"29.9947","theaterChainName":"Alamo Drafthouse","ticketType":"STANDARD"},{"id":"4132","tribuneTheaterId":"8819","providerTheaterId":"","name":"Cinemark 12 Cypress","address":"25720 Northwest Fwy.","city":"Cypress","state":"TX","zip":"77429","distance":8.2705410080128,"lon":"-95.688674","lat":"29.969962","theaterChainName":"Cinemark","ticketType":"STANDARD"},{"id":"4418","tribuneTheaterId":"9485","providerTheaterId":"","name":"Willowbrook Movie Tavern","address":"18359 Tomball Parkway","city":"Houston","state":"TX","zip":"77070","distance":8.4846202382777,"lon":"-95.55532","lat":"29.964659","theaterChainName":"Movie Tavern","ticketType":"STANDARD"},{"id":"2823","tribuneTheaterId":"7975","providerTheaterId":"162","name":"AMC Willowbrook 24","address":"17145 Tomball Parkway","city":"Houston","state":"TX","zip":"77064","distance":9.5846124894514,"lon":"-95.541181","lat":"29.95318","theaterChainName":"AMC Theatres","ticketType":"STANDARD"},{"id":"126","tribuneTheaterId":"8948","providerTheaterId":"2426","name":"AMC Loews Spring 10","address":"20115 Holzwarth Road","city":"Spring","state":"TX","zip":"77388","distance":10.946783889643,"lon":"-95.438039","lat":"30.057322","theaterChainName":"AMC Theatres","ticketType":"STANDARD"},{"id":"234","tribuneTheaterId":"8102","providerTheaterId":"","name":"Cinemark Tinseltown 17 & XD Woodlands","address":"1600 Lake Robbins Drive","city":"The Woodlands","state":"TX","zip":"77380","distance":11.399348390416,"lon":"-95.458698","lat":"30.161812","theaterChainName":"Cinemark","ticketType":"STANDARD"},{"id":"4024","tribuneTheaterId":"4210","providerTheaterId":"","name":"Cinemark at Market Street","address":"9595 Six Pines Drive #8200","city":"The Woodlands","state":"TX","zip":"77380","distance":11.213485629642,"lon":"-95.463461","lat":"30.163241","theaterChainName":"Cinemark","ticketType":"STANDARD"},{"id":"4210","tribuneTheaterId":"3994","providerTheaterId":"","name":"Studio Movie Grill - Copperfield","address":"8580 Highway 6 North","city":"Houston","state":"TX","zip":"77095","distance":11.941562302416,"lon":"-95.630665","lat":"29.90131","theaterChainName":"Studio Movie Grill","ticketType":"SELECT_SEATING"},{"id":"4183","tribuneTheaterId":"2074","providerTheaterId":"","name":"Richey Road Movie Tavern","address":"15719 I-45 N.","city":"Houston","state":"TX","zip":"77090","distance":12.792114433975,"lon":"-95.426387","lat":"29.995453","theaterChainName":"Movie Tavern","ticketType":"STANDARD"},{"id":"4144","tribuneTheaterId":"2369","providerTheaterId":"","name":"Carmike Yorktown 15","address":"15900 Yorktown Crossing","city":"Houston","state":"TX","zip":"77084","distance":14.699435916775,"lon":"-95.6487","lat":"29.8626","theaterChainName":"Carmike Cinemas","ticketType":"STANDARD"},{"id":"5050","tribuneTheaterId":"10429","providerTheaterId":"","name":"Premiere Renaissance","address":"12300 N Freeway #400","city":"Houston","state":"TX","zip":"77060","distance":15.138240583962,"lon":"-95.415","lat":"29.9456","theaterChainName":"Premiere Cinemas","ticketType":"STANDARD"},{"id":"291","tribuneTheaterId":"8355","providerTheaterId":"","name":"Cinemark Tinseltown 290","address":"12920 NW Freeway","city":"Houston","state":"TX","zip":"77040","distance":17.358030753976,"lon":"-95.496534","lat":"29.846625","theaterChainName":"Cinemark","ticketType":"STANDARD"},{"id":"1167","tribuneTheaterId":"2982","providerTheaterId":"","name":"Conroe Star Cinema Grill","address":"2000 I-45 North","city":"Conroe","state":"TX","zip":"77301","distance":19.663729765396,"lon":"-95.475998","lat":"30.3298","theaterChainName":"Independent Chains","ticketType":"STANDARD"},{"id":"4328","tribuneTheaterId":"9302","providerTheaterId":"","name":"Cinemark Memorial City","address":"310 Memorial City Mall","city":"Houston","state":"TX","zip":"77024","distance":20.844811464223,"lon":"-95.541015","lat":"29.780098","theaterChainName":"Cinemark","ticketType":"STANDARD"},{"id":"4711","tribuneTheaterId":"9925","providerTheaterId":"","name":"Studio Movie Grill City Centre","address":"805 Town ","city":"Houston","state":"TX","zip":"77024","distance":20.523082907152,"lon":"-95.561066","lat":"29.781305","theaterChainName":"Studio Movie Grill","ticketType":"SELECT_SEATING"},{"id":"4045","tribuneTheaterId":"5090","providerTheaterId":"","name":"The Grand 14 - Conroe","address":"4029 I-45 North","city":"Conroe","state":"TX","zip":"77304","distance":22.037710577126,"lon":"-95.487885","lat":"30.371694","theaterChainName":"Southern Theatres","ticketType":"STANDARD"},{"id":"223","tribuneTheaterId":"7807","providerTheaterId":"179","name":"AMC Deerbrook Mall 24","address":"20131 Highway 59 N.","city":"Humble","state":"TX","zip":"77338","distance":21.293369264151,"lon":"-95.27186","lat":"30.009867","theaterChainName":"AMC Theatres","ticketType":"STANDARD"},{"id":"4545","tribuneTheaterId":"9678","providerTheaterId":"","name":"Deerbrook Movie Tavern","address":"9630 FM 1960 Bypass West","city":"Humble","state":"TX","zip":"77338","distance":21.038547045158,"lon":"-95.277815","lat":"30.003781","theaterChainName":"Movie Tavern","ticketType":"STANDARD"},{"id":"2454","tribuneTheaterId":"4168","providerTheaterId":"","name":"Cinemark 19 and XD Katy","address":"1030 W. Grand Pkwy North","city":"Katy","state":"TX","zip":"77449","distance":21.890928916499,"lon":"-95.774592","lat":"29.786748","theaterChainName":"Cinemark","ticketType":"STANDARD"},{"id":"4924","tribuneTheaterId":"10244","providerTheaterId":"","name":"ShowBiz Kingwood 14","address":"350 Northpark Dr.","city":"Kingwood","state":"TX","zip":"77339","distance":22.494755380745,"lon":"-95.243976","lat":"30.067165","theaterChainName":"ShowBiz Cinemas","ticketType":"STANDARD"},{"id":"2895","tribuneTheaterId":"4859","providerTheaterId":"","name":"Edwards Houston Marq*E Stadium 23","address":"7620 Katy Freeway","city":"Houston","state":"TX","zip":"77024","distance":21.997252147812,"lon":"-95.463488","lat":"29.78591","theaterChainName":"Edwards Theatres","ticketType":"STANDARD"},{"id":"4248","tribuneTheaterId":"2076","providerTheaterId":"","name":"Alamo-Mason Park","address":"531 South Mason Rd.","city":"Katy","state":"TX","zip":"77450","distance":21.958344628384,"lon":"-95.749283","lat":"29.776467","theaterChainName":"Alamo Drafthouse","ticketType":"STANDARD"},{"id":"2673","tribuneTheaterId":"9154","providerTheaterId":"148","name":"AMC Katy Mills 20","address":"5000 Katy Mills Circle","city":"Katy","state":"TX","zip":"77494","distance":23.703857428742,"lon":"-95.809504","lat":"29.772652","theaterChainName":"AMC Theatres","ticketType":"STANDARD"},{"id":"342","tribuneTheaterId":"7808","providerTheaterId":"255","name":"AMC Studio 30 Houston","address":"2949 Dunvale","city":"Houston","state":"TX","zip":"77063","distance":24.502877867186,"lon":"-95.511929","lat":"29.731887","theaterChainName":"AMC Theatres","ticketType":"STANDARD"},{"id":"5202","tribuneTheaterId":"10626","providerTheaterId":"","name":"Edwards West Oaks Stadium 14 & RPX","address":"700 W Oaks Mall","city":"Houston","state":"TX","zip":"77082","distance":23.832824281734,"lon":"-95.6478","lat":"29.7298","theaterChainName":"Edwards Theatres","ticketType":"STANDARD"},{"id":"5937","tribuneTheaterId":"11368","providerTheaterId":"","name":"ShowBiz Fall Creek 10","address":"4811 Canyon Lakes Trace Drive","city":"Humble","state":"TX","zip":"77396","distance":24.511921104737,"lon":"-95.242369","lat":"29.93657","theaterChainName":"ShowBiz Cinemas","ticketType":"STANDARD"}]