[{"id":"345","name":"AMC Loews Fountains 18","address":"11225 Fountain Lake Drive","city":"Stafford","state":"TX","zip":"77477","distance":"24.550630569458008","lon":"-95.584335","lat":"29.641193","theaterChainName":"AMC Theatres","ticketType":"STANDARD"},{"id":"5142","name":"Star Cinema Grill Missouri City","address":"4811 Highway 6","city":"Missouri City","state":"TX","zip":"77459","distance":"20.58139419555664","lon":"-95.581398","lat":"29.579599","theaterChainName":"Independent Chains","ticketType":"STANDARD"},{"id":"657","name":"AMC First Colony 24","address":"3301 Town Centre Blvd. S.","city":"Sugar Land","state":"TX","zip":"77479","distance":"20.27061653137207","lon":"-95.627380","lat":"29.587154","theaterChainName":"AMC Theatres","ticketType":"STANDARD"},{"id":"4196","name":"Cinemark 12 Rosenberg","address":"3420 Vista Drive","city":"Rosenberg","state":"TX","zip":"77471","distance":"17.299476623535156","lon":"-95.761665","lat":"29.546600","theaterChainName":"Cinemark","ticketType":"STANDARD"},{"id":"655","name":"Starplex Cinemas Brazos Mall 14","address":"100 HWY 332W","city":"Lake Jackson","state":"TX","zip":"77566","distance":"22.71924591064453","lon":"-95.459908","lat":"29.050726","theaterChainName":"Starplex Cinemas","ticketType":"STANDARD"}]