[{"id":"2673","tribuneTheaterId":"9154","providerTheaterId":"148","name":"AMC Katy Mills 20","address":"5000 Katy Mills Circle","city":"Katy","state":"TX","zip":"77494","distance":6.3549521054596,"lon":"-95.809504","lat":"29.772652","theaterChainName":"AMC Theatres","ticketType":"STANDARD"},{"id":"2454","tribuneTheaterId":"4168","providerTheaterId":"","name":"Cinemark 19 and XD Katy","address":"1030 W. Grand Pkwy North","city":"Katy","state":"TX","zip":"77449","distance":8.6446974013382,"lon":"-95.774592","lat":"29.786748","theaterChainName":"Cinemark","ticketType":"STANDARD"},{"id":"4248","tribuneTheaterId":"2076","providerTheaterId":"","name":"Alamo-Mason Park","address":"531 South Mason Rd.","city":"Katy","state":"TX","zip":"77450","distance":9.6739145548732,"lon":"-95.749283","lat":"29.776467","theaterChainName":"Alamo Drafthouse","ticketType":"STANDARD"},{"id":"5346","tribuneTheaterId":"10784","providerTheaterId":"","name":"Santikos Palladium AVX Entertainment","address":"7301 Grand Parkway","city":"Richmond","state":"TX","zip":"77407","distance":9.5395803135314,"lon":"-95.7495","lat":"29.6718","theaterChainName":"Santikos Theatres","ticketType":"STANDARD"},{"id":"4196","tribuneTheaterId":"4227","providerTheaterId":"","name":"Cinemark 12 Rosenberg","address":"3420 Vista Drive","city":"Rosenberg","state":"TX","zip":"77471","distance":14.598142417076,"lon":"-95.761669","lat":"29.546601","theaterChainName":"Cinemark","ticketType":"STANDARD"},{"id":"5202","tribuneTheaterId":"10626","providerTheaterId":"","name":"Edwards West Oaks Stadium 14 & RPX","address":"700 W Oaks Mall","city":"Houston","state":"TX","zip":"77082","distance":15.004745031436,"lon":"-95.6478","lat":"29.7298","theaterChainName":"Edwards Theatres","ticketType":"STANDARD"},{"id":"657","tribuneTheaterId":"8461","providerTheaterId":"262","name":"AMC First Colony 24","address":"3301 Town Centre Blvd. S.","city":"Sugar Land","state":"TX","zip":"77479","distance":18.704612071364,"lon":"-95.627382","lat":"29.587154","theaterChainName":"AMC Theatres","ticketType":"STANDARD"},{"id":"4144","tribuneTheaterId":"2369","providerTheaterId":"","name":"Carmike Yorktown 15","address":"15900 Yorktown Crossing","city":"Houston","state":"TX","zip":"77084","distance":17.823912288376,"lon":"-95.6487","lat":"29.8626","theaterChainName":"Carmike Cinemas","ticketType":"STANDARD"},{"id":"4132","tribuneTheaterId":"8819","providerTheaterId":"","name":"Cinemark 12 Cypress","address":"25720 Northwest Fwy.","city":"Cypress","state":"TX","zip":"77429","distance":21.240372013849,"lon":"-95.688674","lat":"29.969962","theaterChainName":"Cinemark","ticketType":"STANDARD"},{"id":"4210","tribuneTheaterId":"3994","providerTheaterId":"","name":"Studio Movie Grill - Copperfield","address":"8580 Highway 6 North","city":"Houston","state":"TX","zip":"77095","distance":20.255439669008,"lon":"-95.630665","lat":"29.90131","theaterChainName":"Studio Movie Grill","ticketType":"SELECT_SEATING"},{"id":"4711","tribuneTheaterId":"9925","providerTheaterId":"","name":"Studio Movie Grill City Centre","address":"805 Town ","city":"Houston","state":"TX","zip":"77024","distance":20.608933955928,"lon":"-95.561066","lat":"29.781305","theaterChainName":"Studio Movie Grill","ticketType":"SELECT_SEATING"},{"id":"345","tribuneTheaterId":"8544","providerTheaterId":"2430","name":"AMC Loews Fountains 18","address":"11225 Fountain Lake Drive","city":"Stafford","state":"TX","zip":"77477","distance":19.615610996798,"lon":"-95.584338","lat":"29.641193","theaterChainName":"AMC Theatres","ticketType":"STANDARD"},{"id":"4328","tribuneTheaterId":"9302","providerTheaterId":"","name":"Cinemark Memorial City","address":"310 Memorial City Mall","city":"Houston","state":"TX","zip":"77024","distance":21.773292447141,"lon":"-95.541015","lat":"29.780098","theaterChainName":"Cinemark","ticketType":"STANDARD"},{"id":"5142","tribuneTheaterId":"10548","providerTheaterId":"","name":"Star Cinema Grill Missouri City","address":"4811 Highway 6","city":"Missouri City","state":"TX","zip":"77459","distance":21.380215014739,"lon":"-95.5814","lat":"29.5796","theaterChainName":"Independent Chains","ticketType":"STANDARD"},{"id":"342","tribuneTheaterId":"7808","providerTheaterId":"255","name":"AMC Studio 30 Houston","address":"2949 Dunvale","city":"Houston","state":"TX","zip":"77063","distance":23.157181794358,"lon":"-95.511929","lat":"29.731887","theaterChainName":"AMC Theatres","ticketType":"STANDARD"}]