[{"id":"5142","tribuneTheaterId":"10548","providerTheaterId":"","name":"Star Cinema Grill Missouri City","address":"4811 Highway 6","city":"Missouri City","state":"TX","zip":"77459","distance":2.4340325625641,"lon":"-95.5814","lat":"29.5796","theaterChainName":"Independent Chains","ticketType":"STANDARD"},{"id":"657","tribuneTheaterId":"8461","providerTheaterId":"262","name":"AMC First Colony 24","address":"3301 Town Centre Blvd. S.","city":"Sugar Land","state":"TX","zip":"77479","distance":5.2418998121449,"lon":"-95.627382","lat":"29.587154","theaterChainName":"AMC Theatres","ticketType":"STANDARD"},{"id":"345","tribuneTheaterId":"8544","providerTheaterId":"2430","name":"AMC Loews Fountains 18","address":"11225 Fountain Lake Drive","city":"Stafford","state":"TX","zip":"77477","distance":5.5047597558448,"lon":"-95.584338","lat":"29.641193","theaterChainName":"AMC Theatres","ticketType":"STANDARD"},{"id":"4028","tribuneTheaterId":"4225","providerTheaterId":"","name":"Cinemark at Pearland and XD","address":"Hwy. 288 and Hwy. 518","city":"Pearland","state":"TX","zip":"77581","distance":9.5534587029676,"lon":"-95.385232","lat":"29.549137","theaterChainName":"Cinemark","ticketType":"STANDARD"},{"id":"342","tribuneTheaterId":"7808","providerTheaterId":"255","name":"AMC Studio 30 Houston","address":"2949 Dunvale","city":"Houston","state":"TX","zip":"77063","distance":11.305719848083,"lon":"-95.511929","lat":"29.731887","theaterChainName":"AMC Theatres","ticketType":"STANDARD"},{"id":"4196","tribuneTheaterId":"4227","providerTheaterId":"","name":"Cinemark 12 Rosenberg","address":"3420 Vista Drive","city":"Rosenberg","state":"TX","zip":"77471","distance":13.286436170343,"lon":"-95.761669","lat":"29.546601","theaterChainName":"Cinemark","ticketType":"STANDARD"},{"id":"2761","tribuneTheaterId":"4860","providerTheaterId":"","name":"Edwards Greenway Palace Stadium 24 & RPX","address":"3839 Weslayan","city":"Houston","state":"TX","zip":"77027","distance":12.662930246822,"lon":"-95.440731","lat":"29.731016","theaterChainName":"Edwards Theatres","ticketType":"STANDARD"},{"id":"5202","tribuneTheaterId":"10626","providerTheaterId":"","name":"Edwards West Oaks Stadium 14 & RPX","address":"700 W Oaks Mall","city":"Houston","state":"TX","zip":"77082","distance":12.705409651772,"lon":"-95.6478","lat":"29.7298","theaterChainName":"Edwards Theatres","ticketType":"STANDARD"},{"id":"1166","tribuneTheaterId":"5072","providerTheaterId":"","name":"Pearland Premiere Cinema 6","address":"5050 W. Broadway","city":"Pearland","state":"TX","zip":"77581","distance":14.6397512633,"lon":"-95.299069","lat":"29.558733","theaterChainName":"Premiere Cinemas","ticketType":"STANDARD"},{"id":"5346","tribuneTheaterId":"10784","providerTheaterId":"","name":"Santikos Palladium AVX Entertainment","address":"7301 Grand Parkway","city":"Richmond","state":"TX","zip":"77407","distance":14.281728160349,"lon":"-95.7495","lat":"29.6718","theaterChainName":"Santikos Theatres","ticketType":"STANDARD"},{"id":"4328","tribuneTheaterId":"9302","providerTheaterId":"","name":"Cinemark Memorial City","address":"310 Memorial City Mall","city":"Houston","state":"TX","zip":"77024","distance":14.488932755031,"lon":"-95.541015","lat":"29.780098","theaterChainName":"Cinemark","ticketType":"STANDARD"},{"id":"4711","tribuneTheaterId":"9925","providerTheaterId":"","name":"Studio Movie Grill City Centre","address":"805 Town ","city":"Houston","state":"TX","zip":"77024","distance":14.615603462144,"lon":"-95.561066","lat":"29.781305","theaterChainName":"Studio Movie Grill","ticketType":"SELECT_SEATING"},{"id":"5897","tribuneTheaterId":"11319","providerTheaterId":"","name":"Studio Movie Grill Pearland","address":"8440 South Sam Houston Easy Parkway","city":"Houston","state":"TX","zip":"77075","distance":16.594136316642,"lon":"-95.2682","lat":"29.5998","theaterChainName":"Studio Movie Grill","ticketType":"SELECT_SEATING"},{"id":"2895","tribuneTheaterId":"4859","providerTheaterId":"","name":"Edwards Houston Marq*E Stadium 23","address":"7620 Katy Freeway","city":"Houston","state":"TX","zip":"77024","distance":15.623822305364,"lon":"-95.463488","lat":"29.78591","theaterChainName":"Edwards Theatres","ticketType":"STANDARD"},{"id":"4248","tribuneTheaterId":"2076","providerTheaterId":"","name":"Alamo-Mason Park","address":"531 South Mason Rd.","city":"Katy","state":"TX","zip":"77450","distance":18.897463228632,"lon":"-95.749283","lat":"29.776467","theaterChainName":"Alamo Drafthouse","ticketType":"STANDARD"},{"id":"2454","tribuneTheaterId":"4168","providerTheaterId":"","name":"Cinemark 19 and XD Katy","address":"1030 W. Grand Pkwy North","city":"Katy","state":"TX","zip":"77449","distance":20.442433599678,"lon":"-95.774592","lat":"29.786748","theaterChainName":"Cinemark","ticketType":"STANDARD"},{"id":"656","tribuneTheaterId":"8112","providerTheaterId":"268","name":"AMC Gulf Pointe 30","address":"11801 S. Sam Houston Parkway","city":"Houston","state":"TX","zip":"77089","distance":19.939919942379,"lon":"-95.212809","lat":"29.60489","theaterChainName":"AMC Theatres","ticketType":"STANDARD"},{"id":"291","tribuneTheaterId":"8355","providerTheaterId":"","name":"Cinemark Tinseltown 290","address":"12920 NW Freeway","city":"Houston","state":"TX","zip":"77040","distance":19.281902118284,"lon":"-95.496534","lat":"29.846625","theaterChainName":"Cinemark","ticketType":"STANDARD"},{"id":"2673","tribuneTheaterId":"9154","providerTheaterId":"148","name":"AMC Katy Mills 20","address":"5000 Katy Mills Circle","city":"Katy","state":"TX","zip":"77494","distance":21.274401464783,"lon":"-95.809504","lat":"29.772652","theaterChainName":"AMC Theatres","ticketType":"STANDARD"},{"id":"4144","tribuneTheaterId":"2369","providerTheaterId":"","name":"Carmike Yorktown 15","address":"15900 Yorktown Crossing","city":"Houston","state":"TX","zip":"77084","distance":21.174577426491,"lon":"-95.6487","lat":"29.8626","theaterChainName":"Carmike Cinemas","ticketType":"STANDARD"},{"id":"842","tribuneTheaterId":"9174","providerTheaterId":"","name":"Cinemark Tinseltown Jacinto City","address":"11450 East Freeway","city":"Jacinto City","state":"TX","zip":"77029","distance":23.246869409063,"lon":"-95.229245","lat":"29.768421","theaterChainName":"Cinemark","ticketType":"STANDARD"},{"id":"4098","tribuneTheaterId":"2013","providerTheaterId":"","name":"Cinema Latino de Pasadena","address":"2233 Southmore Ave.","city":"Pasadena","state":"TX","zip":"77502","distance":23.309951778193,"lon":"-95.180507","lat":"29.692552","theaterChainName":"Independent Chains","ticketType":"STANDARD"},{"id":"4210","tribuneTheaterId":"3994","providerTheaterId":"","name":"Studio Movie Grill - Copperfield","address":"8580 Highway 6 North","city":"Houston","state":"TX","zip":"77095","distance":23.470250231494,"lon":"-95.630665","lat":"29.90131","theaterChainName":"Studio Movie Grill","ticketType":"SELECT_SEATING"},{"id":"235","tribuneTheaterId":"8619","providerTheaterId":"","name":"Cinemark Hollywood Movies 20","address":"2101 East Beltway 8","city":"Pasadena","state":"TX","zip":"77503","distance":24.553798870388,"lon":"-95.153596","lat":"29.680486","theaterChainName":"Cinemark","ticketType":"STANDARD"},{"id":"5869","tribuneTheaterId":"11285","providerTheaterId":"","name":"Star Cinema Grill Baybrook","address":"702 Baybrook Mall","city":"Friendswood","state":"TX","zip":"77546","distance":23.624402123052,"lon":"-95.150239","lat":"29.54583","theaterChainName":"Independent Chains","ticketType":"STANDARD"},{"id":"6144","tribuneTheaterId":"11566","providerTheaterId":"","name":"District Theatres","address":"1020 W NASA Parkway","city":"Webster","state":"TX","zip":"77598","distance":24.906102242166,"lon":"-95.130357","lat":"29.531416","theaterChainName":"Star Cinema Grill","ticketType":"STANDARD"},{"id":"1283","tribuneTheaterId":"3080","providerTheaterId":"","name":"Filmworks Baxter Avenue 8 Theatres","address":"1250 Bardstown Road","city":"Louisville","state":"KY","zip":"40204","distance":24.906102242166,"lon":"-95.130357","lat":"29.531416","theaterChainName":"Independent Chains","ticketType":"STANDARD"}]