[{"id":"345","name":"AMC Loews Fountains 18","address":"11225 Fountain Lake Drive","city":"Stafford","state":"TX","zip":"77477","distance":"21.560457229614258","lon":"-95.584335","lat":"29.641193","theaterChainName":"AMC Theatres","ticketType":"STANDARD"},{"id":"5142","name":"Star Cinema Grill Missouri City","address":"4811 Highway 6","city":"Missouri City","state":"TX","zip":"77459","distance":"18.796598434448242","lon":"-95.581398","lat":"29.579599","theaterChainName":"Independent Chains","ticketType":"STANDARD"},{"id":"5202","name":"Edwards West Oaks Stadium 14 & RPX","address":"700 W Oaks Mall","city":"Houston","state":"TX","zip":"77082","distance":"24.484540939331055","lon":"-95.647797","lat":"29.729799","theaterChainName":"Edwards Theatres","ticketType":"STANDARD"},{"id":"657","name":"AMC First Colony 24","address":"3301 Town Centre Blvd. S.","city":"Sugar Land","state":"TX","zip":"77479","distance":"17.074445724487305","lon":"-95.627380","lat":"29.587154","theaterChainName":"AMC Theatres","ticketType":"STANDARD"},{"id":"5346","name":"Santikos Palladium AVX Entertainment","address":"7301 Grand Parkway","city":"Richmond","state":"TX","zip":"77407","distance":"18.571006774902344","lon":"-95.749496","lat":"29.671801","theaterChainName":"Santikos Theatres","ticketType":"STANDARD"},{"id":"2673","name":"AMC Katy Mills 20","address":"5000 Katy Mills Circle","city":"Katy","state":"TX","zip":"77494","distance":"24.963855743408203","lon":"-95.809502","lat":"29.772652","theaterChainName":"AMC Theatres","ticketType":"STANDARD"},{"id":"4196","name":"Cinemark 12 Rosenberg","address":"3420 Vista Drive","city":"Rosenberg","state":"TX","zip":"77471","distance":"10.122986793518066","lon":"-95.761665","lat":"29.546600","theaterChainName":"Cinemark","ticketType":"STANDARD"}]