[{"id":"4196","tribuneTheaterId":"4227","providerTheaterId":"","name":"Cinemark 12 Rosenberg","address":"3420 Vista Drive","city":"Rosenberg","state":"TX","zip":"77471","distance":13.111609287293,"lon":"-95.761669","lat":"29.546601","theaterChainName":"Cinemark","ticketType":"STANDARD"},{"id":"5346","tribuneTheaterId":"10784","providerTheaterId":"","name":"Santikos Palladium AVX Entertainment","address":"7301 Grand Parkway","city":"Richmond","state":"TX","zip":"77407","distance":14.421769356932,"lon":"-95.7495","lat":"29.6718","theaterChainName":"Santikos Theatres","ticketType":"STANDARD"},{"id":"2673","tribuneTheaterId":"9154","providerTheaterId":"148","name":"AMC Katy Mills 20","address":"5000 Katy Mills Circle","city":"Katy","state":"TX","zip":"77494","distance":15.715181625081,"lon":"-95.809504","lat":"29.772652","theaterChainName":"AMC Theatres","ticketType":"STANDARD"},{"id":"2454","tribuneTheaterId":"4168","providerTheaterId":"","name":"Cinemark 19 and XD Katy","address":"1030 W. Grand Pkwy North","city":"Katy","state":"TX","zip":"77449","distance":17.812398153084,"lon":"-95.774592","lat":"29.786748","theaterChainName":"Cinemark","ticketType":"STANDARD"},{"id":"4248","tribuneTheaterId":"2076","providerTheaterId":"","name":"Alamo-Mason Park","address":"531 South Mason Rd.","city":"Katy","state":"TX","zip":"77450","distance":18.368375588122,"lon":"-95.749283","lat":"29.776467","theaterChainName":"Alamo Drafthouse","ticketType":"STANDARD"},{"id":"5202","tribuneTheaterId":"10626","providerTheaterId":"","name":"Edwards West Oaks Stadium 14 & RPX","address":"700 W Oaks Mall","city":"Houston","state":"TX","zip":"77082","distance":21.62210302776,"lon":"-95.6478","lat":"29.7298","theaterChainName":"Edwards Theatres","ticketType":"STANDARD"},{"id":"657","tribuneTheaterId":"8461","providerTheaterId":"262","name":"AMC First Colony 24","address":"3301 Town Centre Blvd. S.","city":"Sugar Land","state":"TX","zip":"77479","distance":20.753992392834,"lon":"-95.627382","lat":"29.587154","theaterChainName":"AMC Theatres","ticketType":"STANDARD"},{"id":"5142","tribuneTheaterId":"10548","providerTheaterId":"","name":"Star Cinema Grill Missouri City","address":"4811 Highway 6","city":"Missouri City","state":"TX","zip":"77459","distance":23.534263192686,"lon":"-95.5814","lat":"29.5796","theaterChainName":"Independent Chains","ticketType":"STANDARD"},{"id":"345","tribuneTheaterId":"8544","providerTheaterId":"2430","name":"AMC Loews Fountains 18","address":"11225 Fountain Lake Drive","city":"Stafford","state":"TX","zip":"77477","distance":23.546370787728,"lon":"-95.584338","lat":"29.641193","theaterChainName":"AMC Theatres","ticketType":"STANDARD"}]