[{"id":"345","name":"AMC Loews Fountains 18","address":"11225 Fountain Lake Drive","city":"Stafford","state":"TX","zip":"77477","distance":"23.548105239868164","lon":"-95.584335","lat":"29.641193","theaterChainName":"AMC Theatres","ticketType":"STANDARD"},{"id":"5142","name":"Star Cinema Grill Missouri City","address":"4811 Highway 6","city":"Missouri City","state":"TX","zip":"77459","distance":"23.535966873168945","lon":"-95.581398","lat":"29.579599","theaterChainName":"Independent Chains","ticketType":"STANDARD"},{"id":"5202","name":"Edwards West Oaks Stadium 14 & RPX","address":"700 W Oaks Mall","city":"Houston","state":"TX","zip":"77082","distance":"21.623685836791992","lon":"-95.647797","lat":"29.729799","theaterChainName":"Edwards Theatres","ticketType":"STANDARD"},{"id":"657","name":"AMC First Colony 24","address":"3301 Town Centre Blvd. S.","city":"Sugar Land","state":"TX","zip":"77479","distance":"20.7554988861084","lon":"-95.627380","lat":"29.587154","theaterChainName":"AMC Theatres","ticketType":"STANDARD"},{"id":"4248","name":"Alamo-Mason Park","address":"531 South Mason Rd.","city":"Katy","state":"TX","zip":"77450","distance":"18.369535446166992","lon":"-95.749283","lat":"29.776466","theaterChainName":"Alamo Drafthouse","ticketType":"STANDARD"},{"id":"5346","name":"Santikos Palladium AVX Entertainment","address":"7301 Grand Parkway","city":"Richmond","state":"TX","zip":"77407","distance":"14.422965049743652","lon":"-95.749496","lat":"29.671801","theaterChainName":"Santikos Theatres","ticketType":"STANDARD"},{"id":"2454","name":"Cinemark 19 and XD Katy","address":"1030 W. Grand Pkwy North","city":"Katy","state":"TX","zip":"77449","distance":"17.813678741455078","lon":"-95.774590","lat":"29.786749","theaterChainName":"Cinemark","ticketType":"STANDARD"},{"id":"2673","name":"AMC Katy Mills 20","address":"5000 Katy Mills Circle","city":"Katy","state":"TX","zip":"77494","distance":"15.7162504196167","lon":"-95.809502","lat":"29.772652","theaterChainName":"AMC Theatres","ticketType":"STANDARD"},{"id":"4196","name":"Cinemark 12 Rosenberg","address":"3420 Vista Drive","city":"Rosenberg","state":"TX","zip":"77471","distance":"13.112780570983887","lon":"-95.761665","lat":"29.546600","theaterChainName":"Cinemark","ticketType":"STANDARD"}]