[{"id":"5202","name":"Edwards West Oaks Stadium 14 & RPX","address":"700 W Oaks Mall","city":"Houston","state":"TX","zip":"77082","distance":"24.678146362304688","lon":"-95.647797","lat":"29.729799","theaterChainName":"Edwards Theatres","ticketType":"STANDARD"},{"id":"4248","name":"Alamo-Mason Park","address":"531 South Mason Rd.","city":"Katy","state":"TX","zip":"77450","distance":"20.138660430908203","lon":"-95.749283","lat":"29.776466","theaterChainName":"Alamo Drafthouse","ticketType":"STANDARD"},{"id":"5346","name":"Santikos Palladium AVX Entertainment","address":"7301 Grand Parkway","city":"Richmond","state":"TX","zip":"77407","distance":"17.917926788330078","lon":"-95.749496","lat":"29.671801","theaterChainName":"Santikos Theatres","ticketType":"STANDARD"},{"id":"2454","name":"Cinemark 19 and XD Katy","address":"1030 W. Grand Pkwy North","city":"Katy","state":"TX","zip":"77449","distance":"19.177053451538086","lon":"-95.774590","lat":"29.786749","theaterChainName":"Cinemark","ticketType":"STANDARD"},{"id":"2673","name":"AMC Katy Mills 20","address":"5000 Katy Mills Circle","city":"Katy","state":"TX","zip":"77494","distance":"16.88726806640625","lon":"-95.809502","lat":"29.772652","theaterChainName":"AMC Theatres","ticketType":"STANDARD"},{"id":"4196","name":"Cinemark 12 Rosenberg","address":"3420 Vista Drive","city":"Rosenberg","state":"TX","zip":"77471","distance":"18.232566833496094","lon":"-95.761665","lat":"29.546600","theaterChainName":"Cinemark","ticketType":"STANDARD"}]