[{"id":"6144","tribuneTheaterId":"11566","providerTheaterId":"","name":"District Theatres","address":"1020 W NASA Parkway","city":"Webster","state":"TX","zip":"77598","distance":11.00807205047,"lon":"-95.130357","lat":"29.531416","theaterChainName":"Star Cinema Grill","ticketType":"STANDARD"},{"id":"1166","tribuneTheaterId":"5072","providerTheaterId":"","name":"Pearland Premiere Cinema 6","address":"5050 W. Broadway","city":"Pearland","state":"TX","zip":"77581","distance":10.534222485349,"lon":"-95.299069","lat":"29.558733","theaterChainName":"Premiere Cinemas","ticketType":"STANDARD"},{"id":"3071","tribuneTheaterId":"8548","providerTheaterId":"","name":"Cinemark 18 Webster","address":"20915 Gulf Freeway","city":"Webster","state":"TX","zip":"77598","distance":10.996776356731,"lon":"-95.124757","lat":"29.526697","theaterChainName":"Cinemark","ticketType":"STANDARD"},{"id":"1283","tribuneTheaterId":"3080","providerTheaterId":"","name":"Filmworks Baxter Avenue 8 Theatres","address":"1250 Bardstown Road","city":"Louisville","state":"KY","zip":"40204","distance":11.00807205047,"lon":"-95.130357","lat":"29.531416","theaterChainName":"Independent Chains","ticketType":"STANDARD"},{"id":"5869","tribuneTheaterId":"11285","providerTheaterId":"","name":"Star Cinema Grill Baybrook","address":"702 Baybrook Mall","city":"Friendswood","state":"TX","zip":"77546","distance":11.072433287732,"lon":"-95.150239","lat":"29.54583","theaterChainName":"Independent Chains","ticketType":"STANDARD"},{"id":"1155","tribuneTheaterId":"5076","providerTheaterId":"","name":"Premiere Nasa Dollar 8","address":"20833 Gulf Freeway","city":"Webster","state":"TX","zip":"77598","distance":10.877885472392,"lon":"-95.12733","lat":"29.526455","theaterChainName":"Premiere Cinemas","ticketType":"STANDARD"},{"id":"4028","tribuneTheaterId":"4225","providerTheaterId":"","name":"Cinemark at Pearland and XD","address":"Hwy. 288 and Hwy. 518","city":"Pearland","state":"TX","zip":"77581","distance":12.428999624668,"lon":"-95.385232","lat":"29.549137","theaterChainName":"Cinemark","ticketType":"STANDARD"},{"id":"236","tribuneTheaterId":"7324","providerTheaterId":"","name":"Cinemark Movies 12 Texas City","address":"10000 Emmet E.F. Lowry Expwy","city":"Texas City","state":"TX","zip":"77591","distance":13.617725401668,"lon":"-95.025322","lat":"29.407098","theaterChainName":"Cinemark","ticketType":"STANDARD"},{"id":"5897","tribuneTheaterId":"11319","providerTheaterId":"","name":"Studio Movie Grill Pearland","address":"8440 South Sam Houston Easy Parkway","city":"Houston","state":"TX","zip":"77075","distance":13.014522699412,"lon":"-95.2682","lat":"29.5998","theaterChainName":"Studio Movie Grill","ticketType":"SELECT_SEATING"},{"id":"656","tribuneTheaterId":"8112","providerTheaterId":"268","name":"AMC Gulf Pointe 30","address":"11801 S. Sam Houston Parkway","city":"Houston","state":"TX","zip":"77089","distance":13.528948921024,"lon":"-95.212809","lat":"29.60489","theaterChainName":"AMC Theatres","ticketType":"STANDARD"},{"id":"235","tribuneTheaterId":"8619","providerTheaterId":"","name":"Cinemark Hollywood Movies 20","address":"2101 East Beltway 8","city":"Pasadena","state":"TX","zip":"77503","distance":19.461639218626,"lon":"-95.153596","lat":"29.680486","theaterChainName":"Cinemark","ticketType":"STANDARD"},{"id":"4098","tribuneTheaterId":"2013","providerTheaterId":"","name":"Cinema Latino de Pasadena","address":"2233 Southmore Ave.","city":"Pasadena","state":"TX","zip":"77502","distance":19.84835052183,"lon":"-95.180507","lat":"29.692552","theaterChainName":"Independent Chains","ticketType":"STANDARD"},{"id":"5142","tribuneTheaterId":"10548","providerTheaterId":"","name":"Star Cinema Grill Missouri City","address":"4811 Highway 6","city":"Missouri City","state":"TX","zip":"77459","distance":22.971861979622,"lon":"-95.5814","lat":"29.5796","theaterChainName":"Independent Chains","ticketType":"STANDARD"},{"id":"842","tribuneTheaterId":"9174","providerTheaterId":"","name":"Cinemark Tinseltown Jacinto City","address":"11450 East Freeway","city":"Jacinto City","state":"TX","zip":"77029","distance":24.662577924823,"lon":"-95.229245","lat":"29.768421","theaterChainName":"Cinemark","ticketType":"STANDARD"},{"id":"2761","tribuneTheaterId":"4860","providerTheaterId":"","name":"Edwards Greenway Palace Stadium 24 & RPX","address":"3839 Weslayan","city":"Houston","state":"TX","zip":"77027","distance":24.802306517142,"lon":"-95.440731","lat":"29.731016","theaterChainName":"Edwards Theatres","ticketType":"STANDARD"}]