[{"id":"655","tribuneTheaterId":"6140","providerTheaterId":"","name":"Starplex Cinemas Brazos Mall 14","address":"100 HWY 332W","city":"Lake Jackson","state":"TX","zip":"77566","distance":14.186076571756,"lon":"-95.45991","lat":"29.050726","theaterChainName":"Starplex Cinemas","ticketType":"STANDARD"},{"id":"4028","tribuneTheaterId":"4225","providerTheaterId":"","name":"Cinemark at Pearland and XD","address":"Hwy. 288 and Hwy. 518","city":"Pearland","state":"TX","zip":"77581","distance":22.254675560922,"lon":"-95.385232","lat":"29.549137","theaterChainName":"Cinemark","ticketType":"STANDARD"},{"id":"236","tribuneTheaterId":"7324","providerTheaterId":"","name":"Cinemark Movies 12 Texas City","address":"10000 Emmet E.F. Lowry Expwy","city":"Texas City","state":"TX","zip":"77591","distance":22.774312538582,"lon":"-95.025322","lat":"29.407098","theaterChainName":"Cinemark","ticketType":"STANDARD"},{"id":"1166","tribuneTheaterId":"5072","providerTheaterId":"","name":"Pearland Premiere Cinema 6","address":"5050 W. Broadway","city":"Pearland","state":"TX","zip":"77581","distance":22.93194799483,"lon":"-95.299069","lat":"29.558733","theaterChainName":"Premiere Cinemas","ticketType":"STANDARD"},{"id":"3071","tribuneTheaterId":"8548","providerTheaterId":"","name":"Cinemark 18 Webster","address":"20915 Gulf Freeway","city":"Webster","state":"TX","zip":"77598","distance":24.418129041151,"lon":"-95.124757","lat":"29.526697","theaterChainName":"Cinemark","ticketType":"STANDARD"},{"id":"1283","tribuneTheaterId":"3080","providerTheaterId":"","name":"Filmworks Baxter Avenue 8 Theatres","address":"1250 Bardstown Road","city":"Louisville","state":"KY","zip":"40204","distance":24.514993338847,"lon":"-95.130357","lat":"29.531416","theaterChainName":"Independent Chains","ticketType":"STANDARD"},{"id":"5869","tribuneTheaterId":"11285","providerTheaterId":"","name":"Star Cinema Grill Baybrook","address":"702 Baybrook Mall","city":"Friendswood","state":"TX","zip":"77546","distance":24.784543695266,"lon":"-95.150239","lat":"29.54583","theaterChainName":"Independent Chains","ticketType":"STANDARD"},{"id":"6144","tribuneTheaterId":"11566","providerTheaterId":"","name":"District Theatres","address":"1020 W NASA Parkway","city":"Webster","state":"TX","zip":"77598","distance":24.514993338847,"lon":"-95.130357","lat":"29.531416","theaterChainName":"Star Cinema Grill","ticketType":"STANDARD"},{"id":"1155","tribuneTheaterId":"5076","providerTheaterId":"","name":"Premiere Nasa Dollar 8","address":"20833 Gulf Freeway","city":"Webster","state":"TX","zip":"77598","distance":24.320806035986,"lon":"-95.12733","lat":"29.526455","theaterChainName":"Premiere Cinemas","ticketType":"STANDARD"}]