[{"id":"2761","name":"Edwards Greenway Palace Stadium 24 & RPX","address":"3839 Weslayan","city":"Houston","state":"TX","zip":"77027","distance":"19.40732765197754","lon":"-95.440727","lat":"29.731016","theaterChainName":"Edwards Theatres","ticketType":"STANDARD"},{"id":"2895","name":"Edwards Houston Marq*E Stadium 23","address":"7620 Katy Freeway","city":"Houston","state":"TX","zip":"77024","distance":"21.685670852661133","lon":"-95.463486","lat":"29.785910","theaterChainName":"Edwards Theatres","ticketType":"STANDARD"},{"id":"342","name":"AMC Studio 30 Houston","address":"2949 Dunvale","city":"Houston","state":"TX","zip":"77063","distance":"23.63680648803711","lon":"-95.511932","lat":"29.731888","theaterChainName":"AMC Theatres","ticketType":"STANDARD"},{"id":"842","name":"Cinemark Tinseltown Jacinto City","address":"11450 East Freeway","city":"Jacinto City","state":"TX","zip":"77029","distance":"8.742179870605469","lon":"-95.229248","lat":"29.768421","theaterChainName":"Cinemark","ticketType":"STANDARD"},{"id":"5897","name":"Studio Movie Grill Pearland","address":"8440 South Sam Houston Easy Parkway","city":"Houston","state":"TX","zip":"77075","distance":"10.469781875610352","lon":"-95.268204","lat":"29.599800","theaterChainName":"Studio Movie Grill","ticketType":"SELECT_SEATING"},{"id":"4098","name":"Cinema Latino de Pasadena","address":"2233 Southmore Ave.","city":"Pasadena","state":"TX","zip":"77502","distance":"3.566772699356079","lon":"-95.180504","lat":"29.692553","theaterChainName":"Independent Chains","ticketType":"STANDARD"},{"id":"4028","name":"Cinemark at Pearland and XD","address":"Hwy. 288 and Hwy. 518","city":"Pearland","state":"TX","zip":"77581","distance":"18.29473876953125","lon":"-95.385231","lat":"29.549137","theaterChainName":"Cinemark","ticketType":"STANDARD"},{"id":"1166","name":"Pearland Premiere Cinema 6","address":"5050 W. Broadway","city":"Pearland","state":"TX","zip":"77581","distance":"13.642975807189941","lon":"-95.299072","lat":"29.558733","theaterChainName":"Premiere Cinemas","ticketType":"STANDARD"},{"id":"5937","name":"ShowBiz Fall Creek 10","address":"4811 Canyon Lakes Trace Drive","city":"Humble","state":"TX","zip":"77396","distance":"18.970090866088867","lon":"-95.242371","lat":"29.936569","theaterChainName":"ShowBiz Cinemas","ticketType":"STANDARD"},{"id":"656","name":"AMC Gulf Pointe 30","address":"11801 S. Sam Houston Parkway","city":"Houston","state":"TX","zip":"77089","distance":"7.644561290740967","lon":"-95.212807","lat":"29.604891","theaterChainName":"AMC Theatres","ticketType":"STANDARD"},{"id":"235","name":"Cinemark Hollywood Movies 20","address":"2101 East Beltway 8","city":"Pasadena","state":"TX","zip":"77503","distance":"1.8903309106826782","lon":"-95.153595","lat":"29.680487","theaterChainName":"Cinemark","ticketType":"STANDARD"},{"id":"4545","name":"Deerbrook Movie Tavern","address":"9630 FM 1960 Bypass West","city":"Humble","state":"TX","zip":"77338","distance":"24.0729923248291","lon":"-95.277817","lat":"30.003780","theaterChainName":"Movie Tavern","ticketType":"STANDARD"},{"id":"223","name":"AMC Deerbrook Mall 24","address":"20131 Highway 59 N.","city":"Humble","state":"TX","zip":"77338","distance":"24.327213287353516","lon":"-95.271858","lat":"30.009867","theaterChainName":"AMC Theatres","ticketType":"STANDARD"},{"id":"5869","name":"Star Cinema Grill Baybrook","address":"702 Baybrook Mall","city":"Friendswood","state":"TX","zip":"77546","distance":"9.599409103393555","lon":"-95.150238","lat":"29.545830","theaterChainName":"Independent Chains","ticketType":"STANDARD"},{"id":"6144","name":"District Theatres","address":"1020 W NASA Parkway","city":"Webster","state":"TX","zip":"77598","distance":"10.457939147949219","lon":"-95.130356","lat":"29.531416","theaterChainName":"Star Cinema Grill","ticketType":"STANDARD"},{"id":"1283","name":"Filmworks Baxter Avenue 8 Theatres","address":"1250 Bardstown Road","city":"Louisville","state":"KY","zip":"40204","distance":"10.457939147949219","lon":"-95.130356","lat":"29.531416","theaterChainName":"Independent Chains","ticketType":"STANDARD"},{"id":"1155","name":"Premiere Nasa Dollar 8","address":"20833 Gulf Freeway","city":"Webster","state":"TX","zip":"77598","distance":"10.793644905090332","lon":"-95.127327","lat":"29.526455","theaterChainName":"Premiere Cinemas","ticketType":"STANDARD"},{"id":"3071","name":"Cinemark 18 Webster","address":"20915 Gulf Freeway","city":"Webster","state":"TX","zip":"77598","distance":"10.773605346679688","lon":"-95.124756","lat":"29.526697","theaterChainName":"Cinemark","ticketType":"STANDARD"},{"id":"3483","name":"Premiere Cinema 11","address":"1518 San Jacinto Mall","city":"Baytown","state":"TX","zip":"77521","distance":"11.645946502685547","lon":"-94.983200","lat":"29.800247","theaterChainName":"Premiere Cinemas","ticketType":"STANDARD"},{"id":"5936","name":"ShowBiz Baytown 10","address":"10550 Interstate 10","city":"Baytown","state":"TX","zip":"77523","distance":"16.548124313354492","lon":"-94.895584","lat":"29.819151","theaterChainName":"ShowBiz Cinemas","ticketType":"STANDARD"},{"id":"236","name":"Cinemark Movies 12 Texas City","address":"10000 Emmet E.F. Lowry Expwy","city":"Texas City","state":"TX","zip":"77591","distance":"19.907323837280273","lon":"-95.025322","lat":"29.407099","theaterChainName":"Cinemark","ticketType":"STANDARD"}]