[{"id":"1964","tribuneTheaterId":"5077","providerTheaterId":"","name":"Galveston Island 11","address":"8902 Seawall Boulevard","city":"Galveston","state":"TX","zip":"77554","distance":6.2698589984676,"lon":"-94.854198","lat":"29.252932","theaterChainName":"Premiere Cinemas","ticketType":"STANDARD"},{"id":"236","tribuneTheaterId":"7324","providerTheaterId":"","name":"Cinemark Movies 12 Texas City","address":"10000 Emmet E.F. Lowry Expwy","city":"Texas City","state":"TX","zip":"77591","distance":14.551904034545,"lon":"-95.025322","lat":"29.407098","theaterChainName":"Cinemark","ticketType":"STANDARD"},{"id":"3071","tribuneTheaterId":"8548","providerTheaterId":"","name":"Cinemark 18 Webster","address":"20915 Gulf Freeway","city":"Webster","state":"TX","zip":"77598","distance":23.774569178541,"lon":"-95.124757","lat":"29.526697","theaterChainName":"Cinemark","ticketType":"STANDARD"},{"id":"1155","tribuneTheaterId":"5076","providerTheaterId":"","name":"Premiere Nasa Dollar 8","address":"20833 Gulf Freeway","city":"Webster","state":"TX","zip":"77598","distance":23.892474470634,"lon":"-95.12733","lat":"29.526455","theaterChainName":"Premiere Cinemas","ticketType":"STANDARD"},{"id":"1283","tribuneTheaterId":"3080","providerTheaterId":"","name":"Filmworks Baxter Avenue 8 Theatres","address":"1250 Bardstown Road","city":"Louisville","state":"KY","zip":"40204","distance":24.237066128471,"lon":"-95.130357","lat":"29.531416","theaterChainName":"Independent Chains","ticketType":"STANDARD"},{"id":"6144","tribuneTheaterId":"11566","providerTheaterId":"","name":"District Theatres","address":"1020 W NASA Parkway","city":"Webster","state":"TX","zip":"77598","distance":24.237066128471,"lon":"-95.130357","lat":"29.531416","theaterChainName":"Star Cinema Grill","ticketType":"STANDARD"}]