[{"id":"5897","name":"Studio Movie Grill Pearland","address":"8440 South Sam Houston Easy Parkway","city":"Houston","state":"TX","zip":"77075","distance":"23.0500431060791","lon":"-95.268204","lat":"29.599800","theaterChainName":"Studio Movie Grill","ticketType":"SELECT_SEATING"},{"id":"4028","name":"Cinemark at Pearland and XD","address":"Hwy. 288 and Hwy. 518","city":"Pearland","state":"TX","zip":"77581","distance":"20.358854293823242","lon":"-95.385231","lat":"29.549137","theaterChainName":"Cinemark","ticketType":"STANDARD"},{"id":"1166","name":"Pearland Premiere Cinema 6","address":"5050 W. Broadway","city":"Pearland","state":"TX","zip":"77581","distance":"20.188005447387695","lon":"-95.299072","lat":"29.558733","theaterChainName":"Premiere Cinemas","ticketType":"STANDARD"},{"id":"656","name":"AMC Gulf Pointe 30","address":"11801 S. Sam Houston Parkway","city":"Houston","state":"TX","zip":"77089","distance":"23.81256675720215","lon":"-95.212807","lat":"29.604891","theaterChainName":"AMC Theatres","ticketType":"STANDARD"},{"id":"5869","name":"Star Cinema Grill Baybrook","address":"702 Baybrook Mall","city":"Friendswood","state":"TX","zip":"77546","distance":"21.015811920166016","lon":"-95.150238","lat":"29.545830","theaterChainName":"Independent Chains","ticketType":"STANDARD"},{"id":"6144","name":"District Theatres","address":"1020 W NASA Parkway","city":"Webster","state":"TX","zip":"77598","distance":"20.6315860748291","lon":"-95.130356","lat":"29.531416","theaterChainName":"Star Cinema Grill","ticketType":"STANDARD"},{"id":"1283","name":"Filmworks Baxter Avenue 8 Theatres","address":"1250 Bardstown Road","city":"Louisville","state":"KY","zip":"40204","distance":"20.6315860748291","lon":"-95.130356","lat":"29.531416","theaterChainName":"Independent Chains","ticketType":"STANDARD"},{"id":"1155","name":"Premiere Nasa Dollar 8","address":"20833 Gulf Freeway","city":"Webster","state":"TX","zip":"77598","distance":"20.414653778076172","lon":"-95.127327","lat":"29.526455","theaterChainName":"Premiere Cinemas","ticketType":"STANDARD"},{"id":"3071","name":"Cinemark 18 Webster","address":"20915 Gulf Freeway","city":"Webster","state":"TX","zip":"77598","distance":"20.503511428833008","lon":"-95.124756","lat":"29.526697","theaterChainName":"Cinemark","ticketType":"STANDARD"},{"id":"655","name":"Starplex Cinemas Brazos Mall 14","address":"100 HWY 332W","city":"Lake Jackson","state":"TX","zip":"77566","distance":"18.143321990966797","lon":"-95.459908","lat":"29.050726","theaterChainName":"Starplex Cinemas","ticketType":"STANDARD"},{"id":"236","name":"Cinemark Movies 12 Texas City","address":"10000 Emmet E.F. Lowry Expwy","city":"Texas City","state":"TX","zip":"77591","distance":"18.606260299682617","lon":"-95.025322","lat":"29.407099","theaterChainName":"Cinemark","ticketType":"STANDARD"}]