[{"id":"842","name":"Cinemark Tinseltown Jacinto City","address":"11450 East Freeway","city":"Jacinto City","state":"TX","zip":"77029","distance":"23.941787719726562","lon":"-95.229248","lat":"29.768421","theaterChainName":"Cinemark","ticketType":"STANDARD"},{"id":"4098","name":"Cinema Latino de Pasadena","address":"2233 Southmore Ave.","city":"Pasadena","state":"TX","zip":"77502","distance":"23.187997817993164","lon":"-95.180504","lat":"29.692553","theaterChainName":"Independent Chains","ticketType":"STANDARD"},{"id":"5937","name":"ShowBiz Fall Creek 10","address":"4811 Canyon Lakes Trace Drive","city":"Humble","state":"TX","zip":"77396","distance":"24.566654205322266","lon":"-95.242371","lat":"29.936569","theaterChainName":"ShowBiz Cinemas","ticketType":"STANDARD"},{"id":"235","name":"Cinemark Hollywood Movies 20","address":"2101 East Beltway 8","city":"Pasadena","state":"TX","zip":"77503","distance":"22.23764419555664","lon":"-95.153595","lat":"29.680487","theaterChainName":"Cinemark","ticketType":"STANDARD"},{"id":"3483","name":"Premiere Cinema 11","address":"1518 San Jacinto Mall","city":"Baytown","state":"TX","zip":"77521","distance":"9.253143310546875","lon":"-94.983200","lat":"29.800247","theaterChainName":"Premiere Cinemas","ticketType":"STANDARD"},{"id":"5936","name":"ShowBiz Baytown 10","address":"10550 Interstate 10","city":"Baytown","state":"TX","zip":"77523","distance":"4.060624599456787","lon":"-94.895584","lat":"29.819151","theaterChainName":"ShowBiz Cinemas","ticketType":"STANDARD"}]