[{"id":"2761","name":"Edwards Greenway Palace Stadium 24 & RPX","address":"3839 Weslayan","city":"Houston","state":"TX","zip":"77027","distance":"21.483911514282227","lon":"-95.440727","lat":"29.731016","theaterChainName":"Edwards Theatres","ticketType":"STANDARD"},{"id":"342","name":"AMC Studio 30 Houston","address":"2949 Dunvale","city":"Houston","state":"TX","zip":"77063","distance":"21.812564849853516","lon":"-95.511932","lat":"29.731888","theaterChainName":"AMC Theatres","ticketType":"STANDARD"},{"id":"5897","name":"Studio Movie Grill Pearland","address":"8440 South Sam Houston Easy Parkway","city":"Houston","state":"TX","zip":"77075","distance":"16.68099594116211","lon":"-95.268204","lat":"29.599800","theaterChainName":"Studio Movie Grill","ticketType":"SELECT_SEATING"},{"id":"4098","name":"Cinema Latino de Pasadena","address":"2233 Southmore Ave.","city":"Pasadena","state":"TX","zip":"77502","distance":"24.97049331665039","lon":"-95.180504","lat":"29.692553","theaterChainName":"Independent Chains","ticketType":"STANDARD"},{"id":"4028","name":"Cinemark at Pearland and XD","address":"Hwy. 288 and Hwy. 518","city":"Pearland","state":"TX","zip":"77581","distance":"9.808731079101562","lon":"-95.385231","lat":"29.549137","theaterChainName":"Cinemark","ticketType":"STANDARD"},{"id":"1166","name":"Pearland Premiere Cinema 6","address":"5050 W. Broadway","city":"Pearland","state":"TX","zip":"77581","distance":"13.341198921203613","lon":"-95.299072","lat":"29.558733","theaterChainName":"Premiere Cinemas","ticketType":"STANDARD"},{"id":"656","name":"AMC Gulf Pointe 30","address":"11801 S. Sam Houston Parkway","city":"Houston","state":"TX","zip":"77089","distance":"19.300430297851562","lon":"-95.212807","lat":"29.604891","theaterChainName":"AMC Theatres","ticketType":"STANDARD"},{"id":"345","name":"AMC Loews Fountains 18","address":"11225 Fountain Lake Drive","city":"Stafford","state":"TX","zip":"77477","distance":"17.165470123291016","lon":"-95.584335","lat":"29.641193","theaterChainName":"AMC Theatres","ticketType":"STANDARD"},{"id":"5142","name":"Star Cinema Grill Missouri City","address":"4811 Highway 6","city":"Missouri City","state":"TX","zip":"77459","distance":"13.421603202819824","lon":"-95.581398","lat":"29.579599","theaterChainName":"Independent Chains","ticketType":"STANDARD"},{"id":"5202","name":"Edwards West Oaks Stadium 14 & RPX","address":"700 W Oaks Mall","city":"Houston","state":"TX","zip":"77082","distance":"24.359895706176758","lon":"-95.647797","lat":"29.729799","theaterChainName":"Edwards Theatres","ticketType":"STANDARD"},{"id":"657","name":"AMC First Colony 24","address":"3301 Town Centre Blvd. S.","city":"Sugar Land","state":"TX","zip":"77479","distance":"15.556938171386719","lon":"-95.627380","lat":"29.587154","theaterChainName":"AMC Theatres","ticketType":"STANDARD"},{"id":"5869","name":"Star Cinema Grill Baybrook","address":"702 Baybrook Mall","city":"Friendswood","state":"TX","zip":"77546","distance":"20.209016799926758","lon":"-95.150238","lat":"29.545830","theaterChainName":"Independent Chains","ticketType":"STANDARD"},{"id":"6144","name":"District Theatres","address":"1020 W NASA Parkway","city":"Webster","state":"TX","zip":"77598","distance":"20.9107666015625","lon":"-95.130356","lat":"29.531416","theaterChainName":"Star Cinema Grill","ticketType":"STANDARD"},{"id":"1283","name":"Filmworks Baxter Avenue 8 Theatres","address":"1250 Bardstown Road","city":"Louisville","state":"KY","zip":"40204","distance":"20.9107666015625","lon":"-95.130356","lat":"29.531416","theaterChainName":"Independent Chains","ticketType":"STANDARD"},{"id":"1155","name":"Premiere Nasa Dollar 8","address":"20833 Gulf Freeway","city":"Webster","state":"TX","zip":"77598","distance":"20.9583740234375","lon":"-95.127327","lat":"29.526455","theaterChainName":"Premiere Cinemas","ticketType":"STANDARD"},{"id":"3071","name":"Cinemark 18 Webster","address":"20915 Gulf Freeway","city":"Webster","state":"TX","zip":"77598","distance":"21.109128952026367","lon":"-95.124756","lat":"29.526697","theaterChainName":"Cinemark","ticketType":"STANDARD"},{"id":"5346","name":"Santikos Palladium AVX Entertainment","address":"7301 Grand Parkway","city":"Richmond","state":"TX","zip":"77407","distance":"24.862943649291992","lon":"-95.749496","lat":"29.671801","theaterChainName":"Santikos Theatres","ticketType":"STANDARD"},{"id":"4196","name":"Cinemark 12 Rosenberg","address":"3420 Vista Drive","city":"Rosenberg","state":"TX","zip":"77471","distance":"20.476879119873047","lon":"-95.761665","lat":"29.546600","theaterChainName":"Cinemark","ticketType":"STANDARD"}]