[{"id":"5897","name":"Studio Movie Grill Pearland","address":"8440 South Sam Houston Easy Parkway","city":"Houston","state":"TX","zip":"77075","distance":"21.9892520904541","lon":"-95.268204","lat":"29.599800","theaterChainName":"Studio Movie Grill","ticketType":"SELECT_SEATING"},{"id":"4098","name":"Cinema Latino de Pasadena","address":"2233 Southmore Ave.","city":"Pasadena","state":"TX","zip":"77502","distance":"23.7714786529541","lon":"-95.180504","lat":"29.692553","theaterChainName":"Independent Chains","ticketType":"STANDARD"},{"id":"1166","name":"Pearland Premiere Cinema 6","address":"5050 W. Broadway","city":"Pearland","state":"TX","zip":"77581","distance":"21.765213012695312","lon":"-95.299072","lat":"29.558733","theaterChainName":"Premiere Cinemas","ticketType":"STANDARD"},{"id":"656","name":"AMC Gulf Pointe 30","address":"11801 S. Sam Houston Parkway","city":"Houston","state":"TX","zip":"77089","distance":"19.879047393798828","lon":"-95.212807","lat":"29.604891","theaterChainName":"AMC Theatres","ticketType":"STANDARD"},{"id":"235","name":"Cinemark Hollywood Movies 20","address":"2101 East Beltway 8","city":"Pasadena","state":"TX","zip":"77503","distance":"22.298198699951172","lon":"-95.153595","lat":"29.680487","theaterChainName":"Cinemark","ticketType":"STANDARD"},{"id":"5869","name":"Star Cinema Grill Baybrook","address":"702 Baybrook Mall","city":"Friendswood","state":"TX","zip":"77546","distance":"14.331695556640625","lon":"-95.150238","lat":"29.545830","theaterChainName":"Independent Chains","ticketType":"STANDARD"},{"id":"6144","name":"District Theatres","address":"1020 W NASA Parkway","city":"Webster","state":"TX","zip":"77598","distance":"12.798532485961914","lon":"-95.130356","lat":"29.531416","theaterChainName":"Star Cinema Grill","ticketType":"STANDARD"},{"id":"1283","name":"Filmworks Baxter Avenue 8 Theatres","address":"1250 Bardstown Road","city":"Louisville","state":"KY","zip":"40204","distance":"12.798532485961914","lon":"-95.130356","lat":"29.531416","theaterChainName":"Independent Chains","ticketType":"STANDARD"},{"id":"1155","name":"Premiere Nasa Dollar 8","address":"20833 Gulf Freeway","city":"Webster","state":"TX","zip":"77598","distance":"12.418896675109863","lon":"-95.127327","lat":"29.526455","theaterChainName":"Premiere Cinemas","ticketType":"STANDARD"},{"id":"3071","name":"Cinemark 18 Webster","address":"20915 Gulf Freeway","city":"Webster","state":"TX","zip":"77598","distance":"12.332592010498047","lon":"-95.124756","lat":"29.526697","theaterChainName":"Cinemark","ticketType":"STANDARD"},{"id":"236","name":"Cinemark Movies 12 Texas City","address":"10000 Emmet E.F. Lowry Expwy","city":"Texas City","state":"TX","zip":"77591","distance":"2.2486979961395264","lon":"-95.025322","lat":"29.407099","theaterChainName":"Cinemark","ticketType":"STANDARD"},{"id":"1964","name":"Galveston Island 11","address":"8902 Seawall Boulevard","city":"Galveston","state":"TX","zip":"77554","distance":"12.636138916015625","lon":"-94.854195","lat":"29.252932","theaterChainName":"Premiere Cinemas","ticketType":"STANDARD"}]