[{"id":"2258","tribuneTheaterId":"4790","providerTheaterId":"","name":"Carmike Pines Theatre 1","address":"320 4th St.","city":"Silsbee","state":"TX","zip":"77656","distance":6.6557643882357,"lon":"-94.176132","lat":"30.349929","theaterChainName":"Carmike Cinemas","ticketType":"STANDARD"},{"id":"1884","tribuneTheaterId":"4038","providerTheaterId":"","name":"Regal Star Stadium 12","address":"4455 Dowlen Rd.","city":"Beaumont","state":"TX","zip":"77706","distance":14.077943990351,"lon":"-94.158349","lat":"30.12293","theaterChainName":"Regal Cinemas","ticketType":"STANDARD"},{"id":"1365","tribuneTheaterId":"4222","providerTheaterId":"","name":"Cinemark Tinseltown 15 Beaumont","address":"3855 Interstate 10 South","city":"Beaumont","state":"TX","zip":"77705","distance":19.274727516346,"lon":"-94.152","lat":"30.0424","theaterChainName":"Cinemark","ticketType":"STANDARD"},{"id":"2189","tribuneTheaterId":"1166","providerTheaterId":"","name":"ShowBiz Orange 2","address":"3330 Bowling Lane","city":"Orange","state":"TX","zip":"77630","distance":23.599077899708,"lon":"-93.771985","lat":"30.091689","theaterChainName":"ShowBiz Cinemas","ticketType":"STANDARD"}]