[{"id":"2189","name":"ShowBiz Orange 2","address":"3330 Bowling Lane","city":"Orange","state":"TX","zip":"77630","distance":"13.885790824890137","lon":"-93.771988","lat":"30.091688","theaterChainName":"ShowBiz Cinemas","ticketType":"STANDARD"},{"id":"2980","name":"B&B Port Arthur Central Mall 10","address":"3100 Hwy. 365 Space 25","city":"Port Arthur","state":"TX","zip":"77642","distance":"2.5322699546813965","lon":"-93.988914","lat":"29.948305","theaterChainName":"B&B Theatres","ticketType":"STANDARD"},{"id":"1884","name":"Regal Star Stadium 12","address":"4455 Dowlen Rd.","city":"Beaumont","state":"TX","zip":"77706","distance":"15.451417922973633","lon":"-94.158348","lat":"30.122931","theaterChainName":"Regal Cinemas","ticketType":"STANDARD"},{"id":"1365","name":"Cinemark Tinseltown 15 Beaumont","address":"3855 Interstate 10 South","city":"Beaumont","state":"TX","zip":"77705","distance":"12.200414657592773","lon":"-94.152000","lat":"30.042400","theaterChainName":"Cinemark","ticketType":"STANDARD"}]