[{"id":"1365","tribuneTheaterId":"4222","providerTheaterId":"","name":"Cinemark Tinseltown 15 Beaumont","address":"3855 Interstate 10 South","city":"Beaumont","state":"TX","zip":"77705","distance":3.4061120089531,"lon":"-94.152","lat":"30.0424","theaterChainName":"Cinemark","ticketType":"STANDARD"},{"id":"1884","tribuneTheaterId":"4038","providerTheaterId":"","name":"Regal Star Stadium 12","address":"4455 Dowlen Rd.","city":"Beaumont","state":"TX","zip":"77706","distance":4.9580290826075,"lon":"-94.158349","lat":"30.12293","theaterChainName":"Regal Cinemas","ticketType":"STANDARD"},{"id":"2980","tribuneTheaterId":"5048","providerTheaterId":"","name":"B&B Port Arthur Central Mall 10","address":"3100 Hwy. 365 Space 25","city":"Port Arthur","state":"TX","zip":"77642","distance":10.800237487476,"lon":"-93.988912","lat":"29.948305","theaterChainName":"B&B Theatres","ticketType":"STANDARD"},{"id":"2258","tribuneTheaterId":"4790","providerTheaterId":"","name":"Carmike Pines Theatre 1","address":"320 4th St.","city":"Silsbee","state":"TX","zip":"77656","distance":19.897197717186,"lon":"-94.176132","lat":"30.349929","theaterChainName":"Carmike Cinemas","ticketType":"STANDARD"},{"id":"2189","tribuneTheaterId":"1166","providerTheaterId":"","name":"ShowBiz Orange 2","address":"3330 Bowling Lane","city":"Orange","state":"TX","zip":"77630","distance":19.907481045943,"lon":"-93.771985","lat":"30.091689","theaterChainName":"ShowBiz Cinemas","ticketType":"STANDARD"}]