[{"id":"3602","name":"Santikos Silverado 16 Theatre","address":"11505 W. FM 1604 N.","city":"San Antonio","state":"TX","zip":"78250","distance":"18.582178115844727","lon":"-98.671539","lat":"29.551794","theaterChainName":"Santikos Theatres","ticketType":"STANDARD"},{"id":"264","name":"Regal Fiesta Stadium 16 Theatres","address":"12631 Vance Jackson","city":"San Antonio","state":"TX","zip":"78230","distance":"22.81936264038086","lon":"-98.585945","lat":"29.561296","theaterChainName":"Regal Cinemas","ticketType":"STANDARD"},{"id":"3884","name":"Alamo Drafthouse Cinema Westlakes","address":"1255 SW Loop 410","city":"San Antonio","state":"TX","zip":"78227","distance":"14.746304512023926","lon":"-98.651306","lat":"29.426031","theaterChainName":"Alamo Drafthouse","ticketType":"STANDARD"},{"id":"3009","name":"Regal Cinemas Cielo Vista Stadium 18 & RPX","address":"2828 Cinema Ridge","city":"San Antonio","state":"TX","zip":"78238","distance":"17.54021644592285","lon":"-98.618324","lat":"29.462618","theaterChainName":"Regal Cinemas","ticketType":"STANDARD"},{"id":"5193","name":"Huebner Oaks Stadium 14 & RPX","address":"11075 West Interstate 10","city":"San Antonio","state":"TX","zip":"78230","distance":"22.46394157409668","lon":"-98.579697","lat":"29.545601","theaterChainName":"Regal Cinemas","ticketType":"STANDARD"},{"id":"969","name":"Cinemark Movies 16 San Antonio","address":"5063 NW Loop 410","city":"San Antonio","state":"TX","zip":"78229","distance":"19.846092224121094","lon":"-98.590691","lat":"29.489222","theaterChainName":"Cinemark","ticketType":"STANDARD"},{"id":"3255","name":"Santikos Northwest 14","address":"7600 I-10 WEST","city":"San Antonio","state":"TX","zip":"78230","distance":"22.468154907226562","lon":"-98.550797","lat":"29.504700","theaterChainName":"Santikos Theatres","ticketType":"STANDARD"},{"id":"33","name":"Santikos Bijou","address":"4522 Fredericksburg Rd.","city":"San Antonio","state":"TX","zip":"78201","distance":"22.010967254638672","lon":"-98.552498","lat":"29.492796","theaterChainName":"Santikos Theatres","ticketType":"STANDARD"},{"id":"384","name":"AMC Rivercenter 9","address":"849 E. Commerce St.","city":"San Antonio","state":"TX","zip":"78205","distance":"24.366483688354492","lon":"-98.485329","lat":"29.423555","theaterChainName":"AMC Theatres","ticketType":"STANDARD"},{"id":"3257","name":"Santikos Mayan Palace 14","address":"1918 SW Military Drive","city":"San Antonio","state":"TX","zip":"78221","distance":"21.56162452697754","lon":"-98.524384","lat":"29.356058","theaterChainName":"Santikos Theatres","ticketType":"STANDARD"}]