[{"id":"3602","tribuneTheaterId":"7162","providerTheaterId":"","name":"Santikos Silverado 16 Theatre","address":"11505 W. FM 1604 N.","city":"San Antonio","state":"TX","zip":"78250","distance":15.129980709657,"lon":"-98.671539","lat":"29.551794","theaterChainName":"Santikos Theatres","ticketType":"STANDARD"},{"id":"3009","tribuneTheaterId":"7408","providerTheaterId":"","name":"Regal Cinemas Cielo Vista Stadium 18 & RPX","address":"2828 Cinema Ridge","city":"San Antonio","state":"TX","zip":"78238","distance":19.172529252589,"lon":"-98.618324","lat":"29.462618","theaterChainName":"Regal Cinemas","ticketType":"STANDARD"},{"id":"3884","tribuneTheaterId":"2207","providerTheaterId":"","name":"Alamo Drafthouse Cinema Westlakes","address":"1255 SW Loop 410","city":"San Antonio","state":"TX","zip":"78227","distance":18.269418616926,"lon":"-98.651306","lat":"29.426031","theaterChainName":"Alamo Drafthouse","ticketType":"STANDARD"},{"id":"5193","tribuneTheaterId":"10610","providerTheaterId":"","name":"Huebner Oaks Stadium 14 & RPX","address":"11075 West Interstate 10","city":"San Antonio","state":"TX","zip":"78230","distance":20.641717105632,"lon":"-98.5797","lat":"29.5456","theaterChainName":"Regal Cinemas","ticketType":"STANDARD"},{"id":"5295","tribuneTheaterId":"10729","providerTheaterId":"","name":"Boerne Cinema","address":"145 Old San Antonio Road","city":"Boerne","state":"TX","zip":"78006","distance":19.770882176369,"lon":"-98.7078","lat":"29.7606","theaterChainName":"Starplex Cinemas","ticketType":"STANDARD"},{"id":"969","tribuneTheaterId":"5256","providerTheaterId":"","name":"Cinemark Movies 16 San Antonio","address":"5063 NW Loop 410","city":"San Antonio","state":"TX","zip":"78229","distance":20.343047740709,"lon":"-98.590688","lat":"29.489221","theaterChainName":"Cinemark","ticketType":"STANDARD"},{"id":"264","tribuneTheaterId":"8585","providerTheaterId":"","name":"Regal Fiesta Stadium 16 Theatres","address":"12631 Vance Jackson","city":"San Antonio","state":"TX","zip":"78230","distance":20.299306908055,"lon":"-98.585945","lat":"29.561297","theaterChainName":"Regal Cinemas","ticketType":"STANDARD"},{"id":"3255","tribuneTheaterId":"7458","providerTheaterId":"","name":"Santikos Northwest 14","address":"7600 I-10 WEST","city":"San Antonio","state":"TX","zip":"78230","distance":22.548069148324,"lon":"-98.5508","lat":"29.5047","theaterChainName":"Santikos Theatres","ticketType":"STANDARD"},{"id":"33","tribuneTheaterId":"8672","providerTheaterId":"","name":"Santikos Bijou","address":"4522 Fredericksburg Rd.","city":"San Antonio","state":"TX","zip":"78201","distance":22.562612099076,"lon":"-98.552497","lat":"29.492796","theaterChainName":"Santikos Theatres","ticketType":"STANDARD"}]