[{"id":"3331","tribuneTheaterId":"1556","providerTheaterId":"","name":"Plestex 4 Theatres","address":"113 E. Johnson St","city":"Pleasanton","state":"TX","zip":"78064","distance":12.777018258998,"lon":"-98.48364","lat":"28.961147","theaterChainName":"Independent Chains","ticketType":"STANDARD"},{"id":"3257","tribuneTheaterId":"8076","providerTheaterId":"","name":"Santikos Mayan Palace 14","address":"1918 SW Military Drive","city":"San Antonio","state":"TX","zip":"78221","distance":18.724976875395,"lon":"-98.524384","lat":"29.356059","theaterChainName":"Santikos Theatres","ticketType":"STANDARD"},{"id":"5139","tribuneTheaterId":"10545","providerTheaterId":"","name":"City Base Cinemas","address":"2623 S.E.  Military Highway","city":"San Antonio","state":"TX","zip":"78223","distance":20.45903669243,"lon":"-98.451212","lat":"29.354185","theaterChainName":"Independent Chains","ticketType":"STANDARD"},{"id":"4518","tribuneTheaterId":"9627","providerTheaterId":"","name":"Cinemark McCreless Market","address":"4224 South New Braunfels St.","city":"San Antonio","state":"TX","zip":"78223","distance":21.596871481814,"lon":"-98.45825","lat":"29.376455","theaterChainName":"Cinemark","ticketType":"STANDARD"},{"id":"3884","tribuneTheaterId":"2207","providerTheaterId":"","name":"Alamo Drafthouse Cinema Westlakes","address":"1255 SW Loop 410","city":"San Antonio","state":"TX","zip":"78227","distance":22.627515325172,"lon":"-98.651306","lat":"29.426031","theaterChainName":"Alamo Drafthouse","ticketType":"STANDARD"},{"id":"384","tribuneTheaterId":"5318","providerTheaterId":"265","name":"AMC Rivercenter 9","address":"849 E. Commerce St.","city":"San Antonio","state":"TX","zip":"78205","distance":23.90789399247,"lon":"-98.485332","lat":"29.423555","theaterChainName":"AMC Theatres","ticketType":"STANDARD"}]