[{"id":"5295","name":"Boerne Cinema","address":"145 Old San Antonio Road","city":"Boerne","state":"TX","zip":"78006","distance":"15.484885215759277","lon":"-98.707802","lat":"29.760599","theaterChainName":"Starplex Cinemas","ticketType":"STANDARD"},{"id":"3602","name":"Santikos Silverado 16 Theatre","address":"11505 W. FM 1604 N.","city":"San Antonio","state":"TX","zip":"78250","distance":"18.830533981323242","lon":"-98.671539","lat":"29.551794","theaterChainName":"Santikos Theatres","ticketType":"STANDARD"},{"id":"264","name":"Regal Fiesta Stadium 16 Theatres","address":"12631 Vance Jackson","city":"San Antonio","state":"TX","zip":"78230","distance":"23.256010055541992","lon":"-98.585945","lat":"29.561296","theaterChainName":"Regal Cinemas","ticketType":"STANDARD"},{"id":"3009","name":"Regal Cinemas Cielo Vista Stadium 18 & RPX","address":"2828 Cinema Ridge","city":"San Antonio","state":"TX","zip":"78238","distance":"24.865320205688477","lon":"-98.618324","lat":"29.462618","theaterChainName":"Regal Cinemas","ticketType":"STANDARD"},{"id":"5193","name":"Huebner Oaks Stadium 14 & RPX","address":"11075 West Interstate 10","city":"San Antonio","state":"TX","zip":"78230","distance":"24.006450653076172","lon":"-98.579697","lat":"29.545601","theaterChainName":"Regal Cinemas","ticketType":"STANDARD"}]