[{"id":"3884","tribuneTheaterId":"2207","providerTheaterId":"","name":"Alamo Drafthouse Cinema Westlakes","address":"1255 SW Loop 410","city":"San Antonio","state":"TX","zip":"78227","distance":13.345623592721,"lon":"-98.651306","lat":"29.426031","theaterChainName":"Alamo Drafthouse","ticketType":"STANDARD"},{"id":"3602","tribuneTheaterId":"7162","providerTheaterId":"","name":"Santikos Silverado 16 Theatre","address":"11505 W. FM 1604 N.","city":"San Antonio","state":"TX","zip":"78250","distance":13.443849200444,"lon":"-98.671539","lat":"29.551794","theaterChainName":"Santikos Theatres","ticketType":"STANDARD"},{"id":"3009","tribuneTheaterId":"7408","providerTheaterId":"","name":"Regal Cinemas Cielo Vista Stadium 18 & RPX","address":"2828 Cinema Ridge","city":"San Antonio","state":"TX","zip":"78238","distance":15.104634063211,"lon":"-98.618324","lat":"29.462618","theaterChainName":"Regal Cinemas","ticketType":"STANDARD"},{"id":"969","tribuneTheaterId":"5256","providerTheaterId":"","name":"Cinemark Movies 16 San Antonio","address":"5063 NW Loop 410","city":"San Antonio","state":"TX","zip":"78229","distance":16.876074634123,"lon":"-98.590688","lat":"29.489221","theaterChainName":"Cinemark","ticketType":"STANDARD"},{"id":"5193","tribuneTheaterId":"10610","providerTheaterId":"","name":"Huebner Oaks Stadium 14 & RPX","address":"11075 West Interstate 10","city":"San Antonio","state":"TX","zip":"78230","distance":18.370848537436,"lon":"-98.5797","lat":"29.5456","theaterChainName":"Regal Cinemas","ticketType":"STANDARD"},{"id":"264","tribuneTheaterId":"8585","providerTheaterId":"","name":"Regal Fiesta Stadium 16 Theatres","address":"12631 Vance Jackson","city":"San Antonio","state":"TX","zip":"78230","distance":18.393619495338,"lon":"-98.585945","lat":"29.561297","theaterChainName":"Regal Cinemas","ticketType":"STANDARD"},{"id":"3255","tribuneTheaterId":"7458","providerTheaterId":"","name":"Santikos Northwest 14","address":"7600 I-10 WEST","city":"San Antonio","state":"TX","zip":"78230","distance":19.396740821332,"lon":"-98.5508","lat":"29.5047","theaterChainName":"Santikos Theatres","ticketType":"STANDARD"},{"id":"33","tribuneTheaterId":"8672","providerTheaterId":"","name":"Santikos Bijou","address":"4522 Fredericksburg Rd.","city":"San Antonio","state":"TX","zip":"78201","distance":19.186123973808,"lon":"-98.552497","lat":"29.492796","theaterChainName":"Santikos Theatres","ticketType":"STANDARD"},{"id":"5295","tribuneTheaterId":"10729","providerTheaterId":"","name":"Boerne Cinema","address":"145 Old San Antonio Road","city":"Boerne","state":"TX","zip":"78006","distance":22.850897384756,"lon":"-98.7078","lat":"29.7606","theaterChainName":"Starplex Cinemas","ticketType":"STANDARD"},{"id":"3257","tribuneTheaterId":"8076","providerTheaterId":"","name":"Santikos Mayan Palace 14","address":"1918 SW Military Drive","city":"San Antonio","state":"TX","zip":"78221","distance":22.000455502228,"lon":"-98.524384","lat":"29.356059","theaterChainName":"Santikos Theatres","ticketType":"STANDARD"},{"id":"3258","tribuneTheaterId":"7769","providerTheaterId":"","name":"Santikos Embassy 14","address":"13707 Embassy Row","city":"San Antonio","state":"TX","zip":"78216","distance":24.074149040829,"lon":"-98.487212","lat":"29.565041","theaterChainName":"Santikos Theatres","ticketType":"STANDARD"},{"id":"384","tribuneTheaterId":"5318","providerTheaterId":"265","name":"AMC Rivercenter 9","address":"849 E. Commerce St.","city":"San Antonio","state":"TX","zip":"78205","distance":23.25525091656,"lon":"-98.485332","lat":"29.423555","theaterChainName":"AMC Theatres","ticketType":"STANDARD"},{"id":"4857","tribuneTheaterId":"10153","providerTheaterId":"","name":"Alamo Drafthouse Park North","address":"618 NW Loop 410 Suite 307","city":"San Antonio","state":"TX","zip":"78216","distance":22.328839538833,"lon":"-98.504105","lat":"29.51895","theaterChainName":"Alamo Drafthouse","ticketType":"STANDARD"},{"id":"746","tribuneTheaterId":"8793","providerTheaterId":"","name":"Regal Alamo Quarry Stadium 14","address":"255 E. Basse Rd.","city":"San Antonio","state":"TX","zip":"78209","distance":23.543572396289,"lon":"-98.4797","lat":"29.4931","theaterChainName":"Regal Cinemas","ticketType":"STANDARD"}]