[{"id":"746","name":"Regal Alamo Quarry Stadium 14","address":"255 E. Basse Rd.","city":"San Antonio","state":"TX","zip":"78209","distance":"24.158411026000977","lon":"-98.479698","lat":"29.493099","theaterChainName":"Regal Cinemas","ticketType":"STANDARD"},{"id":"3256","name":"Santikos Rialto Cinema Bar and Grill","address":"Loop 410 at IH-35N","city":"San Antonio","state":"TX","zip":"78218","distance":"20.90669822692871","lon":"-98.404503","lat":"29.515499","theaterChainName":"Santikos Theatres","ticketType":"STANDARD"},{"id":"384","name":"AMC Rivercenter 9","address":"849 E. Commerce St.","city":"San Antonio","state":"TX","zip":"78205","distance":"22.97186851501465","lon":"-98.485329","lat":"29.423555","theaterChainName":"AMC Theatres","ticketType":"STANDARD"},{"id":"2583","name":"Regal Live Oak Stadium 18","address":"7901 Pat Booker Rd","city":"Live Oak","state":"TX","zip":"78233","distance":"19.879344940185547","lon":"-98.333122","lat":"29.565460","theaterChainName":"Regal Cinemas","ticketType":"STANDARD"},{"id":"3257","name":"Santikos Mayan Palace 14","address":"1918 SW Military Drive","city":"San Antonio","state":"TX","zip":"78221","distance":"24.778717041015625","lon":"-98.524384","lat":"29.356058","theaterChainName":"Santikos Theatres","ticketType":"STANDARD"},{"id":"4518","name":"Cinemark McCreless Market","address":"4224 South New Braunfels St.","city":"San Antonio","state":"TX","zip":"78223","distance":"20.866064071655273","lon":"-98.458252","lat":"29.376455","theaterChainName":"Cinemark","ticketType":"STANDARD"},{"id":"5139","name":"City Base Cinemas","address":"2623 S.E.  Military Highway","city":"San Antonio","state":"TX","zip":"78223","distance":"20.370641708374023","lon":"-98.451210","lat":"29.354185","theaterChainName":"Independent Chains","ticketType":"STANDARD"},{"id":"3176","name":"King Ranger Theatres","address":"1373 E Walnut","city":"Seguin","state":"TX","zip":"78155","distance":"18.284147262573242","lon":"-97.945053","lat":"29.571440","theaterChainName":"Independent Chains","ticketType":"STANDARD"}]