[{"id":"6062","tribuneTheaterId":"11469","providerTheaterId":"","name":"The SPOT Cinema Eatery & Social Haus","address":"1180 Thorpe Lane # 130","city":"San Marcos","state":"TX","zip":"78666","distance":14.687294863837,"lon":"-97.9939292","lat":"29.8859507","theaterChainName":"Texas Cinema","ticketType":"STANDARD"},{"id":"5124","tribuneTheaterId":"10527","providerTheaterId":"","name":"Creekside Cinemas 14","address":"214 Creekside Way","city":"New Braunfels","state":"TX","zip":"78130","distance":16.059311745912,"lon":"-98.073019","lat":"29.727668","theaterChainName":"Texas Cinema","ticketType":"STANDARD"},{"id":"2805","tribuneTheaterId":"3195","providerTheaterId":"","name":"Starplex","address":"1250 Wonderworld Drive","city":"San Marcos","state":"TX","zip":"78666","distance":17.650602796201,"lon":"-97.950711","lat":"29.85229","theaterChainName":"Texas Cinema","ticketType":"STANDARD"},{"id":"5020","tribuneTheaterId":"10394","providerTheaterId":"","name":"Alamo Drafthouse Stone Oak","address":"22806 US Highway 281 North","city":"San Antonio","state":"TX","zip":"78258","distance":21.786479676418,"lon":"-98.447156","lat":"29.653743","theaterChainName":"Alamo Drafthouse","ticketType":"STANDARD"},{"id":"5593","tribuneTheaterId":"11046","providerTheaterId":"","name":"EVO","address":"3200 Kyle Crossing","city":"Kyle","state":"TX","zip":"78640","distance":24.313770305023,"lon":"-97.8545","lat":"30.0287","theaterChainName":"Texas Cinema","ticketType":"STANDARD"},{"id":"2583","tribuneTheaterId":"7724","providerTheaterId":"","name":"Regal Live Oak Stadium 18","address":"7901 Pat Booker Rd","city":"Live Oak","state":"TX","zip":"78233","distance":24.568780927763,"lon":"-98.333119","lat":"29.565461","theaterChainName":"Regal Cinemas","ticketType":"STANDARD"}]