[{"id":"5482","name":"Hometown Cinemas, LLC","address":"120 MLK Industrial Blvd. West","city":"Lockhart","state":"TX","zip":"78644","distance":"24.94051170349121","lon":"-97.670052","lat":"29.860605","theaterChainName":"Independent Chains","ticketType":"STANDARD"},{"id":"6062","name":"The SPOT Cinema Eatery & Social Haus","address":"1180 Thorpe Lane # 130","city":"San Marcos","state":"TX","zip":"78666","distance":"18.992168426513672","lon":"-97.993927","lat":"29.885950","theaterChainName":"Texas Cinema","ticketType":"STANDARD"},{"id":"2805","name":"Starplex","address":"1250 Wonderworld Drive","city":"San Marcos","state":"TX","zip":"78666","distance":"16.662670135498047","lon":"-97.950714","lat":"29.852289","theaterChainName":"Texas Cinema","ticketType":"STANDARD"},{"id":"2583","name":"Regal Live Oak Stadium 18","address":"7901 Pat Booker Rd","city":"Live Oak","state":"TX","zip":"78233","distance":"21.981243133544922","lon":"-98.333122","lat":"29.565460","theaterChainName":"Regal Cinemas","ticketType":"STANDARD"},{"id":"5124","name":"Creekside Cinemas 14","address":"214 Creekside Way","city":"New Braunfels","state":"TX","zip":"78130","distance":"10.07335090637207","lon":"-98.073021","lat":"29.727669","theaterChainName":"Texas Cinema","ticketType":"STANDARD"},{"id":"3176","name":"King Ranger Theatres","address":"1373 E Walnut","city":"Seguin","state":"TX","zip":"78155","distance":"3.200791120529175","lon":"-97.945053","lat":"29.571440","theaterChainName":"Independent Chains","ticketType":"STANDARD"}]