[{"id":"3176","tribuneTheaterId":"1859","providerTheaterId":"","name":"King Ranger Theatres","address":"1373 E Walnut","city":"Seguin","state":"TX","zip":"78155","distance":3.2007147295463,"lon":"-97.945053","lat":"29.571439","theaterChainName":"Independent Chains","ticketType":"STANDARD"},{"id":"5124","tribuneTheaterId":"10527","providerTheaterId":"","name":"Creekside Cinemas 14","address":"214 Creekside Way","city":"New Braunfels","state":"TX","zip":"78130","distance":10.072537732564,"lon":"-98.073019","lat":"29.727668","theaterChainName":"Texas Cinema","ticketType":"STANDARD"},{"id":"2805","tribuneTheaterId":"3195","providerTheaterId":"","name":"Starplex","address":"1250 Wonderworld Drive","city":"San Marcos","state":"TX","zip":"78666","distance":16.661658231102,"lon":"-97.950711","lat":"29.85229","theaterChainName":"Texas Cinema","ticketType":"STANDARD"},{"id":"6062","tribuneTheaterId":"11469","providerTheaterId":"","name":"The SPOT Cinema Eatery & Social Haus","address":"1180 Thorpe Lane # 130","city":"San Marcos","state":"TX","zip":"78666","distance":18.990985649766,"lon":"-97.9939292","lat":"29.8859507","theaterChainName":"Texas Cinema","ticketType":"STANDARD"},{"id":"2583","tribuneTheaterId":"7724","providerTheaterId":"","name":"Regal Live Oak Stadium 18","address":"7901 Pat Booker Rd","city":"Live Oak","state":"TX","zip":"78233","distance":21.9796294473,"lon":"-98.333119","lat":"29.565461","theaterChainName":"Regal Cinemas","ticketType":"STANDARD"},{"id":"5482","tribuneTheaterId":"10925","providerTheaterId":"","name":"Hometown Cinemas, LLC","address":"120 MLK Industrial Blvd. West","city":"Lockhart","state":"TX","zip":"78644","distance":24.93894505404,"lon":"-97.670053","lat":"29.860606","theaterChainName":"Independent Chains","ticketType":"STANDARD"}]