[{"id":"3602","name":"Santikos Silverado 16 Theatre","address":"11505 W. FM 1604 N.","city":"San Antonio","state":"TX","zip":"78250","distance":"18.711463928222656","lon":"-98.671539","lat":"29.551794","theaterChainName":"Santikos Theatres","ticketType":"STANDARD"},{"id":"264","name":"Regal Fiesta Stadium 16 Theatres","address":"12631 Vance Jackson","city":"San Antonio","state":"TX","zip":"78230","distance":"13.746893882751465","lon":"-98.585945","lat":"29.561296","theaterChainName":"Regal Cinemas","ticketType":"STANDARD"},{"id":"3884","name":"Alamo Drafthouse Cinema Westlakes","address":"1255 SW Loop 410","city":"San Antonio","state":"TX","zip":"78227","distance":"18.4925537109375","lon":"-98.651306","lat":"29.426031","theaterChainName":"Alamo Drafthouse","ticketType":"STANDARD"},{"id":"3009","name":"Regal Cinemas Cielo Vista Stadium 18 & RPX","address":"2828 Cinema Ridge","city":"San Antonio","state":"TX","zip":"78238","distance":"15.846912384033203","lon":"-98.618324","lat":"29.462618","theaterChainName":"Regal Cinemas","ticketType":"STANDARD"},{"id":"5193","name":"Huebner Oaks Stadium 14 & RPX","address":"11075 West Interstate 10","city":"San Antonio","state":"TX","zip":"78230","distance":"13.182538986206055","lon":"-98.579697","lat":"29.545601","theaterChainName":"Regal Cinemas","ticketType":"STANDARD"},{"id":"969","name":"Cinemark Movies 16 San Antonio","address":"5063 NW Loop 410","city":"San Antonio","state":"TX","zip":"78229","distance":"13.856087684631348","lon":"-98.590691","lat":"29.489222","theaterChainName":"Cinemark","ticketType":"STANDARD"},{"id":"3255","name":"Santikos Northwest 14","address":"7600 I-10 WEST","city":"San Antonio","state":"TX","zip":"78230","distance":"11.349061965942383","lon":"-98.550797","lat":"29.504700","theaterChainName":"Santikos Theatres","ticketType":"STANDARD"},{"id":"33","name":"Santikos Bijou","address":"4522 Fredericksburg Rd.","city":"San Antonio","state":"TX","zip":"78201","distance":"11.547830581665039","lon":"-98.552498","lat":"29.492796","theaterChainName":"Santikos Theatres","ticketType":"STANDARD"},{"id":"5020","name":"Alamo Drafthouse Stone Oak","address":"22806 US Highway 281 North","city":"San Antonio","state":"TX","zip":"78258","distance":"10.652320861816406","lon":"-98.447159","lat":"29.653744","theaterChainName":"Alamo Drafthouse","ticketType":"STANDARD"},{"id":"1594","name":"Regal Northwoods 14","address":"17640 Henderson Pass","city":"San Antonio","state":"TX","zip":"78232","distance":"8.565855026245117","lon":"-98.464600","lat":"29.604872","theaterChainName":"Regal Cinemas","ticketType":"STANDARD"},{"id":"3258","name":"Santikos Embassy 14","address":"13707 Embassy Row","city":"San Antonio","state":"TX","zip":"78216","distance":"8.154783248901367","lon":"-98.487213","lat":"29.565041","theaterChainName":"Santikos Theatres","ticketType":"STANDARD"},{"id":"4857","name":"Alamo Drafthouse Park North","address":"618 NW Loop 410 Suite 307","city":"San Antonio","state":"TX","zip":"78216","distance":"8.502511024475098","lon":"-98.504105","lat":"29.518950","theaterChainName":"Alamo Drafthouse","ticketType":"STANDARD"},{"id":"746","name":"Regal Alamo Quarry Stadium 14","address":"255 E. Basse Rd.","city":"San Antonio","state":"TX","zip":"78209","distance":"7.246354579925537","lon":"-98.479698","lat":"29.493099","theaterChainName":"Regal Cinemas","ticketType":"STANDARD"},{"id":"3256","name":"Santikos Rialto Cinema Bar and Grill","address":"Loop 410 at IH-35N","city":"San Antonio","state":"TX","zip":"78218","distance":"2.5204174518585205","lon":"-98.404503","lat":"29.515499","theaterChainName":"Santikos Theatres","ticketType":"STANDARD"},{"id":"384","name":"AMC Rivercenter 9","address":"849 E. Commerce St.","city":"San Antonio","state":"TX","zip":"78205","distance":"9.85828685760498","lon":"-98.485329","lat":"29.423555","theaterChainName":"AMC Theatres","ticketType":"STANDARD"},{"id":"2583","name":"Regal Live Oak Stadium 18","address":"7901 Pat Booker Rd","city":"Live Oak","state":"TX","zip":"78233","distance":"3.7182979583740234","lon":"-98.333122","lat":"29.565460","theaterChainName":"Regal Cinemas","ticketType":"STANDARD"},{"id":"3257","name":"Santikos Mayan Palace 14","address":"1918 SW Military Drive","city":"San Antonio","state":"TX","zip":"78221","distance":"14.83859920501709","lon":"-98.524384","lat":"29.356058","theaterChainName":"Santikos Theatres","ticketType":"STANDARD"},{"id":"4518","name":"Cinemark McCreless Market","address":"4224 South New Braunfels St.","city":"San Antonio","state":"TX","zip":"78223","distance":"11.357002258300781","lon":"-98.458252","lat":"29.376455","theaterChainName":"Cinemark","ticketType":"STANDARD"},{"id":"5139","name":"City Base Cinemas","address":"2623 S.E.  Military Highway","city":"San Antonio","state":"TX","zip":"78223","distance":"12.522220611572266","lon":"-98.451210","lat":"29.354185","theaterChainName":"Independent Chains","ticketType":"STANDARD"},{"id":"5124","name":"Creekside Cinemas 14","address":"214 Creekside Way","city":"New Braunfels","state":"TX","zip":"78130","distance":"22.632970809936523","lon":"-98.073021","lat":"29.727669","theaterChainName":"Texas Cinema","ticketType":"STANDARD"}]