[{"id":"2583","tribuneTheaterId":"7724","providerTheaterId":"","name":"Regal Live Oak Stadium 18","address":"7901 Pat Booker Rd","city":"Live Oak","state":"TX","zip":"78233","distance":6.948140808565,"lon":"-98.333119","lat":"29.565461","theaterChainName":"Regal Cinemas","ticketType":"STANDARD"},{"id":"5020","tribuneTheaterId":"10394","providerTheaterId":"","name":"Alamo Drafthouse Stone Oak","address":"22806 US Highway 281 North","city":"San Antonio","state":"TX","zip":"78258","distance":8.1595892742806,"lon":"-98.447156","lat":"29.653743","theaterChainName":"Alamo Drafthouse","ticketType":"STANDARD"},{"id":"1594","tribuneTheaterId":"8041","providerTheaterId":"","name":"Regal Northwoods 14","address":"17640 Henderson Pass","city":"San Antonio","state":"TX","zip":"78232","distance":10.053345892636,"lon":"-98.464601","lat":"29.604871","theaterChainName":"Regal Cinemas","ticketType":"STANDARD"},{"id":"3258","tribuneTheaterId":"7769","providerTheaterId":"","name":"Santikos Embassy 14","address":"13707 Embassy Row","city":"San Antonio","state":"TX","zip":"78216","distance":12.571918582086,"lon":"-98.487212","lat":"29.565041","theaterChainName":"Santikos Theatres","ticketType":"STANDARD"},{"id":"3256","tribuneTheaterId":"7297","providerTheaterId":"","name":"Santikos Rialto Cinema Bar and Grill","address":"Loop 410 at IH-35N","city":"San Antonio","state":"TX","zip":"78218","distance":11.692792727212,"lon":"-98.4045","lat":"29.5155","theaterChainName":"Santikos Theatres","ticketType":"STANDARD"},{"id":"746","tribuneTheaterId":"8793","providerTheaterId":"","name":"Regal Alamo Quarry Stadium 14","address":"255 E. Basse Rd.","city":"San Antonio","state":"TX","zip":"78209","distance":15.546908056107,"lon":"-98.4797","lat":"29.4931","theaterChainName":"Regal Cinemas","ticketType":"STANDARD"},{"id":"5124","tribuneTheaterId":"10527","providerTheaterId":"","name":"Creekside Cinemas 14","address":"214 Creekside Way","city":"New Braunfels","state":"TX","zip":"78130","distance":14.985276248453,"lon":"-98.073019","lat":"29.727668","theaterChainName":"Texas Cinema","ticketType":"STANDARD"},{"id":"4857","tribuneTheaterId":"10153","providerTheaterId":"","name":"Alamo Drafthouse Park North","address":"618 NW Loop 410 Suite 307","city":"San Antonio","state":"TX","zip":"78216","distance":15.30846581091,"lon":"-98.504105","lat":"29.51895","theaterChainName":"Alamo Drafthouse","ticketType":"STANDARD"},{"id":"264","tribuneTheaterId":"8585","providerTheaterId":"","name":"Regal Fiesta Stadium 16 Theatres","address":"12631 Vance Jackson","city":"San Antonio","state":"TX","zip":"78230","distance":17.939566639063,"lon":"-98.585945","lat":"29.561297","theaterChainName":"Regal Cinemas","ticketType":"STANDARD"},{"id":"5193","tribuneTheaterId":"10610","providerTheaterId":"","name":"Huebner Oaks Stadium 14 & RPX","address":"11075 West Interstate 10","city":"San Antonio","state":"TX","zip":"78230","distance":18.062880399266,"lon":"-98.5797","lat":"29.5456","theaterChainName":"Regal Cinemas","ticketType":"STANDARD"},{"id":"33","tribuneTheaterId":"8672","providerTheaterId":"","name":"Santikos Bijou","address":"4522 Fredericksburg Rd.","city":"San Antonio","state":"TX","zip":"78201","distance":18.697662158303,"lon":"-98.552497","lat":"29.492796","theaterChainName":"Santikos Theatres","ticketType":"STANDARD"},{"id":"3255","tribuneTheaterId":"7458","providerTheaterId":"","name":"Santikos Northwest 14","address":"7600 I-10 WEST","city":"San Antonio","state":"TX","zip":"78230","distance":18.105881355856,"lon":"-98.5508","lat":"29.5047","theaterChainName":"Santikos Theatres","ticketType":"STANDARD"},{"id":"384","tribuneTheaterId":"5318","providerTheaterId":"265","name":"AMC Rivercenter 9","address":"849 E. Commerce St.","city":"San Antonio","state":"TX","zip":"78205","distance":19.633895784,"lon":"-98.485332","lat":"29.423555","theaterChainName":"AMC Theatres","ticketType":"STANDARD"},{"id":"969","tribuneTheaterId":"5256","providerTheaterId":"","name":"Cinemark Movies 16 San Antonio","address":"5063 NW Loop 410","city":"San Antonio","state":"TX","zip":"78229","distance":20.66823743448,"lon":"-98.590688","lat":"29.489221","theaterChainName":"Cinemark","ticketType":"STANDARD"},{"id":"4518","tribuneTheaterId":"9627","providerTheaterId":"","name":"Cinemark McCreless Market","address":"4224 South New Braunfels St.","city":"San Antonio","state":"TX","zip":"78223","distance":21.750139571159,"lon":"-98.45825","lat":"29.376455","theaterChainName":"Cinemark","ticketType":"STANDARD"},{"id":"3176","tribuneTheaterId":"1859","providerTheaterId":"","name":"King Ranger Theatres","address":"1373 E Walnut","city":"Seguin","state":"TX","zip":"78155","distance":22.944222620228,"lon":"-97.945053","lat":"29.571439","theaterChainName":"Independent Chains","ticketType":"STANDARD"},{"id":"3009","tribuneTheaterId":"7408","providerTheaterId":"","name":"Regal Cinemas Cielo Vista Stadium 18 & RPX","address":"2828 Cinema Ridge","city":"San Antonio","state":"TX","zip":"78238","distance":23.098292288444,"lon":"-98.618324","lat":"29.462618","theaterChainName":"Regal Cinemas","ticketType":"STANDARD"},{"id":"3602","tribuneTheaterId":"7162","providerTheaterId":"","name":"Santikos Silverado 16 Theatre","address":"11505 W. FM 1604 N.","city":"San Antonio","state":"TX","zip":"78250","distance":22.965620650323,"lon":"-98.671539","lat":"29.551794","theaterChainName":"Santikos Theatres","ticketType":"STANDARD"},{"id":"5139","tribuneTheaterId":"10545","providerTheaterId":"","name":"City Base Cinemas","address":"2623 S.E.  Military Highway","city":"San Antonio","state":"TX","zip":"78223","distance":23.00832611111,"lon":"-98.451212","lat":"29.354185","theaterChainName":"Independent Chains","ticketType":"STANDARD"},{"id":"6062","tribuneTheaterId":"11469","providerTheaterId":"","name":"The SPOT Cinema Eatery & Social Haus","address":"1180 Thorpe Lane # 130","city":"San Marcos","state":"TX","zip":"78666","distance":24.45286445817,"lon":"-97.9939292","lat":"29.8859507","theaterChainName":"Texas Cinema","ticketType":"STANDARD"},{"id":"3257","tribuneTheaterId":"8076","providerTheaterId":"","name":"Santikos Mayan Palace 14","address":"1918 SW Military Drive","city":"San Antonio","state":"TX","zip":"78221","distance":24.838944083706,"lon":"-98.524384","lat":"29.356059","theaterChainName":"Santikos Theatres","ticketType":"STANDARD"},{"id":"5295","tribuneTheaterId":"10729","providerTheaterId":"","name":"Boerne Cinema","address":"145 Old San Antonio Road","city":"Boerne","state":"TX","zip":"78006","distance":24.677541927942,"lon":"-98.7078","lat":"29.7606","theaterChainName":"Starplex Cinemas","ticketType":"STANDARD"}]