[{"id":"5139","tribuneTheaterId":"10545","providerTheaterId":"","name":"City Base Cinemas","address":"2623 S.E.  Military Highway","city":"San Antonio","state":"TX","zip":"78223","distance":12.562413152516,"lon":"-98.451212","lat":"29.354185","theaterChainName":"Independent Chains","ticketType":"STANDARD"},{"id":"3257","tribuneTheaterId":"8076","providerTheaterId":"","name":"Santikos Mayan Palace 14","address":"1918 SW Military Drive","city":"San Antonio","state":"TX","zip":"78221","distance":13.011817208672,"lon":"-98.524384","lat":"29.356059","theaterChainName":"Santikos Theatres","ticketType":"STANDARD"},{"id":"4518","tribuneTheaterId":"9627","providerTheaterId":"","name":"Cinemark McCreless Market","address":"4224 South New Braunfels St.","city":"San Antonio","state":"TX","zip":"78223","distance":14.062168191328,"lon":"-98.45825","lat":"29.376455","theaterChainName":"Cinemark","ticketType":"STANDARD"},{"id":"3331","tribuneTheaterId":"1556","providerTheaterId":"","name":"Plestex 4 Theatres","address":"113 E. Johnson St","city":"Pleasanton","state":"TX","zip":"78064","distance":14.674340339138,"lon":"-98.48364","lat":"28.961147","theaterChainName":"Independent Chains","ticketType":"STANDARD"},{"id":"384","tribuneTheaterId":"5318","providerTheaterId":"265","name":"AMC Rivercenter 9","address":"849 E. Commerce St.","city":"San Antonio","state":"TX","zip":"78205","distance":17.30876562771,"lon":"-98.485332","lat":"29.423555","theaterChainName":"AMC Theatres","ticketType":"STANDARD"},{"id":"3884","tribuneTheaterId":"2207","providerTheaterId":"","name":"Alamo Drafthouse Cinema Westlakes","address":"1255 SW Loop 410","city":"San Antonio","state":"TX","zip":"78227","distance":20.524549642501,"lon":"-98.651306","lat":"29.426031","theaterChainName":"Alamo Drafthouse","ticketType":"STANDARD"},{"id":"3009","tribuneTheaterId":"7408","providerTheaterId":"","name":"Regal Cinemas Cielo Vista Stadium 18 & RPX","address":"2828 Cinema Ridge","city":"San Antonio","state":"TX","zip":"78238","distance":21.839974510582,"lon":"-98.618324","lat":"29.462618","theaterChainName":"Regal Cinemas","ticketType":"STANDARD"},{"id":"746","tribuneTheaterId":"8793","providerTheaterId":"","name":"Regal Alamo Quarry Stadium 14","address":"255 E. Basse Rd.","city":"San Antonio","state":"TX","zip":"78209","distance":22.100533577999,"lon":"-98.4797","lat":"29.4931","theaterChainName":"Regal Cinemas","ticketType":"STANDARD"},{"id":"3256","tribuneTheaterId":"7297","providerTheaterId":"","name":"Santikos Rialto Cinema Bar and Grill","address":"Loop 410 at IH-35N","city":"San Antonio","state":"TX","zip":"78218","distance":23.993757057384,"lon":"-98.4045","lat":"29.5155","theaterChainName":"Santikos Theatres","ticketType":"STANDARD"},{"id":"3255","tribuneTheaterId":"7458","providerTheaterId":"","name":"Santikos Northwest 14","address":"7600 I-10 WEST","city":"San Antonio","state":"TX","zip":"78230","distance":23.380582912718,"lon":"-98.5508","lat":"29.5047","theaterChainName":"Santikos Theatres","ticketType":"STANDARD"},{"id":"969","tribuneTheaterId":"5256","providerTheaterId":"","name":"Cinemark Movies 16 San Antonio","address":"5063 NW Loop 410","city":"San Antonio","state":"TX","zip":"78229","distance":22.963366493406,"lon":"-98.590688","lat":"29.489221","theaterChainName":"Cinemark","ticketType":"STANDARD"},{"id":"33","tribuneTheaterId":"8672","providerTheaterId":"","name":"Santikos Bijou","address":"4522 Fredericksburg Rd.","city":"San Antonio","state":"TX","zip":"78201","distance":22.597390419189,"lon":"-98.552497","lat":"29.492796","theaterChainName":"Santikos Theatres","ticketType":"STANDARD"},{"id":"4857","tribuneTheaterId":"10153","providerTheaterId":"","name":"Alamo Drafthouse Park North","address":"618 NW Loop 410 Suite 307","city":"San Antonio","state":"TX","zip":"78216","distance":23.958795627463,"lon":"-98.504105","lat":"29.51895","theaterChainName":"Alamo Drafthouse","ticketType":"STANDARD"}]