[{"id":"5590","name":"Movies Inc.","address":"4222 Wildcat Drive","city":"Corpus Christi","state":"TX","zip":"78410","distance":"8.264446258544922","lon":"-97.633293","lat":"27.860134","theaterChainName":"Independent Chains","ticketType":"STANDARD"},{"id":"4311","name":"Starplex Cinemas Stadium 16 - Corpus Christi","address":"5218 Silverberry","city":"Corpus Christi","state":"TX","zip":"78417","distance":"21.9832763671875","lon":"-97.436020","lat":"27.736614","theaterChainName":"Starplex Cinemas","ticketType":"STANDARD"},{"id":"3334","name":"Cinema 4 - Rockport","address":"2702 Highway 35 N","city":"Rockport","state":"TX","zip":"78382","distance":"22.8376407623291","lon":"-97.311844","lat":"27.898260","theaterChainName":"Independent Chains","ticketType":"STANDARD"},{"id":"4521","name":"Northshore Cinema 8","address":"251 Buddy Ganem Drive","city":"Portland","state":"TX","zip":"78374","distance":"22.8376407623291","lon":"-97.311844","lat":"27.898260","theaterChainName":"Independent Chains","ticketType":"STANDARD"}]