[{"id":"5590","name":"Movies Inc.","address":"4222 Wildcat Drive","city":"Corpus Christi","state":"TX","zip":"78410","distance":"14.636526107788086","lon":"-97.633293","lat":"27.860134","theaterChainName":"Independent Chains","ticketType":"STANDARD"},{"id":"4818","name":"Rio 7","address":"1601 S. Highway 77 Bypass","city":"Kingsville","state":"TX","zip":"78363","distance":"13.328028678894043","lon":"-97.843079","lat":"27.500738","theaterChainName":"Independent Chains","ticketType":"STANDARD"},{"id":"4311","name":"Starplex Cinemas Stadium 16 - Corpus Christi","address":"5218 Silverberry","city":"Corpus Christi","state":"TX","zip":"78417","distance":"19.597742080688477","lon":"-97.436020","lat":"27.736614","theaterChainName":"Starplex Cinemas","ticketType":"STANDARD"},{"id":"1331","name":"Cinemark Dollar Cinemas","address":"5858 S Padre Is. Dr.","city":"Corpus Christi","state":"TX","zip":"78412","distance":"23.522125244140625","lon":"-97.365814","lat":"27.706169","theaterChainName":"Cinemark","ticketType":"STANDARD"},{"id":"2498","name":"Century 16 Corpus Christi","address":"6685 South Padre Island Drive","city":"Corpus Christi","state":"TX","zip":"78412","distance":"24.283660888671875","lon":"-97.352539","lat":"27.697111","theaterChainName":"Cinemark","ticketType":"STANDARD"}]