[{"id":"5590","name":"Movies Inc.","address":"4222 Wildcat Drive","city":"Corpus Christi","state":"TX","zip":"78410","distance":"13.871468544006348","lon":"-97.633293","lat":"27.860134","theaterChainName":"Independent Chains","ticketType":"STANDARD"},{"id":"4311","name":"Starplex Cinemas Stadium 16 - Corpus Christi","address":"5218 Silverberry","city":"Corpus Christi","state":"TX","zip":"78417","distance":"2.7890727519989014","lon":"-97.436020","lat":"27.736614","theaterChainName":"Starplex Cinemas","ticketType":"STANDARD"},{"id":"1331","name":"Cinemark Dollar Cinemas","address":"5858 S Padre Is. Dr.","city":"Corpus Christi","state":"TX","zip":"78412","distance":"6.120690822601318","lon":"-97.365814","lat":"27.706169","theaterChainName":"Cinemark","ticketType":"STANDARD"},{"id":"2498","name":"Century 16 Corpus Christi","address":"6685 South Padre Island Drive","city":"Corpus Christi","state":"TX","zip":"78412","distance":"7.117464065551758","lon":"-97.352539","lat":"27.697111","theaterChainName":"Cinemark","ticketType":"STANDARD"},{"id":"3334","name":"Cinema 4 - Rockport","address":"2702 Highway 35 N","city":"Rockport","state":"TX","zip":"78382","distance":"10.987688064575195","lon":"-97.311844","lat":"27.898260","theaterChainName":"Independent Chains","ticketType":"STANDARD"},{"id":"4521","name":"Northshore Cinema 8","address":"251 Buddy Ganem Drive","city":"Portland","state":"TX","zip":"78374","distance":"10.987688064575195","lon":"-97.311844","lat":"27.898260","theaterChainName":"Independent Chains","ticketType":"STANDARD"}]