[{"id":"1364","name":"Cinemark Movies 10 Weslaco","address":"2113 West Expressway 83","city":"Weslaco","state":"TX","zip":"78596","distance":"17.51076316833496","lon":"-98.011566","lat":"26.170568","theaterChainName":"Cinemark","ticketType":"STANDARD"},{"id":"2897","name":"Cinemark Harlingen","address":"401 S. Expressway 83","city":"Harlingen","state":"TX","zip":"78550","distance":"4.334847450256348","lon":"-97.714485","lat":"26.187273","theaterChainName":"Cinemark","ticketType":"STANDARD"},{"id":"1335","name":"Cinemark Movies 10 Harlingen","address":"629 N. 13th St.","city":"Harlingen","state":"TX","zip":"78550","distance":"4.860694885253906","lon":"-97.682976","lat":"26.198381","theaterChainName":"Cinemark","ticketType":"STANDARD"},{"id":"1314","name":"Cinemark Movies 10 Brownsville","address":"3471 Old Hwy 77","city":"Brownsville","state":"TX","zip":"78520","distance":"24.932558059692383","lon":"-97.507629","lat":"25.951756","theaterChainName":"Cinemark","ticketType":"STANDARD"},{"id":"3046","name":"Cinemark Sunrise Mall","address":"2370 N. Expressway","city":"Brownsville","state":"TX","zip":"78521","distance":"24.94463539123535","lon":"-97.502304","lat":"25.955021","theaterChainName":"Cinemark","ticketType":"STANDARD"}]