[{"id":"1338","name":"Cinemark Movies 6 McAllen","address":"1800 South 16th","city":"McAllen","state":"TX","zip":"78501","distance":"20.984899520874023","lon":"-98.239922","lat":"26.189005","theaterChainName":"Cinemark","ticketType":"STANDARD"},{"id":"5438","name":"Cinemark Pharr Town Center","address":"600 N Jackson Road","city":"Pharr","state":"TX","zip":"78577","distance":"18.43069076538086","lon":"-98.201660","lat":"26.202709","theaterChainName":"Cinemark","ticketType":"STANDARD"},{"id":"1332","name":"Cinemark Movies 17 McAllen","address":"100 W. Nolana Loop","city":"McAllen","state":"TX","zip":"78504","distance":"18.31085205078125","lon":"-98.212379","lat":"26.239267","theaterChainName":"Cinemark","ticketType":"STANDARD"},{"id":"1410","name":"Cinemark Tinseltown Mission","address":"2422 East Expressway 83","city":"Mission","state":"TX","zip":"78572","distance":"23.325571060180664","lon":"-98.281937","lat":"26.193617","theaterChainName":"Cinemark","ticketType":"STANDARD"},{"id":"5374","name":"Cinemark Movie Bistro Edinburg","address":"2001 W. Trenton , Suite 116","city":"Edinburg","state":"TX","zip":"78539","distance":"16.284423828125","lon":"-98.184341","lat":"26.263239","theaterChainName":"Cinemark","ticketType":"STANDARD"},{"id":"2866","name":"Carmike 20 Edinburg","address":"3003 S Expressway 281","city":"Edinburg","state":"TX","zip":"78539","distance":"14.45726490020752","lon":"-98.156075","lat":"26.272673","theaterChainName":"Carmike Cinemas","ticketType":"STANDARD"},{"id":"1364","name":"Cinemark Movies 10 Weslaco","address":"2113 West Expressway 83","city":"Weslaco","state":"TX","zip":"78596","distance":"10.433079719543457","lon":"-98.011566","lat":"26.170568","theaterChainName":"Cinemark","ticketType":"STANDARD"},{"id":"2897","name":"Cinemark Harlingen","address":"401 S. Expressway 83","city":"Harlingen","state":"TX","zip":"78550","distance":"15.1753511428833","lon":"-97.714485","lat":"26.187273","theaterChainName":"Cinemark","ticketType":"STANDARD"},{"id":"1335","name":"Cinemark Movies 10 Harlingen","address":"629 N. 13th St.","city":"Harlingen","state":"TX","zip":"78550","distance":"16.54109001159668","lon":"-97.682976","lat":"26.198381","theaterChainName":"Cinemark","ticketType":"STANDARD"}]