[{"id":"1338","name":"Cinemark Movies 6 McAllen","address":"1800 South 16th","city":"McAllen","state":"TX","zip":"78501","distance":"20.297924041748047","lon":"-98.239922","lat":"26.189005","theaterChainName":"Cinemark","ticketType":"STANDARD"},{"id":"5438","name":"Cinemark Pharr Town Center","address":"600 N Jackson Road","city":"Pharr","state":"TX","zip":"78577","distance":"22.493810653686523","lon":"-98.201660","lat":"26.202709","theaterChainName":"Cinemark","ticketType":"STANDARD"},{"id":"1332","name":"Cinemark Movies 17 McAllen","address":"100 W. Nolana Loop","city":"McAllen","state":"TX","zip":"78504","distance":"21.651426315307617","lon":"-98.212379","lat":"26.239267","theaterChainName":"Cinemark","ticketType":"STANDARD"},{"id":"1410","name":"Cinemark Tinseltown Mission","address":"2422 East Expressway 83","city":"Mission","state":"TX","zip":"78572","distance":"17.67992401123047","lon":"-98.281937","lat":"26.193617","theaterChainName":"Cinemark","ticketType":"STANDARD"},{"id":"5374","name":"Cinemark Movie Bistro Edinburg","address":"2001 W. Trenton , Suite 116","city":"Edinburg","state":"TX","zip":"78539","distance":"23.424964904785156","lon":"-98.184341","lat":"26.263239","theaterChainName":"Cinemark","ticketType":"STANDARD"},{"id":"4513","name":"Rio Grande Stadium 10","address":"4586 E US Highway 83","city":"Rio Grande City","state":"TX","zip":"78582","distance":"16.711706161499023","lon":"-98.793602","lat":"26.367001","theaterChainName":"Starplex Cinemas","ticketType":"STANDARD"}]