[{"id":"2897","tribuneTheaterId":"4231","providerTheaterId":"","name":"Cinemark Harlingen","address":"401 S. Expressway 83","city":"Harlingen","state":"TX","zip":"78550","distance":5.6947607954829,"lon":"-97.714484","lat":"26.187273","theaterChainName":"Cinemark","ticketType":"STANDARD"},{"id":"1335","tribuneTheaterId":"7063","providerTheaterId":"","name":"Cinemark Movies 10 Harlingen","address":"629 N. 13th St.","city":"Harlingen","state":"TX","zip":"78550","distance":5.0601623368771,"lon":"-97.682973","lat":"26.198381","theaterChainName":"Cinemark","ticketType":"STANDARD"},{"id":"1314","tribuneTheaterId":"4219","providerTheaterId":"","name":"Cinemark Movies 10 Brownsville","address":"3471 Old Hwy 77","city":"Brownsville","state":"TX","zip":"78520","distance":15.180330246353,"lon":"-97.507626","lat":"25.951755","theaterChainName":"Cinemark","ticketType":"STANDARD"},{"id":"3046","tribuneTheaterId":"9090","providerTheaterId":"","name":"Cinemark Sunrise Mall","address":"2370 N. Expressway","city":"Brownsville","state":"TX","zip":"78521","distance":15.183814103044,"lon":"-97.502305","lat":"25.955021","theaterChainName":"Cinemark","ticketType":"STANDARD"},{"id":"1364","tribuneTheaterId":"4220","providerTheaterId":"","name":"Cinemark Movies 10 Weslaco","address":"2113 West Expressway 83","city":"Weslaco","state":"TX","zip":"78596","distance":22.895235518942,"lon":"-98.011567","lat":"26.170568","theaterChainName":"Cinemark","ticketType":"STANDARD"}]