[{"id":"2897","tribuneTheaterId":"4231","providerTheaterId":"","name":"Cinemark Harlingen","address":"401 S. Expressway 83","city":"Harlingen","state":"TX","zip":"78550","distance":8.351206521984,"lon":"-97.714484","lat":"26.187273","theaterChainName":"Cinemark","ticketType":"STANDARD"},{"id":"1335","tribuneTheaterId":"7063","providerTheaterId":"","name":"Cinemark Movies 10 Harlingen","address":"629 N. 13th St.","city":"Harlingen","state":"TX","zip":"78550","distance":9.6866531841185,"lon":"-97.682973","lat":"26.198381","theaterChainName":"Cinemark","ticketType":"STANDARD"},{"id":"1364","tribuneTheaterId":"4220","providerTheaterId":"","name":"Cinemark Movies 10 Weslaco","address":"2113 West Expressway 83","city":"Weslaco","state":"TX","zip":"78596","distance":12.929806370228,"lon":"-98.011567","lat":"26.170568","theaterChainName":"Cinemark","ticketType":"STANDARD"},{"id":"2866","tribuneTheaterId":"8212","providerTheaterId":"","name":"Carmike 20 Edinburg","address":"3003 S Expressway 281","city":"Edinburg","state":"TX","zip":"78539","distance":20.504268683549,"lon":"-98.156071","lat":"26.272673","theaterChainName":"Carmike Cinemas","ticketType":"STANDARD"},{"id":"5374","tribuneTheaterId":"10806","providerTheaterId":"","name":"Cinemark Movie Bistro Edinburg","address":"2001 W. Trenton , Suite 116","city":"Edinburg","state":"TX","zip":"78539","distance":22.229109857741,"lon":"-98.184345","lat":"26.263239","theaterChainName":"Cinemark","ticketType":"STANDARD"},{"id":"1332","tribuneTheaterId":"4233","providerTheaterId":"","name":"Cinemark Movies 17 McAllen","address":"100 W. Nolana Loop","city":"McAllen","state":"TX","zip":"78504","distance":23.988323606703,"lon":"-98.212377","lat":"26.239268","theaterChainName":"Cinemark","ticketType":"STANDARD"},{"id":"5438","tribuneTheaterId":"10879","providerTheaterId":"","name":"Cinemark Pharr Town Center","address":"600 N Jackson Road","city":"Pharr","state":"TX","zip":"78577","distance":23.585310595336,"lon":"-98.201659","lat":"26.20271","theaterChainName":"Cinemark","ticketType":"STANDARD"}]