[{"id":"5438","name":"Cinemark Pharr Town Center","address":"600 N Jackson Road","city":"Pharr","state":"TX","zip":"78577","distance":"23.470542907714844","lon":"-98.201660","lat":"26.202709","theaterChainName":"Cinemark","ticketType":"STANDARD"},{"id":"5374","name":"Cinemark Movie Bistro Edinburg","address":"2001 W. Trenton , Suite 116","city":"Edinburg","state":"TX","zip":"78539","distance":"24.372514724731445","lon":"-98.184341","lat":"26.263239","theaterChainName":"Cinemark","ticketType":"STANDARD"},{"id":"2866","name":"Carmike 20 Edinburg","address":"3003 S Expressway 281","city":"Edinburg","state":"TX","zip":"78539","distance":"23.26568031311035","lon":"-98.156075","lat":"26.272673","theaterChainName":"Carmike Cinemas","ticketType":"STANDARD"},{"id":"1364","name":"Cinemark Movies 10 Weslaco","address":"2113 West Expressway 83","city":"Weslaco","state":"TX","zip":"78596","distance":"11.89565658569336","lon":"-98.011566","lat":"26.170568","theaterChainName":"Cinemark","ticketType":"STANDARD"},{"id":"2897","name":"Cinemark Harlingen","address":"401 S. Expressway 83","city":"Harlingen","state":"TX","zip":"78550","distance":"11.239740371704102","lon":"-97.714485","lat":"26.187273","theaterChainName":"Cinemark","ticketType":"STANDARD"},{"id":"1335","name":"Cinemark Movies 10 Harlingen","address":"629 N. 13th St.","city":"Harlingen","state":"TX","zip":"78550","distance":"13.227519989013672","lon":"-97.682976","lat":"26.198381","theaterChainName":"Cinemark","ticketType":"STANDARD"},{"id":"1314","name":"Cinemark Movies 10 Brownsville","address":"3471 Old Hwy 77","city":"Brownsville","state":"TX","zip":"78520","distance":"22.964149475097656","lon":"-97.507629","lat":"25.951756","theaterChainName":"Cinemark","ticketType":"STANDARD"},{"id":"3046","name":"Cinemark Sunrise Mall","address":"2370 N. Expressway","city":"Brownsville","state":"TX","zip":"78521","distance":"23.18571662902832","lon":"-97.502304","lat":"25.955021","theaterChainName":"Cinemark","ticketType":"STANDARD"}]