[{"id":"5374","name":"Cinemark Movie Bistro Edinburg","address":"2001 W. Trenton , Suite 116","city":"Edinburg","state":"TX","zip":"78539","distance":"23.7113094329834","lon":"-98.184341","lat":"26.263239","theaterChainName":"Cinemark","ticketType":"STANDARD"},{"id":"2866","name":"Carmike 20 Edinburg","address":"3003 S Expressway 281","city":"Edinburg","state":"TX","zip":"78539","distance":"21.856420516967773","lon":"-98.156075","lat":"26.272673","theaterChainName":"Carmike Cinemas","ticketType":"STANDARD"},{"id":"1364","name":"Cinemark Movies 10 Weslaco","address":"2113 West Expressway 83","city":"Weslaco","state":"TX","zip":"78596","distance":"17.207021713256836","lon":"-98.011566","lat":"26.170568","theaterChainName":"Cinemark","ticketType":"STANDARD"},{"id":"2897","name":"Cinemark Harlingen","address":"401 S. Expressway 83","city":"Harlingen","state":"TX","zip":"78550","distance":"12.410200119018555","lon":"-97.714485","lat":"26.187273","theaterChainName":"Cinemark","ticketType":"STANDARD"},{"id":"1335","name":"Cinemark Movies 10 Harlingen","address":"629 N. 13th St.","city":"Harlingen","state":"TX","zip":"78550","distance":"12.862774848937988","lon":"-97.682976","lat":"26.198381","theaterChainName":"Cinemark","ticketType":"STANDARD"}]