[{"id":"4650","tribuneTheaterId":"9849","providerTheaterId":"","name":"ShowBiz Marble Falls 8","address":"2600 Highway 281 North","city":"Marble Falls","state":"TX","zip":"78654","distance":16.371528721155,"lon":"-98.272464","lat":"30.597994","theaterChainName":"ShowBiz Cinemas","ticketType":"STANDARD"},{"id":"4375","tribuneTheaterId":"9415","providerTheaterId":"","name":"Cinemark Cedar Park","address":"1335 E. Whitestone Blvd.","city":"Cedar Park","state":"TX","zip":"78613","distance":20.292172005101,"lon":"-97.815308","lat":"30.530236","theaterChainName":"Cinemark","ticketType":"STANDARD"},{"id":"4307","tribuneTheaterId":"2327","providerTheaterId":"","name":"City Lights Theatres - Georgetown 12","address":"420 Wolf Ranch Parkway","city":"Georgetown","state":"TX","zip":"78628","distance":22.433963104734,"lon":"-97.690562","lat":"30.649737","theaterChainName":"Schulman Theatres","ticketType":"STANDARD"},{"id":"5324","tribuneTheaterId":"10761","providerTheaterId":"","name":"Alamo Drafthouse Lakeline","address":"14028 N. U.S. Highway 183, Building F","city":"Austin","state":"TX","zip":"78717","distance":23.622248688559,"lon":"-97.8012","lat":"30.4766","theaterChainName":"Alamo Drafthouse","ticketType":"STANDARD"},{"id":"127","tribuneTheaterId":"7135","providerTheaterId":"","name":"Regal Lakeline Mall 9","address":"11200 Lakeline Mall Blvd.","city":"Cedar Park","state":"TX","zip":"78613","distance":23.71167070157,"lon":"-97.807653","lat":"30.470509","theaterChainName":"Regal Cinemas","ticketType":"STANDARD"},{"id":"4269","tribuneTheaterId":"9087","providerTheaterId":"","name":"Cinemark Round Rock","address":"4401 N. IH-35","city":"Round Rock","state":"TX","zip":"78664","distance":24.916475839016,"lon":"-97.68852","lat":"30.562817","theaterChainName":"Cinemark","ticketType":"STANDARD"},{"id":"5458","tribuneTheaterId":"10901","providerTheaterId":"","name":"Lake Creek 7","address":"13729 Research Blvd.","city":"Austin","state":"TX","zip":"78750","distance":24.90529473269,"lon":"-97.7925","lat":"30.4588","theaterChainName":"Independent Chains","ticketType":"STANDARD"}]