[{"id":"5593","tribuneTheaterId":"11046","providerTheaterId":"","name":"EVO","address":"3200 Kyle Crossing","city":"Kyle","state":"TX","zip":"78640","distance":11.956541795607,"lon":"-97.8545","lat":"30.0287","theaterChainName":"Texas Cinema","ticketType":"STANDARD"},{"id":"5162","tribuneTheaterId":"10569","providerTheaterId":"","name":"Alamo Drafthouse Slaughter Lane","address":"5701 W. Slaughter Lane","city":"Austin","state":"TX","zip":"78749","distance":11.665969681847,"lon":"-97.868746","lat":"30.198905","theaterChainName":"Alamo Drafthouse","ticketType":"STANDARD"},{"id":"6062","tribuneTheaterId":"11469","providerTheaterId":"","name":"The SPOT Cinema Eatery & Social Haus","address":"1180 Thorpe Lane # 130","city":"San Marcos","state":"TX","zip":"78666","distance":15.461887716315,"lon":"-97.9939292","lat":"29.8859507","theaterChainName":"Texas Cinema","ticketType":"STANDARD"},{"id":"4331","tribuneTheaterId":"9306","providerTheaterId":"","name":"Cinemark Southpark Meadows","address":"9900 I-35 SB Building N","city":"Austin","state":"TX","zip":"78748","distance":14.626139475312,"lon":"-97.794027","lat":"30.154108","theaterChainName":"Cinemark","ticketType":"STANDARD"},{"id":"4374","tribuneTheaterId":"9414","providerTheaterId":"","name":"Cinemark Hill Country Galleria","address":"12800 Hwy 71 W. Bldg 24","city":"Bee Cave","state":"TX","zip":"78738","distance":14.903261080266,"lon":"-97.940862","lat":"30.307765","theaterChainName":"Cinemark","ticketType":"STANDARD"},{"id":"2134","tribuneTheaterId":"8498","providerTheaterId":"","name":"Regal Metropolitan Stadium 14","address":"901 Little Texas Lane","city":"Austin","state":"TX","zip":"78745","distance":16.928255848012,"lon":"-97.76955","lat":"30.19804","theaterChainName":"Regal Cinemas","ticketType":"STANDARD"},{"id":"2467","tribuneTheaterId":"5320","providerTheaterId":"802","name":"AMC Barton Creek Square","address":"2901 Capital of Texas Highway","city":"Austin","state":"TX","zip":"78746","distance":16.959873451911,"lon":"-97.808217","lat":"30.257523","theaterChainName":"AMC Theatres","ticketType":"STANDARD"},{"id":"2631","tribuneTheaterId":"8298","providerTheaterId":"","name":"Regal Westgate Stadium 11 Theatres","address":"4477 South Lamar Blvd. #800","city":"Austin","state":"TX","zip":"78745","distance":16.302662470317,"lon":"-97.799842","lat":"30.230263","theaterChainName":"Regal Cinemas","ticketType":"STANDARD"},{"id":"3984","tribuneTheaterId":"5084","providerTheaterId":"","name":"Alamo Drafthouse South Lamar","address":"1120 S. Lamar Blvd.","city":"Austin","state":"TX","zip":"78704","distance":19.080175289171,"lon":"-97.763442","lat":"30.255806","theaterChainName":"Alamo Drafthouse","ticketType":"STANDARD"},{"id":"2805","tribuneTheaterId":"3195","providerTheaterId":"","name":"Starplex","address":"1250 Wonderworld Drive","city":"San Marcos","state":"TX","zip":"78666","distance":18.283345956189,"lon":"-97.950711","lat":"29.85229","theaterChainName":"Texas Cinema","ticketType":"STANDARD"},{"id":"4419","tribuneTheaterId":"9489","providerTheaterId":"","name":"Alamo Drafthouse at the Ritz","address":"320 East 6th Street","city":"Austin","state":"TX","zip":"78701","distance":20.705507752329,"lon":"-97.739633","lat":"30.267301","theaterChainName":"Alamo Drafthouse","ticketType":"STANDARD"},{"id":"1187","tribuneTheaterId":"2469","providerTheaterId":"","name":"Paramount Theatre - Austin","address":"713 Congress Ave","city":"Austin","state":"TX","zip":"78701","distance":20.651802217329,"lon":"-97.742207","lat":"30.269344","theaterChainName":"Independent Chains","ticketType":"STANDARD"},{"id":"3144","tribuneTheaterId":"526","providerTheaterId":"","name":"Millennium Theater","address":"1156 Hargrave Street","city":"Austin","state":"TX","zip":"78702","distance":22.349620858041,"lon":"-97.710621","lat":"30.271911","theaterChainName":"Independent Chains","ticketType":"STANDARD"},{"id":"6130","tribuneTheaterId":"11546","providerTheaterId":"","name":"AFS Cinema","address":"6406 N I-35, Suite 3100","city":"Austin","state":"TX","zip":"78752","distance":24.634552640703,"lon":"-97.707401","lat":"30.326527","theaterChainName":"Independent Chains","ticketType":"STANDARD"},{"id":"3439","tribuneTheaterId":"8749","providerTheaterId":"","name":"Galaxy Highland 10","address":"6700 Middle Fiskville Road","city":"Austin","state":"TX","zip":"78752","distance":24.732390399282,"lon":"-97.707789","lat":"30.329251","theaterChainName":"Galaxy Theatres","ticketType":"STANDARD"},{"id":"3254","tribuneTheaterId":"5988","providerTheaterId":"","name":"Alamo Drafthouse Village","address":"2700 W. Anderson Lane","city":"Austin","state":"TX","zip":"78757","distance":24.923882551845,"lon":"-97.734818","lat":"30.359962","theaterChainName":"Alamo Drafthouse","ticketType":"STANDARD"}]