[{"id":"5482","tribuneTheaterId":"10925","providerTheaterId":"","name":"Hometown Cinemas, LLC","address":"120 MLK Industrial Blvd. West","city":"Lockhart","state":"TX","zip":"78644","distance":1.8557386787356,"lon":"-97.670053","lat":"29.860606","theaterChainName":"Independent Chains","ticketType":"STANDARD"},{"id":"5593","tribuneTheaterId":"11046","providerTheaterId":"","name":"EVO","address":"3200 Kyle Crossing","city":"Kyle","state":"TX","zip":"78640","distance":14.462143546565,"lon":"-97.8545","lat":"30.0287","theaterChainName":"Texas Cinema","ticketType":"STANDARD"},{"id":"2805","tribuneTheaterId":"3195","providerTheaterId":"","name":"Starplex","address":"1250 Wonderworld Drive","city":"San Marcos","state":"TX","zip":"78666","distance":16.577770792021,"lon":"-97.950711","lat":"29.85229","theaterChainName":"Texas Cinema","ticketType":"STANDARD"},{"id":"4331","tribuneTheaterId":"9306","providerTheaterId":"","name":"Cinemark Southpark Meadows","address":"9900 I-35 SB Building N","city":"Austin","state":"TX","zip":"78748","distance":19.753718109808,"lon":"-97.794027","lat":"30.154108","theaterChainName":"Cinemark","ticketType":"STANDARD"},{"id":"6062","tribuneTheaterId":"11469","providerTheaterId":"","name":"The SPOT Cinema Eatery & Social Haus","address":"1180 Thorpe Lane # 130","city":"San Marcos","state":"TX","zip":"78666","distance":18.991702388318,"lon":"-97.9939292","lat":"29.8859507","theaterChainName":"Texas Cinema","ticketType":"STANDARD"},{"id":"2134","tribuneTheaterId":"8498","providerTheaterId":"","name":"Regal Metropolitan Stadium 14","address":"901 Little Texas Lane","city":"Austin","state":"TX","zip":"78745","distance":22.207109485184,"lon":"-97.76955","lat":"30.19804","theaterChainName":"Regal Cinemas","ticketType":"STANDARD"},{"id":"5162","tribuneTheaterId":"10569","providerTheaterId":"","name":"Alamo Drafthouse Slaughter Lane","address":"5701 W. Slaughter Lane","city":"Austin","state":"TX","zip":"78749","distance":24.427116564654,"lon":"-97.868746","lat":"30.198905","theaterChainName":"Alamo Drafthouse","ticketType":"STANDARD"},{"id":"2631","tribuneTheaterId":"8298","providerTheaterId":"","name":"Regal Westgate Stadium 11 Theatres","address":"4477 South Lamar Blvd. #800","city":"Austin","state":"TX","zip":"78745","distance":24.843768384791,"lon":"-97.799842","lat":"30.230263","theaterChainName":"Regal Cinemas","ticketType":"STANDARD"}]