[{"id":"4419","name":"Alamo Drafthouse at the Ritz","address":"320 East 6th Street","city":"Austin","state":"TX","zip":"78701","distance":"19.527999877929688","lon":"-97.739632","lat":"30.267302","theaterChainName":"Alamo Drafthouse","ticketType":"STANDARD"},{"id":"1187","name":"Paramount Theatre - Austin","address":"713 Congress Ave","city":"Austin","state":"TX","zip":"78701","distance":"19.619815826416016","lon":"-97.742210","lat":"30.269344","theaterChainName":"Independent Chains","ticketType":"STANDARD"},{"id":"3984","name":"Alamo Drafthouse South Lamar","address":"1120 S. Lamar Blvd.","city":"Austin","state":"TX","zip":"78704","distance":"18.393478393554688","lon":"-97.763443","lat":"30.255806","theaterChainName":"Alamo Drafthouse","ticketType":"STANDARD"},{"id":"3144","name":"Millennium Theater","address":"1156 Hargrave Street","city":"Austin","state":"TX","zip":"78702","distance":"20.3914737701416","lon":"-97.710625","lat":"30.271912","theaterChainName":"Independent Chains","ticketType":"STANDARD"},{"id":"2631","name":"Regal Westgate Stadium 11 Theatres","address":"4477 South Lamar Blvd. #800","city":"Austin","state":"TX","zip":"78745","distance":"16.270463943481445","lon":"-97.799843","lat":"30.230263","theaterChainName":"Regal Cinemas","ticketType":"STANDARD"},{"id":"2467","name":"AMC Barton Creek Square","address":"2901 Capital of Texas Highway","city":"Austin","state":"TX","zip":"78746","distance":"18.09238624572754","lon":"-97.808220","lat":"30.257523","theaterChainName":"AMC Theatres","ticketType":"STANDARD"},{"id":"2134","name":"Regal Metropolitan Stadium 14","address":"901 Little Texas Lane","city":"Austin","state":"TX","zip":"78745","distance":"14.434659957885742","lon":"-97.769547","lat":"30.198040","theaterChainName":"Regal Cinemas","ticketType":"STANDARD"},{"id":"6130","name":"AFS Cinema","address":"6406 N I-35, Suite 3100","city":"Austin","state":"TX","zip":"78752","distance":"24.00981903076172","lon":"-97.707397","lat":"30.326527","theaterChainName":"Independent Chains","ticketType":"STANDARD"},{"id":"3439","name":"Galaxy Highland 10","address":"6700 Middle Fiskville Road","city":"Austin","state":"TX","zip":"78752","distance":"24.181324005126953","lon":"-97.707787","lat":"30.329250","theaterChainName":"Galaxy Theatres","ticketType":"STANDARD"},{"id":"4331","name":"Cinemark Southpark Meadows","address":"9900 I-35 SB Building N","city":"Austin","state":"TX","zip":"78748","distance":"11.136493682861328","lon":"-97.794029","lat":"30.154108","theaterChainName":"Cinemark","ticketType":"STANDARD"},{"id":"5162","name":"Alamo Drafthouse Slaughter Lane","address":"5701 W. Slaughter Lane","city":"Austin","state":"TX","zip":"78749","distance":"14.136761665344238","lon":"-97.868744","lat":"30.198906","theaterChainName":"Alamo Drafthouse","ticketType":"STANDARD"},{"id":"4374","name":"Cinemark Hill Country Galleria","address":"12800 Hwy 71 W. Bldg 24","city":"Bee Cave","state":"TX","zip":"78738","distance":"22.437225341796875","lon":"-97.940865","lat":"30.307764","theaterChainName":"Cinemark","ticketType":"STANDARD"},{"id":"5593","name":"EVO","address":"3200 Kyle Crossing","city":"Kyle","state":"TX","zip":"78640","distance":"2.549126148223877","lon":"-97.854500","lat":"30.028700","theaterChainName":"Texas Cinema","ticketType":"STANDARD"},{"id":"5482","name":"Hometown Cinemas, LLC","address":"120 MLK Industrial Blvd. West","city":"Lockhart","state":"TX","zip":"78644","distance":"13.568591117858887","lon":"-97.670052","lat":"29.860605","theaterChainName":"Independent Chains","ticketType":"STANDARD"},{"id":"6062","name":"The SPOT Cinema Eatery & Social Haus","address":"1180 Thorpe Lane # 130","city":"San Marcos","state":"TX","zip":"78666","distance":"12.276787757873535","lon":"-97.993927","lat":"29.885950","theaterChainName":"Texas Cinema","ticketType":"STANDARD"},{"id":"2805","name":"Starplex","address":"1250 Wonderworld Drive","city":"San Marcos","state":"TX","zip":"78666","distance":"12.194254875183105","lon":"-97.950714","lat":"29.852289","theaterChainName":"Texas Cinema","ticketType":"STANDARD"},{"id":"5124","name":"Creekside Cinemas 14","address":"214 Creekside Way","city":"New Braunfels","state":"TX","zip":"78130","distance":"23.47987937927246","lon":"-98.073021","lat":"29.727669","theaterChainName":"Texas Cinema","ticketType":"STANDARD"}]