[{"id":"2631","name":"Regal Westgate Stadium 11 Theatres","address":"4477 South Lamar Blvd. #800","city":"Austin","state":"TX","zip":"78745","distance":"24.84520721435547","lon":"-97.799843","lat":"30.230263","theaterChainName":"Regal Cinemas","ticketType":"STANDARD"},{"id":"2134","name":"Regal Metropolitan Stadium 14","address":"901 Little Texas Lane","city":"Austin","state":"TX","zip":"78745","distance":"22.208341598510742","lon":"-97.769547","lat":"30.198040","theaterChainName":"Regal Cinemas","ticketType":"STANDARD"},{"id":"4331","name":"Cinemark Southpark Meadows","address":"9900 I-35 SB Building N","city":"Austin","state":"TX","zip":"78748","distance":"19.754884719848633","lon":"-97.794029","lat":"30.154108","theaterChainName":"Cinemark","ticketType":"STANDARD"},{"id":"5162","name":"Alamo Drafthouse Slaughter Lane","address":"5701 W. Slaughter Lane","city":"Austin","state":"TX","zip":"78749","distance":"24.428504943847656","lon":"-97.868744","lat":"30.198906","theaterChainName":"Alamo Drafthouse","ticketType":"STANDARD"},{"id":"5593","name":"EVO","address":"3200 Kyle Crossing","city":"Kyle","state":"TX","zip":"78640","distance":"14.462867736816406","lon":"-97.854500","lat":"30.028700","theaterChainName":"Texas Cinema","ticketType":"STANDARD"},{"id":"5482","name":"Hometown Cinemas, LLC","address":"120 MLK Industrial Blvd. West","city":"Lockhart","state":"TX","zip":"78644","distance":"1.8560121059417725","lon":"-97.670052","lat":"29.860605","theaterChainName":"Independent Chains","ticketType":"STANDARD"},{"id":"6062","name":"The SPOT Cinema Eatery & Social Haus","address":"1180 Thorpe Lane # 130","city":"San Marcos","state":"TX","zip":"78666","distance":"18.992582321166992","lon":"-97.993927","lat":"29.885950","theaterChainName":"Texas Cinema","ticketType":"STANDARD"},{"id":"2805","name":"Starplex","address":"1250 Wonderworld Drive","city":"San Marcos","state":"TX","zip":"78666","distance":"16.578834533691406","lon":"-97.950714","lat":"29.852289","theaterChainName":"Texas Cinema","ticketType":"STANDARD"}]