[{"id":"5482","name":"Hometown Cinemas, LLC","address":"120 MLK Industrial Blvd. West","city":"Lockhart","state":"TX","zip":"78644","distance":"12.35895824432373","lon":"-97.670052","lat":"29.860605","theaterChainName":"Independent Chains","ticketType":"STANDARD"},{"id":"6062","name":"The SPOT Cinema Eatery & Social Haus","address":"1180 Thorpe Lane # 130","city":"San Marcos","state":"TX","zip":"78666","distance":"24.961429595947266","lon":"-97.993927","lat":"29.885950","theaterChainName":"Texas Cinema","ticketType":"STANDARD"},{"id":"2805","name":"Starplex","address":"1250 Wonderworld Drive","city":"San Marcos","state":"TX","zip":"78666","distance":"21.517812728881836","lon":"-97.950714","lat":"29.852289","theaterChainName":"Texas Cinema","ticketType":"STANDARD"},{"id":"3176","name":"King Ranger Theatres","address":"1373 E Walnut","city":"Seguin","state":"TX","zip":"78155","distance":"19.320314407348633","lon":"-97.945053","lat":"29.571440","theaterChainName":"Independent Chains","ticketType":"STANDARD"}]