[{"id":"4374","tribuneTheaterId":"9414","providerTheaterId":"","name":"Cinemark Hill Country Galleria","address":"12800 Hwy 71 W. Bldg 24","city":"Bee Cave","state":"TX","zip":"78738","distance":8.810883496716,"lon":"-97.940862","lat":"30.307765","theaterChainName":"Cinemark","ticketType":"STANDARD"},{"id":"5458","tribuneTheaterId":"10901","providerTheaterId":"","name":"Lake Creek 7","address":"13729 Research Blvd.","city":"Austin","state":"TX","zip":"78750","distance":16.285295169318,"lon":"-97.7925","lat":"30.4588","theaterChainName":"Independent Chains","ticketType":"STANDARD"},{"id":"5324","tribuneTheaterId":"10761","providerTheaterId":"","name":"Alamo Drafthouse Lakeline","address":"14028 N. U.S. Highway 183, Building F","city":"Austin","state":"TX","zip":"78717","distance":16.202318454037,"lon":"-97.8012","lat":"30.4766","theaterChainName":"Alamo Drafthouse","ticketType":"STANDARD"},{"id":"127","tribuneTheaterId":"7135","providerTheaterId":"","name":"Regal Lakeline Mall 9","address":"11200 Lakeline Mall Blvd.","city":"Cedar Park","state":"TX","zip":"78613","distance":15.691935437835,"lon":"-97.807653","lat":"30.470509","theaterChainName":"Regal Cinemas","ticketType":"STANDARD"},{"id":"5162","tribuneTheaterId":"10569","providerTheaterId":"","name":"Alamo Drafthouse Slaughter Lane","address":"5701 W. Slaughter Lane","city":"Austin","state":"TX","zip":"78749","distance":17.209301003346,"lon":"-97.868746","lat":"30.198905","theaterChainName":"Alamo Drafthouse","ticketType":"STANDARD"},{"id":"709","tribuneTheaterId":"8182","providerTheaterId":"","name":"Regal Arbor Cinema at Great Hills","address":"9828 Great Hills Trail","city":"Austin","state":"TX","zip":"78759","distance":18.183832115195,"lon":"-97.748872","lat":"30.395884","theaterChainName":"Regal Cinemas","ticketType":"STANDARD"},{"id":"4375","tribuneTheaterId":"9415","providerTheaterId":"","name":"Cinemark Cedar Park","address":"1335 E. Whitestone Blvd.","city":"Cedar Park","state":"TX","zip":"78613","distance":17.202853612223,"lon":"-97.815308","lat":"30.530236","theaterChainName":"Cinemark","ticketType":"STANDARD"},{"id":"2467","tribuneTheaterId":"5320","providerTheaterId":"802","name":"AMC Barton Creek Square","address":"2901 Capital of Texas Highway","city":"Austin","state":"TX","zip":"78746","distance":17.272969352833,"lon":"-97.808217","lat":"30.257523","theaterChainName":"AMC Theatres","ticketType":"STANDARD"},{"id":"4650","tribuneTheaterId":"9849","providerTheaterId":"","name":"ShowBiz Marble Falls 8","address":"2600 Highway 281 North","city":"Marble Falls","state":"TX","zip":"78654","distance":19.392002436143,"lon":"-98.272464","lat":"30.597994","theaterChainName":"ShowBiz Cinemas","ticketType":"STANDARD"},{"id":"530","tribuneTheaterId":"9227","providerTheaterId":"","name":"Regal Gateway Stadium 16 & IMAX","address":"9700 Stonelake Blvd.","city":"Austin","state":"TX","zip":"78759","distance":18.73167954816,"lon":"-97.739624","lat":"30.387726","theaterChainName":"Regal Cinemas","ticketType":"STANDARD"},{"id":"2631","tribuneTheaterId":"8298","providerTheaterId":"","name":"Regal Westgate Stadium 11 Theatres","address":"4477 South Lamar Blvd. #800","city":"Austin","state":"TX","zip":"78745","distance":18.743210235916,"lon":"-97.799842","lat":"30.230263","theaterChainName":"Regal Cinemas","ticketType":"STANDARD"},{"id":"3984","tribuneTheaterId":"5084","providerTheaterId":"","name":"Alamo Drafthouse South Lamar","address":"1120 S. Lamar Blvd.","city":"Austin","state":"TX","zip":"78704","distance":19.645167242092,"lon":"-97.763442","lat":"30.255806","theaterChainName":"Alamo Drafthouse","ticketType":"STANDARD"},{"id":"3254","tribuneTheaterId":"5988","providerTheaterId":"","name":"Alamo Drafthouse Village","address":"2700 W. Anderson Lane","city":"Austin","state":"TX","zip":"78757","distance":19.132367791535,"lon":"-97.734818","lat":"30.359962","theaterChainName":"Alamo Drafthouse","ticketType":"STANDARD"},{"id":"1187","tribuneTheaterId":"2469","providerTheaterId":"","name":"Paramount Theatre - Austin","address":"713 Congress Ave","city":"Austin","state":"TX","zip":"78701","distance":20.369334992008,"lon":"-97.742207","lat":"30.269344","theaterChainName":"Independent Chains","ticketType":"STANDARD"},{"id":"3144","tribuneTheaterId":"526","providerTheaterId":"","name":"Millennium Theater","address":"1156 Hargrave Street","city":"Austin","state":"TX","zip":"78702","distance":22.035270192858,"lon":"-97.710621","lat":"30.271911","theaterChainName":"Independent Chains","ticketType":"STANDARD"},{"id":"4331","tribuneTheaterId":"9306","providerTheaterId":"","name":"Cinemark Southpark Meadows","address":"9900 I-35 SB Building N","city":"Austin","state":"TX","zip":"78748","distance":22.491941877054,"lon":"-97.794027","lat":"30.154108","theaterChainName":"Cinemark","ticketType":"STANDARD"},{"id":"2134","tribuneTheaterId":"8498","providerTheaterId":"","name":"Regal Metropolitan Stadium 14","address":"901 Little Texas Lane","city":"Austin","state":"TX","zip":"78745","distance":21.529076333019,"lon":"-97.76955","lat":"30.19804","theaterChainName":"Regal Cinemas","ticketType":"STANDARD"},{"id":"3439","tribuneTheaterId":"8749","providerTheaterId":"","name":"Galaxy Highland 10","address":"6700 Middle Fiskville Road","city":"Austin","state":"TX","zip":"78752","distance":21.055827724456,"lon":"-97.707789","lat":"30.329251","theaterChainName":"Galaxy Theatres","ticketType":"STANDARD"},{"id":"4419","tribuneTheaterId":"9489","providerTheaterId":"","name":"Alamo Drafthouse at the Ritz","address":"320 East 6th Street","city":"Austin","state":"TX","zip":"78701","distance":20.567425837509,"lon":"-97.739633","lat":"30.267301","theaterChainName":"Alamo Drafthouse","ticketType":"STANDARD"},{"id":"6130","tribuneTheaterId":"11546","providerTheaterId":"","name":"AFS Cinema","address":"6406 N I-35, Suite 3100","city":"Austin","state":"TX","zip":"78752","distance":21.117000783656,"lon":"-97.707401","lat":"30.326527","theaterChainName":"Independent Chains","ticketType":"STANDARD"},{"id":"666","tribuneTheaterId":"6850","providerTheaterId":"","name":"Cinemark Movies 8 Round Rock","address":"2132 N Mays St","city":"Round Rock","state":"TX","zip":"78664","distance":23.737175978157,"lon":"-97.690558","lat":"30.531104","theaterChainName":"Cinemark","ticketType":"STANDARD"},{"id":"5062","tribuneTheaterId":"10445","providerTheaterId":"","name":"Flix Brewhouse by Galaxy Theatres","address":"2200 S. Interstate Hwy 35 Suite B1","city":"Round Rock","state":"TX","zip":"78681","distance":23.290366856598,"lon":"-97.679992","lat":"30.488407","theaterChainName":"Flix Brewhouse","ticketType":"STANDARD"},{"id":"668","tribuneTheaterId":"7058","providerTheaterId":"","name":"Tinseltown Pflugerville","address":"15436 FM 1825","city":"Pflugerville","state":"TX","zip":"78660","distance":23.590198545662,"lon":"-97.663699","lat":"30.44775","theaterChainName":"Cinemark","ticketType":"STANDARD"},{"id":"4269","tribuneTheaterId":"9087","providerTheaterId":"","name":"Cinemark Round Rock","address":"4401 N. IH-35","city":"Round Rock","state":"TX","zip":"78664","distance":24.821825366109,"lon":"-97.68852","lat":"30.562817","theaterChainName":"Cinemark","ticketType":"STANDARD"}]