[{"id":"5593","name":"EVO","address":"3200 Kyle Crossing","city":"Kyle","state":"TX","zip":"78640","distance":"22.06085205078125","lon":"-97.854500","lat":"30.028700","theaterChainName":"Texas Cinema","ticketType":"STANDARD"},{"id":"5482","name":"Hometown Cinemas, LLC","address":"120 MLK Industrial Blvd. West","city":"Lockhart","state":"TX","zip":"78644","distance":"10.458195686340332","lon":"-97.670052","lat":"29.860605","theaterChainName":"Independent Chains","ticketType":"STANDARD"},{"id":"6062","name":"The SPOT Cinema Eatery & Social Haus","address":"1180 Thorpe Lane # 130","city":"San Marcos","state":"TX","zip":"78666","distance":"18.66302490234375","lon":"-97.993927","lat":"29.885950","theaterChainName":"Texas Cinema","ticketType":"STANDARD"},{"id":"2805","name":"Starplex","address":"1250 Wonderworld Drive","city":"San Marcos","state":"TX","zip":"78666","distance":"15.199530601501465","lon":"-97.950714","lat":"29.852289","theaterChainName":"Texas Cinema","ticketType":"STANDARD"},{"id":"5124","name":"Creekside Cinemas 14","address":"214 Creekside Way","city":"New Braunfels","state":"TX","zip":"78130","distance":"19.69037437438965","lon":"-98.073021","lat":"29.727669","theaterChainName":"Texas Cinema","ticketType":"STANDARD"},{"id":"3176","name":"King Ranger Theatres","address":"1373 E Walnut","city":"Seguin","state":"TX","zip":"78155","distance":"15.982540130615234","lon":"-97.945053","lat":"29.571440","theaterChainName":"Independent Chains","ticketType":"STANDARD"}]