[{"id":"4419","name":"Alamo Drafthouse at the Ritz","address":"320 East 6th Street","city":"Austin","state":"TX","zip":"78701","distance":"16.778074264526367","lon":"-97.739632","lat":"30.267302","theaterChainName":"Alamo Drafthouse","ticketType":"STANDARD"},{"id":"1187","name":"Paramount Theatre - Austin","address":"713 Congress Ave","city":"Austin","state":"TX","zip":"78701","distance":"16.65703582763672","lon":"-97.742210","lat":"30.269344","theaterChainName":"Independent Chains","ticketType":"STANDARD"},{"id":"3984","name":"Alamo Drafthouse South Lamar","address":"1120 S. Lamar Blvd.","city":"Austin","state":"TX","zip":"78704","distance":"17.784048080444336","lon":"-97.763443","lat":"30.255806","theaterChainName":"Alamo Drafthouse","ticketType":"STANDARD"},{"id":"3144","name":"Millennium Theater","address":"1156 Hargrave Street","city":"Austin","state":"TX","zip":"78702","distance":"16.3429012298584","lon":"-97.710625","lat":"30.271912","theaterChainName":"Independent Chains","ticketType":"STANDARD"},{"id":"2631","name":"Regal Westgate Stadium 11 Theatres","address":"4477 South Lamar Blvd. #800","city":"Austin","state":"TX","zip":"78745","distance":"20.013019561767578","lon":"-97.799843","lat":"30.230263","theaterChainName":"Regal Cinemas","ticketType":"STANDARD"},{"id":"2467","name":"AMC Barton Creek Square","address":"2901 Capital of Texas Highway","city":"Austin","state":"TX","zip":"78746","distance":"18.37074089050293","lon":"-97.808220","lat":"30.257523","theaterChainName":"AMC Theatres","ticketType":"STANDARD"},{"id":"2134","name":"Regal Metropolitan Stadium 14","address":"901 Little Texas Lane","city":"Austin","state":"TX","zip":"78745","distance":"21.77521324157715","lon":"-97.769547","lat":"30.198040","theaterChainName":"Regal Cinemas","ticketType":"STANDARD"},{"id":"6130","name":"AFS Cinema","address":"6406 N I-35, Suite 3100","city":"Austin","state":"TX","zip":"78752","distance":"12.56721019744873","lon":"-97.707397","lat":"30.326527","theaterChainName":"Independent Chains","ticketType":"STANDARD"},{"id":"3439","name":"Galaxy Highland 10","address":"6700 Middle Fiskville Road","city":"Austin","state":"TX","zip":"78752","distance":"12.379167556762695","lon":"-97.707787","lat":"30.329250","theaterChainName":"Galaxy Theatres","ticketType":"STANDARD"},{"id":"3254","name":"Alamo Drafthouse Village","address":"2700 W. Anderson Lane","city":"Austin","state":"TX","zip":"78757","distance":"10.397414207458496","lon":"-97.734818","lat":"30.359962","theaterChainName":"Alamo Drafthouse","ticketType":"STANDARD"},{"id":"530","name":"Regal Gateway Stadium 16 & IMAX","address":"9700 Stonelake Blvd.","city":"Austin","state":"TX","zip":"78759","distance":"8.572707176208496","lon":"-97.739624","lat":"30.387726","theaterChainName":"Regal Cinemas","ticketType":"STANDARD"},{"id":"709","name":"Regal Arbor Cinema at Great Hills","address":"9828 Great Hills Trail","city":"Austin","state":"TX","zip":"78759","distance":"8.179550170898438","lon":"-97.748871","lat":"30.395884","theaterChainName":"Regal Cinemas","ticketType":"STANDARD"},{"id":"5162","name":"Alamo Drafthouse Slaughter Lane","address":"5701 W. Slaughter Lane","city":"Austin","state":"TX","zip":"78749","distance":"23.478967666625977","lon":"-97.868744","lat":"30.198906","theaterChainName":"Alamo Drafthouse","ticketType":"STANDARD"},{"id":"668","name":"Tinseltown Pflugerville","address":"15436 FM 1825","city":"Pflugerville","state":"TX","zip":"78660","distance":"4.895792484283447","lon":"-97.663696","lat":"30.447750","theaterChainName":"Cinemark","ticketType":"STANDARD"},{"id":"5458","name":"Lake Creek 7","address":"13729 Research Blvd.","city":"Austin","state":"TX","zip":"78750","distance":"6.1770920753479","lon":"-97.792503","lat":"30.458799","theaterChainName":"Independent Chains","ticketType":"STANDARD"},{"id":"4374","name":"Cinemark Hill Country Galleria","address":"12800 Hwy 71 W. Bldg 24","city":"Bee Cave","state":"TX","zip":"78738","distance":"19.691518783569336","lon":"-97.940865","lat":"30.307764","theaterChainName":"Cinemark","ticketType":"STANDARD"},{"id":"127","name":"Regal Lakeline Mall 9","address":"11200 Lakeline Mall Blvd.","city":"Cedar Park","state":"TX","zip":"78613","distance":"6.5839433670043945","lon":"-97.807655","lat":"30.470509","theaterChainName":"Regal Cinemas","ticketType":"STANDARD"},{"id":"5324","name":"Alamo Drafthouse Lakeline","address":"14028 N. U.S. Highway 183, Building F","city":"Austin","state":"TX","zip":"78717","distance":"6.068249225616455","lon":"-97.801201","lat":"30.476601","theaterChainName":"Alamo Drafthouse","ticketType":"STANDARD"},{"id":"5062","name":"Flix Brewhouse by Galaxy Theatres","address":"2200 S. Interstate Hwy 35 Suite B1","city":"Round Rock","state":"TX","zip":"78681","distance":"2.0839738845825195","lon":"-97.679993","lat":"30.488407","theaterChainName":"Flix Brewhouse","ticketType":"STANDARD"},{"id":"5027","name":"Cinemark Stone Hill Town Center","address":"18820 Hilltop Commercial Dr.","city":"Pflugerville","state":"TX","zip":"78660","distance":"6.943060398101807","lon":"-97.598320","lat":"30.470261","theaterChainName":"Cinemark","ticketType":"STANDARD"},{"id":"666","name":"Cinemark Movies 8 Round Rock","address":"2132 N Mays St","city":"Round Rock","state":"TX","zip":"78664","distance":"1.824183464050293","lon":"-97.690559","lat":"30.531103","theaterChainName":"Cinemark","ticketType":"STANDARD"},{"id":"4375","name":"Cinemark Cedar Park","address":"1335 E. Whitestone Blvd.","city":"Cedar Park","state":"TX","zip":"78613","distance":"6.6675639152526855","lon":"-97.815308","lat":"30.530235","theaterChainName":"Cinemark","ticketType":"STANDARD"},{"id":"4269","name":"Cinemark Round Rock","address":"4401 N. IH-35","city":"Round Rock","state":"TX","zip":"78664","distance":"3.9044687747955322","lon":"-97.688522","lat":"30.562817","theaterChainName":"Cinemark","ticketType":"STANDARD"},{"id":"4307","name":"City Lights Theatres - Georgetown 12","address":"420 Wolf Ranch Parkway","city":"Georgetown","state":"TX","zip":"78628","distance":"9.810226440429688","lon":"-97.690559","lat":"30.649736","theaterChainName":"Schulman Theatres","ticketType":"STANDARD"}]