[{"id":"4419","name":"Alamo Drafthouse at the Ritz","address":"320 East 6th Street","city":"Austin","state":"TX","zip":"78701","distance":"7.428415298461914","lon":"-97.739632","lat":"30.267302","theaterChainName":"Alamo Drafthouse","ticketType":"STANDARD"},{"id":"1187","name":"Paramount Theatre - Austin","address":"713 Congress Ave","city":"Austin","state":"TX","zip":"78701","distance":"7.6331095695495605","lon":"-97.742210","lat":"30.269344","theaterChainName":"Independent Chains","ticketType":"STANDARD"},{"id":"3984","name":"Alamo Drafthouse South Lamar","address":"1120 S. Lamar Blvd.","city":"Austin","state":"TX","zip":"78704","distance":"7.788233757019043","lon":"-97.763443","lat":"30.255806","theaterChainName":"Alamo Drafthouse","ticketType":"STANDARD"},{"id":"3144","name":"Millennium Theater","address":"1156 Hargrave Street","city":"Austin","state":"TX","zip":"78702","distance":"6.858154773712158","lon":"-97.710625","lat":"30.271912","theaterChainName":"Independent Chains","ticketType":"STANDARD"},{"id":"2631","name":"Regal Westgate Stadium 11 Theatres","address":"4477 South Lamar Blvd. #800","city":"Austin","state":"TX","zip":"78745","distance":"8.67055606842041","lon":"-97.799843","lat":"30.230263","theaterChainName":"Regal Cinemas","ticketType":"STANDARD"},{"id":"2467","name":"AMC Barton Creek Square","address":"2901 Capital of Texas Highway","city":"Austin","state":"TX","zip":"78746","distance":"9.997138023376465","lon":"-97.808220","lat":"30.257523","theaterChainName":"AMC Theatres","ticketType":"STANDARD"},{"id":"2134","name":"Regal Metropolitan Stadium 14","address":"901 Little Texas Lane","city":"Austin","state":"TX","zip":"78745","distance":"6.264928340911865","lon":"-97.769547","lat":"30.198040","theaterChainName":"Regal Cinemas","ticketType":"STANDARD"},{"id":"6130","name":"AFS Cinema","address":"6406 N I-35, Suite 3100","city":"Austin","state":"TX","zip":"78752","distance":"10.39844799041748","lon":"-97.707397","lat":"30.326527","theaterChainName":"Independent Chains","ticketType":"STANDARD"},{"id":"3439","name":"Galaxy Highland 10","address":"6700 Middle Fiskville Road","city":"Austin","state":"TX","zip":"78752","distance":"10.586880683898926","lon":"-97.707787","lat":"30.329250","theaterChainName":"Galaxy Theatres","ticketType":"STANDARD"},{"id":"3254","name":"Alamo Drafthouse Village","address":"2700 W. Anderson Lane","city":"Austin","state":"TX","zip":"78757","distance":"13.069329261779785","lon":"-97.734818","lat":"30.359962","theaterChainName":"Alamo Drafthouse","ticketType":"STANDARD"},{"id":"4331","name":"Cinemark Southpark Meadows","address":"9900 I-35 SB Building N","city":"Austin","state":"TX","zip":"78748","distance":"7.817165374755859","lon":"-97.794029","lat":"30.154108","theaterChainName":"Cinemark","ticketType":"STANDARD"},{"id":"530","name":"Regal Gateway Stadium 16 & IMAX","address":"9700 Stonelake Blvd.","city":"Austin","state":"TX","zip":"78759","distance":"14.985101699829102","lon":"-97.739624","lat":"30.387726","theaterChainName":"Regal Cinemas","ticketType":"STANDARD"},{"id":"709","name":"Regal Arbor Cinema at Great Hills","address":"9828 Great Hills Trail","city":"Austin","state":"TX","zip":"78759","distance":"15.68886661529541","lon":"-97.748871","lat":"30.395884","theaterChainName":"Regal Cinemas","ticketType":"STANDARD"},{"id":"5162","name":"Alamo Drafthouse Slaughter Lane","address":"5701 W. Slaughter Lane","city":"Austin","state":"TX","zip":"78749","distance":"12.136085510253906","lon":"-97.868744","lat":"30.198906","theaterChainName":"Alamo Drafthouse","ticketType":"STANDARD"},{"id":"668","name":"Tinseltown Pflugerville","address":"15436 FM 1825","city":"Pflugerville","state":"TX","zip":"78660","distance":"18.48789405822754","lon":"-97.663696","lat":"30.447750","theaterChainName":"Cinemark","ticketType":"STANDARD"},{"id":"5458","name":"Lake Creek 7","address":"13729 Research Blvd.","city":"Austin","state":"TX","zip":"78750","distance":"20.661216735839844","lon":"-97.792503","lat":"30.458799","theaterChainName":"Independent Chains","ticketType":"STANDARD"},{"id":"4374","name":"Cinemark Hill Country Galleria","address":"12800 Hwy 71 W. Bldg 24","city":"Bee Cave","state":"TX","zip":"78738","distance":"18.588176727294922","lon":"-97.940865","lat":"30.307764","theaterChainName":"Cinemark","ticketType":"STANDARD"},{"id":"127","name":"Regal Lakeline Mall 9","address":"11200 Lakeline Mall Blvd.","city":"Cedar Park","state":"TX","zip":"78613","distance":"21.74999237060547","lon":"-97.807655","lat":"30.470509","theaterChainName":"Regal Cinemas","ticketType":"STANDARD"},{"id":"5324","name":"Alamo Drafthouse Lakeline","address":"14028 N. U.S. Highway 183, Building F","city":"Austin","state":"TX","zip":"78717","distance":"21.99542808532715","lon":"-97.801201","lat":"30.476601","theaterChainName":"Alamo Drafthouse","ticketType":"STANDARD"},{"id":"5062","name":"Flix Brewhouse by Galaxy Theatres","address":"2200 S. Interstate Hwy 35 Suite B1","city":"Round Rock","state":"TX","zip":"78681","distance":"21.311073303222656","lon":"-97.679993","lat":"30.488407","theaterChainName":"Flix Brewhouse","ticketType":"STANDARD"},{"id":"5027","name":"Cinemark Stone Hill Town Center","address":"18820 Hilltop Commercial Dr.","city":"Pflugerville","state":"TX","zip":"78660","distance":"20.453218460083008","lon":"-97.598320","lat":"30.470261","theaterChainName":"Cinemark","ticketType":"STANDARD"},{"id":"5593","name":"EVO","address":"3200 Kyle Crossing","city":"Kyle","state":"TX","zip":"78640","distance":"15.349562644958496","lon":"-97.854500","lat":"30.028700","theaterChainName":"Texas Cinema","ticketType":"STANDARD"},{"id":"666","name":"Cinemark Movies 8 Round Rock","address":"2132 N Mays St","city":"Round Rock","state":"TX","zip":"78664","distance":"24.288209915161133","lon":"-97.690559","lat":"30.531103","theaterChainName":"Cinemark","ticketType":"STANDARD"},{"id":"5482","name":"Hometown Cinemas, LLC","address":"120 MLK Industrial Blvd. West","city":"Lockhart","state":"TX","zip":"78644","distance":"22.08417510986328","lon":"-97.670052","lat":"29.860605","theaterChainName":"Independent Chains","ticketType":"STANDARD"},{"id":"5308","name":"Lost Pines 8","address":"1600 Chestnut St.","city":"Bastrop","state":"TX","zip":"78602","distance":"21.906509399414062","lon":"-97.308998","lat":"30.110701","theaterChainName":"Schulman Theatres","ticketType":"STANDARD"}]