[{"id":"5477","tribuneTheaterId":"10920","providerTheaterId":"","name":"Alamo Drafthouse Cinema- Lubbock","address":"120 West Loop 289","city":"Lubbock","state":"TX","zip":"79416","distance":17.902738333967,"lon":"-101.925681","lat":"33.596519","theaterChainName":"Alamo Drafthouse","ticketType":"STANDARD"},{"id":"5234","tribuneTheaterId":"10658","providerTheaterId":"","name":"Lubbock Premiere Cinema & IMAX","address":"6002 Slide Road","city":"Lubbock","state":"TX","zip":"79414","distance":21.734136774869,"lon":"-101.9224","lat":"33.5396","theaterChainName":"Premiere Cinemas","ticketType":"STANDARD"},{"id":"1330","tribuneTheaterId":"4230","providerTheaterId":"","name":"Cinemark Movies 16 Lubbock","address":"5721 58th Street","city":"Lubbock","state":"TX","zip":"79424","distance":21.825694642473,"lon":"-101.937182","lat":"33.54052","theaterChainName":"Cinemark","ticketType":"STANDARD"},{"id":"1973","tribuneTheaterId":"4235","providerTheaterId":"","name":"Cinemark Tinseltown Lubbock","address":"2535 82nd Street","city":"Lubbock","state":"TX","zip":"79423","distance":22.948961258002,"lon":"-101.872668","lat":"33.517995","theaterChainName":"Cinemark","ticketType":"STANDARD"},{"id":"1327","tribuneTheaterId":"4211","providerTheaterId":"","name":"Cinemark Town Centre Movies 6","address":"1001 N Interstate 27","city":"Plainview","state":"TX","zip":"79072","distance":24.510858646954,"lon":"-101.750975","lat":"34.192807","theaterChainName":"Cinemark","ticketType":"STANDARD"}]