[{"id":"5477","name":"Alamo Drafthouse Cinema- Lubbock","address":"120 West Loop 289","city":"Lubbock","state":"TX","zip":"79416","distance":"7.891921043395996","lon":"-101.925682","lat":"33.596519","theaterChainName":"Alamo Drafthouse","ticketType":"STANDARD"},{"id":"1330","name":"Cinemark Movies 16 Lubbock","address":"5721 58th Street","city":"Lubbock","state":"TX","zip":"79424","distance":"4.783979415893555","lon":"-101.937180","lat":"33.540520","theaterChainName":"Cinemark","ticketType":"STANDARD"},{"id":"5234","name":"Lubbock Premiere Cinema & IMAX","address":"6002 Slide Road","city":"Lubbock","state":"TX","zip":"79414","distance":"5.51046895980835","lon":"-101.922401","lat":"33.539600","theaterChainName":"Premiere Cinemas","ticketType":"STANDARD"},{"id":"1973","name":"Cinemark Tinseltown Lubbock","address":"2535 82nd Street","city":"Lubbock","state":"TX","zip":"79423","distance":"7.904601097106934","lon":"-101.872665","lat":"33.517994","theaterChainName":"Cinemark","ticketType":"STANDARD"}]