[{"id":"2259","tribuneTheaterId":"4791","providerTheaterId":"","name":"Carmike Park Central 6","address":"3234 South Clack St","city":"Abilene","state":"TX","zip":"79606","distance":3.5012569998012,"lon":"-99.774498","lat":"32.411999","theaterChainName":"Carmike Cinemas","ticketType":"STANDARD"},{"id":"1413","tribuneTheaterId":"7604","providerTheaterId":"","name":"Century Abilene 12","address":"3818 John Knox Dr","city":"Abilene","state":"TX","zip":"79606","distance":3.6675008870323,"lon":"-99.769806","lat":"32.4056","theaterChainName":"Cinemark","ticketType":"STANDARD"},{"id":"6148","tribuneTheaterId":"11572","providerTheaterId":"","name":"Cinemark Abilene and XD","address":"672 East Overland Trail","city":"Abilene","state":"TX","zip":"79601","distance":3.6645534772497,"lon":"-99.769721","lat":"32.405601","theaterChainName":"Cinemark","ticketType":"STANDARD"},{"id":"2647","tribuneTheaterId":"7171","providerTheaterId":"","name":"Premiere Cinema 10","address":"4310 Buffalo Gap Rd.","city":"Abilene","state":"TX","zip":"79606","distance":3.8382755826508,"lon":"-99.762855","lat":"32.39915","theaterChainName":"Premiere Cinemas","ticketType":"STANDARD"}]