[{"id":"2929","tribuneTheaterId":"5133","providerTheaterId":"","name":"Regal Permian Palace Stadium 11 ","address":"4101 E 42nd St","city":"Odessa","state":"TX","zip":"79762","distance":6.2717826413977,"lon":"-102.337319","lat":"31.89535","theaterChainName":"Regal Cinemas","ticketType":"STANDARD"},{"id":"862","tribuneTheaterId":"8223","providerTheaterId":"","name":"Century Odessa 12","address":"4221 Preston Smith Rd","city":"Odessa","state":"TX","zip":"79762","distance":6.7980802884296,"lon":"-102.327459","lat":"31.897349","theaterChainName":"Cinemark","ticketType":"STANDARD"},{"id":"5449","tribuneTheaterId":"10889","providerTheaterId":"","name":"Cinergy Midland","address":"1917 Liberty Dr.","city":"Midland","state":"TX","zip":"79706","distance":18.109783338811,"lon":"-102.145997","lat":"31.960887","theaterChainName":"Independent Chains","ticketType":"STANDARD"},{"id":"2916","tribuneTheaterId":"5137","providerTheaterId":"","name":"Regal Tall City Stadium 14","address":"4915 W. Loop 250 N.","city":"Midland","state":"TX","zip":"79707","distance":20.296674525982,"lon":"-102.15045","lat":"32.02231","theaterChainName":"Regal Cinemas","ticketType":"STANDARD"}]