[{"id":"5884","name":"Alamo Drafthouse El Paso","address":"250 East Motecillo Blvd","city":"El Paso","state":"TX","zip":"79912","distance":"23.698501586914062","lon":"-106.510773","lat":"31.812811","theaterChainName":"Alamo Drafthouse","ticketType":"STANDARD"},{"id":"4972","name":"The Grand Fort Bliss 10","address":"1619 Pleasonton Road","city":"Fort Bliss","state":"TX","zip":"79906","distance":"21.12639617919922","lon":"-106.426857","lat":"31.817280","theaterChainName":"Southern Theatres","ticketType":"STANDARD"},{"id":"4348","name":"Premiere Cinema 18 at Bassett Place Mall","address":"6101 Gateway West","city":"El Paso","state":"TX","zip":"79925","distance":"18.71108627319336","lon":"-106.412971","lat":"31.783726","theaterChainName":"Premiere Cinemas","ticketType":"STANDARD"},{"id":"4169","name":"Cinemark Cielo Vista","address":"8401 Gateway West Blvd","city":"El Paso","state":"TX","zip":"79925","distance":"17.532941818237305","lon":"-106.382759","lat":"31.778290","theaterChainName":"Cinemark","ticketType":"STANDARD"},{"id":"2274","name":"Montwood Movies 7","address":"2200 N. Yarbrough","city":"El Paso","state":"TX","zip":"79925","distance":"16.23122215270996","lon":"-106.338242","lat":"31.773573","theaterChainName":"Premiere Cinemas","ticketType":"STANDARD"},{"id":"1370","name":"Cinemark Tinseltown USA & XD El Paso","address":"11855 Gateway Blvd. West","city":"El Paso","state":"TX","zip":"79936","distance":"12.674935340881348","lon":"-106.307526","lat":"31.727741","theaterChainName":"Cinemark","ticketType":"STANDARD"},{"id":"5403","name":"Cinemark East Montana","address":"12704 East Montana","city":"El Paso","state":"TX","zip":"79938","distance":"17.864919662475586","lon":"-106.244904","lat":"31.809299","theaterChainName":"Cinemark","ticketType":"STANDARD"}]