[{"id":"3620","name":"Cinemark West 12","address":"7440 Remcon Circle","city":"El Paso","state":"TX","zip":"79912","distance":"13.068532943725586","lon":"-106.563400","lat":"31.834600","theaterChainName":"Cinemark","ticketType":"STANDARD"},{"id":"2632","name":"Carmike 16 El Paso","address":"9480 Gateway Blvd North","city":"El Paso","state":"TX","zip":"79924","distance":"11.209047317504883","lon":"-106.437836","lat":"31.894377","theaterChainName":"Carmike Cinemas","ticketType":"STANDARD"},{"id":"5402","name":"Cinemark Movie Bistro - El Paso","address":"750 Sunland Park Drive, Suite # T01 at Sunland Par","city":"El Paso","state":"TX","zip":"79912","distance":"11.427034378051758","lon":"-106.543915","lat":"31.814880","theaterChainName":"Cinemark","ticketType":"STANDARD"},{"id":"5884","name":"Alamo Drafthouse El Paso","address":"250 East Motecillo Blvd","city":"El Paso","state":"TX","zip":"79912","distance":"9.63733196258545","lon":"-106.510773","lat":"31.812811","theaterChainName":"Alamo Drafthouse","ticketType":"STANDARD"},{"id":"4972","name":"The Grand Fort Bliss 10","address":"1619 Pleasonton Road","city":"Fort Bliss","state":"TX","zip":"79906","distance":"6.157198905944824","lon":"-106.426857","lat":"31.817280","theaterChainName":"Southern Theatres","ticketType":"STANDARD"},{"id":"4348","name":"Premiere Cinema 18 at Bassett Place Mall","address":"6101 Gateway West","city":"El Paso","state":"TX","zip":"79925","distance":"3.8258001804351807","lon":"-106.412971","lat":"31.783726","theaterChainName":"Premiere Cinemas","ticketType":"STANDARD"},{"id":"4169","name":"Cinemark Cielo Vista","address":"8401 Gateway West Blvd","city":"El Paso","state":"TX","zip":"79925","distance":"2.5633504390716553","lon":"-106.382759","lat":"31.778290","theaterChainName":"Cinemark","ticketType":"STANDARD"},{"id":"2274","name":"Montwood Movies 7","address":"2200 N. Yarbrough","city":"El Paso","state":"TX","zip":"79925","distance":"2.754179000854492","lon":"-106.338242","lat":"31.773573","theaterChainName":"Premiere Cinemas","ticketType":"STANDARD"},{"id":"1370","name":"Cinemark Tinseltown USA & XD El Paso","address":"11855 Gateway Blvd. West","city":"El Paso","state":"TX","zip":"79936","distance":"3.7446494102478027","lon":"-106.307526","lat":"31.727741","theaterChainName":"Cinemark","ticketType":"STANDARD"},{"id":"5403","name":"Cinemark East Montana","address":"12704 East Montana","city":"El Paso","state":"TX","zip":"79938","distance":"8.582195281982422","lon":"-106.244904","lat":"31.809299","theaterChainName":"Cinemark","ticketType":"STANDARD"}]