[{"id":"4169","name":"Cinemark Cielo Vista","address":"8401 Gateway West Blvd","city":"El Paso","state":"TX","zip":"79925","distance":"24.537567138671875","lon":"-106.382759","lat":"31.778290","theaterChainName":"Cinemark","ticketType":"STANDARD"},{"id":"2274","name":"Montwood Movies 7","address":"2200 N. Yarbrough","city":"El Paso","state":"TX","zip":"79925","distance":"21.960865020751953","lon":"-106.338242","lat":"31.773573","theaterChainName":"Premiere Cinemas","ticketType":"STANDARD"},{"id":"1370","name":"Cinemark Tinseltown USA & XD El Paso","address":"11855 Gateway Blvd. West","city":"El Paso","state":"TX","zip":"79936","distance":"20.746997833251953","lon":"-106.307526","lat":"31.727741","theaterChainName":"Cinemark","ticketType":"STANDARD"},{"id":"5403","name":"Cinemark East Montana","address":"12704 East Montana","city":"El Paso","state":"TX","zip":"79938","distance":"16.374866485595703","lon":"-106.244904","lat":"31.809299","theaterChainName":"Cinemark","ticketType":"STANDARD"}]