[{"id":"3213","name":"Cinema Latino de Aurora","address":"777 Peoria St.","city":"Aurora","state":"CO","zip":"80011","distance":"23.338970184326172","lon":"-104.847298","lat":"39.728100","theaterChainName":"Independent Chains","ticketType":"STANDARD"},{"id":"1608","name":"Century 16 Aurora","address":"14300 E. Alameda Ave.","city":"Aurora","state":"CO","zip":"80012","distance":"22.034915924072266","lon":"-104.820709","lat":"39.705982","theaterChainName":"Cinemark","ticketType":"STANDARD"},{"id":"4288","name":"Movie Tavern Aurora","address":"18605 E. Hampden Ave.","city":"Aurora","state":"CO","zip":"80013","distance":"20.102584838867188","lon":"-104.770226","lat":"39.654591","theaterChainName":"Movie Tavern","ticketType":"STANDARD"},{"id":"713","name":"AMC Arapahoe Crossing 16","address":"6696 S Parker Road","city":"Aurora","state":"CO","zip":"80016","distance":"22.95090103149414","lon":"-104.797981","lat":"39.596149","theaterChainName":"AMC Theatres","ticketType":"E_TICKET"},{"id":"3578","name":"AMC Twenty Mile 10","address":"18625 E. Stage Run Rd.","city":"Parker","state":"CO","zip":"80134","distance":"24.580463409423828","lon":"-104.772758","lat":"39.520267","theaterChainName":"AMC Theatres","ticketType":"E_TICKET"},{"id":"4180","name":"AMC Southlands 16","address":"23955 E. Plaza Avenue","city":"Aurora","state":"CO","zip":"80016","distance":"18.41680335998535","lon":"-104.708839","lat":"39.606403","theaterChainName":"AMC Theatres","ticketType":"SELECT_SEATING"}]