[{"id":"4180","tribuneTheaterId":"8436","providerTheaterId":"6053","name":"AMC Southlands 16","address":"23955 E. Plaza Avenue","city":"Aurora","state":"CO","zip":"80016","distance":18.298071661096,"lon":"-104.708843","lat":"39.606404","theaterChainName":"AMC Theatres","ticketType":"SELECT_SEATING"},{"id":"4288","tribuneTheaterId":"3168","providerTheaterId":"","name":"Movie Tavern Aurora","address":"18605 E. Hampden Ave.","city":"Aurora","state":"CO","zip":"80013","distance":19.591574069736,"lon":"-104.770228","lat":"39.654589","theaterChainName":"Movie Tavern","ticketType":"STANDARD"},{"id":"1608","tribuneTheaterId":"5805","providerTheaterId":"","name":"Century 16 Aurora","address":"14300 E. Alameda Ave.","city":"Aurora","state":"CO","zip":"80012","distance":21.210987539077,"lon":"-104.820713","lat":"39.705983","theaterChainName":"Cinemark","ticketType":"STANDARD"},{"id":"713","tribuneTheaterId":"8603","providerTheaterId":"6054","name":"AMC Arapahoe Crossing 16","address":"6696 S Parker Road","city":"Aurora","state":"CO","zip":"80016","distance":22.68468098181,"lon":"-104.797983","lat":"39.596149","theaterChainName":"AMC Theatres","ticketType":"E_TICKET"},{"id":"3213","tribuneTheaterId":"6202","providerTheaterId":"","name":"Cinema Latino de Aurora","address":"777 Peoria St.","city":"Aurora","state":"CO","zip":"80011","distance":22.403815949497,"lon":"-104.847298","lat":"39.7281","theaterChainName":"Independent Chains","ticketType":"STANDARD"},{"id":"3578","tribuneTheaterId":"8526","providerTheaterId":"6725","name":"AMC Twenty Mile 10","address":"18625 E. Stage Run Rd.","city":"Parker","state":"CO","zip":"80134","distance":24.684101894269,"lon":"-104.772755","lat":"39.520267","theaterChainName":"AMC Theatres","ticketType":"E_TICKET"}]