[{"id":"4724","name":"Elvis Cinemas Tiffany Plaza 6","address":"7400 E. Hampden Ave","city":"Denver","state":"CO","zip":"80231","distance":"24.840776443481445","lon":"-104.901924","lat":"39.652081","theaterChainName":"Independent Chains","ticketType":"STANDARD"},{"id":"4833","name":"Regal SouthGlenn Stadium 14","address":"6901 S. Vine St. The Streets At SouthGlenn","city":"Centennial","state":"CO","zip":"80122","distance":"24.519296646118164","lon":"-104.964699","lat":"39.591412","theaterChainName":"Regal Cinemas","ticketType":"STANDARD"},{"id":"541","name":"AMC Highlands Ranch 24","address":"103  W.Centennial Rd.","city":"Highlands Ranch","state":"CO","zip":"80129","distance":"24.551937103271484","lon":"-104.991524","lat":"39.560066","theaterChainName":"AMC Theatres","ticketType":"E_TICKET"},{"id":"64","name":"United Artists Greenwood Plaza 12","address":"8141 E. Arapahoe Road","city":"Englewood","state":"CO","zip":"80112","distance":"21.83083724975586","lon":"-104.894363","lat":"39.596603","theaterChainName":"United Artists","ticketType":"STANDARD"},{"id":"1572","name":"United Artists Meadows 12","address":"9355 Park Meadows Drive","city":"Lone Tree","state":"CO","zip":"80124","distance":"19.375852584838867","lon":"-104.879234","lat":"39.555256","theaterChainName":"United Artists","ticketType":"STANDARD"},{"id":"4288","name":"Movie Tavern Aurora","address":"18605 E. Hampden Ave.","city":"Aurora","state":"CO","zip":"80013","distance":"20.996837615966797","lon":"-104.770226","lat":"39.654591","theaterChainName":"Movie Tavern","ticketType":"STANDARD"},{"id":"713","name":"AMC Arapahoe Crossing 16","address":"6696 S Parker Road","city":"Aurora","state":"CO","zip":"80016","distance":"18.339717864990234","lon":"-104.797981","lat":"39.596149","theaterChainName":"AMC Theatres","ticketType":"E_TICKET"},{"id":"3578","name":"AMC Twenty Mile 10","address":"18625 E. Stage Run Rd.","city":"Parker","state":"CO","zip":"80134","distance":"13.497702598571777","lon":"-104.772758","lat":"39.520267","theaterChainName":"AMC Theatres","ticketType":"E_TICKET"},{"id":"4180","name":"AMC Southlands 16","address":"23955 E. Plaza Avenue","city":"Aurora","state":"CO","zip":"80016","distance":"16.60801124572754","lon":"-104.708839","lat":"39.606403","theaterChainName":"AMC Theatres","ticketType":"SELECT_SEATING"},{"id":"4120","name":"AMC Castle Rock 12","address":"Meadows Pkwy ","city":"Castle Rock","state":"CO","zip":"80109","distance":"15.420023918151855","lon":"-104.879761","lat":"39.402245","theaterChainName":"AMC Theatres","ticketType":"E_TICKET"}]