[{"id":"3578","tribuneTheaterId":"8526","providerTheaterId":"6725","name":"AMC Twenty Mile 10","address":"18625 E. Stage Run Rd.","city":"Parker","state":"CO","zip":"80134","distance":13.496738163693,"lon":"-104.772755","lat":"39.520267","theaterChainName":"AMC Theatres","ticketType":"E_TICKET"},{"id":"4120","tribuneTheaterId":"4868","providerTheaterId":"6127","name":"AMC Castle Rock 12","address":"Meadows Pkwy ","city":"Castle Rock","state":"CO","zip":"80109","distance":15.419072894211,"lon":"-104.879758","lat":"39.402246","theaterChainName":"AMC Theatres","ticketType":"E_TICKET"},{"id":"4180","tribuneTheaterId":"8436","providerTheaterId":"6053","name":"AMC Southlands 16","address":"23955 E. Plaza Avenue","city":"Aurora","state":"CO","zip":"80016","distance":16.607045259087,"lon":"-104.708843","lat":"39.606404","theaterChainName":"AMC Theatres","ticketType":"SELECT_SEATING"},{"id":"713","tribuneTheaterId":"8603","providerTheaterId":"6054","name":"AMC Arapahoe Crossing 16","address":"6696 S Parker Road","city":"Aurora","state":"CO","zip":"80016","distance":18.338611316383,"lon":"-104.797983","lat":"39.596149","theaterChainName":"AMC Theatres","ticketType":"E_TICKET"},{"id":"1572","tribuneTheaterId":"5717","providerTheaterId":"","name":"United Artists Meadows 12","address":"9355 Park Meadows Drive","city":"Lone Tree","state":"CO","zip":"80124","distance":19.374650855416,"lon":"-104.879233","lat":"39.555256","theaterChainName":"United Artists","ticketType":"STANDARD"},{"id":"4288","tribuneTheaterId":"3168","providerTheaterId":"","name":"Movie Tavern Aurora","address":"18605 E. Hampden Ave.","city":"Aurora","state":"CO","zip":"80013","distance":20.995462677136,"lon":"-104.770228","lat":"39.654589","theaterChainName":"Movie Tavern","ticketType":"STANDARD"},{"id":"64","tribuneTheaterId":"8206","providerTheaterId":"","name":"United Artists Greenwood Plaza 12","address":"8141 E. Arapahoe Road","city":"Englewood","state":"CO","zip":"80112","distance":21.829571618429,"lon":"-104.894364","lat":"39.596604","theaterChainName":"United Artists","ticketType":"STANDARD"},{"id":"4833","tribuneTheaterId":"10109","providerTheaterId":"","name":"Regal SouthGlenn Stadium 14","address":"6901 S. Vine St. The Streets At SouthGlenn","city":"Centennial","state":"CO","zip":"80122","distance":24.517859151807,"lon":"-104.964699","lat":"39.591412","theaterChainName":"Regal Cinemas","ticketType":"STANDARD"},{"id":"541","tribuneTheaterId":"8457","providerTheaterId":"57","name":"AMC Highlands Ranch 24","address":"103  W.Centennial Rd.","city":"Highlands Ranch","state":"CO","zip":"80129","distance":24.550588240274,"lon":"-104.991526","lat":"39.560066","theaterChainName":"AMC Theatres","ticketType":"E_TICKET"},{"id":"4724","tribuneTheaterId":"9943","providerTheaterId":"","name":"Elvis Cinemas Tiffany Plaza 6","address":"7400 E. Hampden Ave","city":"Denver","state":"CO","zip":"80231","distance":24.839219749575,"lon":"-104.901924","lat":"39.65208","theaterChainName":"Independent Chains","ticketType":"STANDARD"}]