[{"id":"1572","name":"United Artists Meadows 12","address":"9355 Park Meadows Drive","city":"Lone Tree","state":"CO","zip":"80124","distance":"24.50670623779297","lon":"-104.879234","lat":"39.555256","theaterChainName":"United Artists","ticketType":"STANDARD"},{"id":"3578","name":"AMC Twenty Mile 10","address":"18625 E. Stage Run Rd.","city":"Parker","state":"CO","zip":"80134","distance":"22.482973098754883","lon":"-104.772758","lat":"39.520267","theaterChainName":"AMC Theatres","ticketType":"E_TICKET"},{"id":"4120","name":"AMC Castle Rock 12","address":"Meadows Pkwy ","city":"Castle Rock","state":"CO","zip":"80109","distance":"13.96360969543457","lon":"-104.879761","lat":"39.402245","theaterChainName":"AMC Theatres","ticketType":"E_TICKET"},{"id":"3114","name":"Cinemark Carefree Circle and Imax","address":"3305 Cinema Point","city":"Colorado Springs","state":"CO","zip":"80922","distance":"23.335376739501953","lon":"-104.716347","lat":"38.880909","theaterChainName":"Cinemark","ticketType":"STANDARD"},{"id":"5459","name":"Carmike Chapel Hills 13","address":"1770 Briargate Blvd","city":"Colorado Springs","state":"CO","zip":"80920","distance":"17.822324752807617","lon":"-104.793800","lat":"38.947525","theaterChainName":"Carmike Cinemas","ticketType":"STANDARD"},{"id":"4510","name":"Regal Interquest Stadium 14","address":"1120 Interquest Parkway Interquest Parkway and I-25","city":"Colorado Springs","state":"CO","zip":"80920","distance":"14.50419807434082","lon":"-104.810707","lat":"38.993973","theaterChainName":"Regal Cinemas","ticketType":"STANDARD"}]