[{"id":"16","name":"Cinebarre - Thornton","address":"10001 Grant St.","city":"Thornton","state":"CO","zip":"80229","distance":"22.69681167602539","lon":"-104.983803","lat":"39.877701","theaterChainName":"Regal Cinemas","ticketType":"STANDARD"},{"id":"1571","name":"United Artists Denver Pavilions","address":"500 16th St. #310","city":"Denver","state":"CO","zip":"80202","distance":"21.712976455688477","lon":"-104.991409","lat":"39.743660","theaterChainName":"United Artists","ticketType":"STANDARD"},{"id":"13","name":"AMC Cherry Creek 8","address":"3000 East First Avenue","city":"Denver","state":"CO","zip":"80206","distance":"19.957660675048828","lon":"-104.954391","lat":"39.717125","theaterChainName":"AMC Theatres","ticketType":"E_TICKET"},{"id":"4750","name":"Regal River Point Stadium 14","address":"3565 S. Platte River Drive","city":"Sheridan","state":"CO","zip":"80110","distance":"23.839500427246094","lon":"-105.008667","lat":"39.652775","theaterChainName":"Regal Cinemas","ticketType":"STANDARD"},{"id":"836","name":"United Artists Colorado Center 9","address":"2000 S. Colorado Blvd.","city":"Denver","state":"CO","zip":"80222","distance":"19.7354736328125","lon":"-104.939331","lat":"39.680889","theaterChainName":"United Artists","ticketType":"STANDARD"},{"id":"14","name":"Continental Stadium 10 & RPX","address":"3635 S. Monaco Pkwy.","city":"Denver","state":"CO","zip":"80237","distance":"19.285104751586914","lon":"-104.915894","lat":"39.650658","theaterChainName":"Regal Cinemas","ticketType":"STANDARD"},{"id":"4724","name":"Elvis Cinemas Tiffany Plaza 6","address":"7400 E. Hampden Ave","city":"Denver","state":"CO","zip":"80231","distance":"18.566173553466797","lon":"-104.901924","lat":"39.652081","theaterChainName":"Independent Chains","ticketType":"STANDARD"},{"id":"4833","name":"Regal SouthGlenn Stadium 14","address":"6901 S. Vine St. The Streets At SouthGlenn","city":"Centennial","state":"CO","zip":"80122","distance":"23.465499877929688","lon":"-104.964699","lat":"39.591412","theaterChainName":"Regal Cinemas","ticketType":"STANDARD"},{"id":"3213","name":"Cinema Latino de Aurora","address":"777 Peoria St.","city":"Aurora","state":"CO","zip":"80011","distance":"14.21846866607666","lon":"-104.847298","lat":"39.728100","theaterChainName":"Independent Chains","ticketType":"STANDARD"},{"id":"1608","name":"Century 16 Aurora","address":"14300 E. Alameda Ave.","city":"Aurora","state":"CO","zip":"80012","distance":"13.196895599365234","lon":"-104.820709","lat":"39.705982","theaterChainName":"Cinemark","ticketType":"STANDARD"},{"id":"64","name":"United Artists Greenwood Plaza 12","address":"8141 E. Arapahoe Road","city":"Englewood","state":"CO","zip":"80112","distance":"20.113563537597656","lon":"-104.894363","lat":"39.596603","theaterChainName":"United Artists","ticketType":"STANDARD"},{"id":"3992","name":"AMC Showplace Brighton 12","address":"250 Pavilions Place","city":"Brighton","state":"CO","zip":"80601","distance":"19.84481430053711","lon":"-104.823563","lat":"39.982548","theaterChainName":"AMC Theatres","ticketType":"E_TICKET"},{"id":"1572","name":"United Artists Meadows 12","address":"9355 Park Meadows Drive","city":"Lone Tree","state":"CO","zip":"80124","distance":"21.267908096313477","lon":"-104.879234","lat":"39.555256","theaterChainName":"United Artists","ticketType":"STANDARD"},{"id":"4288","name":"Movie Tavern Aurora","address":"18605 E. Hampden Ave.","city":"Aurora","state":"CO","zip":"80013","distance":"12.410432815551758","lon":"-104.770226","lat":"39.654591","theaterChainName":"Movie Tavern","ticketType":"STANDARD"},{"id":"713","name":"AMC Arapahoe Crossing 16","address":"6696 S Parker Road","city":"Aurora","state":"CO","zip":"80016","distance":"16.187170028686523","lon":"-104.797981","lat":"39.596149","theaterChainName":"AMC Theatres","ticketType":"E_TICKET"},{"id":"3578","name":"AMC Twenty Mile 10","address":"18625 E. Stage Run Rd.","city":"Parker","state":"CO","zip":"80134","distance":"19.52444076538086","lon":"-104.772758","lat":"39.520267","theaterChainName":"AMC Theatres","ticketType":"E_TICKET"},{"id":"4180","name":"AMC Southlands 16","address":"23955 E. Plaza Avenue","city":"Aurora","state":"CO","zip":"80016","distance":"12.670083999633789","lon":"-104.708839","lat":"39.606403","theaterChainName":"AMC Theatres","ticketType":"SELECT_SEATING"}]