[{"id":"4120","name":"AMC Castle Rock 12","address":"Meadows Pkwy ","city":"Castle Rock","state":"CO","zip":"80109","distance":"20.880807876586914","lon":"-104.879761","lat":"39.402245","theaterChainName":"AMC Theatres","ticketType":"E_TICKET"},{"id":"1705","name":"Carmike 10 Colorado Springs","address":"1550 Pulsar Drive","city":"Colorado Springs","state":"CO","zip":"80916","distance":"20.75130844116211","lon":"-104.756729","lat":"38.810104","theaterChainName":"Carmike Cinemas","ticketType":"STANDARD"},{"id":"1379","name":"Cinemark Tinseltown Colorado Springs","address":"1545 E Cheyenne Mountain Blvd.","city":"Colorado Springs","state":"CO","zip":"80906","distance":"21.543254852294922","lon":"-104.797997","lat":"38.792000","theaterChainName":"Cinemark","ticketType":"STANDARD"},{"id":"4602","name":"Picture Show at Citadel Crossing","address":"901 North Academy Blvd.","city":"Colorado Springs","state":"CO","zip":"80909","distance":"18.38665771484375","lon":"-104.755608","lat":"38.845882","theaterChainName":"Picture Show Entertainment","ticketType":"STANDARD"},{"id":"2359","name":"Kimballs Peak Three Theatres","address":"115 E. Pikes Peak Ave.","city":"Colorado Springs","state":"CO","zip":"80903","distance":"18.547847747802734","lon":"-104.822716","lat":"38.833389","theaterChainName":"Independent Chains","ticketType":"STANDARD"},{"id":"3114","name":"Cinemark Carefree Circle and Imax","address":"3305 Cinema Point","city":"Colorado Springs","state":"CO","zip":"80922","distance":"16.895578384399414","lon":"-104.716347","lat":"38.880909","theaterChainName":"Cinemark","ticketType":"STANDARD"},{"id":"5459","name":"Carmike Chapel Hills 13","address":"1770 Briargate Blvd","city":"Colorado Springs","state":"CO","zip":"80920","distance":"11.069564819335938","lon":"-104.793800","lat":"38.947525","theaterChainName":"Carmike Cinemas","ticketType":"STANDARD"},{"id":"4510","name":"Regal Interquest Stadium 14","address":"1120 Interquest Parkway Interquest Parkway and I-25","city":"Colorado Springs","state":"CO","zip":"80920","distance":"7.735175132751465","lon":"-104.810707","lat":"38.993973","theaterChainName":"Regal Cinemas","ticketType":"STANDARD"}]