[{"id":"4373","tribuneTheaterId":"9413","providerTheaterId":"","name":"Century Boulder","address":"1700 29th Street","city":"Boulder","state":"CO","zip":"80301","distance":9.0488775538079,"lon":"-105.254425","lat":"40.017287","theaterChainName":"Cinemark","ticketType":"STANDARD"},{"id":"1185","tribuneTheaterId":"5716","providerTheaterId":"","name":"Regal Village at the Peaks 12 & RPX","address":"1250 S. Hover Road","city":"Longmont","state":"CO","zip":"80501","distance":13.946628675561,"lon":"-105.127457","lat":"40.14752","theaterChainName":"United Artists","ticketType":"STANDARD"},{"id":"5533","tribuneTheaterId":"10964","providerTheaterId":"","name":"Cinebarre Boulder","address":"1164 W. Dillon Rd","city":"Louisville","state":"CO","zip":"80027","distance":15.053692385161,"lon":"-105.167","lat":"39.9619","theaterChainName":"Regal Cinemas","ticketType":"STANDARD"},{"id":"3428","tribuneTheaterId":"8622","providerTheaterId":"52","name":"AMC Flatiron Crossing 14","address":"61 W. Flatiron Circle","city":"Broomfield","state":"CO","zip":"80021","distance":17.751001031724,"lon":"-105.135813","lat":"39.929947","theaterChainName":"AMC Theatres","ticketType":"SELECT_SEATING"},{"id":"2409","tribuneTheaterId":"1517","providerTheaterId":"","name":"Reel Mountain Theatre","address":"543 Big Thompson Ave.","city":"Estes Park","state":"CO","zip":"80517","distance":20.317069987382,"lon":"-105.5158","lat":"40.3787","theaterChainName":"Independent Chains","ticketType":"STANDARD"},{"id":"4487","tribuneTheaterId":"9587","providerTheaterId":"53","name":"AMC Orchard 12","address":"14653 Orchard Parkway","city":"Westminster","state":"CO","zip":"80023","distance":22.790958085078,"lon":"-104.994793","lat":"39.961926","theaterChainName":"AMC Theatres","ticketType":"E_TICKET"},{"id":"542","tribuneTheaterId":"8911","providerTheaterId":"92","name":"AMC Westminster Promenade 24","address":"10655 Westminster Blvd.","city":"Westminster","state":"CO","zip":"80020","distance":22.200224610937,"lon":"-105.070831","lat":"39.889077","theaterChainName":"AMC Theatres","ticketType":"E_TICKET"}]