[{"id":"3873","name":"Elvis Cinemas - Arvada","address":"5157 W. 64th Ave.","city":"Arvada","state":"CO","zip":"80003","distance":"15.733250617980957","lon":"-105.051056","lat":"39.813911","theaterChainName":"Independent Chains","ticketType":"STANDARD"},{"id":"542","name":"AMC Westminster Promenade 24","address":"10655 Westminster Blvd.","city":"Westminster","state":"CO","zip":"80020","distance":"11.547197341918945","lon":"-105.070831","lat":"39.889076","theaterChainName":"AMC Theatres","ticketType":"E_TICKET"},{"id":"483","name":"United Artists Denver West Village Stadium 12","address":"14225 W. Colfax Ave.","city":"Lakewood","state":"CO","zip":"80401","distance":"17.52252960205078","lon":"-105.160133","lat":"39.737358","theaterChainName":"United Artists","ticketType":"STANDARD"},{"id":"3583","name":"Colorado Mills Stadium 16 & IMAX","address":"14500 West Colfax Ave.","city":"Lakewood","state":"CO","zip":"80401","distance":"17.91067123413086","lon":"-105.155144","lat":"39.732639","theaterChainName":"United Artists","ticketType":"STANDARD"},{"id":"3812","name":"Century 16 Belmar","address":"440 S. Teller","city":"Lakewood","state":"CO","zip":"80226","distance":"21.028032302856445","lon":"-105.076271","lat":"39.708340","theaterChainName":"Cinemark","ticketType":"STANDARD"},{"id":"3428","name":"AMC Flatiron Crossing 14","address":"61 W. Flatiron Circle","city":"Broomfield","state":"CO","zip":"80021","distance":"7.133813858032227","lon":"-105.135811","lat":"39.929947","theaterChainName":"AMC Theatres","ticketType":"SELECT_SEATING"},{"id":"16","name":"Cinebarre - Thornton","address":"10001 Grant St.","city":"Thornton","state":"CO","zip":"80229","distance":"15.945466995239258","lon":"-104.983803","lat":"39.877701","theaterChainName":"Regal Cinemas","ticketType":"STANDARD"},{"id":"1571","name":"United Artists Denver Pavilions","address":"500 16th St. #310","city":"Denver","state":"CO","zip":"80202","distance":"21.468870162963867","lon":"-104.991409","lat":"39.743660","theaterChainName":"United Artists","ticketType":"STANDARD"},{"id":"5533","name":"Cinebarre Boulder","address":"1164 W. Dillon Rd","city":"Louisville","state":"CO","zip":"80027","distance":"4.740726470947266","lon":"-105.167000","lat":"39.961899","theaterChainName":"Regal Cinemas","ticketType":"STANDARD"},{"id":"4487","name":"AMC Orchard 12","address":"14653 Orchard Parkway","city":"Westminster","state":"CO","zip":"80023","distance":"13.739458084106445","lon":"-104.994797","lat":"39.961926","theaterChainName":"AMC Theatres","ticketType":"E_TICKET"},{"id":"13","name":"AMC Cherry Creek 8","address":"3000 East First Avenue","city":"Denver","state":"CO","zip":"80206","distance":"24.141019821166992","lon":"-104.954391","lat":"39.717125","theaterChainName":"AMC Theatres","ticketType":"E_TICKET"},{"id":"4373","name":"Century Boulder","address":"1700 29th Street","city":"Boulder","state":"CO","zip":"80301","distance":"2.5290331840515137","lon":"-105.254425","lat":"40.017288","theaterChainName":"Cinemark","ticketType":"STANDARD"},{"id":"3992","name":"AMC Showplace Brighton 12","address":"250 Pavilions Place","city":"Brighton","state":"CO","zip":"80601","distance":"22.742517471313477","lon":"-104.823563","lat":"39.982548","theaterChainName":"AMC Theatres","ticketType":"E_TICKET"},{"id":"1185","name":"Regal Village at the Peaks 12 & RPX","address":"1250 S. Hover Road","city":"Longmont","state":"CO","zip":"80501","distance":"13.304430961608887","lon":"-105.127457","lat":"40.147518","theaterChainName":"United Artists","ticketType":"STANDARD"}]