[{"id":"3040","tribuneTheaterId":"5832","providerTheaterId":"","name":"Elvis Cinemas - Littleton","address":"6014 S. Kipling","city":"Littleton","state":"CO","zip":"80127","distance":8.4956343791246,"lon":"-105.109069","lat":"39.607337","theaterChainName":"Independent Chains","ticketType":"STANDARD"},{"id":"68","tribuneTheaterId":"7929","providerTheaterId":"6530","name":"AMC Bowles Crossing 12","address":"8035 W. Bowles Ave.","city":"Littleton","state":"CO","zip":"80123","distance":9.6173838591498,"lon":"-105.08576","lat":"39.611638","theaterChainName":"AMC Theatres","ticketType":"SELECT_SEATING"},{"id":"5318","tribuneTheaterId":"10703","providerTheaterId":"","name":"Alamo Drafthouse Littleton","address":"7301 S. Santa Fe Drive","city":"Littleton","state":"CO","zip":"80120","distance":11.508723322963,"lon":"-105.0236","lat":"39.5844","theaterChainName":"Alamo Drafthouse","ticketType":"STANDARD"},{"id":"541","tribuneTheaterId":"8457","providerTheaterId":"57","name":"AMC Highlands Ranch 24","address":"103  W.Centennial Rd.","city":"Highlands Ranch","state":"CO","zip":"80129","distance":12.657752050054,"lon":"-104.991526","lat":"39.560066","theaterChainName":"AMC Theatres","ticketType":"E_TICKET"},{"id":"483","tribuneTheaterId":"8518","providerTheaterId":"","name":"United Artists Denver West Village Stadium 12","address":"14225 W. Colfax Ave.","city":"Lakewood","state":"CO","zip":"80401","distance":15.261722340223,"lon":"-105.160135","lat":"39.737357","theaterChainName":"United Artists","ticketType":"STANDARD"},{"id":"4833","tribuneTheaterId":"10109","providerTheaterId":"","name":"Regal SouthGlenn Stadium 14","address":"6901 S. Vine St. The Streets At SouthGlenn","city":"Centennial","state":"CO","zip":"80122","distance":14.616956308375,"lon":"-104.964699","lat":"39.591412","theaterChainName":"Regal Cinemas","ticketType":"STANDARD"},{"id":"3812","tribuneTheaterId":"8891","providerTheaterId":"","name":"Century 16 Belmar","address":"440 S. Teller","city":"Lakewood","state":"CO","zip":"80226","distance":15.083152945544,"lon":"-105.076272","lat":"39.708339","theaterChainName":"Cinemark","ticketType":"STANDARD"},{"id":"3583","tribuneTheaterId":"9077","providerTheaterId":"","name":"Colorado Mills Stadium 16 & IMAX","address":"14500 West Colfax Ave.","city":"Lakewood","state":"CO","zip":"80401","distance":15.006614724778,"lon":"-105.155146","lat":"39.732639","theaterChainName":"United Artists","ticketType":"STANDARD"},{"id":"4750","tribuneTheaterId":"9979","providerTheaterId":"","name":"Regal River Point Stadium 14","address":"3565 S. Platte River Drive","city":"Sheridan","state":"CO","zip":"80110","distance":14.594099059668,"lon":"-105.008665","lat":"39.652774","theaterChainName":"Regal Cinemas","ticketType":"STANDARD"},{"id":"64","tribuneTheaterId":"8206","providerTheaterId":"","name":"United Artists Greenwood Plaza 12","address":"8141 E. Arapahoe Road","city":"Englewood","state":"CO","zip":"80112","distance":18.295072198897,"lon":"-104.894364","lat":"39.596604","theaterChainName":"United Artists","ticketType":"STANDARD"},{"id":"1572","tribuneTheaterId":"5717","providerTheaterId":"","name":"United Artists Meadows 12","address":"9355 Park Meadows Drive","city":"Lone Tree","state":"CO","zip":"80124","distance":18.508562553383,"lon":"-104.879233","lat":"39.555256","theaterChainName":"United Artists","ticketType":"STANDARD"},{"id":"4120","tribuneTheaterId":"4868","providerTheaterId":"6127","name":"AMC Castle Rock 12","address":"Meadows Pkwy ","city":"Castle Rock","state":"CO","zip":"80109","distance":20.136124955679,"lon":"-104.879758","lat":"39.402246","theaterChainName":"AMC Theatres","ticketType":"E_TICKET"},{"id":"4724","tribuneTheaterId":"9943","providerTheaterId":"","name":"Elvis Cinemas Tiffany Plaza 6","address":"7400 E. Hampden Ave","city":"Denver","state":"CO","zip":"80231","distance":19.357317020985,"lon":"-104.901924","lat":"39.65208","theaterChainName":"Independent Chains","ticketType":"STANDARD"},{"id":"14","tribuneTheaterId":"7278","providerTheaterId":"","name":"Continental Stadium 10 & RPX","address":"3635 S. Monaco Pkwy.","city":"Denver","state":"CO","zip":"80237","distance":18.65482857548,"lon":"-104.915893","lat":"39.650657","theaterChainName":"Regal Cinemas","ticketType":"STANDARD"},{"id":"13","tribuneTheaterId":"7928","providerTheaterId":"6215","name":"AMC Cherry Creek 8","address":"3000 East First Avenue","city":"Denver","state":"CO","zip":"80206","distance":19.685237880884,"lon":"-104.954388","lat":"39.717124","theaterChainName":"AMC Theatres","ticketType":"E_TICKET"},{"id":"1571","tribuneTheaterId":"8849","providerTheaterId":"","name":"United Artists Denver Pavilions","address":"500 16th St. #310","city":"Denver","state":"CO","zip":"80202","distance":19.687553425269,"lon":"-104.991413","lat":"39.74366","theaterChainName":"United Artists","ticketType":"STANDARD"},{"id":"836","tribuneTheaterId":"8321","providerTheaterId":"","name":"United Artists Colorado Center 9","address":"2000 S. Colorado Blvd.","city":"Denver","state":"CO","zip":"80222","distance":18.708942404017,"lon":"-104.93933","lat":"39.680889","theaterChainName":"United Artists","ticketType":"STANDARD"},{"id":"3873","tribuneTheaterId":"4869","providerTheaterId":"","name":"Elvis Cinemas - Arvada","address":"5157 W. 64th Ave.","city":"Arvada","state":"CO","zip":"80003","distance":22.165260498538,"lon":"-105.051055","lat":"39.813911","theaterChainName":"Independent Chains","ticketType":"STANDARD"},{"id":"3578","tribuneTheaterId":"8526","providerTheaterId":"6725","name":"AMC Twenty Mile 10","address":"18625 E. Stage Run Rd.","city":"Parker","state":"CO","zip":"80134","distance":24.045343639705,"lon":"-104.772755","lat":"39.520267","theaterChainName":"AMC Theatres","ticketType":"E_TICKET"},{"id":"713","tribuneTheaterId":"8603","providerTheaterId":"6054","name":"AMC Arapahoe Crossing 16","address":"6696 S Parker Road","city":"Aurora","state":"CO","zip":"80016","distance":23.259284792405,"lon":"-104.797983","lat":"39.596149","theaterChainName":"AMC Theatres","ticketType":"E_TICKET"},{"id":"3213","tribuneTheaterId":"6202","providerTheaterId":"","name":"Cinema Latino de Aurora","address":"777 Peoria St.","city":"Aurora","state":"CO","zip":"80011","distance":24.585809444646,"lon":"-104.847298","lat":"39.7281","theaterChainName":"Independent Chains","ticketType":"STANDARD"},{"id":"1608","tribuneTheaterId":"5805","providerTheaterId":"","name":"Century 16 Aurora","address":"14300 E. Alameda Ave.","city":"Aurora","state":"CO","zip":"80012","distance":24.942638540094,"lon":"-104.820713","lat":"39.705983","theaterChainName":"Cinemark","ticketType":"STANDARD"}]