[{"id":"3873","name":"Elvis Cinemas - Arvada","address":"5157 W. 64th Ave.","city":"Arvada","state":"CO","zip":"80003","distance":"24.76338768005371","lon":"-105.051056","lat":"39.813911","theaterChainName":"Independent Chains","ticketType":"STANDARD"},{"id":"483","name":"United Artists Denver West Village Stadium 12","address":"14225 W. Colfax Ave.","city":"Lakewood","state":"CO","zip":"80401","distance":"17.198801040649414","lon":"-105.160133","lat":"39.737358","theaterChainName":"United Artists","ticketType":"STANDARD"},{"id":"3583","name":"Colorado Mills Stadium 16 & IMAX","address":"14500 West Colfax Ave.","city":"Lakewood","state":"CO","zip":"80401","distance":"17.04710578918457","lon":"-105.155144","lat":"39.732639","theaterChainName":"United Artists","ticketType":"STANDARD"},{"id":"3812","name":"Century 16 Belmar","address":"440 S. Teller","city":"Lakewood","state":"CO","zip":"80226","distance":"18.27469825744629","lon":"-105.076271","lat":"39.708340","theaterChainName":"Cinemark","ticketType":"STANDARD"},{"id":"1571","name":"United Artists Denver Pavilions","address":"500 16th St. #310","city":"Denver","state":"CO","zip":"80202","distance":"23.22743034362793","lon":"-104.991409","lat":"39.743660","theaterChainName":"United Artists","ticketType":"STANDARD"},{"id":"13","name":"AMC Cherry Creek 8","address":"3000 East First Avenue","city":"Denver","state":"CO","zip":"80206","distance":"23.630403518676758","lon":"-104.954391","lat":"39.717125","theaterChainName":"AMC Theatres","ticketType":"E_TICKET"},{"id":"4750","name":"Regal River Point Stadium 14","address":"3565 S. Platte River Drive","city":"Sheridan","state":"CO","zip":"80110","distance":"18.814008712768555","lon":"-105.008667","lat":"39.652775","theaterChainName":"Regal Cinemas","ticketType":"STANDARD"},{"id":"68","name":"AMC Bowles Crossing 12","address":"8035 W. Bowles Ave.","city":"Littleton","state":"CO","zip":"80123","distance":"13.854433059692383","lon":"-105.085762","lat":"39.611637","theaterChainName":"AMC Theatres","ticketType":"SELECT_SEATING"},{"id":"836","name":"United Artists Colorado Center 9","address":"2000 S. Colorado Blvd.","city":"Denver","state":"CO","zip":"80222","distance":"22.981332778930664","lon":"-104.939331","lat":"39.680889","theaterChainName":"United Artists","ticketType":"STANDARD"},{"id":"3040","name":"Elvis Cinemas - Littleton","address":"6014 S. Kipling","city":"Littleton","state":"CO","zip":"80127","distance":"12.618890762329102","lon":"-105.109070","lat":"39.607338","theaterChainName":"Independent Chains","ticketType":"STANDARD"},{"id":"5318","name":"Alamo Drafthouse Littleton","address":"7301 S. Santa Fe Drive","city":"Littleton","state":"CO","zip":"80120","distance":"16.253450393676758","lon":"-105.023598","lat":"39.584400","theaterChainName":"Alamo Drafthouse","ticketType":"STANDARD"},{"id":"14","name":"Continental Stadium 10 & RPX","address":"3635 S. Monaco Pkwy.","city":"Denver","state":"CO","zip":"80237","distance":"23.192598342895508","lon":"-104.915894","lat":"39.650658","theaterChainName":"Regal Cinemas","ticketType":"STANDARD"},{"id":"4724","name":"Elvis Cinemas Tiffany Plaza 6","address":"7400 E. Hampden Ave","city":"Denver","state":"CO","zip":"80231","distance":"23.916522979736328","lon":"-104.901924","lat":"39.652081","theaterChainName":"Independent Chains","ticketType":"STANDARD"},{"id":"4833","name":"Regal SouthGlenn Stadium 14","address":"6901 S. Vine St. The Streets At SouthGlenn","city":"Centennial","state":"CO","zip":"80122","distance":"19.406795501708984","lon":"-104.964699","lat":"39.591412","theaterChainName":"Regal Cinemas","ticketType":"STANDARD"},{"id":"541","name":"AMC Highlands Ranch 24","address":"103  W.Centennial Rd.","city":"Highlands Ranch","state":"CO","zip":"80129","distance":"17.56128692626953","lon":"-104.991524","lat":"39.560066","theaterChainName":"AMC Theatres","ticketType":"E_TICKET"},{"id":"64","name":"United Artists Greenwood Plaza 12","address":"8141 E. Arapahoe Road","city":"Englewood","state":"CO","zip":"80112","distance":"23.12850570678711","lon":"-104.894363","lat":"39.596603","theaterChainName":"United Artists","ticketType":"STANDARD"},{"id":"1572","name":"United Artists Meadows 12","address":"9355 Park Meadows Drive","city":"Lone Tree","state":"CO","zip":"80124","distance":"23.451749801635742","lon":"-104.879234","lat":"39.555256","theaterChainName":"United Artists","ticketType":"STANDARD"},{"id":"4120","name":"AMC Castle Rock 12","address":"Meadows Pkwy ","city":"Castle Rock","state":"CO","zip":"80109","distance":"24.692153930664062","lon":"-104.879761","lat":"39.402245","theaterChainName":"AMC Theatres","ticketType":"E_TICKET"}]