[{"id":"3873","name":"Elvis Cinemas - Arvada","address":"5157 W. 64th Ave.","city":"Arvada","state":"CO","zip":"80003","distance":"14.366826057434082","lon":"-105.051056","lat":"39.813911","theaterChainName":"Independent Chains","ticketType":"STANDARD"},{"id":"542","name":"AMC Westminster Promenade 24","address":"10655 Westminster Blvd.","city":"Westminster","state":"CO","zip":"80020","distance":"17.811983108520508","lon":"-105.070831","lat":"39.889076","theaterChainName":"AMC Theatres","ticketType":"E_TICKET"},{"id":"483","name":"United Artists Denver West Village Stadium 12","address":"14225 W. Colfax Ave.","city":"Lakewood","state":"CO","zip":"80401","distance":"6.532799243927002","lon":"-105.160133","lat":"39.737358","theaterChainName":"United Artists","ticketType":"STANDARD"},{"id":"3583","name":"Colorado Mills Stadium 16 & IMAX","address":"14500 West Colfax Ave.","city":"Lakewood","state":"CO","zip":"80401","distance":"6.489946365356445","lon":"-105.155144","lat":"39.732639","theaterChainName":"United Artists","ticketType":"STANDARD"},{"id":"3812","name":"Century 16 Belmar","address":"440 S. Teller","city":"Lakewood","state":"CO","zip":"80226","distance":"9.346054077148438","lon":"-105.076271","lat":"39.708340","theaterChainName":"Cinemark","ticketType":"STANDARD"},{"id":"3428","name":"AMC Flatiron Crossing 14","address":"61 W. Flatiron Circle","city":"Broomfield","state":"CO","zip":"80021","distance":"18.96621322631836","lon":"-105.135811","lat":"39.929947","theaterChainName":"AMC Theatres","ticketType":"SELECT_SEATING"},{"id":"16","name":"Cinebarre - Thornton","address":"10001 Grant St.","city":"Thornton","state":"CO","zip":"80229","distance":"20.009946823120117","lon":"-104.983803","lat":"39.877701","theaterChainName":"Regal Cinemas","ticketType":"STANDARD"},{"id":"1571","name":"United Artists Denver Pavilions","address":"500 16th St. #310","city":"Denver","state":"CO","zip":"80202","distance":"14.409296989440918","lon":"-104.991409","lat":"39.743660","theaterChainName":"United Artists","ticketType":"STANDARD"},{"id":"5533","name":"Cinebarre Boulder","address":"1164 W. Dillon Rd","city":"Louisville","state":"CO","zip":"80027","distance":"20.689865112304688","lon":"-105.167000","lat":"39.961899","theaterChainName":"Regal Cinemas","ticketType":"STANDARD"},{"id":"4487","name":"AMC Orchard 12","address":"14653 Orchard Parkway","city":"Westminster","state":"CO","zip":"80023","distance":"24.219337463378906","lon":"-104.994797","lat":"39.961926","theaterChainName":"AMC Theatres","ticketType":"E_TICKET"},{"id":"13","name":"AMC Cherry Creek 8","address":"3000 East First Avenue","city":"Denver","state":"CO","zip":"80206","distance":"15.772500991821289","lon":"-104.954391","lat":"39.717125","theaterChainName":"AMC Theatres","ticketType":"E_TICKET"},{"id":"4750","name":"Regal River Point Stadium 14","address":"3565 S. Platte River Drive","city":"Sheridan","state":"CO","zip":"80110","distance":"12.575459480285645","lon":"-105.008667","lat":"39.652775","theaterChainName":"Regal Cinemas","ticketType":"STANDARD"},{"id":"68","name":"AMC Bowles Crossing 12","address":"8035 W. Bowles Ave.","city":"Littleton","state":"CO","zip":"80123","distance":"9.298249244689941","lon":"-105.085762","lat":"39.611637","theaterChainName":"AMC Theatres","ticketType":"SELECT_SEATING"},{"id":"836","name":"United Artists Colorado Center 9","address":"2000 S. Colorado Blvd.","city":"Denver","state":"CO","zip":"80222","distance":"16.236928939819336","lon":"-104.939331","lat":"39.680889","theaterChainName":"United Artists","ticketType":"STANDARD"},{"id":"3040","name":"Elvis Cinemas - Littleton","address":"6014 S. Kipling","city":"Littleton","state":"CO","zip":"80127","distance":"8.337030410766602","lon":"-105.109070","lat":"39.607338","theaterChainName":"Independent Chains","ticketType":"STANDARD"},{"id":"5318","name":"Alamo Drafthouse Littleton","address":"7301 S. Santa Fe Drive","city":"Littleton","state":"CO","zip":"80120","distance":"13.096952438354492","lon":"-105.023598","lat":"39.584400","theaterChainName":"Alamo Drafthouse","ticketType":"STANDARD"},{"id":"14","name":"Continental Stadium 10 & RPX","address":"3635 S. Monaco Pkwy.","city":"Denver","state":"CO","zip":"80237","distance":"17.50725555419922","lon":"-104.915894","lat":"39.650658","theaterChainName":"Regal Cinemas","ticketType":"STANDARD"},{"id":"4373","name":"Century Boulder","address":"1700 29th Street","city":"Boulder","state":"CO","zip":"80301","distance":"24.113447189331055","lon":"-105.254425","lat":"40.017288","theaterChainName":"Cinemark","ticketType":"STANDARD"},{"id":"4724","name":"Elvis Cinemas Tiffany Plaza 6","address":"7400 E. Hampden Ave","city":"Denver","state":"CO","zip":"80231","distance":"18.242076873779297","lon":"-104.901924","lat":"39.652081","theaterChainName":"Independent Chains","ticketType":"STANDARD"},{"id":"4833","name":"Regal SouthGlenn Stadium 14","address":"6901 S. Vine St. The Streets At SouthGlenn","city":"Centennial","state":"CO","zip":"80122","distance":"15.797117233276367","lon":"-104.964699","lat":"39.591412","theaterChainName":"Regal Cinemas","ticketType":"STANDARD"},{"id":"3213","name":"Cinema Latino de Aurora","address":"777 Peoria St.","city":"Aurora","state":"CO","zip":"80011","distance":"21.500812530517578","lon":"-104.847298","lat":"39.728100","theaterChainName":"Independent Chains","ticketType":"STANDARD"},{"id":"541","name":"AMC Highlands Ranch 24","address":"103  W.Centennial Rd.","city":"Highlands Ranch","state":"CO","zip":"80129","distance":"15.392699241638184","lon":"-104.991524","lat":"39.560066","theaterChainName":"AMC Theatres","ticketType":"E_TICKET"},{"id":"1608","name":"Century 16 Aurora","address":"14300 E. Alameda Ave.","city":"Aurora","state":"CO","zip":"80012","distance":"22.667800903320312","lon":"-104.820709","lat":"39.705982","theaterChainName":"Cinemark","ticketType":"STANDARD"},{"id":"64","name":"United Artists Greenwood Plaza 12","address":"8141 E. Arapahoe Road","city":"Englewood","state":"CO","zip":"80112","distance":"19.266496658325195","lon":"-104.894363","lat":"39.596603","theaterChainName":"United Artists","ticketType":"STANDARD"},{"id":"1572","name":"United Artists Meadows 12","address":"9355 Park Meadows Drive","city":"Lone Tree","state":"CO","zip":"80124","distance":"20.941770553588867","lon":"-104.879234","lat":"39.555256","theaterChainName":"United Artists","ticketType":"STANDARD"},{"id":"713","name":"AMC Arapahoe Crossing 16","address":"6696 S Parker Road","city":"Aurora","state":"CO","zip":"80016","distance":"24.265056610107422","lon":"-104.797981","lat":"39.596149","theaterChainName":"AMC Theatres","ticketType":"E_TICKET"}]