[{"id":"3873","name":"Elvis Cinemas - Arvada","address":"5157 W. 64th Ave.","city":"Arvada","state":"CO","zip":"80003","distance":"23.52983856201172","lon":"-105.051056","lat":"39.813911","theaterChainName":"Independent Chains","ticketType":"STANDARD"},{"id":"542","name":"AMC Westminster Promenade 24","address":"10655 Westminster Blvd.","city":"Westminster","state":"CO","zip":"80020","distance":"20.977523803710938","lon":"-105.070831","lat":"39.889076","theaterChainName":"AMC Theatres","ticketType":"E_TICKET"},{"id":"483","name":"United Artists Denver West Village Stadium 12","address":"14225 W. Colfax Ave.","city":"Lakewood","state":"CO","zip":"80401","distance":"21.5069522857666","lon":"-105.160133","lat":"39.737358","theaterChainName":"United Artists","ticketType":"STANDARD"},{"id":"3583","name":"Colorado Mills Stadium 16 & IMAX","address":"14500 West Colfax Ave.","city":"Lakewood","state":"CO","zip":"80401","distance":"21.922834396362305","lon":"-105.155144","lat":"39.732639","theaterChainName":"United Artists","ticketType":"STANDARD"},{"id":"3428","name":"AMC Flatiron Crossing 14","address":"61 W. Flatiron Circle","city":"Broomfield","state":"CO","zip":"80021","distance":"17.18045425415039","lon":"-105.135811","lat":"39.929947","theaterChainName":"AMC Theatres","ticketType":"SELECT_SEATING"},{"id":"5533","name":"Cinebarre Boulder","address":"1164 W. Dillon Rd","city":"Louisville","state":"CO","zip":"80027","distance":"15.514479637145996","lon":"-105.167000","lat":"39.961899","theaterChainName":"Regal Cinemas","ticketType":"STANDARD"},{"id":"4487","name":"AMC Orchard 12","address":"14653 Orchard Parkway","city":"Westminster","state":"CO","zip":"80023","distance":"24.62360954284668","lon":"-104.994797","lat":"39.961926","theaterChainName":"AMC Theatres","ticketType":"E_TICKET"},{"id":"4373","name":"Century Boulder","address":"1700 29th Street","city":"Boulder","state":"CO","zip":"80301","distance":"11.873476028442383","lon":"-105.254425","lat":"40.017288","theaterChainName":"Cinemark","ticketType":"STANDARD"},{"id":"1185","name":"Regal Village at the Peaks 12 & RPX","address":"1250 S. Hover Road","city":"Longmont","state":"CO","zip":"80501","distance":"22.345081329345703","lon":"-105.127457","lat":"40.147518","theaterChainName":"United Artists","ticketType":"STANDARD"},{"id":"5201","name":"The Foundry Cinema & Bowl","address":"22 Second St.","city":"Fraser","state":"CO","zip":"80442","distance":"18.938005447387695","lon":"-105.816803","lat":"39.948601","theaterChainName":"Independent Chains","ticketType":"STANDARD"}]