[{"id":"542","name":"AMC Westminster Promenade 24","address":"10655 Westminster Blvd.","city":"Westminster","state":"CO","zip":"80020","distance":"20.020212173461914","lon":"-105.070831","lat":"39.889076","theaterChainName":"AMC Theatres","ticketType":"E_TICKET"},{"id":"3428","name":"AMC Flatiron Crossing 14","address":"61 W. Flatiron Circle","city":"Broomfield","state":"CO","zip":"80021","distance":"17.232067108154297","lon":"-105.135811","lat":"39.929947","theaterChainName":"AMC Theatres","ticketType":"SELECT_SEATING"},{"id":"16","name":"Cinebarre - Thornton","address":"10001 Grant St.","city":"Thornton","state":"CO","zip":"80229","distance":"21.648418426513672","lon":"-104.983803","lat":"39.877701","theaterChainName":"Regal Cinemas","ticketType":"STANDARD"},{"id":"5533","name":"Cinebarre Boulder","address":"1164 W. Dillon Rd","city":"Louisville","state":"CO","zip":"80027","distance":"15.328861236572266","lon":"-105.167000","lat":"39.961899","theaterChainName":"Regal Cinemas","ticketType":"STANDARD"},{"id":"4487","name":"AMC Orchard 12","address":"14653 Orchard Parkway","city":"Westminster","state":"CO","zip":"80023","distance":"15.942983627319336","lon":"-104.994797","lat":"39.961926","theaterChainName":"AMC Theatres","ticketType":"E_TICKET"},{"id":"4373","name":"Century Boulder","address":"1700 29th Street","city":"Boulder","state":"CO","zip":"80301","distance":"13.748108863830566","lon":"-105.254425","lat":"40.017288","theaterChainName":"Cinemark","ticketType":"STANDARD"},{"id":"3992","name":"AMC Showplace Brighton 12","address":"250 Pavilions Place","city":"Brighton","state":"CO","zip":"80601","distance":"19.929758071899414","lon":"-104.823563","lat":"39.982548","theaterChainName":"AMC Theatres","ticketType":"E_TICKET"},{"id":"1185","name":"Regal Village at the Peaks 12 & RPX","address":"1250 S. Hover Road","city":"Longmont","state":"CO","zip":"80501","distance":"2.5245563983917236","lon":"-105.127457","lat":"40.147518","theaterChainName":"United Artists","ticketType":"STANDARD"},{"id":"1186","name":"Metrolux 14 Theatre","address":"6085 Sky Pond Dr.","city":"Loveland","state":"CO","zip":"80538","distance":"17.707557678222656","lon":"-104.990906","lat":"40.420048","theaterChainName":"Metropolitan Theatres","ticketType":"STANDARD"},{"id":"2157","name":"Carmike 5 Greeley","address":"2495 W. 28th","city":"Greeley","state":"CO","zip":"80631","distance":"24.923259735107422","lon":"-104.721481","lat":"40.393147","theaterChainName":"Carmike Cinemas","ticketType":"STANDARD"},{"id":"1757","name":"Carmike 10 Fort Collins","address":"3636 Manhattan Ave.","city":"Fort Collins","state":"CO","zip":"80526","distance":"24.811140060424805","lon":"-105.081467","lat":"40.536667","theaterChainName":"Carmike Cinemas","ticketType":"STANDARD"},{"id":"3008","name":"Cinemark Fort Collins","address":"4721 South Timberline Road","city":"Fort Collins","state":"CO","zip":"80525","distance":"23.889720916748047","lon":"-105.042450","lat":"40.520756","theaterChainName":"Cinemark","ticketType":"STANDARD"}]