[{"id":"1185","tribuneTheaterId":"5716","providerTheaterId":"","name":"Regal Village at the Peaks 12 & RPX","address":"1250 S. Hover Road","city":"Longmont","state":"CO","zip":"80501","distance":1.9340682580281,"lon":"-105.127457","lat":"40.14752","theaterChainName":"United Artists","ticketType":"STANDARD"},{"id":"4373","tribuneTheaterId":"9413","providerTheaterId":"","name":"Century Boulder","address":"1700 29th Street","city":"Boulder","state":"CO","zip":"80301","distance":10.741848202171,"lon":"-105.254425","lat":"40.017287","theaterChainName":"Cinemark","ticketType":"STANDARD"},{"id":"5533","tribuneTheaterId":"10964","providerTheaterId":"","name":"Cinebarre Boulder","address":"1164 W. Dillon Rd","city":"Louisville","state":"CO","zip":"80027","distance":13.406307931473,"lon":"-105.167","lat":"39.9619","theaterChainName":"Regal Cinemas","ticketType":"STANDARD"},{"id":"4487","tribuneTheaterId":"9587","providerTheaterId":"53","name":"AMC Orchard 12","address":"14653 Orchard Parkway","city":"Westminster","state":"CO","zip":"80023","distance":16.068097629415,"lon":"-104.994793","lat":"39.961926","theaterChainName":"AMC Theatres","ticketType":"E_TICKET"},{"id":"3428","tribuneTheaterId":"8622","providerTheaterId":"52","name":"AMC Flatiron Crossing 14","address":"61 W. Flatiron Circle","city":"Broomfield","state":"CO","zip":"80021","distance":15.675052259458,"lon":"-105.135813","lat":"39.929947","theaterChainName":"AMC Theatres","ticketType":"SELECT_SEATING"},{"id":"542","tribuneTheaterId":"8911","providerTheaterId":"92","name":"AMC Westminster Promenade 24","address":"10655 Westminster Blvd.","city":"Westminster","state":"CO","zip":"80020","distance":19.061700810376,"lon":"-105.070831","lat":"39.889077","theaterChainName":"AMC Theatres","ticketType":"E_TICKET"},{"id":"1186","tribuneTheaterId":"3179","providerTheaterId":"","name":"Metrolux 14 Theatre","address":"6085 Sky Pond Dr.","city":"Loveland","state":"CO","zip":"80538","distance":20.366222085322,"lon":"-104.990909","lat":"40.420047","theaterChainName":"Metropolitan Theatres","ticketType":"STANDARD"},{"id":"3992","tribuneTheaterId":"8335","providerTheaterId":"6096","name":"AMC Showplace Brighton 12","address":"250 Pavilions Place","city":"Brighton","state":"CO","zip":"80601","distance":21.55095414013,"lon":"-104.823561","lat":"39.982548","theaterChainName":"AMC Theatres","ticketType":"E_TICKET"},{"id":"16","tribuneTheaterId":"9076","providerTheaterId":"","name":"Cinebarre - Thornton","address":"10001 Grant St.","city":"Thornton","state":"CO","zip":"80229","distance":21.419414102115,"lon":"-104.9838","lat":"39.8777","theaterChainName":"Regal Cinemas","ticketType":"STANDARD"},{"id":"2409","tribuneTheaterId":"1517","providerTheaterId":"","name":"Reel Mountain Theatre","address":"543 Big Thompson Ave.","city":"Estes Park","state":"CO","zip":"80517","distance":24.168296741001,"lon":"-105.5158","lat":"40.3787","theaterChainName":"Independent Chains","ticketType":"STANDARD"},{"id":"3873","tribuneTheaterId":"4869","providerTheaterId":"","name":"Elvis Cinemas - Arvada","address":"5157 W. 64th Ave.","city":"Arvada","state":"CO","zip":"80003","distance":24.353296603396,"lon":"-105.051055","lat":"39.813911","theaterChainName":"Independent Chains","ticketType":"STANDARD"}]