[{"id":"1186","tribuneTheaterId":"3179","providerTheaterId":"","name":"Metrolux 14 Theatre","address":"6085 Sky Pond Dr.","city":"Loveland","state":"CO","zip":"80538","distance":10.295645532311,"lon":"-104.990909","lat":"40.420047","theaterChainName":"Metropolitan Theatres","ticketType":"STANDARD"},{"id":"1185","tribuneTheaterId":"5716","providerTheaterId":"","name":"Regal Village at the Peaks 12 & RPX","address":"1250 S. Hover Road","city":"Longmont","state":"CO","zip":"80501","distance":10.550759767529,"lon":"-105.127457","lat":"40.14752","theaterChainName":"United Artists","ticketType":"STANDARD"},{"id":"1757","tribuneTheaterId":"6918","providerTheaterId":"","name":"Carmike 10 Fort Collins","address":"3636 Manhattan Ave.","city":"Fort Collins","state":"CO","zip":"80526","distance":16.449203757271,"lon":"-105.081464","lat":"40.536668","theaterChainName":"Carmike Cinemas","ticketType":"STANDARD"},{"id":"3008","tribuneTheaterId":"8549","providerTheaterId":"","name":"Cinemark Fort Collins","address":"4721 South Timberline Road","city":"Fort Collins","state":"CO","zip":"80525","distance":15.656533745145,"lon":"-105.04245","lat":"40.520756","theaterChainName":"Cinemark","ticketType":"STANDARD"},{"id":"5798","tribuneTheaterId":"11238","providerTheaterId":"","name":"Cinemark Movie Bistro and XD","address":"335 E. Foothills Parkway","city":"Fort Collins","state":"CO","zip":"80525","distance":16.848208106901,"lon":"-105.074494","lat":"40.542002","theaterChainName":"Cinemark","ticketType":"STANDARD"},{"id":"743","tribuneTheaterId":"8334","providerTheaterId":"6285","name":"AMC Cinema Saver 6","address":"2525 Worthington Circle","city":"Fort Collins","state":"CO","zip":"80526","distance":17.591480328703,"lon":"-105.094501","lat":"40.553767","theaterChainName":"AMC Theatres","ticketType":"E_TICKET"},{"id":"2409","tribuneTheaterId":"1517","providerTheaterId":"","name":"Reel Mountain Theatre","address":"543 Big Thompson Ave.","city":"Estes Park","state":"CO","zip":"80517","distance":22.293889693078,"lon":"-105.5158","lat":"40.3787","theaterChainName":"Independent Chains","ticketType":"STANDARD"},{"id":"3793","tribuneTheaterId":"4177","providerTheaterId":"","name":"Cinemark Greeley","address":"2160 Greeley Mall","city":"Greeley","state":"CO","zip":"80631","distance":21.553250334478,"lon":"-104.713901","lat":"40.390016","theaterChainName":"Cinemark","ticketType":"STANDARD"},{"id":"2157","tribuneTheaterId":"4703","providerTheaterId":"","name":"Carmike 5 Greeley","address":"2495 W. 28th","city":"Greeley","state":"CO","zip":"80631","distance":21.236366294202,"lon":"-104.721478","lat":"40.393145","theaterChainName":"Carmike Cinemas","ticketType":"STANDARD"},{"id":"4373","tribuneTheaterId":"9413","providerTheaterId":"","name":"Century Boulder","address":"1700 29th Street","city":"Boulder","state":"CO","zip":"80301","distance":21.012299676735,"lon":"-105.254425","lat":"40.017287","theaterChainName":"Cinemark","ticketType":"STANDARD"},{"id":"4585","tribuneTheaterId":"9735","providerTheaterId":"","name":"The Kress Cinema and Lounge","address":"817 8th Ave.","city":"Greeley","state":"CO","zip":"80631","distance":23.486260810105,"lon":"-104.690804","lat":"40.424599","theaterChainName":"Independent Chains","ticketType":"STANDARD"},{"id":"4487","tribuneTheaterId":"9587","providerTheaterId":"53","name":"AMC Orchard 12","address":"14653 Orchard Parkway","city":"Westminster","state":"CO","zip":"80023","distance":24.032728956128,"lon":"-104.994793","lat":"39.961926","theaterChainName":"AMC Theatres","ticketType":"E_TICKET"},{"id":"5533","tribuneTheaterId":"10964","providerTheaterId":"","name":"Cinebarre Boulder","address":"1164 W. Dillon Rd","city":"Louisville","state":"CO","zip":"80027","distance":23.53737786612,"lon":"-105.167","lat":"39.9619","theaterChainName":"Regal Cinemas","ticketType":"STANDARD"}]