[{"id":"5533","name":"Cinebarre Boulder","address":"1164 W. Dillon Rd","city":"Louisville","state":"CO","zip":"80027","distance":"23.53900146484375","lon":"-105.167000","lat":"39.961899","theaterChainName":"Regal Cinemas","ticketType":"STANDARD"},{"id":"4487","name":"AMC Orchard 12","address":"14653 Orchard Parkway","city":"Westminster","state":"CO","zip":"80023","distance":"24.034271240234375","lon":"-104.994797","lat":"39.961926","theaterChainName":"AMC Theatres","ticketType":"E_TICKET"},{"id":"4373","name":"Century Boulder","address":"1700 29th Street","city":"Boulder","state":"CO","zip":"80301","distance":"21.013612747192383","lon":"-105.254425","lat":"40.017288","theaterChainName":"Cinemark","ticketType":"STANDARD"},{"id":"1185","name":"Regal Village at the Peaks 12 & RPX","address":"1250 S. Hover Road","city":"Longmont","state":"CO","zip":"80501","distance":"10.551621437072754","lon":"-105.127457","lat":"40.147518","theaterChainName":"United Artists","ticketType":"STANDARD"},{"id":"1186","name":"Metrolux 14 Theatre","address":"6085 Sky Pond Dr.","city":"Loveland","state":"CO","zip":"80538","distance":"10.29633903503418","lon":"-104.990906","lat":"40.420048","theaterChainName":"Metropolitan Theatres","ticketType":"STANDARD"},{"id":"2157","name":"Carmike 5 Greeley","address":"2495 W. 28th","city":"Greeley","state":"CO","zip":"80631","distance":"21.237485885620117","lon":"-104.721481","lat":"40.393147","theaterChainName":"Carmike Cinemas","ticketType":"STANDARD"},{"id":"3793","name":"Cinemark Greeley","address":"2160 Greeley Mall","city":"Greeley","state":"CO","zip":"80631","distance":"21.554664611816406","lon":"-104.713898","lat":"40.390015","theaterChainName":"Cinemark","ticketType":"STANDARD"},{"id":"2409","name":"Reel Mountain Theatre","address":"543 Big Thompson Ave.","city":"Estes Park","state":"CO","zip":"80517","distance":"22.295318603515625","lon":"-105.515800","lat":"40.378700","theaterChainName":"Independent Chains","ticketType":"STANDARD"},{"id":"1757","name":"Carmike 10 Fort Collins","address":"3636 Manhattan Ave.","city":"Fort Collins","state":"CO","zip":"80526","distance":"16.45005226135254","lon":"-105.081467","lat":"40.536667","theaterChainName":"Carmike Cinemas","ticketType":"STANDARD"},{"id":"743","name":"AMC Cinema Saver 6","address":"2525 Worthington Circle","city":"Fort Collins","state":"CO","zip":"80526","distance":"17.592575073242188","lon":"-105.094498","lat":"40.553768","theaterChainName":"AMC Theatres","ticketType":"E_TICKET"},{"id":"5798","name":"Cinemark Movie Bistro and XD","address":"335 E. Foothills Parkway","city":"Fort Collins","state":"CO","zip":"80525","distance":"16.849285125732422","lon":"-105.074493","lat":"40.542004","theaterChainName":"Cinemark","ticketType":"STANDARD"},{"id":"3008","name":"Cinemark Fort Collins","address":"4721 South Timberline Road","city":"Fort Collins","state":"CO","zip":"80525","distance":"15.657402992248535","lon":"-105.042450","lat":"40.520756","theaterChainName":"Cinemark","ticketType":"STANDARD"},{"id":"4585","name":"The Kress Cinema and Lounge","address":"817 8th Ave.","city":"Greeley","state":"CO","zip":"80631","distance":"23.487667083740234","lon":"-104.690804","lat":"40.424599","theaterChainName":"Independent Chains","ticketType":"STANDARD"}]