[{"id":"5798","tribuneTheaterId":"11238","providerTheaterId":"","name":"Cinemark Movie Bistro and XD","address":"335 E. Foothills Parkway","city":"Fort Collins","state":"CO","zip":"80525","distance":7.0315382209404,"lon":"-105.074494","lat":"40.542002","theaterChainName":"Cinemark","ticketType":"STANDARD"},{"id":"1757","tribuneTheaterId":"6918","providerTheaterId":"","name":"Carmike 10 Fort Collins","address":"3636 Manhattan Ave.","city":"Fort Collins","state":"CO","zip":"80526","distance":7.4513104154067,"lon":"-105.081464","lat":"40.536668","theaterChainName":"Carmike Cinemas","ticketType":"STANDARD"},{"id":"743","tribuneTheaterId":"8334","providerTheaterId":"6285","name":"AMC Cinema Saver 6","address":"2525 Worthington Circle","city":"Fort Collins","state":"CO","zip":"80526","distance":6.4651057810925,"lon":"-105.094501","lat":"40.553767","theaterChainName":"AMC Theatres","ticketType":"E_TICKET"},{"id":"3008","tribuneTheaterId":"8549","providerTheaterId":"","name":"Cinemark Fort Collins","address":"4721 South Timberline Road","city":"Fort Collins","state":"CO","zip":"80525","distance":8.4737993623198,"lon":"-105.04245","lat":"40.520756","theaterChainName":"Cinemark","ticketType":"STANDARD"},{"id":"1186","tribuneTheaterId":"3179","providerTheaterId":"","name":"Metrolux 14 Theatre","address":"6085 Sky Pond Dr.","city":"Loveland","state":"CO","zip":"80538","distance":15.78396296394,"lon":"-104.990909","lat":"40.420047","theaterChainName":"Metropolitan Theatres","ticketType":"STANDARD"},{"id":"4585","tribuneTheaterId":"9735","providerTheaterId":"","name":"The Kress Cinema and Lounge","address":"817 8th Ave.","city":"Greeley","state":"CO","zip":"80631","distance":24.439458482178,"lon":"-104.690804","lat":"40.424599","theaterChainName":"Independent Chains","ticketType":"STANDARD"},{"id":"2157","tribuneTheaterId":"4703","providerTheaterId":"","name":"Carmike 5 Greeley","address":"2495 W. 28th","city":"Greeley","state":"CO","zip":"80631","distance":24.66495316756,"lon":"-104.721478","lat":"40.393145","theaterChainName":"Carmike Cinemas","ticketType":"STANDARD"}]