[{"id":"542","name":"AMC Westminster Promenade 24","address":"10655 Westminster Blvd.","city":"Westminster","state":"CO","zip":"80020","distance":"21.945457458496094","lon":"-105.070831","lat":"39.889076","theaterChainName":"AMC Theatres","ticketType":"E_TICKET"},{"id":"3428","name":"AMC Flatiron Crossing 14","address":"61 W. Flatiron Circle","city":"Broomfield","state":"CO","zip":"80021","distance":"18.12124252319336","lon":"-105.135811","lat":"39.929947","theaterChainName":"AMC Theatres","ticketType":"SELECT_SEATING"},{"id":"16","name":"Cinebarre - Thornton","address":"10001 Grant St.","city":"Thornton","state":"CO","zip":"80229","distance":"24.78036880493164","lon":"-104.983803","lat":"39.877701","theaterChainName":"Regal Cinemas","ticketType":"STANDARD"},{"id":"5533","name":"Cinebarre Boulder","address":"1164 W. Dillon Rd","city":"Louisville","state":"CO","zip":"80027","distance":"15.566429138183594","lon":"-105.167000","lat":"39.961899","theaterChainName":"Regal Cinemas","ticketType":"STANDARD"},{"id":"4487","name":"AMC Orchard 12","address":"14653 Orchard Parkway","city":"Westminster","state":"CO","zip":"80023","distance":"19.70854949951172","lon":"-104.994797","lat":"39.961926","theaterChainName":"AMC Theatres","ticketType":"E_TICKET"},{"id":"4373","name":"Century Boulder","address":"1700 29th Street","city":"Boulder","state":"CO","zip":"80301","distance":"11.40457534790039","lon":"-105.254425","lat":"40.017288","theaterChainName":"Cinemark","ticketType":"STANDARD"},{"id":"1185","name":"Regal Village at the Peaks 12 & RPX","address":"1250 S. Hover Road","city":"Longmont","state":"CO","zip":"80501","distance":"6.032787322998047","lon":"-105.127457","lat":"40.147518","theaterChainName":"United Artists","ticketType":"STANDARD"},{"id":"1186","name":"Metrolux 14 Theatre","address":"6085 Sky Pond Dr.","city":"Loveland","state":"CO","zip":"80538","distance":"20.833805084228516","lon":"-104.990906","lat":"40.420048","theaterChainName":"Metropolitan Theatres","ticketType":"STANDARD"},{"id":"2409","name":"Reel Mountain Theatre","address":"543 Big Thompson Ave.","city":"Estes Park","state":"CO","zip":"80517","distance":"20.20846939086914","lon":"-105.515800","lat":"40.378700","theaterChainName":"Independent Chains","ticketType":"STANDARD"}]