[{"id":"1186","name":"Metrolux 14 Theatre","address":"6085 Sky Pond Dr.","city":"Loveland","state":"CO","zip":"80538","distance":"16.992958068847656","lon":"-104.990906","lat":"40.420048","theaterChainName":"Metropolitan Theatres","ticketType":"STANDARD"},{"id":"1757","name":"Carmike 10 Fort Collins","address":"3636 Manhattan Ave.","city":"Fort Collins","state":"CO","zip":"80526","distance":"7.640125274658203","lon":"-105.081467","lat":"40.536667","theaterChainName":"Carmike Cinemas","ticketType":"STANDARD"},{"id":"743","name":"AMC Cinema Saver 6","address":"2525 Worthington Circle","city":"Fort Collins","state":"CO","zip":"80526","distance":"6.27630615234375","lon":"-105.094498","lat":"40.553768","theaterChainName":"AMC Theatres","ticketType":"E_TICKET"},{"id":"5798","name":"Cinemark Movie Bistro and XD","address":"335 E. Foothills Parkway","city":"Fort Collins","state":"CO","zip":"80525","distance":"7.498687267303467","lon":"-105.074493","lat":"40.542004","theaterChainName":"Cinemark","ticketType":"STANDARD"},{"id":"3008","name":"Cinemark Fort Collins","address":"4721 South Timberline Road","city":"Fort Collins","state":"CO","zip":"80525","distance":"9.651076316833496","lon":"-105.042450","lat":"40.520756","theaterChainName":"Cinemark","ticketType":"STANDARD"}]