[{"id":"2409","tribuneTheaterId":"1517","providerTheaterId":"","name":"Reel Mountain Theatre","address":"543 Big Thompson Ave.","city":"Estes Park","state":"CO","zip":"80517","distance":6.554924308446,"lon":"-105.5158","lat":"40.3787","theaterChainName":"Independent Chains","ticketType":"STANDARD"},{"id":"5798","tribuneTheaterId":"11238","providerTheaterId":"","name":"Cinemark Movie Bistro and XD","address":"335 E. Foothills Parkway","city":"Fort Collins","state":"CO","zip":"80525","distance":20.417496265114,"lon":"-105.074494","lat":"40.542002","theaterChainName":"Cinemark","ticketType":"STANDARD"},{"id":"743","tribuneTheaterId":"8334","providerTheaterId":"6285","name":"AMC Cinema Saver 6","address":"2525 Worthington Circle","city":"Fort Collins","state":"CO","zip":"80526","distance":19.669617663493,"lon":"-105.094501","lat":"40.553767","theaterChainName":"AMC Theatres","ticketType":"E_TICKET"},{"id":"1757","tribuneTheaterId":"6918","providerTheaterId":"","name":"Carmike 10 Fort Collins","address":"3636 Manhattan Ave.","city":"Fort Collins","state":"CO","zip":"80526","distance":19.96375447376,"lon":"-105.081464","lat":"40.536668","theaterChainName":"Carmike Cinemas","ticketType":"STANDARD"},{"id":"3008","tribuneTheaterId":"8549","providerTheaterId":"","name":"Cinemark Fort Collins","address":"4721 South Timberline Road","city":"Fort Collins","state":"CO","zip":"80525","distance":21.698481816405,"lon":"-105.04245","lat":"40.520756","theaterChainName":"Cinemark","ticketType":"STANDARD"},{"id":"1186","tribuneTheaterId":"3179","providerTheaterId":"","name":"Metrolux 14 Theatre","address":"6085 Sky Pond Dr.","city":"Loveland","state":"CO","zip":"80538","distance":24.125750518073,"lon":"-104.990909","lat":"40.420047","theaterChainName":"Metropolitan Theatres","ticketType":"STANDARD"}]