[{"id":"3428","name":"AMC Flatiron Crossing 14","address":"61 W. Flatiron Circle","city":"Broomfield","state":"CO","zip":"80021","distance":"23.331830978393555","lon":"-105.135811","lat":"39.929947","theaterChainName":"AMC Theatres","ticketType":"SELECT_SEATING"},{"id":"5533","name":"Cinebarre Boulder","address":"1164 W. Dillon Rd","city":"Louisville","state":"CO","zip":"80027","distance":"20.639680862426758","lon":"-105.167000","lat":"39.961899","theaterChainName":"Regal Cinemas","ticketType":"STANDARD"},{"id":"4373","name":"Century Boulder","address":"1700 29th Street","city":"Boulder","state":"CO","zip":"80301","distance":"15.521639823913574","lon":"-105.254425","lat":"40.017288","theaterChainName":"Cinemark","ticketType":"STANDARD"},{"id":"1185","name":"Regal Village at the Peaks 12 & RPX","address":"1250 S. Hover Road","city":"Longmont","state":"CO","zip":"80501","distance":"11.990070343017578","lon":"-105.127457","lat":"40.147518","theaterChainName":"United Artists","ticketType":"STANDARD"},{"id":"1186","name":"Metrolux 14 Theatre","address":"6085 Sky Pond Dr.","city":"Loveland","state":"CO","zip":"80538","distance":"21.644044876098633","lon":"-104.990906","lat":"40.420048","theaterChainName":"Metropolitan Theatres","ticketType":"STANDARD"},{"id":"2409","name":"Reel Mountain Theatre","address":"543 Big Thompson Ave.","city":"Estes Park","state":"CO","zip":"80517","distance":"14.168305397033691","lon":"-105.515800","lat":"40.378700","theaterChainName":"Independent Chains","ticketType":"STANDARD"},{"id":"1757","name":"Carmike 10 Fort Collins","address":"3636 Manhattan Ave.","city":"Fort Collins","state":"CO","zip":"80526","distance":"24.376419067382812","lon":"-105.081467","lat":"40.536667","theaterChainName":"Carmike Cinemas","ticketType":"STANDARD"},{"id":"5798","name":"Cinemark Movie Bistro and XD","address":"335 E. Foothills Parkway","city":"Fort Collins","state":"CO","zip":"80525","distance":"24.882505416870117","lon":"-105.074493","lat":"40.542004","theaterChainName":"Cinemark","ticketType":"STANDARD"},{"id":"3008","name":"Cinemark Fort Collins","address":"4721 South Timberline Road","city":"Fort Collins","state":"CO","zip":"80525","distance":"24.620908737182617","lon":"-105.042450","lat":"40.520756","theaterChainName":"Cinemark","ticketType":"STANDARD"}]