[{"id":"1185","tribuneTheaterId":"5716","providerTheaterId":"","name":"Regal Village at the Peaks 12 & RPX","address":"1250 S. Hover Road","city":"Longmont","state":"CO","zip":"80501","distance":11.989418837806,"lon":"-105.127457","lat":"40.14752","theaterChainName":"United Artists","ticketType":"STANDARD"},{"id":"2409","tribuneTheaterId":"1517","providerTheaterId":"","name":"Reel Mountain Theatre","address":"543 Big Thompson Ave.","city":"Estes Park","state":"CO","zip":"80517","distance":14.167229604312,"lon":"-105.5158","lat":"40.3787","theaterChainName":"Independent Chains","ticketType":"STANDARD"},{"id":"4373","tribuneTheaterId":"9413","providerTheaterId":"","name":"Century Boulder","address":"1700 29th Street","city":"Boulder","state":"CO","zip":"80301","distance":15.520881592697,"lon":"-105.254425","lat":"40.017287","theaterChainName":"Cinemark","ticketType":"STANDARD"},{"id":"5533","tribuneTheaterId":"10964","providerTheaterId":"","name":"Cinebarre Boulder","address":"1164 W. Dillon Rd","city":"Louisville","state":"CO","zip":"80027","distance":20.638462688033,"lon":"-105.167","lat":"39.9619","theaterChainName":"Regal Cinemas","ticketType":"STANDARD"},{"id":"1186","tribuneTheaterId":"3179","providerTheaterId":"","name":"Metrolux 14 Theatre","address":"6085 Sky Pond Dr.","city":"Loveland","state":"CO","zip":"80538","distance":21.642599962271,"lon":"-104.990909","lat":"40.420047","theaterChainName":"Metropolitan Theatres","ticketType":"STANDARD"},{"id":"3428","tribuneTheaterId":"8622","providerTheaterId":"52","name":"AMC Flatiron Crossing 14","address":"61 W. Flatiron Circle","city":"Broomfield","state":"CO","zip":"80021","distance":23.330474642852,"lon":"-105.135813","lat":"39.929947","theaterChainName":"AMC Theatres","ticketType":"SELECT_SEATING"},{"id":"3008","tribuneTheaterId":"8549","providerTheaterId":"","name":"Cinemark Fort Collins","address":"4721 South Timberline Road","city":"Fort Collins","state":"CO","zip":"80525","distance":24.619410243509,"lon":"-105.04245","lat":"40.520756","theaterChainName":"Cinemark","ticketType":"STANDARD"},{"id":"1757","tribuneTheaterId":"6918","providerTheaterId":"","name":"Carmike 10 Fort Collins","address":"3636 Manhattan Ave.","city":"Fort Collins","state":"CO","zip":"80526","distance":24.375047188319,"lon":"-105.081464","lat":"40.536668","theaterChainName":"Carmike Cinemas","ticketType":"STANDARD"},{"id":"5798","tribuneTheaterId":"11238","providerTheaterId":"","name":"Cinemark Movie Bistro and XD","address":"335 E. Foothills Parkway","city":"Fort Collins","state":"CO","zip":"80525","distance":24.880851139034,"lon":"-105.074494","lat":"40.542002","theaterChainName":"Cinemark","ticketType":"STANDARD"}]