[{"id":"1757","name":"Carmike 10 Fort Collins","address":"3636 Manhattan Ave.","city":"Fort Collins","state":"CO","zip":"80526","distance":"24.993545532226562","lon":"-105.081467","lat":"40.536667","theaterChainName":"Carmike Cinemas","ticketType":"STANDARD"},{"id":"743","name":"AMC Cinema Saver 6","address":"2525 Worthington Circle","city":"Fort Collins","state":"CO","zip":"80526","distance":"24.220178604125977","lon":"-105.094498","lat":"40.553768","theaterChainName":"AMC Theatres","ticketType":"E_TICKET"},{"id":"5798","name":"Cinemark Movie Bistro and XD","address":"335 E. Foothills Parkway","city":"Fort Collins","state":"CO","zip":"80525","distance":"24.507980346679688","lon":"-105.074493","lat":"40.542004","theaterChainName":"Cinemark","ticketType":"STANDARD"},{"id":"4901","name":"Capitol City Digital Cinemas","address":"3410 Concord Rd.","city":"Cheyenne","state":"WY","zip":"82001","distance":"19.89807891845703","lon":"-104.800697","lat":"41.147301","theaterChainName":"WyoMovies.com","ticketType":"STANDARD"},{"id":"1697","name":"Carmike Frontier 9","address":"1400 Del Range Blvd","city":"Cheyenne","state":"WY","zip":"82009","distance":"20.89151382446289","lon":"-104.805161","lat":"41.162746","theaterChainName":"Carmike Cinemas","ticketType":"STANDARD"}]