[{"id":"1186","name":"Metrolux 14 Theatre","address":"6085 Sky Pond Dr.","city":"Loveland","state":"CO","zip":"80538","distance":"14.82573413848877","lon":"-104.990906","lat":"40.420048","theaterChainName":"Metropolitan Theatres","ticketType":"STANDARD"},{"id":"2157","name":"Carmike 5 Greeley","address":"2495 W. 28th","city":"Greeley","state":"CO","zip":"80631","distance":"2.18312668800354","lon":"-104.721481","lat":"40.393147","theaterChainName":"Carmike Cinemas","ticketType":"STANDARD"},{"id":"3793","name":"Cinemark Greeley","address":"2160 Greeley Mall","city":"Greeley","state":"CO","zip":"80631","distance":"2.3138723373413086","lon":"-104.713898","lat":"40.390015","theaterChainName":"Cinemark","ticketType":"STANDARD"},{"id":"1757","name":"Carmike 10 Fort Collins","address":"3636 Manhattan Ave.","city":"Fort Collins","state":"CO","zip":"80526","distance":"21.080272674560547","lon":"-105.081467","lat":"40.536667","theaterChainName":"Carmike Cinemas","ticketType":"STANDARD"},{"id":"743","name":"AMC Cinema Saver 6","address":"2525 Worthington Circle","city":"Fort Collins","state":"CO","zip":"80526","distance":"22.168861389160156","lon":"-105.094498","lat":"40.553768","theaterChainName":"AMC Theatres","ticketType":"E_TICKET"},{"id":"5798","name":"Cinemark Movie Bistro and XD","address":"335 E. Foothills Parkway","city":"Fort Collins","state":"CO","zip":"80525","distance":"20.881824493408203","lon":"-105.074493","lat":"40.542004","theaterChainName":"Cinemark","ticketType":"STANDARD"},{"id":"3008","name":"Cinemark Fort Collins","address":"4721 South Timberline Road","city":"Fort Collins","state":"CO","zip":"80525","distance":"18.77166175842285","lon":"-105.042450","lat":"40.520756","theaterChainName":"Cinemark","ticketType":"STANDARD"},{"id":"4585","name":"The Kress Cinema and Lounge","address":"817 8th Ave.","city":"Greeley","state":"CO","zip":"80631","distance":"0.9665277004241943","lon":"-104.690804","lat":"40.424599","theaterChainName":"Independent Chains","ticketType":"STANDARD"}]