[{"id":"3992","tribuneTheaterId":"8335","providerTheaterId":"6096","name":"AMC Showplace Brighton 12","address":"250 Pavilions Place","city":"Brighton","state":"CO","zip":"80601","distance":10.504149600647,"lon":"-104.823561","lat":"39.982548","theaterChainName":"AMC Theatres","ticketType":"E_TICKET"},{"id":"4487","tribuneTheaterId":"9587","providerTheaterId":"53","name":"AMC Orchard 12","address":"14653 Orchard Parkway","city":"Westminster","state":"CO","zip":"80023","distance":19.319932643155,"lon":"-104.994793","lat":"39.961926","theaterChainName":"AMC Theatres","ticketType":"E_TICKET"},{"id":"16","tribuneTheaterId":"9076","providerTheaterId":"","name":"Cinebarre - Thornton","address":"10001 Grant St.","city":"Thornton","state":"CO","zip":"80229","distance":21.590728843318,"lon":"-104.9838","lat":"39.8777","theaterChainName":"Regal Cinemas","ticketType":"STANDARD"},{"id":"3793","tribuneTheaterId":"4177","providerTheaterId":"","name":"Cinemark Greeley","address":"2160 Greeley Mall","city":"Greeley","state":"CO","zip":"80631","distance":22.984593323911,"lon":"-104.713901","lat":"40.390016","theaterChainName":"Cinemark","ticketType":"STANDARD"},{"id":"2157","tribuneTheaterId":"4703","providerTheaterId":"","name":"Carmike 5 Greeley","address":"2495 W. 28th","city":"Greeley","state":"CO","zip":"80631","distance":23.257227314641,"lon":"-104.721478","lat":"40.393145","theaterChainName":"Carmike Cinemas","ticketType":"STANDARD"}]