[{"id":"3114","tribuneTheaterId":"9042","providerTheaterId":"","name":"Cinemark Carefree Circle and Imax","address":"3305 Cinema Point","city":"Colorado Springs","state":"CO","zip":"80922","distance":20.254703466251,"lon":"-104.716345","lat":"38.880909","theaterChainName":"Cinemark","ticketType":"STANDARD"},{"id":"4602","tribuneTheaterId":"9773","providerTheaterId":"","name":"Picture Show at Citadel Crossing","address":"901 North Academy Blvd.","city":"Colorado Springs","state":"CO","zip":"80909","distance":23.038211399952,"lon":"-104.755604","lat":"38.845883","theaterChainName":"Picture Show Entertainment","ticketType":"STANDARD"},{"id":"4510","tribuneTheaterId":"9617","providerTheaterId":"","name":"Regal Interquest Stadium 14","address":"1120 Interquest Parkway Interquest Parkway and I-25","city":"Colorado Springs","state":"CO","zip":"80920","distance":24.543408470814,"lon":"-104.810708","lat":"38.993974","theaterChainName":"Regal Cinemas","ticketType":"STANDARD"},{"id":"1705","tribuneTheaterId":"7152","providerTheaterId":"","name":"Carmike 10 Colorado Springs","address":"1550 Pulsar Drive","city":"Colorado Springs","state":"CO","zip":"80916","distance":24.090249664112,"lon":"-104.756731","lat":"38.810104","theaterChainName":"Carmike Cinemas","ticketType":"STANDARD"},{"id":"5459","tribuneTheaterId":"10902","providerTheaterId":"","name":"Carmike Chapel Hills 13","address":"1770 Briargate Blvd","city":"Colorado Springs","state":"CO","zip":"80920","distance":23.590289324765,"lon":"-104.7938","lat":"38.947524","theaterChainName":"Carmike Cinemas","ticketType":"STANDARD"}]