[{"id":"1379","name":"Cinemark Tinseltown Colorado Springs","address":"1545 E Cheyenne Mountain Blvd.","city":"Colorado Springs","state":"CO","zip":"80906","distance":"24.437532424926758","lon":"-104.797997","lat":"38.792000","theaterChainName":"Cinemark","ticketType":"STANDARD"},{"id":"2359","name":"Kimballs Peak Three Theatres","address":"115 E. Pikes Peak Ave.","city":"Colorado Springs","state":"CO","zip":"80903","distance":"22.000587463378906","lon":"-104.822716","lat":"38.833389","theaterChainName":"Independent Chains","ticketType":"STANDARD"},{"id":"5459","name":"Carmike Chapel Hills 13","address":"1770 Briargate Blvd","city":"Colorado Springs","state":"CO","zip":"80920","distance":"21.806049346923828","lon":"-104.793800","lat":"38.947525","theaterChainName":"Carmike Cinemas","ticketType":"STANDARD"},{"id":"4510","name":"Regal Interquest Stadium 14","address":"1120 Interquest Parkway Interquest Parkway and I-25","city":"Colorado Springs","state":"CO","zip":"80920","distance":"21.03032875061035","lon":"-104.810707","lat":"38.993973","theaterChainName":"Regal Cinemas","ticketType":"STANDARD"}]