[{"id":"3114","tribuneTheaterId":"9042","providerTheaterId":"","name":"Cinemark Carefree Circle and Imax","address":"3305 Cinema Point","city":"Colorado Springs","state":"CO","zip":"80922","distance":1.7420824891132,"lon":"-104.716345","lat":"38.880909","theaterChainName":"Cinemark","ticketType":"STANDARD"},{"id":"4602","tribuneTheaterId":"9773","providerTheaterId":"","name":"Picture Show at Citadel Crossing","address":"901 North Academy Blvd.","city":"Colorado Springs","state":"CO","zip":"80909","distance":2.3720572984995,"lon":"-104.755604","lat":"38.845883","theaterChainName":"Picture Show Entertainment","ticketType":"STANDARD"},{"id":"1705","tribuneTheaterId":"7152","providerTheaterId":"","name":"Carmike 10 Colorado Springs","address":"1550 Pulsar Drive","city":"Colorado Springs","state":"CO","zip":"80916","distance":3.9252343273019,"lon":"-104.756731","lat":"38.810104","theaterChainName":"Carmike Cinemas","ticketType":"STANDARD"},{"id":"1379","tribuneTheaterId":"5216","providerTheaterId":"","name":"Cinemark Tinseltown Colorado Springs","address":"1545 E Cheyenne Mountain Blvd.","city":"Colorado Springs","state":"CO","zip":"80906","distance":6.3379877531704,"lon":"-104.798","lat":"38.792","theaterChainName":"Cinemark","ticketType":"STANDARD"},{"id":"2359","tribuneTheaterId":"2733","providerTheaterId":"","name":"Kimballs Peak Three Theatres","address":"115 E. Pikes Peak Ave.","city":"Colorado Springs","state":"CO","zip":"80903","distance":6.0831415858281,"lon":"-104.822718","lat":"38.833389","theaterChainName":"Independent Chains","ticketType":"STANDARD"},{"id":"5459","tribuneTheaterId":"10902","providerTheaterId":"","name":"Carmike Chapel Hills 13","address":"1770 Briargate Blvd","city":"Colorado Springs","state":"CO","zip":"80920","distance":7.6715986451619,"lon":"-104.7938","lat":"38.947524","theaterChainName":"Carmike Cinemas","ticketType":"STANDARD"},{"id":"4510","tribuneTheaterId":"9617","providerTheaterId":"","name":"Regal Interquest Stadium 14","address":"1120 Interquest Parkway Interquest Parkway and I-25","city":"Colorado Springs","state":"CO","zip":"80920","distance":10.885857531826,"lon":"-104.810708","lat":"38.993974","theaterChainName":"Regal Cinemas","ticketType":"STANDARD"}]