[{"id":"1705","name":"Carmike 10 Colorado Springs","address":"1550 Pulsar Drive","city":"Colorado Springs","state":"CO","zip":"80916","distance":"3.05484938621521","lon":"-104.756729","lat":"38.810104","theaterChainName":"Carmike Cinemas","ticketType":"STANDARD"},{"id":"1379","name":"Cinemark Tinseltown Colorado Springs","address":"1545 E Cheyenne Mountain Blvd.","city":"Colorado Springs","state":"CO","zip":"80906","distance":"5.540475845336914","lon":"-104.797997","lat":"38.792000","theaterChainName":"Cinemark","ticketType":"STANDARD"},{"id":"4602","name":"Picture Show at Citadel Crossing","address":"901 North Academy Blvd.","city":"Colorado Springs","state":"CO","zip":"80909","distance":"3.4605042934417725","lon":"-104.755608","lat":"38.845882","theaterChainName":"Picture Show Entertainment","ticketType":"STANDARD"},{"id":"2359","name":"Kimballs Peak Three Theatres","address":"115 E. Pikes Peak Ave.","city":"Colorado Springs","state":"CO","zip":"80903","distance":"6.6142096519470215","lon":"-104.822716","lat":"38.833389","theaterChainName":"Independent Chains","ticketType":"STANDARD"},{"id":"3114","name":"Cinemark Carefree Circle and Imax","address":"3305 Cinema Point","city":"Colorado Springs","state":"CO","zip":"80922","distance":"4.341216564178467","lon":"-104.716347","lat":"38.880909","theaterChainName":"Cinemark","ticketType":"STANDARD"},{"id":"5459","name":"Carmike Chapel Hills 13","address":"1770 Briargate Blvd","city":"Colorado Springs","state":"CO","zip":"80920","distance":"10.170093536376953","lon":"-104.793800","lat":"38.947525","theaterChainName":"Carmike Cinemas","ticketType":"STANDARD"},{"id":"4510","name":"Regal Interquest Stadium 14","address":"1120 Interquest Parkway Interquest Parkway and I-25","city":"Colorado Springs","state":"CO","zip":"80920","distance":"13.435405731201172","lon":"-104.810707","lat":"38.993973","theaterChainName":"Regal Cinemas","ticketType":"STANDARD"}]