[{"id":"1379","tribuneTheaterId":"5216","providerTheaterId":"","name":"Cinemark Tinseltown Colorado Springs","address":"1545 E Cheyenne Mountain Blvd.","city":"Colorado Springs","state":"CO","zip":"80906","distance":7.0778820430996,"lon":"-104.798","lat":"38.792","theaterChainName":"Cinemark","ticketType":"STANDARD"},{"id":"2359","tribuneTheaterId":"2733","providerTheaterId":"","name":"Kimballs Peak Three Theatres","address":"115 E. Pikes Peak Ave.","city":"Colorado Springs","state":"CO","zip":"80903","distance":9.4666281737989,"lon":"-104.822718","lat":"38.833389","theaterChainName":"Independent Chains","ticketType":"STANDARD"},{"id":"1705","tribuneTheaterId":"7152","providerTheaterId":"","name":"Carmike 10 Colorado Springs","address":"1550 Pulsar Drive","city":"Colorado Springs","state":"CO","zip":"80916","distance":9.2420201991222,"lon":"-104.756731","lat":"38.810104","theaterChainName":"Carmike Cinemas","ticketType":"STANDARD"},{"id":"4602","tribuneTheaterId":"9773","providerTheaterId":"","name":"Picture Show at Citadel Crossing","address":"901 North Academy Blvd.","city":"Colorado Springs","state":"CO","zip":"80909","distance":11.418930981511,"lon":"-104.755604","lat":"38.845883","theaterChainName":"Picture Show Entertainment","ticketType":"STANDARD"},{"id":"3114","tribuneTheaterId":"9042","providerTheaterId":"","name":"Cinemark Carefree Circle and Imax","address":"3305 Cinema Point","city":"Colorado Springs","state":"CO","zip":"80922","distance":14.551229914859,"lon":"-104.716345","lat":"38.880909","theaterChainName":"Cinemark","ticketType":"STANDARD"},{"id":"5459","tribuneTheaterId":"10902","providerTheaterId":"","name":"Carmike Chapel Hills 13","address":"1770 Briargate Blvd","city":"Colorado Springs","state":"CO","zip":"80920","distance":17.501715826673,"lon":"-104.7938","lat":"38.947524","theaterChainName":"Carmike Cinemas","ticketType":"STANDARD"},{"id":"4510","tribuneTheaterId":"9617","providerTheaterId":"","name":"Regal Interquest Stadium 14","address":"1120 Interquest Parkway Interquest Parkway and I-25","city":"Colorado Springs","state":"CO","zip":"80920","distance":20.55475042287,"lon":"-104.810708","lat":"38.993974","theaterChainName":"Regal Cinemas","ticketType":"STANDARD"}]