[{"id":"1705","name":"Carmike 10 Colorado Springs","address":"1550 Pulsar Drive","city":"Colorado Springs","state":"CO","zip":"80916","distance":"8.242779731750488","lon":"-104.756729","lat":"38.810104","theaterChainName":"Carmike Cinemas","ticketType":"STANDARD"},{"id":"1379","name":"Cinemark Tinseltown Colorado Springs","address":"1545 E Cheyenne Mountain Blvd.","city":"Colorado Springs","state":"CO","zip":"80906","distance":"10.635210990905762","lon":"-104.797997","lat":"38.792000","theaterChainName":"Cinemark","ticketType":"STANDARD"},{"id":"4602","name":"Picture Show at Citadel Crossing","address":"901 North Academy Blvd.","city":"Colorado Springs","state":"CO","zip":"80909","distance":"6.412637233734131","lon":"-104.755608","lat":"38.845882","theaterChainName":"Picture Show Entertainment","ticketType":"STANDARD"},{"id":"2359","name":"Kimballs Peak Three Theatres","address":"115 E. Pikes Peak Ave.","city":"Colorado Springs","state":"CO","zip":"80903","distance":"9.88642692565918","lon":"-104.822716","lat":"38.833389","theaterChainName":"Independent Chains","ticketType":"STANDARD"},{"id":"3114","name":"Cinemark Carefree Circle and Imax","address":"3305 Cinema Point","city":"Colorado Springs","state":"CO","zip":"80922","distance":"3.2880465984344482","lon":"-104.716347","lat":"38.880909","theaterChainName":"Cinemark","ticketType":"STANDARD"},{"id":"5459","name":"Carmike Chapel Hills 13","address":"1770 Briargate Blvd","city":"Colorado Springs","state":"CO","zip":"80920","distance":"7.608686923980713","lon":"-104.793800","lat":"38.947525","theaterChainName":"Carmike Cinemas","ticketType":"STANDARD"},{"id":"4510","name":"Regal Interquest Stadium 14","address":"1120 Interquest Parkway Interquest Parkway and I-25","city":"Colorado Springs","state":"CO","zip":"80920","distance":"10.035542488098145","lon":"-104.810707","lat":"38.993973","theaterChainName":"Regal Cinemas","ticketType":"STANDARD"}]