[{"id":"2407","name":"Durango Stadium 9","address":"900 Trans-Lux Dr.","city":"Durango","state":"CO","zip":"81301","distance":"17.336854934692383","lon":"-107.869888","lat":"37.239433","theaterChainName":"Allen Theatres","ticketType":"STANDARD"},{"id":"5446","name":"Animas City Theatre","address":"128 E. College Drive","city":"Durango","state":"CO","zip":"81301","distance":"18.180103302001953","lon":"-107.881142","lat":"37.269848","theaterChainName":"Independent Chains","ticketType":"STANDARD"},{"id":"2408","name":"Gaslight Twin Cinema","address":"102 E. Fifth St.","city":"Durango","state":"CO","zip":"81303","distance":"18.098087310791016","lon":"-107.882072","lat":"37.268898","theaterChainName":"Allen Theatres","ticketType":"STANDARD"},{"id":"1624","name":"Allen 8 Theatre Farmington","address":"1819 20th Street","city":"Farmington","state":"NM","zip":"87401","distance":"24.045955657958984","lon":"-108.182579","lat":"36.747639","theaterChainName":"Allen Theatres","ticketType":"STANDARD"},{"id":"2137","name":"Allen Animas Theatre 10","address":"4601 E Main","city":"Farmington","state":"NM","zip":"87401","distance":"22.69964599609375","lon":"-108.152298","lat":"36.764801","theaterChainName":"Allen Theatres","ticketType":"STANDARD"}]