[{"id":"1959","tribuneTheaterId":"1125","providerTheaterId":"","name":"Allen Fiesta Theatre","address":"23 W. Main Street","city":"Cortez","state":"CO","zip":"81321","distance":15.801936478782,"lon":"-108.585885","lat":"37.348467","theaterChainName":"Allen Theatres","ticketType":"STANDARD"},{"id":"2408","tribuneTheaterId":"1186","providerTheaterId":"","name":"Gaslight Twin Cinema","address":"102 E. Fifth St.","city":"Durango","state":"CO","zip":"81303","distance":23.498175324486,"lon":"-107.882076","lat":"37.268897","theaterChainName":"Allen Theatres","ticketType":"STANDARD"},{"id":"5446","tribuneTheaterId":"10886","providerTheaterId":"","name":"Animas City Theatre","address":"128 E. College Drive","city":"Durango","state":"CO","zip":"81301","distance":23.533246085342,"lon":"-107.881138","lat":"37.269846","theaterChainName":"Independent Chains","ticketType":"STANDARD"},{"id":"2407","tribuneTheaterId":"1849","providerTheaterId":"","name":"Durango Stadium 9","address":"900 Trans-Lux Dr.","city":"Durango","state":"CO","zip":"81301","distance":24.690231779656,"lon":"-107.869888","lat":"37.239434","theaterChainName":"Allen Theatres","ticketType":"STANDARD"}]