[{"id":"2835","name":"Rialto Movie Palace","address":"100 E. 2nd St.","city":"Casper","state":"WY","zip":"82601","distance":"1.379954218864441","lon":"-106.325104","lat":"42.848671","theaterChainName":"WyoMovies.com","ticketType":"STANDARD"},{"id":"4317","name":"Iris Stadium 8","address":"230 West Yellowstone","city":"Casper","state":"WY","zip":"82601","distance":"1.4527310132980347","lon":"-106.327461","lat":"42.848400","theaterChainName":"WyoMovies.com","ticketType":"STANDARD"},{"id":"3383","name":"Fox III","address":"150 W 2nd St","city":"Casper","state":"WY","zip":"82601","distance":"1.3899023532867432","lon":"-106.326263","lat":"42.848949","theaterChainName":"WyoMovies.com","ticketType":"STANDARD"},{"id":"2836","name":"America Stadium","address":"119 S. Center St.","city":"Casper","state":"WY","zip":"82601","distance":"1.3150454759597778","lon":"-106.325134","lat":"42.849735","theaterChainName":"WyoMovies.com","ticketType":"STANDARD"},{"id":"4902","name":"Studio City Digital Cinemas","address":"5020 E. Second St.","city":"Casper","state":"WY","zip":"82609","distance":"3.0938377380371094","lon":"-106.257149","lat":"42.848644","theaterChainName":"WyoMovies.com","ticketType":"STANDARD"}]