[{"id":"4902","tribuneTheaterId":"10216","providerTheaterId":"","name":"Studio City Digital Cinemas","address":"5020 E. Second St.","city":"Casper","state":"WY","zip":"82609","distance":1.3116643533922,"lon":"-106.257148","lat":"42.848645","theaterChainName":"WyoMovies.com","ticketType":"STANDARD"},{"id":"2836","tribuneTheaterId":"204","providerTheaterId":"","name":"America Stadium","address":"119 S. Center St.","city":"Casper","state":"WY","zip":"82601","distance":2.3427146282918,"lon":"-106.325135","lat":"42.849735","theaterChainName":"WyoMovies.com","ticketType":"STANDARD"},{"id":"3383","tribuneTheaterId":"1563","providerTheaterId":"","name":"Fox III","address":"150 W 2nd St","city":"Casper","state":"WY","zip":"82601","distance":2.3842698907722,"lon":"-106.326266","lat":"42.848951","theaterChainName":"WyoMovies.com","ticketType":"STANDARD"},{"id":"4317","tribuneTheaterId":"4144","providerTheaterId":"","name":"Iris Stadium 8","address":"230 West Yellowstone","city":"Casper","state":"WY","zip":"82601","distance":2.4343178856985,"lon":"-106.32746","lat":"42.848401","theaterChainName":"WyoMovies.com","ticketType":"STANDARD"},{"id":"2835","tribuneTheaterId":"4046","providerTheaterId":"","name":"Rialto Movie Palace","address":"100 E. 2nd St.","city":"Casper","state":"WY","zip":"82601","distance":2.3223663844896,"lon":"-106.325102","lat":"42.84867","theaterChainName":"WyoMovies.com","ticketType":"STANDARD"}]