[{"id":"2663","name":"Edwards Grand Teton Stadium 14","address":"2702 S 25th St","city":"Idaho Falls","state":"ID","zip":"83406","distance":"17.839759826660156","lon":"-111.982597","lat":"43.473248","theaterChainName":"Edwards Theatres","ticketType":"STANDARD"},{"id":"2429","name":"Paramount Tri-Plex","address":"2085 Niagara St.","city":"Idaho Falls","state":"ID","zip":"83404","distance":"17.145099639892578","lon":"-111.992561","lat":"43.481159","theaterChainName":"Independent Chains","ticketType":"STANDARD"},{"id":"3400","name":"Centre Twin Theatre","address":"461 Park Ave.","city":"Idaho Falls","state":"ID","zip":"83401","distance":"15.59987735748291","lon":"-112.040344","lat":"43.493252","theaterChainName":"Independent Chains","ticketType":"STANDARD"},{"id":"4727","name":"Paramount 5","address":"38 S Center St.","city":"Rexburg","state":"ID","zip":"83440","distance":"18.499818801879883","lon":"-111.783852","lat":"43.825165","theaterChainName":"Independent Chains","ticketType":"STANDARD"},{"id":"5008","name":"Fatcats Cinema 6","address":"475 N 2nd E","city":"Rexburg","state":"ID","zip":"83440","distance":"18.98239517211914","lon":"-111.780457","lat":"43.836105","theaterChainName":"Independent Chains","ticketType":"STANDARD"}]