[{"id":"5486","name":"Village Cinema 15","address":"3711 E. Longwing Ln.","city":"Meridian","state":"ID","zip":"83642","distance":"20.09752082824707","lon":"-116.348343","lat":"43.621399","theaterChainName":"CinemaWest","ticketType":"STANDARD"},{"id":"5418","name":"Village Cinema Meridian","address":"3711 E. Longwing Lane","city":"Meridian","state":"ID","zip":"83642","distance":"20.064807891845703","lon":"-116.348999","lat":"43.621601","theaterChainName":"CinemaWest","ticketType":"STANDARD"},{"id":"2818","name":"Edwards Nampa Stadium 14","address":"2001 N. Cassia St.","city":"Nampa","state":"ID","zip":"83651","distance":"7.252201557159424","lon":"-116.606766","lat":"43.602928","theaterChainName":"Edwards Theatres","ticketType":"STANDARD"},{"id":"3219","name":"Nampa Reel Theatre 6","address":"2104 Caldwell Blvd.","city":"Nampa","state":"ID","zip":"83651","distance":"7.247715950012207","lon":"-116.605736","lat":"43.609776","theaterChainName":"Reel Theatres","ticketType":"STANDARD"},{"id":"4834","name":"Northern Lights Cinema Grill","address":"Karcher Mall","city":"Nampa","state":"ID","zip":"83651","distance":"7.645378589630127","lon":"-116.599327","lat":"43.600571","theaterChainName":"Independent Chains","ticketType":"STANDARD"},{"id":"4949","name":"Nampa Gateway Stadium 12","address":"1232 N. Galleria Dr","city":"Nampa","state":"ID","zip":"83687","distance":"12.142943382263184","lon":"-116.509598","lat":"43.595001","theaterChainName":"Regal Cinemas","ticketType":"STANDARD"},{"id":"4035","name":"Majestic Cinemas - Meridian","address":"2140 East Cinema Dr.","city":"Meridian","state":"ID","zip":"83642","distance":"19.166358947753906","lon":"-116.368752","lat":"43.592346","theaterChainName":"Independent Chains","ticketType":"STANDARD"},{"id":"710","name":"Edwards Boise Stadium 22 & IMAX","address":"7701Overland Rd.","city":"Boise","state":"ID","zip":"83709","distance":"23.716833114624023","lon":"-116.277847","lat":"43.589127","theaterChainName":"Edwards Theatres","ticketType":"STANDARD"},{"id":"3381","name":"Overland Park 1-2-3","address":"7051 Overland Rd.","city":"Boise","state":"ID","zip":"83709","distance":"24.112882614135742","lon":"-116.269897","lat":"43.589172","theaterChainName":"Independent Chains","ticketType":"STANDARD"}]