[{"id":"410","name":"Northgate Reel Theatre","address":"6950 W. State Street","city":"Boise","state":"ID","zip":"83703","distance":"20.025861740112305","lon":"-116.229225","lat":"43.635189","theaterChainName":"Reel Theatres","ticketType":"STANDARD"},{"id":"4109","name":"Regal Boise Downtown Stadium 9","address":"760 Broad St.","city":"Boise","state":"ID","zip":"83702","distance":"21.43282699584961","lon":"-116.205025","lat":"43.613209","theaterChainName":"Regal Cinemas","ticketType":"STANDARD"},{"id":"4455","name":"The Flicks","address":"646 Fulton Street","city":"Boise","state":"ID","zip":"83702","distance":"21.597118377685547","lon":"-116.205238","lat":"43.610836","theaterChainName":"Independent Chains","ticketType":"STANDARD"},{"id":"5486","name":"Village Cinema 15","address":"3711 E. Longwing Ln.","city":"Meridian","state":"ID","zip":"83642","distance":"22.445823669433594","lon":"-116.348343","lat":"43.621399","theaterChainName":"CinemaWest","ticketType":"STANDARD"},{"id":"5418","name":"Village Cinema Meridian","address":"3711 E. Longwing Lane","city":"Meridian","state":"ID","zip":"83642","distance":"22.445066452026367","lon":"-116.348999","lat":"43.621601","theaterChainName":"CinemaWest","ticketType":"STANDARD"},{"id":"4035","name":"Majestic Cinemas - Meridian","address":"2140 East Cinema Dr.","city":"Meridian","state":"ID","zip":"83642","distance":"24.689727783203125","lon":"-116.368752","lat":"43.592346","theaterChainName":"Independent Chains","ticketType":"STANDARD"},{"id":"710","name":"Edwards Boise Stadium 22 & IMAX","address":"7701Overland Rd.","city":"Boise","state":"ID","zip":"83709","distance":"23.565086364746094","lon":"-116.277847","lat":"43.589127","theaterChainName":"Edwards Theatres","ticketType":"STANDARD"},{"id":"3381","name":"Overland Park 1-2-3","address":"7051 Overland Rd.","city":"Boise","state":"ID","zip":"83709","distance":"23.483726501464844","lon":"-116.269897","lat":"43.589172","theaterChainName":"Independent Chains","ticketType":"STANDARD"},{"id":"2578","name":"Reel Theatre 6 @ Country Club Plaza","address":"4550 Overland","city":"Boise","state":"ID","zip":"83705","distance":"23.099966049194336","lon":"-116.238075","lat":"43.591152","theaterChainName":"Reel Theatres","ticketType":"STANDARD"}]