[{"id":"5486","name":"Village Cinema 15","address":"3711 E. Longwing Ln.","city":"Meridian","state":"ID","zip":"83642","distance":"24.46556282043457","lon":"-116.348343","lat":"43.621399","theaterChainName":"CinemaWest","ticketType":"STANDARD"},{"id":"5418","name":"Village Cinema Meridian","address":"3711 E. Longwing Lane","city":"Meridian","state":"ID","zip":"83642","distance":"24.43678855895996","lon":"-116.348999","lat":"43.621601","theaterChainName":"CinemaWest","ticketType":"STANDARD"},{"id":"2818","name":"Edwards Nampa Stadium 14","address":"2001 N. Cassia St.","city":"Nampa","state":"ID","zip":"83651","distance":"11.714688301086426","lon":"-116.606766","lat":"43.602928","theaterChainName":"Edwards Theatres","ticketType":"STANDARD"},{"id":"3219","name":"Nampa Reel Theatre 6","address":"2104 Caldwell Blvd.","city":"Nampa","state":"ID","zip":"83651","distance":"11.94526481628418","lon":"-116.605736","lat":"43.609776","theaterChainName":"Reel Theatres","ticketType":"STANDARD"},{"id":"4834","name":"Northern Lights Cinema Grill","address":"Karcher Mall","city":"Nampa","state":"ID","zip":"83651","distance":"12.0035400390625","lon":"-116.599327","lat":"43.600571","theaterChainName":"Independent Chains","ticketType":"STANDARD"},{"id":"4949","name":"Nampa Gateway Stadium 12","address":"1232 N. Galleria Dr","city":"Nampa","state":"ID","zip":"83687","distance":"16.194486618041992","lon":"-116.509598","lat":"43.595001","theaterChainName":"Regal Cinemas","ticketType":"STANDARD"},{"id":"4035","name":"Majestic Cinemas - Meridian","address":"2140 East Cinema Dr.","city":"Meridian","state":"ID","zip":"83642","distance":"23.078901290893555","lon":"-116.368752","lat":"43.592346","theaterChainName":"Independent Chains","ticketType":"STANDARD"}]