[{"id":"5486","name":"Village Cinema 15","address":"3711 E. Longwing Ln.","city":"Meridian","state":"ID","zip":"83642","distance":"24.120128631591797","lon":"-116.348343","lat":"43.621399","theaterChainName":"CinemaWest","ticketType":"STANDARD"},{"id":"5418","name":"Village Cinema Meridian","address":"3711 E. Longwing Lane","city":"Meridian","state":"ID","zip":"83642","distance":"24.088937759399414","lon":"-116.348999","lat":"43.621601","theaterChainName":"CinemaWest","ticketType":"STANDARD"},{"id":"2818","name":"Edwards Nampa Stadium 14","address":"2001 N. Cassia St.","city":"Nampa","state":"ID","zip":"83651","distance":"20.366718292236328","lon":"-116.606766","lat":"43.602928","theaterChainName":"Edwards Theatres","ticketType":"STANDARD"},{"id":"3219","name":"Nampa Reel Theatre 6","address":"2104 Caldwell Blvd.","city":"Nampa","state":"ID","zip":"83651","distance":"19.900989532470703","lon":"-116.605736","lat":"43.609776","theaterChainName":"Reel Theatres","ticketType":"STANDARD"},{"id":"4834","name":"Northern Lights Cinema Grill","address":"Karcher Mall","city":"Nampa","state":"ID","zip":"83651","distance":"20.567785263061523","lon":"-116.599327","lat":"43.600571","theaterChainName":"Independent Chains","ticketType":"STANDARD"},{"id":"4949","name":"Nampa Gateway Stadium 12","address":"1232 N. Galleria Dr","city":"Nampa","state":"ID","zip":"83687","distance":"21.90735626220703","lon":"-116.509598","lat":"43.595001","theaterChainName":"Regal Cinemas","ticketType":"STANDARD"},{"id":"2861","name":"The Reel Theatre 8 Ontario","address":"477 SE 13th Street","city":"Ontario","state":"OR","zip":"97914","distance":"17.261152267456055","lon":"-116.946304","lat":"44.021751","theaterChainName":"Reel Theatres","ticketType":"STANDARD"}]