[{"id":"4455","tribuneTheaterId":"9543","providerTheaterId":"","name":"The Flicks","address":"646 Fulton Street","city":"Boise","state":"ID","zip":"83702","distance":1.4761795117512,"lon":"-116.205236","lat":"43.610835","theaterChainName":"Independent Chains","ticketType":"STANDARD"},{"id":"4109","tribuneTheaterId":"4623","providerTheaterId":"","name":"Regal Boise Downtown Stadium 9","address":"760 Broad St.","city":"Boise","state":"ID","zip":"83702","distance":1.3123186242833,"lon":"-116.205024","lat":"43.613207","theaterChainName":"Regal Cinemas","ticketType":"STANDARD"},{"id":"410","tribuneTheaterId":"7941","providerTheaterId":"","name":"Northgate Reel Theatre","address":"6950 W. State Street","city":"Boise","state":"ID","zip":"83703","distance":1.2190483788228,"lon":"-116.229225","lat":"43.635189","theaterChainName":"Reel Theatres","ticketType":"STANDARD"},{"id":"2578","tribuneTheaterId":"5113","providerTheaterId":"","name":"Reel Theatre 6 @ Country Club Plaza","address":"4550 Overland","city":"Boise","state":"ID","zip":"83705","distance":3.2785843532946,"lon":"-116.238077","lat":"43.591151","theaterChainName":"Reel Theatres","ticketType":"STANDARD"},{"id":"3381","tribuneTheaterId":"6047","providerTheaterId":"","name":"Overland Park 1-2-3","address":"7051 Overland Rd.","city":"Boise","state":"ID","zip":"83709","distance":4.3946873291026,"lon":"-116.269898","lat":"43.589174","theaterChainName":"Independent Chains","ticketType":"STANDARD"},{"id":"710","tribuneTheaterId":"7453","providerTheaterId":"","name":"Edwards Boise Stadium 22 & IMAX","address":"7701Overland Rd.","city":"Boise","state":"ID","zip":"83709","distance":4.6973229787123,"lon":"-116.277848","lat":"43.589128","theaterChainName":"Edwards Theatres","ticketType":"STANDARD"},{"id":"5418","tribuneTheaterId":"10854","providerTheaterId":"","name":"Village Cinema Meridian","address":"3711 E. Longwing Lane","city":"Meridian","state":"ID","zip":"83642","distance":7.2290710626787,"lon":"-116.349","lat":"43.6216","theaterChainName":"CinemaWest","ticketType":"STANDARD"},{"id":"5486","tribuneTheaterId":"10861","providerTheaterId":"","name":"Village Cinema 15","address":"3711 E. Longwing Ln.","city":"Meridian","state":"ID","zip":"83642","distance":7.1977783616231,"lon":"-116.348342","lat":"43.621398","theaterChainName":"CinemaWest","ticketType":"STANDARD"},{"id":"4035","tribuneTheaterId":"2268","providerTheaterId":"","name":"Majestic Cinemas - Meridian","address":"2140 East Cinema Dr.","city":"Meridian","state":"ID","zip":"83642","distance":8.6327956323579,"lon":"-116.368754","lat":"43.592345","theaterChainName":"Independent Chains","ticketType":"STANDARD"},{"id":"4949","tribuneTheaterId":"10305","providerTheaterId":"","name":"Nampa Gateway Stadium 12","address":"1232 N. Galleria Dr","city":"Nampa","state":"ID","zip":"83687","distance":15.442729609771,"lon":"-116.5096","lat":"43.595","theaterChainName":"Regal Cinemas","ticketType":"STANDARD"},{"id":"2818","tribuneTheaterId":"4857","providerTheaterId":"","name":"Edwards Nampa Stadium 14","address":"2001 N. Cassia St.","city":"Nampa","state":"ID","zip":"83651","distance":20.188253431653,"lon":"-116.606767","lat":"43.602928","theaterChainName":"Edwards Theatres","ticketType":"STANDARD"},{"id":"4834","tribuneTheaterId":"10110","providerTheaterId":"","name":"Northern Lights Cinema Grill","address":"Karcher Mall","city":"Nampa","state":"ID","zip":"83651","distance":19.835813552635,"lon":"-116.59933","lat":"43.600572","theaterChainName":"Independent Chains","ticketType":"STANDARD"},{"id":"3219","tribuneTheaterId":"5114","providerTheaterId":"","name":"Nampa Reel Theatre 6","address":"2104 Caldwell Blvd.","city":"Nampa","state":"ID","zip":"83651","distance":20.093609502837,"lon":"-116.605732","lat":"43.609774","theaterChainName":"Reel Theatres","ticketType":"STANDARD"}]