[{"id":"410","name":"Northgate Reel Theatre","address":"6950 W. State Street","city":"Boise","state":"ID","zip":"83703","distance":"12.134649276733398","lon":"-116.229225","lat":"43.635189","theaterChainName":"Reel Theatres","ticketType":"STANDARD"},{"id":"4109","name":"Regal Boise Downtown Stadium 9","address":"760 Broad St.","city":"Boise","state":"ID","zip":"83702","distance":"10.77170467376709","lon":"-116.205025","lat":"43.613209","theaterChainName":"Regal Cinemas","ticketType":"STANDARD"},{"id":"4455","name":"The Flicks","address":"646 Fulton Street","city":"Boise","state":"ID","zip":"83702","distance":"10.608553886413574","lon":"-116.205238","lat":"43.610836","theaterChainName":"Independent Chains","ticketType":"STANDARD"},{"id":"5486","name":"Village Cinema 15","address":"3711 E. Longwing Ln.","city":"Meridian","state":"ID","zip":"83642","distance":"12.322341918945312","lon":"-116.348343","lat":"43.621399","theaterChainName":"CinemaWest","ticketType":"STANDARD"},{"id":"5418","name":"Village Cinema Meridian","address":"3711 E. Longwing Lane","city":"Meridian","state":"ID","zip":"83642","distance":"12.34895133972168","lon":"-116.348999","lat":"43.621601","theaterChainName":"CinemaWest","ticketType":"STANDARD"},{"id":"2818","name":"Edwards Nampa Stadium 14","address":"2001 N. Cassia St.","city":"Nampa","state":"ID","zip":"83651","distance":"20.686241149902344","lon":"-116.606766","lat":"43.602928","theaterChainName":"Edwards Theatres","ticketType":"STANDARD"},{"id":"3219","name":"Nampa Reel Theatre 6","address":"2104 Caldwell Blvd.","city":"Nampa","state":"ID","zip":"83651","distance":"20.87070655822754","lon":"-116.605736","lat":"43.609776","theaterChainName":"Reel Theatres","ticketType":"STANDARD"},{"id":"4834","name":"Northern Lights Cinema Grill","address":"Karcher Mall","city":"Nampa","state":"ID","zip":"83651","distance":"20.281387329101562","lon":"-116.599327","lat":"43.600571","theaterChainName":"Independent Chains","ticketType":"STANDARD"},{"id":"4949","name":"Nampa Gateway Stadium 12","address":"1232 N. Galleria Dr","city":"Nampa","state":"ID","zip":"83687","distance":"16.254043579101562","lon":"-116.509598","lat":"43.595001","theaterChainName":"Regal Cinemas","ticketType":"STANDARD"},{"id":"4035","name":"Majestic Cinemas - Meridian","address":"2140 East Cinema Dr.","city":"Meridian","state":"ID","zip":"83642","distance":"11.082185745239258","lon":"-116.368752","lat":"43.592346","theaterChainName":"Independent Chains","ticketType":"STANDARD"},{"id":"710","name":"Edwards Boise Stadium 22 & IMAX","address":"7701Overland Rd.","city":"Boise","state":"ID","zip":"83709","distance":"9.088822364807129","lon":"-116.277847","lat":"43.589127","theaterChainName":"Edwards Theatres","ticketType":"STANDARD"},{"id":"3381","name":"Overland Park 1-2-3","address":"7051 Overland Rd.","city":"Boise","state":"ID","zip":"83709","distance":"9.026134490966797","lon":"-116.269897","lat":"43.589172","theaterChainName":"Independent Chains","ticketType":"STANDARD"},{"id":"2578","name":"Reel Theatre 6 @ Country Club Plaza","address":"4550 Overland","city":"Boise","state":"ID","zip":"83705","distance":"9.074077606201172","lon":"-116.238075","lat":"43.591152","theaterChainName":"Reel Theatres","ticketType":"STANDARD"}]