[{"id":"3998","tribuneTheaterId":"4624","providerTheaterId":"","name":"Regal Cinemas Riverstone Stadium 14","address":"2416 Old Mill Loop","city":"Coeur D'Alene","state":"ID","zip":"83814","distance":6.2883238682629,"lon":"-116.805468","lat":"47.694996","theaterChainName":"Regal Cinemas","ticketType":"STANDARD"},{"id":"448","tribuneTheaterId":"7884","providerTheaterId":"","name":"Regal Spokane Valley Stadium 12","address":"14706 E Indiana Ave.","city":"Spokane","state":"WA","zip":"99216","distance":13.168393539583,"lon":"-117.20968","lat":"47.67338","theaterChainName":"Regal Cinemas","ticketType":"STANDARD"},{"id":"4237","tribuneTheaterId":"2356","providerTheaterId":"","name":"Village Centre Cinemas Wandermere","address":"12622 North State Route 395","city":"Spokane","state":"WA","zip":"99218","distance":21.944769828191,"lon":"-117.401363","lat":"47.772125","theaterChainName":"Independent Chains","ticketType":"STANDARD"},{"id":"2569","tribuneTheaterId":"6755","providerTheaterId":"603","name":"AMC River Park Square 20","address":"808 W. Main","city":"Spokane","state":"WA","zip":"99201","distance":23.114412223855,"lon":"-117.42388","lat":"47.659247","theaterChainName":"AMC Theatres","ticketType":"STANDARD"},{"id":"4413","tribuneTheaterId":"9472","providerTheaterId":"","name":"Magic Lantern Theatre","address":"25 W. Main Ave","city":"Spokane","state":"WA","zip":"99201","distance":22.569516782729,"lon":"-117.411876","lat":"47.658964","theaterChainName":"Independent Chains","ticketType":"STANDARD"},{"id":"3085","tribuneTheaterId":"5613","providerTheaterId":"","name":"Northtown Mall Stadium 12","address":"4750 N. Division St.","city":"Spokane","state":"WA","zip":"99207","distance":22.088309061434,"lon":"-117.409601","lat":"47.701816","theaterChainName":"Regal Cinemas","ticketType":"STANDARD"}]