[{"id":"3998","name":"Regal Cinemas Riverstone Stadium 14","address":"2416 Old Mill Loop","city":"Coeur D'Alene","state":"ID","zip":"83814","distance":"6.28895902633667","lon":"-116.805466","lat":"47.694996","theaterChainName":"Regal Cinemas","ticketType":"STANDARD"},{"id":"448","name":"Regal Spokane Valley Stadium 12","address":"14706 E Indiana Ave.","city":"Spokane","state":"WA","zip":"99216","distance":"13.169010162353516","lon":"-117.209679","lat":"47.673382","theaterChainName":"Regal Cinemas","ticketType":"STANDARD"},{"id":"4413","name":"Magic Lantern Theatre","address":"25 W. Main Ave","city":"Spokane","state":"WA","zip":"99201","distance":"22.570682525634766","lon":"-117.411873","lat":"47.658962","theaterChainName":"Independent Chains","ticketType":"STANDARD"},{"id":"3085","name":"Northtown Mall Stadium 12","address":"4750 N. Division St.","city":"Spokane","state":"WA","zip":"99207","distance":"22.089473724365234","lon":"-117.409599","lat":"47.701817","theaterChainName":"Regal Cinemas","ticketType":"STANDARD"},{"id":"2569","name":"AMC River Park Square 20","address":"808 W. Main","city":"Spokane","state":"WA","zip":"99201","distance":"23.11578369140625","lon":"-117.423882","lat":"47.659248","theaterChainName":"AMC Theatres","ticketType":"STANDARD"},{"id":"4237","name":"Village Centre Cinemas Wandermere","address":"12622 North State Route 395","city":"Spokane","state":"WA","zip":"99218","distance":"21.945838928222656","lon":"-117.401360","lat":"47.772125","theaterChainName":"Independent Chains","ticketType":"STANDARD"}]