[{"id":"1340","tribuneTheaterId":"7498","providerTheaterId":"","name":"Cinemark Tinseltown USA Layton","address":"720 West 1500 North","city":"Layton","state":"UT","zip":"84041","distance":3.1875924621499,"lon":"-111.980467","lat":"41.080047","theaterChainName":"Cinemark","ticketType":"STANDARD"},{"id":"602","tribuneTheaterId":"8616","providerTheaterId":"2239","name":"AMC Loews Layton Hills 9","address":"728 W 1425 N","city":"Layton","state":"UT","zip":"84041","distance":3.1953394899904,"lon":"-111.980491","lat":"41.079859","theaterChainName":"AMC Theatres","ticketType":"STANDARD"},{"id":"1373","tribuneTheaterId":"6958","providerTheaterId":"","name":"Cinemark Tinseltown 14 Ogden","address":"1010 New Gate Mall","city":"Ogden","state":"UT","zip":"84405","distance":6.2535755323916,"lon":"-111.982216","lat":"41.195062","theaterChainName":"Cinemark","ticketType":"STANDARD"},{"id":"990","tribuneTheaterId":"1454","providerTheaterId":"","name":"Kaysville Theatre","address":"21 N. Main Street","city":"Kaysville","state":"UT","zip":"84037","distance":6.9211877138809,"lon":"-111.938783","lat":"41.035293","theaterChainName":"Independent Chains","ticketType":"STANDARD"},{"id":"4546","tribuneTheaterId":"9679","providerTheaterId":"","name":"Syracuse Stadium 6","address":"2428 West Antelope Dr.","city":"Syracuse","state":"UT","zip":"84075","distance":6.2478124305224,"lon":"-112.142902","lat":"41.0900684","theaterChainName":"UEC Theatres","ticketType":"STANDARD"},{"id":"5306","tribuneTheaterId":"10739","providerTheaterId":"","name":"Art House Cinema 502","address":"158 25TH St.","city":"Ogden","state":"UT","zip":"84401","distance":8.0080171416074,"lon":"-111.9772","lat":"41.2207","theaterChainName":"Independent Chains","ticketType":"STANDARD"},{"id":"4734","tribuneTheaterId":"9954","providerTheaterId":"","name":"Megaplex 13 at the Junction","address":"2351 Kiesel Ave","city":"Ogden","state":"UT","zip":"84401","distance":8.3606565937231,"lon":"-111.971648","lat":"41.224651","theaterChainName":"Megaplex Theatres","ticketType":"STANDARD"},{"id":"5558","tribuneTheaterId":"11004","providerTheaterId":"","name":"Movie Grille","address":"2293 Grant Ave.","city":"Ogden","state":"UT","zip":"84401","distance":8.3612342449956,"lon":"-111.9733","lat":"41.2251","theaterChainName":"Independent Chains","ticketType":"STANDARD"},{"id":"4717","tribuneTheaterId":"9932","providerTheaterId":"","name":"CinePointe 6","address":"151 12th St.","city":"Ogden","state":"UT","zip":"84404","distance":9.5820429086695,"lon":"-111.9762","lat":"41.2443","theaterChainName":"Independent Chains","ticketType":"STANDARD"},{"id":"5040","tribuneTheaterId":"10417","providerTheaterId":"","name":"Cinemark Farmington at Station Park","address":"900 W Clark Lane","city":"Farmington","state":"UT","zip":"84025","distance":10.834642366646,"lon":"-111.9075","lat":"40.982","theaterChainName":"Cinemark","ticketType":"STANDARD"},{"id":"2463","tribuneTheaterId":"2898","providerTheaterId":"","name":"Walker Cinemas 6","address":"1610 N Washington Blvd.","city":"North Ogden","state":"UT","zip":"84404","distance":12.548709346933,"lon":"-111.967882","lat":"41.287058","theaterChainName":"Independent Chains","ticketType":"STANDARD"},{"id":"5097","tribuneTheaterId":"10493","providerTheaterId":"","name":"Megaplex 14 and IMAX at Legacy Crossing","address":"1075 W Legacy Crossing Blvd.","city":"Centerville","state":"UT","zip":"84014","distance":14.814130104434,"lon":"-111.895646","lat":"40.920322","theaterChainName":"Megaplex Theatres","ticketType":"STANDARD"},{"id":"4899","tribuneTheaterId":"10213","providerTheaterId":"","name":"Cinemark Bountiful 8","address":"206 S. 625 W.","city":"Bountiful","state":"UT","zip":"84010","distance":16.974670540635,"lon":"-111.894958","lat":"40.885942","theaterChainName":"Cinemark","ticketType":"STANDARD"},{"id":"3521","tribuneTheaterId":"2301","providerTheaterId":"","name":"Megaplex 12 at the Gateway","address":"165 South Rio Grande St.","city":"Salt Lake City","state":"UT","zip":"84101","distance":24.656608717065,"lon":"-111.903675","lat":"40.766132","theaterChainName":"Megaplex Theatres","ticketType":"STANDARD"}]