[{"id":"4223","tribuneTheaterId":"2173","providerTheaterId":"","name":"Megaplex 8 at Thanksgiving Point","address":"2935 North Thanksgiving Way","city":"Lehi","state":"UT","zip":"84043","distance":14.077378921686,"lon":"-111.884766","lat":"40.424368","theaterChainName":"Megaplex Theatres","ticketType":"STANDARD"},{"id":"1585","tribuneTheaterId":"2712","providerTheaterId":"","name":"Towne Cinemas 1 and 2","address":"120 W. Main St.","city":"American Fork","state":"UT","zip":"84003","distance":16.291116499236,"lon":"-111.801832","lat":"40.376964","theaterChainName":"Independent Chains","ticketType":"STANDARD"},{"id":"3687","tribuneTheaterId":"4236","providerTheaterId":"","name":"Cinemark American Fork","address":"715 West 180 North","city":"American Fork","state":"UT","zip":"84003","distance":15.532513423554,"lon":"-111.818268","lat":"40.379006","theaterChainName":"Cinemark","ticketType":"STANDARD"},{"id":"1736","tribuneTheaterId":"1115","providerTheaterId":"","name":"Ritz Theatre - Tooele","address":"111 North Main Street","city":"Tooele","state":"UT","zip":"84074","distance":19.635950503752,"lon":"-112.298721","lat":"40.532683","theaterChainName":"Independent Chains","ticketType":"STANDARD"},{"id":"4216","tribuneTheaterId":"2416","providerTheaterId":"","name":"Megaplex 20 at the District","address":"3761 W. Parkway Plaza Dr.","city":"South Jordan","state":"UT","zip":"84095","distance":19.538787642902,"lon":"-111.9538","lat":"40.5583","theaterChainName":"Megaplex Theatres","ticketType":"STANDARD"},{"id":"5038","tribuneTheaterId":"10414","providerTheaterId":"","name":"Cinemark Draper","address":"12129 S. State St.","city":"Draper","state":"UT","zip":"84020","distance":19.408203744052,"lon":"-111.890999","lat":"40.5313","theaterChainName":"Cinemark","ticketType":"STANDARD"},{"id":"5647","tribuneTheaterId":"11112","providerTheaterId":"","name":"Megaplex Theatre Geneva at Vineyard","address":"600 N Mills Road","city":"Vineyard","state":"UT","zip":"84058","distance":18.642045565768,"lon":"-111.7387","lat":"40.3043","theaterChainName":"Megaplex Theatres","ticketType":"STANDARD"},{"id":"4996","tribuneTheaterId":"10365","providerTheaterId":"","name":"Water Gardens Cinema 6","address":"912 Garden Grove","city":"Pleasant Grove","state":"UT","zip":"84062","distance":18.529919799411,"lon":"-111.753185","lat":"40.367288","theaterChainName":"Water Gardens Theatres","ticketType":"STANDARD"},{"id":"987","tribuneTheaterId":"5763","providerTheaterId":"","name":"Carmike 12 West Jordan","address":"9400 S. Redwood Rd.","city":"West Jordan","state":"UT","zip":"84088","distance":21.575649301866,"lon":"-111.936017","lat":"40.584628","theaterChainName":"Carmike Cinemas","ticketType":"STANDARD"},{"id":"1456","tribuneTheaterId":"2496","providerTheaterId":"","name":"SCERA Theatre","address":"745 S. State St.","city":"Orem","state":"UT","zip":"84058","distance":21.27813887496,"lon":"-111.688904","lat":"40.283298","theaterChainName":"Independent Chains","ticketType":"STANDARD"},{"id":"3340","tribuneTheaterId":"5107","providerTheaterId":"","name":"Tooele Cinema","address":"1600 N. Pine Canyon Rd.","city":"Tooele","state":"UT","zip":"84074","distance":21.111532745038,"lon":"-112.295182","lat":"40.559548","theaterChainName":"UEC Theatres","ticketType":"STANDARD"},{"id":"5719","tribuneTheaterId":"11161","providerTheaterId":"59","name":"AMC West Jordan 12","address":"9200 Redwood Road","city":"West Jordan","state":"UT","zip":"84088","distance":21.569125005954,"lon":"-111.935871","lat":"40.58448","theaterChainName":"AMC Theatres","ticketType":"STANDARD"},{"id":"2830","tribuneTheaterId":"5265","providerTheaterId":"","name":"Cinemark 24 Jordon Landing","address":"7301 Jordan Landing Blvd","city":"West Jordan","state":"UT","zip":"84084","distance":23.085573329169,"lon":"-111.981124","lat":"40.619136","theaterChainName":"Cinemark","ticketType":"STANDARD"},{"id":"2848","tribuneTheaterId":"3236","providerTheaterId":"","name":"Megaplex 17 - Jordan Commons","address":"9400 S. State Street","city":"Sandy","state":"UT","zip":"84070","distance":22.431726752193,"lon":"-111.890193","lat":"40.581805","theaterChainName":"Megaplex Theatres","ticketType":"STANDARD"},{"id":"4581","tribuneTheaterId":"9727","providerTheaterId":"","name":"Cinemark University Mall","address":"1010 South 800 East","city":"Orem","state":"UT","zip":"84097","distance":21.909605958219,"lon":"-111.677238","lat":"40.278332","theaterChainName":"Cinemark","ticketType":"STANDARD"},{"id":"237","tribuneTheaterId":"5261","providerTheaterId":"","name":"Cinemark Movies 8 Provo","address":"2424 N. University Pkwy","city":"Provo","state":"UT","zip":"84604","distance":22.405392928172,"lon":"-111.668989","lat":"40.266431","theaterChainName":"Cinemark","ticketType":"STANDARD"},{"id":"2827","tribuneTheaterId":"5264","providerTheaterId":"","name":"Cinemark 16 Provo","address":"1200 Town Center Blvd","city":"Provo","state":"UT","zip":"84601","distance":23.250315921252,"lon":"-111.663636","lat":"40.217054","theaterChainName":"Cinemark","ticketType":"STANDARD"},{"id":"965","tribuneTheaterId":"5262","providerTheaterId":"","name":"Cinemark Movies 9 Sandy","address":"9539 South 700 East","city":"Sandy","state":"UT","zip":"84070","distance":22.756168990044,"lon":"-111.869702","lat":"40.578336","theaterChainName":"Cinemark","ticketType":"STANDARD"},{"id":"1263","tribuneTheaterId":"5764","providerTheaterId":"","name":"Carmike Wynnsong 12 Provo","address":"4925 N Edgewood Drive","city":"Provo","state":"UT","zip":"84604","distance":22.760336345066,"lon":"-111.660415","lat":"40.299372","theaterChainName":"Carmike Cinemas","ticketType":"STANDARD"}]