[{"id":"990","tribuneTheaterId":"1454","providerTheaterId":"","name":"Kaysville Theatre","address":"21 N. Main Street","city":"Kaysville","state":"UT","zip":"84037","distance":21.782898893733,"lon":"-111.938783","lat":"41.035293","theaterChainName":"Independent Chains","ticketType":"STANDARD"},{"id":"5040","tribuneTheaterId":"10417","providerTheaterId":"","name":"Cinemark Farmington at Station Park","address":"900 W Clark Lane","city":"Farmington","state":"UT","zip":"84025","distance":20.91718511947,"lon":"-111.9075","lat":"40.982","theaterChainName":"Cinemark","ticketType":"STANDARD"},{"id":"5097","tribuneTheaterId":"10493","providerTheaterId":"","name":"Megaplex 14 and IMAX at Legacy Crossing","address":"1075 W Legacy Crossing Blvd.","city":"Centerville","state":"UT","zip":"84014","distance":21.973549522551,"lon":"-111.895646","lat":"40.920322","theaterChainName":"Megaplex Theatres","ticketType":"STANDARD"},{"id":"1340","tribuneTheaterId":"7498","providerTheaterId":"","name":"Cinemark Tinseltown USA Layton","address":"720 West 1500 North","city":"Layton","state":"UT","zip":"84041","distance":23.835026287007,"lon":"-111.980467","lat":"41.080047","theaterChainName":"Cinemark","ticketType":"STANDARD"},{"id":"602","tribuneTheaterId":"8616","providerTheaterId":"2239","name":"AMC Loews Layton Hills 9","address":"728 W 1425 N","city":"Layton","state":"UT","zip":"84041","distance":23.835893582415,"lon":"-111.980491","lat":"41.079859","theaterChainName":"AMC Theatres","ticketType":"STANDARD"},{"id":"4899","tribuneTheaterId":"10213","providerTheaterId":"","name":"Cinemark Bountiful 8","address":"206 S. 625 W.","city":"Bountiful","state":"UT","zip":"84010","distance":23.152829915079,"lon":"-111.894958","lat":"40.885942","theaterChainName":"Cinemark","ticketType":"STANDARD"},{"id":"3698","tribuneTheaterId":"2136","providerTheaterId":"","name":"Redstone 8 Cinemas","address":"6030 N. Market St. Ste 120 at Redstone","city":"Park City","state":"UT","zip":"84098","distance":24.134375129571,"lon":"-111.540692","lat":"40.719852","theaterChainName":"Metropolitan Theatres","ticketType":"STANDARD"}]