[{"id":"4896","name":"Park City Film Series at Santy Auditorium","address":"1255 Park Avenue","city":"Park City","state":"UT","zip":"84060","distance":"23.47733497619629","lon":"-111.502800","lat":"40.651699","theaterChainName":"Independent Chains","ticketType":"STANDARD"},{"id":"5383","name":"Holiday Village 4 Cinemas","address":"1776 Park Ave.","city":"Park City","state":"UT","zip":"84060","distance":"23.003793716430664","lon":"-111.508102","lat":"40.659100","theaterChainName":"Metropolitan Theatres","ticketType":"STANDARD"},{"id":"3698","name":"Redstone 8 Cinemas","address":"6030 N. Market St. Ste 120 at Redstone","city":"Park City","state":"UT","zip":"84098","distance":"19.19264793395996","lon":"-111.540695","lat":"40.719852","theaterChainName":"Metropolitan Theatres","ticketType":"STANDARD"},{"id":"4899","name":"Cinemark Bountiful 8","address":"206 S. 625 W.","city":"Bountiful","state":"UT","zip":"84010","distance":"24.24742317199707","lon":"-111.894958","lat":"40.885941","theaterChainName":"Cinemark","ticketType":"STANDARD"},{"id":"5097","name":"Megaplex 14 and IMAX at Legacy Crossing","address":"1075 W Legacy Crossing Blvd.","city":"Centerville","state":"UT","zip":"84014","distance":"23.686756134033203","lon":"-111.895645","lat":"40.920322","theaterChainName":"Megaplex Theatres","ticketType":"STANDARD"},{"id":"5040","name":"Cinemark Farmington at Station Park","address":"900 W Clark Lane","city":"Farmington","state":"UT","zip":"84025","distance":"23.816465377807617","lon":"-111.907501","lat":"40.981998","theaterChainName":"Cinemark","ticketType":"STANDARD"}]