[{"id":"992","name":"Tower Theatre - Salt Lake City","address":"876 E 900 South","city":"Salt Lake City","state":"UT","zip":"84105","distance":"24.0059871673584","lon":"-111.865944","lat":"40.749561","theaterChainName":"Independent Chains","ticketType":"STANDARD"},{"id":"1464","name":"Brewvies 2 Theatre","address":"677 S. 200 WEST","city":"Salt Lake City","state":"UT","zip":"84101","distance":"23.365703582763672","lon":"-111.896606","lat":"40.754372","theaterChainName":"Independent Chains","ticketType":"STANDARD"},{"id":"62","name":"Broadway Centre Cinemas","address":"111 East Broadway #350","city":"Salt Lake City","state":"UT","zip":"84111","distance":"22.851381301879883","lon":"-111.887787","lat":"40.763130","theaterChainName":"Independent Chains","ticketType":"STANDARD"},{"id":"3521","name":"Megaplex 12 at the Gateway","address":"165 South Rio Grande St.","city":"Salt Lake City","state":"UT","zip":"84101","distance":"22.50449562072754","lon":"-111.903671","lat":"40.766132","theaterChainName":"Megaplex Theatres","ticketType":"STANDARD"},{"id":"4899","name":"Cinemark Bountiful 8","address":"206 S. 625 W.","city":"Bountiful","state":"UT","zip":"84010","distance":"14.498933792114258","lon":"-111.894958","lat":"40.885941","theaterChainName":"Cinemark","ticketType":"STANDARD"},{"id":"5097","name":"Megaplex 14 and IMAX at Legacy Crossing","address":"1075 W Legacy Crossing Blvd.","city":"Centerville","state":"UT","zip":"84014","distance":"12.217597007751465","lon":"-111.895645","lat":"40.920322","theaterChainName":"Megaplex Theatres","ticketType":"STANDARD"},{"id":"1340","name":"Cinemark Tinseltown USA Layton","address":"720 West 1500 North","city":"Layton","state":"UT","zip":"84041","distance":"0.7545680403709412","lon":"-111.980469","lat":"41.080048","theaterChainName":"Cinemark","ticketType":"STANDARD"},{"id":"602","name":"AMC Loews Layton Hills 9","address":"728 W 1425 N","city":"Layton","state":"UT","zip":"84041","distance":"0.7647254467010498","lon":"-111.980492","lat":"41.079861","theaterChainName":"AMC Theatres","ticketType":"STANDARD"},{"id":"1373","name":"Cinemark Tinseltown 14 Ogden","address":"1010 New Gate Mall","city":"Ogden","state":"UT","zip":"84405","distance":"7.430160999298096","lon":"-111.982216","lat":"41.195061","theaterChainName":"Cinemark","ticketType":"STANDARD"},{"id":"990","name":"Kaysville Theatre","address":"21 N. Main Street","city":"Kaysville","state":"UT","zip":"84037","distance":"3.9906697273254395","lon":"-111.938782","lat":"41.035294","theaterChainName":"Independent Chains","ticketType":"STANDARD"},{"id":"4546","name":"Syracuse Stadium 6","address":"2428 West Antelope Dr.","city":"Syracuse","state":"UT","zip":"84075","distance":"8.984762191772461","lon":"-112.142899","lat":"41.090069","theaterChainName":"UEC Theatres","ticketType":"STANDARD"},{"id":"5306","name":"Art House Cinema 502","address":"158 25TH St.","city":"Ogden","state":"UT","zip":"84401","distance":"9.183060646057129","lon":"-111.977203","lat":"41.220699","theaterChainName":"Independent Chains","ticketType":"STANDARD"},{"id":"5558","name":"Movie Grille","address":"2293 Grant Ave.","city":"Ogden","state":"UT","zip":"84401","distance":"9.481610298156738","lon":"-111.973297","lat":"41.225101","theaterChainName":"Independent Chains","ticketType":"STANDARD"},{"id":"4734","name":"Megaplex 13 at the Junction","address":"2351 Kiesel Ave","city":"Ogden","state":"UT","zip":"84401","distance":"9.449531555175781","lon":"-111.971649","lat":"41.224651","theaterChainName":"Megaplex Theatres","ticketType":"STANDARD"},{"id":"4717","name":"CinePointe 6","address":"151 12th St.","city":"Ogden","state":"UT","zip":"84404","distance":"10.811248779296875","lon":"-111.976196","lat":"41.244301","theaterChainName":"Independent Chains","ticketType":"STANDARD"},{"id":"5040","name":"Cinemark Farmington at Station Park","address":"900 W Clark Lane","city":"Farmington","state":"UT","zip":"84025","distance":"8.018197059631348","lon":"-111.907501","lat":"40.981998","theaterChainName":"Cinemark","ticketType":"STANDARD"},{"id":"2463","name":"Walker Cinemas 6","address":"1610 N Washington Blvd.","city":"North Ogden","state":"UT","zip":"84404","distance":"13.762203216552734","lon":"-111.967880","lat":"41.287060","theaterChainName":"Independent Chains","ticketType":"STANDARD"}]