[{"id":"1340","tribuneTheaterId":"7498","providerTheaterId":"","name":"Cinemark Tinseltown USA Layton","address":"720 West 1500 North","city":"Layton","state":"UT","zip":"84041","distance":0.75450060632046,"lon":"-111.980467","lat":"41.080047","theaterChainName":"Cinemark","ticketType":"STANDARD"},{"id":"602","tribuneTheaterId":"8616","providerTheaterId":"2239","name":"AMC Loews Layton Hills 9","address":"728 W 1425 N","city":"Layton","state":"UT","zip":"84041","distance":0.76475408544732,"lon":"-111.980491","lat":"41.079859","theaterChainName":"AMC Theatres","ticketType":"STANDARD"},{"id":"990","tribuneTheaterId":"1454","providerTheaterId":"","name":"Kaysville Theatre","address":"21 N. Main Street","city":"Kaysville","state":"UT","zip":"84037","distance":3.99058562058,"lon":"-111.938783","lat":"41.035293","theaterChainName":"Independent Chains","ticketType":"STANDARD"},{"id":"1373","tribuneTheaterId":"6958","providerTheaterId":"","name":"Cinemark Tinseltown 14 Ogden","address":"1010 New Gate Mall","city":"Ogden","state":"UT","zip":"84405","distance":7.4296594543677,"lon":"-111.982216","lat":"41.195062","theaterChainName":"Cinemark","ticketType":"STANDARD"},{"id":"5040","tribuneTheaterId":"10417","providerTheaterId":"","name":"Cinemark Farmington at Station Park","address":"900 W Clark Lane","city":"Farmington","state":"UT","zip":"84025","distance":8.0177815641972,"lon":"-111.9075","lat":"40.982","theaterChainName":"Cinemark","ticketType":"STANDARD"},{"id":"5306","tribuneTheaterId":"10739","providerTheaterId":"","name":"Art House Cinema 502","address":"158 25TH St.","city":"Ogden","state":"UT","zip":"84401","distance":9.1824074701133,"lon":"-111.9772","lat":"41.2207","theaterChainName":"Independent Chains","ticketType":"STANDARD"},{"id":"4734","tribuneTheaterId":"9954","providerTheaterId":"","name":"Megaplex 13 at the Junction","address":"2351 Kiesel Ave","city":"Ogden","state":"UT","zip":"84401","distance":9.4488012917716,"lon":"-111.971648","lat":"41.224651","theaterChainName":"Megaplex Theatres","ticketType":"STANDARD"},{"id":"4546","tribuneTheaterId":"9679","providerTheaterId":"","name":"Syracuse Stadium 6","address":"2428 West Antelope Dr.","city":"Syracuse","state":"UT","zip":"84075","distance":8.984274864131,"lon":"-112.142902","lat":"41.0900684","theaterChainName":"UEC Theatres","ticketType":"STANDARD"},{"id":"5558","tribuneTheaterId":"11004","providerTheaterId":"","name":"Movie Grille","address":"2293 Grant Ave.","city":"Ogden","state":"UT","zip":"84401","distance":9.4808014986615,"lon":"-111.9733","lat":"41.2251","theaterChainName":"Independent Chains","ticketType":"STANDARD"},{"id":"4717","tribuneTheaterId":"9932","providerTheaterId":"","name":"CinePointe 6","address":"151 12th St.","city":"Ogden","state":"UT","zip":"84404","distance":10.810402765879,"lon":"-111.9762","lat":"41.2443","theaterChainName":"Independent Chains","ticketType":"STANDARD"},{"id":"5097","tribuneTheaterId":"10493","providerTheaterId":"","name":"Megaplex 14 and IMAX at Legacy Crossing","address":"1075 W Legacy Crossing Blvd.","city":"Centerville","state":"UT","zip":"84014","distance":12.217001615431,"lon":"-111.895646","lat":"40.920322","theaterChainName":"Megaplex Theatres","ticketType":"STANDARD"},{"id":"4899","tribuneTheaterId":"10213","providerTheaterId":"","name":"Cinemark Bountiful 8","address":"206 S. 625 W.","city":"Bountiful","state":"UT","zip":"84010","distance":14.49809129244,"lon":"-111.894958","lat":"40.885942","theaterChainName":"Cinemark","ticketType":"STANDARD"},{"id":"2463","tribuneTheaterId":"2898","providerTheaterId":"","name":"Walker Cinemas 6","address":"1610 N Washington Blvd.","city":"North Ogden","state":"UT","zip":"84404","distance":13.761106850249,"lon":"-111.967882","lat":"41.287058","theaterChainName":"Independent Chains","ticketType":"STANDARD"},{"id":"1464","tribuneTheaterId":"2710","providerTheaterId":"","name":"Brewvies 2 Theatre","address":"677 S. 200 WEST","city":"Salt Lake City","state":"UT","zip":"84101","distance":23.364286048982,"lon":"-111.896608","lat":"40.754373","theaterChainName":"Independent Chains","ticketType":"STANDARD"},{"id":"62","tribuneTheaterId":"2969","providerTheaterId":"","name":"Broadway Centre Cinemas","address":"111 East Broadway #350","city":"Salt Lake City","state":"UT","zip":"84111","distance":22.850124967467,"lon":"-111.887786","lat":"40.76313","theaterChainName":"Independent Chains","ticketType":"STANDARD"},{"id":"3521","tribuneTheaterId":"2301","providerTheaterId":"","name":"Megaplex 12 at the Gateway","address":"165 South Rio Grande St.","city":"Salt Lake City","state":"UT","zip":"84101","distance":22.503230157068,"lon":"-111.903675","lat":"40.766132","theaterChainName":"Megaplex Theatres","ticketType":"STANDARD"},{"id":"992","tribuneTheaterId":"2435","providerTheaterId":"","name":"Tower Theatre - Salt Lake City","address":"876 E 900 South","city":"Salt Lake City","state":"UT","zip":"84105","distance":24.004685098368,"lon":"-111.865942","lat":"40.749561","theaterChainName":"Independent Chains","ticketType":"STANDARD"}]