[{"id":"4996","name":"Water Gardens Cinema 6","address":"912 Garden Grove","city":"Pleasant Grove","state":"UT","zip":"84062","distance":"17.502470016479492","lon":"-111.753181","lat":"40.367287","theaterChainName":"Water Gardens Theatres","ticketType":"STANDARD"},{"id":"1585","name":"Towne Cinemas 1 and 2","address":"120 W. Main St.","city":"American Fork","state":"UT","zip":"84003","distance":"19.34760284423828","lon":"-111.801834","lat":"40.376965","theaterChainName":"Independent Chains","ticketType":"STANDARD"},{"id":"3687","name":"Cinemark American Fork","address":"715 West 180 North","city":"American Fork","state":"UT","zip":"84003","distance":"20.049373626708984","lon":"-111.818268","lat":"40.379005","theaterChainName":"Cinemark","ticketType":"STANDARD"},{"id":"965","name":"Cinemark Movies 9 Sandy","address":"9539 South 700 East","city":"Sandy","state":"UT","zip":"84070","distance":"21.133953094482422","lon":"-111.869705","lat":"40.578335","theaterChainName":"Cinemark","ticketType":"STANDARD"},{"id":"4118","name":"Century 16 Union Heights","address":"7670 S. Union Park Ave","city":"Sandy","state":"UT","zip":"84094","distance":"21.073169708251953","lon":"-111.855888","lat":"40.611359","theaterChainName":"Cinemark","ticketType":"STANDARD"},{"id":"5038","name":"Cinemark Draper","address":"12129 S. State St.","city":"Draper","state":"UT","zip":"84020","distance":"21.767433166503906","lon":"-111.890999","lat":"40.531300","theaterChainName":"Cinemark","ticketType":"STANDARD"},{"id":"5647","name":"Megaplex Theatre Geneva at Vineyard","address":"600 N Mills Road","city":"Vineyard","state":"UT","zip":"84058","distance":"19.732683181762695","lon":"-111.738701","lat":"40.304298","theaterChainName":"Megaplex Theatres","ticketType":"STANDARD"},{"id":"4223","name":"Megaplex 8 at Thanksgiving Point","address":"2935 North Thanksgiving Way","city":"Lehi","state":"UT","zip":"84043","distance":"22.19385528564453","lon":"-111.884766","lat":"40.424370","theaterChainName":"Megaplex Theatres","ticketType":"STANDARD"},{"id":"1263","name":"Carmike Wynnsong 12 Provo","address":"4925 N Edgewood Drive","city":"Provo","state":"UT","zip":"84604","distance":"17.40506362915039","lon":"-111.660416","lat":"40.299374","theaterChainName":"Carmike Cinemas","ticketType":"STANDARD"},{"id":"2848","name":"Megaplex 17 - Jordan Commons","address":"9400 S. State Street","city":"Sandy","state":"UT","zip":"84070","distance":"22.235408782958984","lon":"-111.890190","lat":"40.581806","theaterChainName":"Megaplex Theatres","ticketType":"STANDARD"},{"id":"63","name":"Holladay Center Cinema 6","address":"1945 E. Murray-Holladay Rd.","city":"Salt Lake City","state":"UT","zip":"84117","distance":"21.69533920288086","lon":"-111.835411","lat":"40.666622","theaterChainName":"Westates Theatres","ticketType":"STANDARD"},{"id":"1456","name":"SCERA Theatre","address":"745 S. State St.","city":"Orem","state":"UT","zip":"84058","distance":"19.170494079589844","lon":"-111.688904","lat":"40.283298","theaterChainName":"Independent Chains","ticketType":"STANDARD"},{"id":"4581","name":"Cinemark University Mall","address":"1010 South 800 East","city":"Orem","state":"UT","zip":"84097","distance":"19.106998443603516","lon":"-111.677238","lat":"40.278332","theaterChainName":"Cinemark","ticketType":"STANDARD"},{"id":"237","name":"Cinemark Movies 8 Provo","address":"2424 N. University Pkwy","city":"Provo","state":"UT","zip":"84604","distance":"19.57268524169922","lon":"-111.668991","lat":"40.266430","theaterChainName":"Cinemark","ticketType":"STANDARD"},{"id":"4896","name":"Park City Film Series at Santy Auditorium","address":"1255 Park Avenue","city":"Park City","state":"UT","zip":"84060","distance":"9.92789077758789","lon":"-111.502800","lat":"40.651699","theaterChainName":"Independent Chains","ticketType":"STANDARD"},{"id":"5719","name":"AMC West Jordan 12","address":"9200 Redwood Road","city":"West Jordan","state":"UT","zip":"84088","distance":"24.61587905883789","lon":"-111.935867","lat":"40.584480","theaterChainName":"AMC Theatres","ticketType":"STANDARD"},{"id":"987","name":"Carmike 12 West Jordan","address":"9400 S. Redwood Rd.","city":"West Jordan","state":"UT","zip":"84088","distance":"24.6258544921875","lon":"-111.936020","lat":"40.584629","theaterChainName":"Carmike Cinemas","ticketType":"STANDARD"},{"id":"5383","name":"Holiday Village 4 Cinemas","address":"1776 Park Ave.","city":"Park City","state":"UT","zip":"84060","distance":"10.473803520202637","lon":"-111.508102","lat":"40.659100","theaterChainName":"Metropolitan Theatres","ticketType":"STANDARD"},{"id":"3698","name":"Redstone 8 Cinemas","address":"6030 N. Market St. Ste 120 at Redstone","city":"Park City","state":"UT","zip":"84098","distance":"14.920317649841309","lon":"-111.540695","lat":"40.719852","theaterChainName":"Metropolitan Theatres","ticketType":"STANDARD"},{"id":"967","name":"Cinemark Sugar House 10","address":"2227 S. Highland Dr.","city":"Salt Lake City","state":"UT","zip":"84106","distance":"24.792495727539062","lon":"-111.858032","lat":"40.722244","theaterChainName":"Cinemark","ticketType":"STANDARD"},{"id":"2827","name":"Cinemark 16 Provo","address":"1200 Town Center Blvd","city":"Provo","state":"UT","zip":"84601","distance":"22.443613052368164","lon":"-111.663635","lat":"40.217052","theaterChainName":"Cinemark","ticketType":"STANDARD"},{"id":"1794","name":"Avon Theatre - Heber City","address":"94 S Main St","city":"Heber City","state":"UT","zip":"84032","distance":"3.36218523979187","lon":"-111.413696","lat":"40.506664","theaterChainName":"Independent Chains","ticketType":"STANDARD"},{"id":"2576","name":"Ideal Theatre","address":"113 N Main","city":"Heber City","state":"UT","zip":"84032","distance":"3.359990358352661","lon":"-111.413643","lat":"40.509254","theaterChainName":"Independent Chains","ticketType":"STANDARD"},{"id":"3885","name":"Kamas Theater","address":"30 North Main Street","city":"Kamas","state":"UT","zip":"84036","distance":"13.888877868652344","lon":"-111.280701","lat":"40.643600","theaterChainName":"Independent Chains","ticketType":"STANDARD"}]