[{"id":"1794","tribuneTheaterId":"278","providerTheaterId":"","name":"Avon Theatre - Heber City","address":"94 S Main St","city":"Heber City","state":"UT","zip":"84032","distance":3.3619270118696,"lon":"-111.413697","lat":"40.506666","theaterChainName":"Independent Chains","ticketType":"STANDARD"},{"id":"2576","tribuneTheaterId":"2551","providerTheaterId":"","name":"Ideal Theatre","address":"113 N Main","city":"Heber City","state":"UT","zip":"84032","distance":3.3597708560522,"lon":"-111.413643","lat":"40.509255","theaterChainName":"Independent Chains","ticketType":"STANDARD"},{"id":"5383","tribuneTheaterId":"10820","providerTheaterId":"","name":"Holiday Village 4 Cinemas","address":"1776 Park Ave.","city":"Park City","state":"UT","zip":"84060","distance":10.473180758184,"lon":"-111.5081","lat":"40.6591","theaterChainName":"Metropolitan Theatres","ticketType":"STANDARD"},{"id":"4896","tribuneTheaterId":"10208","providerTheaterId":"","name":"Park City Film Series at Santy Auditorium","address":"1255 Park Avenue","city":"Park City","state":"UT","zip":"84060","distance":9.9272877120349,"lon":"-111.5028","lat":"40.651699","theaterChainName":"Independent Chains","ticketType":"STANDARD"},{"id":"3885","tribuneTheaterId":"963","providerTheaterId":"","name":"Kamas Theater","address":"30 North Main Street","city":"Kamas","state":"UT","zip":"84036","distance":13.887989841618,"lon":"-111.280701","lat":"40.6436","theaterChainName":"Independent Chains","ticketType":"STANDARD"},{"id":"3698","tribuneTheaterId":"2136","providerTheaterId":"","name":"Redstone 8 Cinemas","address":"6030 N. Market St. Ste 120 at Redstone","city":"Park City","state":"UT","zip":"84098","distance":14.919342244532,"lon":"-111.540692","lat":"40.719852","theaterChainName":"Metropolitan Theatres","ticketType":"STANDARD"},{"id":"4996","tribuneTheaterId":"10365","providerTheaterId":"","name":"Water Gardens Cinema 6","address":"912 Garden Grove","city":"Pleasant Grove","state":"UT","zip":"84062","distance":17.501483676555,"lon":"-111.753185","lat":"40.367288","theaterChainName":"Water Gardens Theatres","ticketType":"STANDARD"},{"id":"1263","tribuneTheaterId":"5764","providerTheaterId":"","name":"Carmike Wynnsong 12 Provo","address":"4925 N Edgewood Drive","city":"Provo","state":"UT","zip":"84604","distance":17.404049628588,"lon":"-111.660415","lat":"40.299372","theaterChainName":"Carmike Cinemas","ticketType":"STANDARD"},{"id":"1585","tribuneTheaterId":"2712","providerTheaterId":"","name":"Towne Cinemas 1 and 2","address":"120 W. Main St.","city":"American Fork","state":"UT","zip":"84003","distance":19.346321350249,"lon":"-111.801832","lat":"40.376964","theaterChainName":"Independent Chains","ticketType":"STANDARD"},{"id":"4581","tribuneTheaterId":"9727","providerTheaterId":"","name":"Cinemark University Mall","address":"1010 South 800 East","city":"Orem","state":"UT","zip":"84097","distance":19.105776038588,"lon":"-111.677238","lat":"40.278332","theaterChainName":"Cinemark","ticketType":"STANDARD"},{"id":"3687","tribuneTheaterId":"4236","providerTheaterId":"","name":"Cinemark American Fork","address":"715 West 180 North","city":"American Fork","state":"UT","zip":"84003","distance":20.048119278633,"lon":"-111.818268","lat":"40.379006","theaterChainName":"Cinemark","ticketType":"STANDARD"},{"id":"5647","tribuneTheaterId":"11112","providerTheaterId":"","name":"Megaplex Theatre Geneva at Vineyard","address":"600 N Mills Road","city":"Vineyard","state":"UT","zip":"84058","distance":19.731341911178,"lon":"-111.7387","lat":"40.3043","theaterChainName":"Megaplex Theatres","ticketType":"STANDARD"},{"id":"1456","tribuneTheaterId":"2496","providerTheaterId":"","name":"SCERA Theatre","address":"745 S. State St.","city":"Orem","state":"UT","zip":"84058","distance":19.169328939503,"lon":"-111.688904","lat":"40.283298","theaterChainName":"Independent Chains","ticketType":"STANDARD"},{"id":"237","tribuneTheaterId":"5261","providerTheaterId":"","name":"Cinemark Movies 8 Provo","address":"2424 N. University Pkwy","city":"Provo","state":"UT","zip":"84604","distance":19.571338521989,"lon":"-111.668989","lat":"40.266431","theaterChainName":"Cinemark","ticketType":"STANDARD"},{"id":"63","tribuneTheaterId":"5992","providerTheaterId":"","name":"Holladay Center Cinema 6","address":"1945 E. Murray-Holladay Rd.","city":"Salt Lake City","state":"UT","zip":"84117","distance":21.693930569425,"lon":"-111.835408","lat":"40.666624","theaterChainName":"Westates Theatres","ticketType":"STANDARD"},{"id":"965","tribuneTheaterId":"5262","providerTheaterId":"","name":"Cinemark Movies 9 Sandy","address":"9539 South 700 East","city":"Sandy","state":"UT","zip":"84070","distance":21.132507300217,"lon":"-111.869702","lat":"40.578336","theaterChainName":"Cinemark","ticketType":"STANDARD"},{"id":"5038","tribuneTheaterId":"10414","providerTheaterId":"","name":"Cinemark Draper","address":"12129 S. State St.","city":"Draper","state":"UT","zip":"84020","distance":21.766101207944,"lon":"-111.890999","lat":"40.5313","theaterChainName":"Cinemark","ticketType":"STANDARD"},{"id":"4118","tribuneTheaterId":"4852","providerTheaterId":"","name":"Century 16 Union Heights","address":"7670 S. Union Park Ave","city":"Sandy","state":"UT","zip":"84094","distance":21.071840335483,"lon":"-111.855888","lat":"40.611358","theaterChainName":"Cinemark","ticketType":"STANDARD"},{"id":"4223","tribuneTheaterId":"2173","providerTheaterId":"","name":"Megaplex 8 at Thanksgiving Point","address":"2935 North Thanksgiving Way","city":"Lehi","state":"UT","zip":"84043","distance":22.192532961803,"lon":"-111.884766","lat":"40.424368","theaterChainName":"Megaplex Theatres","ticketType":"STANDARD"},{"id":"2827","tribuneTheaterId":"5264","providerTheaterId":"","name":"Cinemark 16 Provo","address":"1200 Town Center Blvd","city":"Provo","state":"UT","zip":"84601","distance":22.442130745714,"lon":"-111.663636","lat":"40.217054","theaterChainName":"Cinemark","ticketType":"STANDARD"},{"id":"2848","tribuneTheaterId":"3236","providerTheaterId":"","name":"Megaplex 17 - Jordan Commons","address":"9400 S. State Street","city":"Sandy","state":"UT","zip":"84070","distance":22.234167458246,"lon":"-111.890193","lat":"40.581805","theaterChainName":"Megaplex Theatres","ticketType":"STANDARD"},{"id":"987","tribuneTheaterId":"5763","providerTheaterId":"","name":"Carmike 12 West Jordan","address":"9400 S. Redwood Rd.","city":"West Jordan","state":"UT","zip":"84088","distance":24.624173401363,"lon":"-111.936017","lat":"40.584628","theaterChainName":"Carmike Cinemas","ticketType":"STANDARD"},{"id":"967","tribuneTheaterId":"7327","providerTheaterId":"","name":"Cinemark Sugar House 10","address":"2227 S. Highland Dr.","city":"Salt Lake City","state":"UT","zip":"84106","distance":24.791037772942,"lon":"-111.858035","lat":"40.722243","theaterChainName":"Cinemark","ticketType":"STANDARD"},{"id":"5719","tribuneTheaterId":"11161","providerTheaterId":"59","name":"AMC West Jordan 12","address":"9200 Redwood Road","city":"West Jordan","state":"UT","zip":"84088","distance":24.614547357266,"lon":"-111.935871","lat":"40.58448","theaterChainName":"AMC Theatres","ticketType":"STANDARD"}]