[{"id":"4996","name":"Water Gardens Cinema 6","address":"912 Garden Grove","city":"Pleasant Grove","state":"UT","zip":"84062","distance":"4.812252044677734","lon":"-111.753181","lat":"40.367287","theaterChainName":"Water Gardens Theatres","ticketType":"STANDARD"},{"id":"1585","name":"Towne Cinemas 1 and 2","address":"120 W. Main St.","city":"American Fork","state":"UT","zip":"84003","distance":"7.125271320343018","lon":"-111.801834","lat":"40.376965","theaterChainName":"Independent Chains","ticketType":"STANDARD"},{"id":"3687","name":"Cinemark American Fork","address":"715 West 180 North","city":"American Fork","state":"UT","zip":"84003","distance":"7.904888153076172","lon":"-111.818268","lat":"40.379005","theaterChainName":"Cinemark","ticketType":"STANDARD"},{"id":"965","name":"Cinemark Movies 9 Sandy","address":"9539 South 700 East","city":"Sandy","state":"UT","zip":"84070","distance":"20.47515106201172","lon":"-111.869705","lat":"40.578335","theaterChainName":"Cinemark","ticketType":"STANDARD"},{"id":"4118","name":"Century 16 Union Heights","address":"7670 S. Union Park Ave","city":"Sandy","state":"UT","zip":"84094","distance":"22.251970291137695","lon":"-111.855888","lat":"40.611359","theaterChainName":"Cinemark","ticketType":"STANDARD"},{"id":"5038","name":"Cinemark Draper","address":"12129 S. State St.","city":"Draper","state":"UT","zip":"84020","distance":"18.239208221435547","lon":"-111.890999","lat":"40.531300","theaterChainName":"Cinemark","ticketType":"STANDARD"},{"id":"5647","name":"Megaplex Theatre Geneva at Vineyard","address":"600 N Mills Road","city":"Vineyard","state":"UT","zip":"84058","distance":"2.3719069957733154","lon":"-111.738701","lat":"40.304298","theaterChainName":"Megaplex Theatres","ticketType":"STANDARD"},{"id":"4223","name":"Megaplex 8 at Thanksgiving Point","address":"2935 North Thanksgiving Way","city":"Lehi","state":"UT","zip":"84043","distance":"12.581134796142578","lon":"-111.884766","lat":"40.424370","theaterChainName":"Megaplex Theatres","ticketType":"STANDARD"},{"id":"1263","name":"Carmike Wynnsong 12 Provo","address":"4925 N Edgewood Drive","city":"Provo","state":"UT","zip":"84604","distance":"2.077916145324707","lon":"-111.660416","lat":"40.299374","theaterChainName":"Carmike Cinemas","ticketType":"STANDARD"},{"id":"2848","name":"Megaplex 17 - Jordan Commons","address":"9400 S. State Street","city":"Sandy","state":"UT","zip":"84070","distance":"21.189252853393555","lon":"-111.890190","lat":"40.581806","theaterChainName":"Megaplex Theatres","ticketType":"STANDARD"},{"id":"1456","name":"SCERA Theatre","address":"745 S. State St.","city":"Orem","state":"UT","zip":"84058","distance":"2.1070733070373535","lon":"-111.688904","lat":"40.283298","theaterChainName":"Independent Chains","ticketType":"STANDARD"},{"id":"4581","name":"Cinemark University Mall","address":"1010 South 800 East","city":"Orem","state":"UT","zip":"84097","distance":"2.6033520698547363","lon":"-111.677238","lat":"40.278332","theaterChainName":"Cinemark","ticketType":"STANDARD"},{"id":"237","name":"Cinemark Movies 8 Provo","address":"2424 N. University Pkwy","city":"Provo","state":"UT","zip":"84604","distance":"3.5292935371398926","lon":"-111.668991","lat":"40.266430","theaterChainName":"Cinemark","ticketType":"STANDARD"},{"id":"5719","name":"AMC West Jordan 12","address":"9200 Redwood Road","city":"West Jordan","state":"UT","zip":"84088","distance":"22.602285385131836","lon":"-111.935867","lat":"40.584480","theaterChainName":"AMC Theatres","ticketType":"STANDARD"},{"id":"987","name":"Carmike 12 West Jordan","address":"9400 S. Redwood Rd.","city":"West Jordan","state":"UT","zip":"84088","distance":"22.615285873413086","lon":"-111.936020","lat":"40.584629","theaterChainName":"Carmike Cinemas","ticketType":"STANDARD"},{"id":"4216","name":"Megaplex 20 at the District","address":"3761 W. Parkway Plaza Dr.","city":"South Jordan","state":"UT","zip":"84095","distance":"21.7066593170166","lon":"-111.953796","lat":"40.558300","theaterChainName":"Megaplex Theatres","ticketType":"STANDARD"},{"id":"2827","name":"Cinemark 16 Provo","address":"1200 Town Center Blvd","city":"Provo","state":"UT","zip":"84601","distance":"6.863517761230469","lon":"-111.663635","lat":"40.217052","theaterChainName":"Cinemark","ticketType":"STANDARD"},{"id":"1794","name":"Avon Theatre - Heber City","address":"94 S Main St","city":"Heber City","state":"UT","zip":"84032","distance":"19.945859909057617","lon":"-111.413696","lat":"40.506664","theaterChainName":"Independent Chains","ticketType":"STANDARD"},{"id":"2576","name":"Ideal Theatre","address":"113 N Main","city":"Heber City","state":"UT","zip":"84032","distance":"20.067991256713867","lon":"-111.413643","lat":"40.509254","theaterChainName":"Independent Chains","ticketType":"STANDARD"},{"id":"4830","name":"Spanish 8 Theaters","address":"790 Expressway Lane","city":"Spanish Fork","state":"UT","zip":"84660","distance":"13.455860137939453","lon":"-111.641075","lat":"40.123116","theaterChainName":"Water Gardens Theatres","ticketType":"STANDARD"},{"id":"3089","name":"Stadium Cinemas","address":"633 S 950W","city":"Payson","state":"UT","zip":"84651","distance":"19.45798683166504","lon":"-111.748634","lat":"40.034763","theaterChainName":"Independent Chains","ticketType":"STANDARD"}]