[{"id":"5383","tribuneTheaterId":"10820","providerTheaterId":"","name":"Holiday Village 4 Cinemas","address":"1776 Park Ave.","city":"Park City","state":"UT","zip":"84060","distance":0.63100247523864,"lon":"-111.5081","lat":"40.6591","theaterChainName":"Metropolitan Theatres","ticketType":"STANDARD"},{"id":"4896","tribuneTheaterId":"10208","providerTheaterId":"","name":"Park City Film Series at Santy Auditorium","address":"1255 Park Avenue","city":"Park City","state":"UT","zip":"84060","distance":1.1345042757042,"lon":"-111.5028","lat":"40.651699","theaterChainName":"Independent Chains","ticketType":"STANDARD"},{"id":"3698","tribuneTheaterId":"2136","providerTheaterId":"","name":"Redstone 8 Cinemas","address":"6030 N. Market St. Ste 120 at Redstone","city":"Park City","state":"UT","zip":"84098","distance":4.0315500757837,"lon":"-111.540692","lat":"40.719852","theaterChainName":"Metropolitan Theatres","ticketType":"STANDARD"},{"id":"1794","tribuneTheaterId":"278","providerTheaterId":"","name":"Avon Theatre - Heber City","address":"94 S Main St","city":"Heber City","state":"UT","zip":"84032","distance":12.141262009715,"lon":"-111.413697","lat":"40.506666","theaterChainName":"Independent Chains","ticketType":"STANDARD"},{"id":"2576","tribuneTheaterId":"2551","providerTheaterId":"","name":"Ideal Theatre","address":"113 N Main","city":"Heber City","state":"UT","zip":"84032","distance":11.978337871635,"lon":"-111.413643","lat":"40.509255","theaterChainName":"Independent Chains","ticketType":"STANDARD"},{"id":"3885","tribuneTheaterId":"963","providerTheaterId":"","name":"Kamas Theater","address":"30 North Main Street","city":"Kamas","state":"UT","zip":"84036","distance":11.89803184771,"lon":"-111.280701","lat":"40.6436","theaterChainName":"Independent Chains","ticketType":"STANDARD"},{"id":"63","tribuneTheaterId":"5992","providerTheaterId":"","name":"Holladay Center Cinema 6","address":"1945 E. Murray-Holladay Rd.","city":"Salt Lake City","state":"UT","zip":"84117","distance":17.295211924576,"lon":"-111.835408","lat":"40.666624","theaterChainName":"Westates Theatres","ticketType":"STANDARD"},{"id":"992","tribuneTheaterId":"2435","providerTheaterId":"","name":"Tower Theatre - Salt Lake City","address":"876 E 900 South","city":"Salt Lake City","state":"UT","zip":"84105","distance":19.706339044797,"lon":"-111.865942","lat":"40.749561","theaterChainName":"Independent Chains","ticketType":"STANDARD"},{"id":"967","tribuneTheaterId":"7327","providerTheaterId":"","name":"Cinemark Sugar House 10","address":"2227 S. Highland Dr.","city":"Salt Lake City","state":"UT","zip":"84106","distance":18.849413848311,"lon":"-111.858035","lat":"40.722243","theaterChainName":"Cinemark","ticketType":"STANDARD"},{"id":"4118","tribuneTheaterId":"4852","providerTheaterId":"","name":"Century 16 Union Heights","address":"7670 S. Union Park Ave","city":"Sandy","state":"UT","zip":"84094","distance":18.787989156832,"lon":"-111.855888","lat":"40.611358","theaterChainName":"Cinemark","ticketType":"STANDARD"},{"id":"2848","tribuneTheaterId":"3236","providerTheaterId":"","name":"Megaplex 17 - Jordan Commons","address":"9400 S. State Street","city":"Sandy","state":"UT","zip":"84070","distance":21.039403099,"lon":"-111.890193","lat":"40.581805","theaterChainName":"Megaplex Theatres","ticketType":"STANDARD"},{"id":"965","tribuneTheaterId":"5262","providerTheaterId":"","name":"Cinemark Movies 9 Sandy","address":"9539 South 700 East","city":"Sandy","state":"UT","zip":"84070","distance":20.084205091735,"lon":"-111.869702","lat":"40.578336","theaterChainName":"Cinemark","ticketType":"STANDARD"},{"id":"1454","tribuneTheaterId":"7923","providerTheaterId":"","name":"Century 16 Salt Lake","address":"125 East 3300 South","city":"Salt Lake City","state":"UT","zip":"84115","distance":20.139353162824,"lon":"-111.887445","lat":"40.700073","theaterChainName":"Cinemark","ticketType":"STANDARD"},{"id":"62","tribuneTheaterId":"2969","providerTheaterId":"","name":"Broadway Centre Cinemas","address":"111 East Broadway #350","city":"Salt Lake City","state":"UT","zip":"84111","distance":21.076541371326,"lon":"-111.887786","lat":"40.76313","theaterChainName":"Independent Chains","ticketType":"STANDARD"},{"id":"3521","tribuneTheaterId":"2301","providerTheaterId":"","name":"Megaplex 12 at the Gateway","address":"165 South Rio Grande St.","city":"Salt Lake City","state":"UT","zip":"84101","distance":21.931470513774,"lon":"-111.903675","lat":"40.766132","theaterChainName":"Megaplex Theatres","ticketType":"STANDARD"},{"id":"5719","tribuneTheaterId":"11161","providerTheaterId":"59","name":"AMC West Jordan 12","address":"9200 Redwood Road","city":"West Jordan","state":"UT","zip":"84088","distance":23.299776650172,"lon":"-111.935871","lat":"40.58448","theaterChainName":"AMC Theatres","ticketType":"STANDARD"},{"id":"5038","tribuneTheaterId":"10414","providerTheaterId":"","name":"Cinemark Draper","address":"12129 S. State St.","city":"Draper","state":"UT","zip":"84020","distance":22.325187572653,"lon":"-111.890999","lat":"40.5313","theaterChainName":"Cinemark","ticketType":"STANDARD"},{"id":"1464","tribuneTheaterId":"2710","providerTheaterId":"","name":"Brewvies 2 Theatre","address":"677 S. 200 WEST","city":"Salt Lake City","state":"UT","zip":"84101","distance":21.340227051894,"lon":"-111.896608","lat":"40.754373","theaterChainName":"Independent Chains","ticketType":"STANDARD"},{"id":"987","tribuneTheaterId":"5763","providerTheaterId":"","name":"Carmike 12 West Jordan","address":"9400 S. Redwood Rd.","city":"West Jordan","state":"UT","zip":"84088","distance":23.304640458348,"lon":"-111.936017","lat":"40.584628","theaterChainName":"Carmike Cinemas","ticketType":"STANDARD"},{"id":"968","tribuneTheaterId":"5263","providerTheaterId":"","name":"Cinemark Valley Fair 9","address":"3601 South 2700 West","city":"West Valley City","state":"UT","zip":"84119","distance":23.587690943442,"lon":"-111.954364","lat":"40.692973","theaterChainName":"Cinemark","ticketType":"STANDARD"},{"id":"4870","tribuneTheaterId":"10168","providerTheaterId":"","name":"Showstar Cinemas 6","address":"1904 W. 5400 S.","city":"Taylorsville","state":"UT","zip":"84118","distance":22.957892715765,"lon":"-111.943045","lat":"40.654199","theaterChainName":"Independent Chains","ticketType":"STANDARD"},{"id":"4996","tribuneTheaterId":"10365","providerTheaterId":"","name":"Water Gardens Cinema 6","address":"912 Garden Grove","city":"Pleasant Grove","state":"UT","zip":"84062","distance":24.516908000307,"lon":"-111.753185","lat":"40.367288","theaterChainName":"Water Gardens Theatres","ticketType":"STANDARD"},{"id":"5238","tribuneTheaterId":"10661","providerTheaterId":"","name":"Megaplex Theatres West Valley","address":"Valley Fair Mall","city":"West Valley City","state":"UT","zip":"84119","distance":23.584742546706,"lon":"-111.954294","lat":"40.693118","theaterChainName":"Megaplex Theatres","ticketType":"STANDARD"},{"id":"6071","tribuneTheaterId":"11478","providerTheaterId":"","name":"Crossroads 14","address":"5600 South Redwood Road","city":"Taylorsville","state":"UT","zip":"84123","distance":22.926397143917,"lon":"-111.942253","lat":"40.651225","theaterChainName":"Regal Cinemas","ticketType":"STANDARD"},{"id":"1646","tribuneTheaterId":"5765","providerTheaterId":"","name":"Carmike Hollywood Connection 15","address":"3217 South Decker Lake Drive","city":"West Valley City","state":"UT","zip":"84119","distance":23.248966733104,"lon":"-111.946896","lat":"40.701758","theaterChainName":"Carmike Cinemas","ticketType":"STANDARD"},{"id":"4216","tribuneTheaterId":"2416","providerTheaterId":"","name":"Megaplex 20 at the District","address":"3761 W. Parkway Plaza Dr.","city":"South Jordan","state":"UT","zip":"84095","distance":24.70984236441,"lon":"-111.9538","lat":"40.5583","theaterChainName":"Megaplex Theatres","ticketType":"STANDARD"}]