[{"id":"4896","name":"Park City Film Series at Santy Auditorium","address":"1255 Park Avenue","city":"Park City","state":"UT","zip":"84060","distance":"9.823989868164062","lon":"-111.502800","lat":"40.651699","theaterChainName":"Independent Chains","ticketType":"STANDARD"},{"id":"5383","name":"Holiday Village 4 Cinemas","address":"1776 Park Ave.","city":"Park City","state":"UT","zip":"84060","distance":"9.816632270812988","lon":"-111.508102","lat":"40.659100","theaterChainName":"Metropolitan Theatres","ticketType":"STANDARD"},{"id":"3698","name":"Redstone 8 Cinemas","address":"6030 N. Market St. Ste 120 at Redstone","city":"Park City","state":"UT","zip":"84098","distance":"10.41564655303955","lon":"-111.540695","lat":"40.719852","theaterChainName":"Metropolitan Theatres","ticketType":"STANDARD"},{"id":"1794","name":"Avon Theatre - Heber City","address":"94 S Main St","city":"Heber City","state":"UT","zip":"84032","distance":"15.529276847839355","lon":"-111.413696","lat":"40.506664","theaterChainName":"Independent Chains","ticketType":"STANDARD"},{"id":"2576","name":"Ideal Theatre","address":"113 N Main","city":"Heber City","state":"UT","zip":"84032","distance":"15.354999542236328","lon":"-111.413643","lat":"40.509254","theaterChainName":"Independent Chains","ticketType":"STANDARD"},{"id":"3885","name":"Kamas Theater","address":"30 North Main Street","city":"Kamas","state":"UT","zip":"84036","distance":"6.456568717956543","lon":"-111.280701","lat":"40.643600","theaterChainName":"Independent Chains","ticketType":"STANDARD"}]