[{"id":"4996","name":"Water Gardens Cinema 6","address":"912 Garden Grove","city":"Pleasant Grove","state":"UT","zip":"84062","distance":"23.717496871948242","lon":"-111.753181","lat":"40.367287","theaterChainName":"Water Gardens Theatres","ticketType":"STANDARD"},{"id":"1585","name":"Towne Cinemas 1 and 2","address":"120 W. Main St.","city":"American Fork","state":"UT","zip":"84003","distance":"24.710792541503906","lon":"-111.801834","lat":"40.376965","theaterChainName":"Independent Chains","ticketType":"STANDARD"},{"id":"965","name":"Cinemark Movies 9 Sandy","address":"9539 South 700 East","city":"Sandy","state":"UT","zip":"84070","distance":"19.964336395263672","lon":"-111.869705","lat":"40.578335","theaterChainName":"Cinemark","ticketType":"STANDARD"},{"id":"4118","name":"Century 16 Union Heights","address":"7670 S. Union Park Ave","city":"Sandy","state":"UT","zip":"84094","distance":"18.78324317932129","lon":"-111.855888","lat":"40.611359","theaterChainName":"Cinemark","ticketType":"STANDARD"},{"id":"5038","name":"Cinemark Draper","address":"12129 S. State St.","city":"Draper","state":"UT","zip":"84020","distance":"22.06919288635254","lon":"-111.890999","lat":"40.531300","theaterChainName":"Cinemark","ticketType":"STANDARD"},{"id":"2848","name":"Megaplex 17 - Jordan Commons","address":"9400 S. State Street","city":"Sandy","state":"UT","zip":"84070","distance":"20.947040557861328","lon":"-111.890190","lat":"40.581806","theaterChainName":"Megaplex Theatres","ticketType":"STANDARD"},{"id":"63","name":"Holladay Center Cinema 6","address":"1945 E. Murray-Holladay Rd.","city":"Salt Lake City","state":"UT","zip":"84117","distance":"17.514467239379883","lon":"-111.835411","lat":"40.666622","theaterChainName":"Westates Theatres","ticketType":"STANDARD"},{"id":"4896","name":"Park City Film Series at Santy Auditorium","address":"1255 Park Avenue","city":"Park City","state":"UT","zip":"84060","distance":"0.07139597833156586","lon":"-111.502800","lat":"40.651699","theaterChainName":"Independent Chains","ticketType":"STANDARD"},{"id":"5719","name":"AMC West Jordan 12","address":"9200 Redwood Road","city":"West Jordan","state":"UT","zip":"84088","distance":"23.24518585205078","lon":"-111.935867","lat":"40.584480","theaterChainName":"AMC Theatres","ticketType":"STANDARD"},{"id":"987","name":"Carmike 12 West Jordan","address":"9400 S. Redwood Rd.","city":"West Jordan","state":"UT","zip":"84088","distance":"23.250926971435547","lon":"-111.936020","lat":"40.584629","theaterChainName":"Carmike Cinemas","ticketType":"STANDARD"},{"id":"5383","name":"Holiday Village 4 Cinemas","address":"1776 Park Ave.","city":"Park City","state":"UT","zip":"84060","distance":"0.5686517953872681","lon":"-111.508102","lat":"40.659100","theaterChainName":"Metropolitan Theatres","ticketType":"STANDARD"},{"id":"3698","name":"Redstone 8 Cinemas","address":"6030 N. Market St. Ste 120 at Redstone","city":"Park City","state":"UT","zip":"84098","distance":"5.086806774139404","lon":"-111.540695","lat":"40.719852","theaterChainName":"Metropolitan Theatres","ticketType":"STANDARD"},{"id":"967","name":"Cinemark Sugar House 10","address":"2227 S. Highland Dr.","city":"Salt Lake City","state":"UT","zip":"84106","distance":"19.278636932373047","lon":"-111.858032","lat":"40.722244","theaterChainName":"Cinemark","ticketType":"STANDARD"},{"id":"1454","name":"Century 16 Salt Lake","address":"125 East 3300 South","city":"Salt Lake City","state":"UT","zip":"84115","distance":"20.475893020629883","lon":"-111.887444","lat":"40.700073","theaterChainName":"Cinemark","ticketType":"STANDARD"},{"id":"4216","name":"Megaplex 20 at the District","address":"3761 W. Parkway Plaza Dr.","city":"South Jordan","state":"UT","zip":"84095","distance":"24.586843490600586","lon":"-111.953796","lat":"40.558300","theaterChainName":"Megaplex Theatres","ticketType":"STANDARD"},{"id":"6071","name":"Crossroads 14","address":"5600 South Redwood Road","city":"Taylorsville","state":"UT","zip":"84123","distance":"23.09002113342285","lon":"-111.942253","lat":"40.651226","theaterChainName":"Regal Cinemas","ticketType":"STANDARD"},{"id":"1794","name":"Avon Theatre - Heber City","address":"94 S Main St","city":"Heber City","state":"UT","zip":"84032","distance":"11.080818176269531","lon":"-111.413696","lat":"40.506664","theaterChainName":"Independent Chains","ticketType":"STANDARD"},{"id":"2576","name":"Ideal Theatre","address":"113 N Main","city":"Heber City","state":"UT","zip":"84032","distance":"10.919573783874512","lon":"-111.413643","lat":"40.509254","theaterChainName":"Independent Chains","ticketType":"STANDARD"},{"id":"4870","name":"Showstar Cinemas 6","address":"1904 W. 5400 S.","city":"Taylorsville","state":"UT","zip":"84118","distance":"23.131290435791016","lon":"-111.943047","lat":"40.654198","theaterChainName":"Independent Chains","ticketType":"STANDARD"},{"id":"992","name":"Tower Theatre - Salt Lake City","address":"876 E 900 South","city":"Salt Lake City","state":"UT","zip":"84105","distance":"20.222366333007812","lon":"-111.865944","lat":"40.749561","theaterChainName":"Independent Chains","ticketType":"STANDARD"},{"id":"1646","name":"Carmike Hollywood Connection 15","address":"3217 South Decker Lake Drive","city":"West Valley City","state":"UT","zip":"84119","distance":"23.5726375579834","lon":"-111.946899","lat":"40.701759","theaterChainName":"Carmike Cinemas","ticketType":"STANDARD"},{"id":"968","name":"Cinemark Valley Fair 9","address":"3601 South 2700 West","city":"West Valley City","state":"UT","zip":"84119","distance":"23.882301330566406","lon":"-111.954361","lat":"40.692974","theaterChainName":"Cinemark","ticketType":"STANDARD"},{"id":"5238","name":"Megaplex Theatres West Valley","address":"Valley Fair Mall","city":"West Valley City","state":"UT","zip":"84119","distance":"23.879880905151367","lon":"-111.954292","lat":"40.693119","theaterChainName":"Megaplex Theatres","ticketType":"STANDARD"},{"id":"1464","name":"Brewvies 2 Theatre","address":"677 S. 200 WEST","city":"Salt Lake City","state":"UT","zip":"84101","distance":"21.848247528076172","lon":"-111.896606","lat":"40.754372","theaterChainName":"Independent Chains","ticketType":"STANDARD"},{"id":"62","name":"Broadway Centre Cinemas","address":"111 East Broadway #350","city":"Salt Lake City","state":"UT","zip":"84111","distance":"21.61692237854004","lon":"-111.887787","lat":"40.763130","theaterChainName":"Independent Chains","ticketType":"STANDARD"},{"id":"3521","name":"Megaplex 12 at the Gateway","address":"165 South Rio Grande St.","city":"Salt Lake City","state":"UT","zip":"84101","distance":"22.46827507019043","lon":"-111.903671","lat":"40.766132","theaterChainName":"Megaplex Theatres","ticketType":"STANDARD"},{"id":"3885","name":"Kamas Theater","address":"30 North Main Street","city":"Kamas","state":"UT","zip":"84036","distance":"11.607344627380371","lon":"-111.280701","lat":"40.643600","theaterChainName":"Independent Chains","ticketType":"STANDARD"}]