[{"id":"4223","name":"Megaplex 8 at Thanksgiving Point","address":"2935 North Thanksgiving Way","city":"Lehi","state":"UT","zip":"84043","distance":"24.807594299316406","lon":"-111.884766","lat":"40.424370","theaterChainName":"Megaplex Theatres","ticketType":"STANDARD"},{"id":"5719","name":"AMC West Jordan 12","address":"9200 Redwood Road","city":"West Jordan","state":"UT","zip":"84088","distance":"24.176076889038086","lon":"-111.935867","lat":"40.584480","theaterChainName":"AMC Theatres","ticketType":"STANDARD"},{"id":"987","name":"Carmike 12 West Jordan","address":"9400 S. Redwood Rd.","city":"West Jordan","state":"UT","zip":"84088","distance":"24.172943115234375","lon":"-111.936020","lat":"40.584629","theaterChainName":"Carmike Cinemas","ticketType":"STANDARD"},{"id":"4216","name":"Megaplex 20 at the District","address":"3761 W. Parkway Plaza Dr.","city":"South Jordan","state":"UT","zip":"84095","distance":"22.616554260253906","lon":"-111.953796","lat":"40.558300","theaterChainName":"Megaplex Theatres","ticketType":"STANDARD"},{"id":"2830","name":"Cinemark 24 Jordon Landing","address":"7301 Jordan Landing Blvd","city":"West Jordan","state":"UT","zip":"84084","distance":"23.19625473022461","lon":"-111.981125","lat":"40.619137","theaterChainName":"Cinemark","ticketType":"STANDARD"},{"id":"1736","name":"Ritz Theatre - Tooele","address":"111 North Main Street","city":"Tooele","state":"UT","zip":"84074","distance":"6.9804558753967285","lon":"-112.298721","lat":"40.532684","theaterChainName":"Independent Chains","ticketType":"STANDARD"},{"id":"3340","name":"Tooele Cinema","address":"1600 N. Pine Canyon Rd.","city":"Tooele","state":"UT","zip":"84074","distance":"8.758451461791992","lon":"-112.295181","lat":"40.559547","theaterChainName":"UEC Theatres","ticketType":"STANDARD"}]