[{"id":"3687","name":"Cinemark American Fork","address":"715 West 180 North","city":"American Fork","state":"UT","zip":"84003","distance":"24.798791885375977","lon":"-111.818268","lat":"40.379005","theaterChainName":"Cinemark","ticketType":"STANDARD"},{"id":"965","name":"Cinemark Movies 9 Sandy","address":"9539 South 700 East","city":"Sandy","state":"UT","zip":"84070","distance":"10.831132888793945","lon":"-111.869705","lat":"40.578335","theaterChainName":"Cinemark","ticketType":"STANDARD"},{"id":"4118","name":"Century 16 Union Heights","address":"7670 S. Union Park Ave","city":"Sandy","state":"UT","zip":"84094","distance":"9.044057846069336","lon":"-111.855888","lat":"40.611359","theaterChainName":"Cinemark","ticketType":"STANDARD"},{"id":"5038","name":"Cinemark Draper","address":"12129 S. State St.","city":"Draper","state":"UT","zip":"84020","distance":"13.683796882629395","lon":"-111.890999","lat":"40.531300","theaterChainName":"Cinemark","ticketType":"STANDARD"},{"id":"4223","name":"Megaplex 8 at Thanksgiving Point","address":"2935 North Thanksgiving Way","city":"Lehi","state":"UT","zip":"84043","distance":"21.03130340576172","lon":"-111.884766","lat":"40.424370","theaterChainName":"Megaplex Theatres","ticketType":"STANDARD"},{"id":"2848","name":"Megaplex 17 - Jordan Commons","address":"9400 S. State Street","city":"Sandy","state":"UT","zip":"84070","distance":"10.285202980041504","lon":"-111.890190","lat":"40.581806","theaterChainName":"Megaplex Theatres","ticketType":"STANDARD"},{"id":"63","name":"Holladay Center Cinema 6","address":"1945 E. Murray-Holladay Rd.","city":"Salt Lake City","state":"UT","zip":"84117","distance":"6.815746784210205","lon":"-111.835411","lat":"40.666622","theaterChainName":"Westates Theatres","ticketType":"STANDARD"},{"id":"4896","name":"Park City Film Series at Santy Auditorium","address":"1255 Park Avenue","city":"Park City","state":"UT","zip":"84060","distance":"23.44272232055664","lon":"-111.502800","lat":"40.651699","theaterChainName":"Independent Chains","ticketType":"STANDARD"},{"id":"5719","name":"AMC West Jordan 12","address":"9200 Redwood Road","city":"West Jordan","state":"UT","zip":"84088","distance":"9.773427963256836","lon":"-111.935867","lat":"40.584480","theaterChainName":"AMC Theatres","ticketType":"STANDARD"},{"id":"987","name":"Carmike 12 West Jordan","address":"9400 S. Redwood Rd.","city":"West Jordan","state":"UT","zip":"84088","distance":"9.763001441955566","lon":"-111.936020","lat":"40.584629","theaterChainName":"Carmike Cinemas","ticketType":"STANDARD"},{"id":"5383","name":"Holiday Village 4 Cinemas","address":"1776 Park Ave.","city":"Park City","state":"UT","zip":"84060","distance":"23.062732696533203","lon":"-111.508102","lat":"40.659100","theaterChainName":"Metropolitan Theatres","ticketType":"STANDARD"},{"id":"3698","name":"Redstone 8 Cinemas","address":"6030 N. Market St. Ste 120 at Redstone","city":"Park City","state":"UT","zip":"84098","distance":"20.883224487304688","lon":"-111.540695","lat":"40.719852","theaterChainName":"Metropolitan Theatres","ticketType":"STANDARD"},{"id":"967","name":"Cinemark Sugar House 10","address":"2227 S. Highland Dr.","city":"Salt Lake City","state":"UT","zip":"84106","distance":"4.2683916091918945","lon":"-111.858032","lat":"40.722244","theaterChainName":"Cinemark","ticketType":"STANDARD"},{"id":"1454","name":"Century 16 Salt Lake","address":"125 East 3300 South","city":"Salt Lake City","state":"UT","zip":"84115","distance":"3.2541255950927734","lon":"-111.887444","lat":"40.700073","theaterChainName":"Cinemark","ticketType":"STANDARD"},{"id":"4216","name":"Megaplex 20 at the District","address":"3761 W. Parkway Plaza Dr.","city":"South Jordan","state":"UT","zip":"84095","distance":"11.605240821838379","lon":"-111.953796","lat":"40.558300","theaterChainName":"Megaplex Theatres","ticketType":"STANDARD"},{"id":"6071","name":"Crossroads 14","address":"5600 South Redwood Road","city":"Taylorsville","state":"UT","zip":"84123","distance":"5.161868572235107","lon":"-111.942253","lat":"40.651226","theaterChainName":"Regal Cinemas","ticketType":"STANDARD"},{"id":"4870","name":"Showstar Cinemas 6","address":"1904 W. 5400 S.","city":"Taylorsville","state":"UT","zip":"84118","distance":"4.958052635192871","lon":"-111.943047","lat":"40.654198","theaterChainName":"Independent Chains","ticketType":"STANDARD"},{"id":"992","name":"Tower Theatre - Salt Lake City","address":"876 E 900 South","city":"Salt Lake City","state":"UT","zip":"84105","distance":"4.178952693939209","lon":"-111.865944","lat":"40.749561","theaterChainName":"Independent Chains","ticketType":"STANDARD"},{"id":"2830","name":"Cinemark 24 Jordon Landing","address":"7301 Jordan Landing Blvd","city":"West Jordan","state":"UT","zip":"84084","distance":"7.694256782531738","lon":"-111.981125","lat":"40.619137","theaterChainName":"Cinemark","ticketType":"STANDARD"},{"id":"1646","name":"Carmike Hollywood Connection 15","address":"3217 South Decker Lake Drive","city":"West Valley City","state":"UT","zip":"84119","distance":"1.7135999202728271","lon":"-111.946899","lat":"40.701759","theaterChainName":"Carmike Cinemas","ticketType":"STANDARD"},{"id":"968","name":"Cinemark Valley Fair 9","address":"3601 South 2700 West","city":"West Valley City","state":"UT","zip":"84119","distance":"2.4061954021453857","lon":"-111.954361","lat":"40.692974","theaterChainName":"Cinemark","ticketType":"STANDARD"},{"id":"5238","name":"Megaplex Theatres West Valley","address":"Valley Fair Mall","city":"West Valley City","state":"UT","zip":"84119","distance":"2.3955535888671875","lon":"-111.954292","lat":"40.693119","theaterChainName":"Megaplex Theatres","ticketType":"STANDARD"},{"id":"1464","name":"Brewvies 2 Theatre","address":"677 S. 200 WEST","city":"Salt Lake City","state":"UT","zip":"84101","distance":"2.981614112854004","lon":"-111.896606","lat":"40.754372","theaterChainName":"Independent Chains","ticketType":"STANDARD"},{"id":"62","name":"Broadway Centre Cinemas","address":"111 East Broadway #350","city":"Salt Lake City","state":"UT","zip":"84111","distance":"3.7307894229888916","lon":"-111.887787","lat":"40.763130","theaterChainName":"Independent Chains","ticketType":"STANDARD"},{"id":"3521","name":"Megaplex 12 at the Gateway","address":"165 South Rio Grande St.","city":"Salt Lake City","state":"UT","zip":"84101","distance":"3.350651264190674","lon":"-111.903671","lat":"40.766132","theaterChainName":"Megaplex Theatres","ticketType":"STANDARD"},{"id":"5484","name":"Cinemark West Valley City","address":"5432 W. High Market Dr.","city":"West Valley City","state":"UT","zip":"84119","distance":"4.3547468185424805","lon":"-112.021034","lat":"40.713905","theaterChainName":"Cinemark","ticketType":"STANDARD"},{"id":"4899","name":"Cinemark Bountiful 8","address":"206 S. 625 W.","city":"Bountiful","state":"UT","zip":"84010","distance":"11.300137519836426","lon":"-111.894958","lat":"40.885941","theaterChainName":"Cinemark","ticketType":"STANDARD"},{"id":"5097","name":"Megaplex 14 and IMAX at Legacy Crossing","address":"1075 W Legacy Crossing Blvd.","city":"Centerville","state":"UT","zip":"84014","distance":"13.62762451171875","lon":"-111.895645","lat":"40.920322","theaterChainName":"Megaplex Theatres","ticketType":"STANDARD"},{"id":"1736","name":"Ritz Theatre - Tooele","address":"111 North Main Street","city":"Tooele","state":"UT","zip":"84074","distance":"23.093318939208984","lon":"-112.298721","lat":"40.532684","theaterChainName":"Independent Chains","ticketType":"STANDARD"},{"id":"3340","name":"Tooele Cinema","address":"1600 N. Pine Canyon Rd.","city":"Tooele","state":"UT","zip":"84074","distance":"21.910797119140625","lon":"-112.295181","lat":"40.559547","theaterChainName":"UEC Theatres","ticketType":"STANDARD"},{"id":"1340","name":"Cinemark Tinseltown USA Layton","address":"720 West 1500 North","city":"Layton","state":"UT","zip":"84041","distance":"24.564647674560547","lon":"-111.980469","lat":"41.080048","theaterChainName":"Cinemark","ticketType":"STANDARD"},{"id":"602","name":"AMC Loews Layton Hills 9","address":"728 W 1425 N","city":"Layton","state":"UT","zip":"84041","distance":"24.5518856048584","lon":"-111.980492","lat":"41.079861","theaterChainName":"AMC Theatres","ticketType":"STANDARD"},{"id":"990","name":"Kaysville Theatre","address":"21 N. Main Street","city":"Kaysville","state":"UT","zip":"84037","distance":"21.378459930419922","lon":"-111.938782","lat":"41.035294","theaterChainName":"Independent Chains","ticketType":"STANDARD"},{"id":"5040","name":"Cinemark Farmington at Station Park","address":"900 W Clark Lane","city":"Farmington","state":"UT","zip":"84025","distance":"17.774229049682617","lon":"-111.907501","lat":"40.981998","theaterChainName":"Cinemark","ticketType":"STANDARD"}]