[{"id":"2714","name":"Cinefour","address":"2297 N. Main","city":"Logan","state":"UT","zip":"84341","distance":"16.4414119720459","lon":"-111.835686","lat":"41.774162","theaterChainName":"Independent Chains","ticketType":"STANDARD"},{"id":"2713","name":"Logan Movies 5","address":"2450 North Main","city":"Logan","state":"UT","zip":"84341","distance":"16.435714721679688","lon":"-111.835724","lat":"41.773762","theaterChainName":"Megaplex Theatres","ticketType":"STANDARD"},{"id":"1835","name":"University Stadium 6","address":"1225 N. 200 East","city":"Logan","state":"UT","zip":"84323","distance":"16.611576080322266","lon":"-111.829781","lat":"41.753284","theaterChainName":"Megaplex Theatres","ticketType":"STANDARD"},{"id":"3688","name":"Providence Stadium 8","address":"535 West 100 North","city":"Providence","state":"UT","zip":"84332","distance":"16.669574737548828","lon":"-111.830856","lat":"41.711376","theaterChainName":"Megaplex Theatres","ticketType":"STANDARD"},{"id":"4723","name":"Walker Cinemas 8","address":"1776 South Hwy 89","city":"Perry","state":"UT","zip":"84302","distance":"19.37561798095703","lon":"-112.022598","lat":"41.478001","theaterChainName":"Independent Chains","ticketType":"STANDARD"}]