[{"id":"1835","tribuneTheaterId":"5989","providerTheaterId":"","name":"University Stadium 6","address":"1225 N. 200 East","city":"Logan","state":"UT","zip":"84323","distance":0.57062793320115,"lon":"-111.82978","lat":"41.753286","theaterChainName":"Megaplex Theatres","ticketType":"STANDARD"},{"id":"3688","tribuneTheaterId":"5109","providerTheaterId":"","name":"Providence Stadium 8","address":"535 West 100 North","city":"Providence","state":"UT","zip":"84332","distance":2.4977964738223,"lon":"-111.830857","lat":"41.711378","theaterChainName":"Megaplex Theatres","ticketType":"STANDARD"},{"id":"2714","tribuneTheaterId":"2902","providerTheaterId":"","name":"Cinefour","address":"2297 N. Main","city":"Logan","state":"UT","zip":"84341","distance":1.9942166322751,"lon":"-111.835682","lat":"41.774163","theaterChainName":"Independent Chains","ticketType":"STANDARD"},{"id":"2713","tribuneTheaterId":"5991","providerTheaterId":"","name":"Logan Movies 5","address":"2450 North Main","city":"Logan","state":"UT","zip":"84341","distance":1.9689074003695,"lon":"-111.835724","lat":"41.773762","theaterChainName":"Megaplex Theatres","ticketType":"STANDARD"},{"id":"4723","tribuneTheaterId":"9942","providerTheaterId":"","name":"Walker Cinemas 8","address":"1776 South Hwy 89","city":"Perry","state":"UT","zip":"84302","distance":21.264498622948,"lon":"-112.022598","lat":"41.478001","theaterChainName":"Independent Chains","ticketType":"STANDARD"}]