[{"id":"3688","tribuneTheaterId":"5109","providerTheaterId":"","name":"Providence Stadium 8","address":"535 West 100 North","city":"Providence","state":"UT","zip":"84332","distance":10.459376630817,"lon":"-111.830857","lat":"41.711378","theaterChainName":"Megaplex Theatres","ticketType":"STANDARD"},{"id":"4723","tribuneTheaterId":"9942","providerTheaterId":"","name":"Walker Cinemas 8","address":"1776 South Hwy 89","city":"Perry","state":"UT","zip":"84302","distance":11.475260609851,"lon":"-112.022598","lat":"41.478001","theaterChainName":"Independent Chains","ticketType":"STANDARD"},{"id":"1835","tribuneTheaterId":"5989","providerTheaterId":"","name":"University Stadium 6","address":"1225 N. 200 East","city":"Logan","state":"UT","zip":"84323","distance":13.354768756596,"lon":"-111.82978","lat":"41.753286","theaterChainName":"Megaplex Theatres","ticketType":"STANDARD"},{"id":"2714","tribuneTheaterId":"2902","providerTheaterId":"","name":"Cinefour","address":"2297 N. Main","city":"Logan","state":"UT","zip":"84341","distance":14.800449847056,"lon":"-111.835682","lat":"41.774163","theaterChainName":"Independent Chains","ticketType":"STANDARD"},{"id":"2713","tribuneTheaterId":"5991","providerTheaterId":"","name":"Logan Movies 5","address":"2450 North Main","city":"Logan","state":"UT","zip":"84341","distance":14.772794960203,"lon":"-111.835724","lat":"41.773762","theaterChainName":"Megaplex Theatres","ticketType":"STANDARD"},{"id":"2463","tribuneTheaterId":"2898","providerTheaterId":"","name":"Walker Cinemas 6","address":"1610 N Washington Blvd.","city":"North Ogden","state":"UT","zip":"84404","distance":20.171599066063,"lon":"-111.967882","lat":"41.287058","theaterChainName":"Independent Chains","ticketType":"STANDARD"},{"id":"4717","tribuneTheaterId":"9932","providerTheaterId":"","name":"CinePointe 6","address":"151 12th St.","city":"Ogden","state":"UT","zip":"84404","distance":23.096360377476,"lon":"-111.9762","lat":"41.2443","theaterChainName":"Independent Chains","ticketType":"STANDARD"},{"id":"5306","tribuneTheaterId":"10739","providerTheaterId":"","name":"Art House Cinema 502","address":"158 25TH St.","city":"Ogden","state":"UT","zip":"84401","distance":24.658616541026,"lon":"-111.9772","lat":"41.2207","theaterChainName":"Independent Chains","ticketType":"STANDARD"},{"id":"4734","tribuneTheaterId":"9954","providerTheaterId":"","name":"Megaplex 13 at the Junction","address":"2351 Kiesel Ave","city":"Ogden","state":"UT","zip":"84401","distance":24.310517678739,"lon":"-111.971648","lat":"41.224651","theaterChainName":"Megaplex Theatres","ticketType":"STANDARD"},{"id":"5558","tribuneTheaterId":"11004","providerTheaterId":"","name":"Movie Grille","address":"2293 Grant Ave.","city":"Ogden","state":"UT","zip":"84401","distance":24.307028153719,"lon":"-111.9733","lat":"41.2251","theaterChainName":"Independent Chains","ticketType":"STANDARD"}]