[{"id":"2714","name":"Cinefour","address":"2297 N. Main","city":"Logan","state":"UT","zip":"84341","distance":"14.801231384277344","lon":"-111.835686","lat":"41.774162","theaterChainName":"Independent Chains","ticketType":"STANDARD"},{"id":"2713","name":"Logan Movies 5","address":"2450 North Main","city":"Logan","state":"UT","zip":"84341","distance":"14.773601531982422","lon":"-111.835724","lat":"41.773762","theaterChainName":"Megaplex Theatres","ticketType":"STANDARD"},{"id":"1835","name":"University Stadium 6","address":"1225 N. 200 East","city":"Logan","state":"UT","zip":"84323","distance":"13.355395317077637","lon":"-111.829781","lat":"41.753284","theaterChainName":"Megaplex Theatres","ticketType":"STANDARD"},{"id":"3688","name":"Providence Stadium 8","address":"535 West 100 North","city":"Providence","state":"UT","zip":"84332","distance":"10.459805488586426","lon":"-111.830856","lat":"41.711376","theaterChainName":"Megaplex Theatres","ticketType":"STANDARD"},{"id":"5306","name":"Art House Cinema 502","address":"158 25TH St.","city":"Ogden","state":"UT","zip":"84401","distance":"24.660388946533203","lon":"-111.977203","lat":"41.220699","theaterChainName":"Independent Chains","ticketType":"STANDARD"},{"id":"5558","name":"Movie Grille","address":"2293 Grant Ave.","city":"Ogden","state":"UT","zip":"84401","distance":"24.308534622192383","lon":"-111.973297","lat":"41.225101","theaterChainName":"Independent Chains","ticketType":"STANDARD"},{"id":"4734","name":"Megaplex 13 at the Junction","address":"2351 Kiesel Ave","city":"Ogden","state":"UT","zip":"84401","distance":"24.312164306640625","lon":"-111.971649","lat":"41.224651","theaterChainName":"Megaplex Theatres","ticketType":"STANDARD"},{"id":"4717","name":"CinePointe 6","address":"151 12th St.","city":"Ogden","state":"UT","zip":"84404","distance":"23.097820281982422","lon":"-111.976196","lat":"41.244301","theaterChainName":"Independent Chains","ticketType":"STANDARD"},{"id":"2463","name":"Walker Cinemas 6","address":"1610 N Washington Blvd.","city":"North Ogden","state":"UT","zip":"84404","distance":"20.1728515625","lon":"-111.967880","lat":"41.287060","theaterChainName":"Independent Chains","ticketType":"STANDARD"},{"id":"4723","name":"Walker Cinemas 8","address":"1776 South Hwy 89","city":"Perry","state":"UT","zip":"84302","distance":"11.47619342803955","lon":"-112.022598","lat":"41.478001","theaterChainName":"Independent Chains","ticketType":"STANDARD"}]