[{"id":"2714","name":"Cinefour","address":"2297 N. Main","city":"Logan","state":"UT","zip":"84341","distance":"19.883655548095703","lon":"-111.835686","lat":"41.774162","theaterChainName":"Independent Chains","ticketType":"STANDARD"},{"id":"2713","name":"Logan Movies 5","address":"2450 North Main","city":"Logan","state":"UT","zip":"84341","distance":"19.856510162353516","lon":"-111.835724","lat":"41.773762","theaterChainName":"Megaplex Theatres","ticketType":"STANDARD"},{"id":"1835","name":"University Stadium 6","address":"1225 N. 200 East","city":"Logan","state":"UT","zip":"84323","distance":"18.59368324279785","lon":"-111.829781","lat":"41.753284","theaterChainName":"Megaplex Theatres","ticketType":"STANDARD"},{"id":"3688","name":"Providence Stadium 8","address":"535 West 100 North","city":"Providence","state":"UT","zip":"84332","distance":"15.84720230102539","lon":"-111.830856","lat":"41.711376","theaterChainName":"Megaplex Theatres","ticketType":"STANDARD"},{"id":"1373","name":"Cinemark Tinseltown 14 Ogden","address":"1010 New Gate Mall","city":"Ogden","state":"UT","zip":"84405","distance":"21.00387191772461","lon":"-111.982216","lat":"41.195061","theaterChainName":"Cinemark","ticketType":"STANDARD"},{"id":"5306","name":"Art House Cinema 502","address":"158 25TH St.","city":"Ogden","state":"UT","zip":"84401","distance":"19.215295791625977","lon":"-111.977203","lat":"41.220699","theaterChainName":"Independent Chains","ticketType":"STANDARD"},{"id":"5558","name":"Movie Grille","address":"2293 Grant Ave.","city":"Ogden","state":"UT","zip":"84401","distance":"18.893836975097656","lon":"-111.973297","lat":"41.225101","theaterChainName":"Independent Chains","ticketType":"STANDARD"},{"id":"4734","name":"Megaplex 13 at the Junction","address":"2351 Kiesel Ave","city":"Ogden","state":"UT","zip":"84401","distance":"18.917591094970703","lon":"-111.971649","lat":"41.224651","theaterChainName":"Megaplex Theatres","ticketType":"STANDARD"},{"id":"4717","name":"CinePointe 6","address":"151 12th St.","city":"Ogden","state":"UT","zip":"84404","distance":"17.587295532226562","lon":"-111.976196","lat":"41.244301","theaterChainName":"Independent Chains","ticketType":"STANDARD"},{"id":"2463","name":"Walker Cinemas 6","address":"1610 N Washington Blvd.","city":"North Ogden","state":"UT","zip":"84404","distance":"14.604694366455078","lon":"-111.967880","lat":"41.287060","theaterChainName":"Independent Chains","ticketType":"STANDARD"},{"id":"4723","name":"Walker Cinemas 8","address":"1776 South Hwy 89","city":"Perry","state":"UT","zip":"84302","distance":"4.403896331787109","lon":"-112.022598","lat":"41.478001","theaterChainName":"Independent Chains","ticketType":"STANDARD"}]