[{"id":"4996","name":"Water Gardens Cinema 6","address":"912 Garden Grove","city":"Pleasant Grove","state":"UT","zip":"84062","distance":"10.21146297454834","lon":"-111.753181","lat":"40.367287","theaterChainName":"Water Gardens Theatres","ticketType":"STANDARD"},{"id":"1585","name":"Towne Cinemas 1 and 2","address":"120 W. Main St.","city":"American Fork","state":"UT","zip":"84003","distance":"12.032979011535645","lon":"-111.801834","lat":"40.376965","theaterChainName":"Independent Chains","ticketType":"STANDARD"},{"id":"3687","name":"Cinemark American Fork","address":"715 West 180 North","city":"American Fork","state":"UT","zip":"84003","distance":"12.645857810974121","lon":"-111.818268","lat":"40.379005","theaterChainName":"Cinemark","ticketType":"STANDARD"},{"id":"5038","name":"Cinemark Draper","address":"12129 S. State St.","city":"Draper","state":"UT","zip":"84020","distance":"23.59332275390625","lon":"-111.890999","lat":"40.531300","theaterChainName":"Cinemark","ticketType":"STANDARD"},{"id":"5647","name":"Megaplex Theatre Geneva at Vineyard","address":"600 N Mills Road","city":"Vineyard","state":"UT","zip":"84058","distance":"6.010802745819092","lon":"-111.738701","lat":"40.304298","theaterChainName":"Megaplex Theatres","ticketType":"STANDARD"},{"id":"4223","name":"Megaplex 8 at Thanksgiving Point","address":"2935 North Thanksgiving Way","city":"Lehi","state":"UT","zip":"84043","distance":"17.27385711669922","lon":"-111.884766","lat":"40.424370","theaterChainName":"Megaplex Theatres","ticketType":"STANDARD"},{"id":"1263","name":"Carmike Wynnsong 12 Provo","address":"4925 N Edgewood Drive","city":"Provo","state":"UT","zip":"84604","distance":"4.729656219482422","lon":"-111.660416","lat":"40.299374","theaterChainName":"Carmike Cinemas","ticketType":"STANDARD"},{"id":"1456","name":"SCERA Theatre","address":"745 S. State St.","city":"Orem","state":"UT","zip":"84058","distance":"3.6212217807769775","lon":"-111.688904","lat":"40.283298","theaterChainName":"Independent Chains","ticketType":"STANDARD"},{"id":"4581","name":"Cinemark University Mall","address":"1010 South 800 East","city":"Orem","state":"UT","zip":"84097","distance":"3.209684371948242","lon":"-111.677238","lat":"40.278332","theaterChainName":"Cinemark","ticketType":"STANDARD"},{"id":"237","name":"Cinemark Movies 8 Provo","address":"2424 N. University Pkwy","city":"Provo","state":"UT","zip":"84604","distance":"2.4105422496795654","lon":"-111.668991","lat":"40.266430","theaterChainName":"Cinemark","ticketType":"STANDARD"},{"id":"2827","name":"Cinemark 16 Provo","address":"1200 Town Center Blvd","city":"Provo","state":"UT","zip":"84601","distance":"1.2017382383346558","lon":"-111.663635","lat":"40.217052","theaterChainName":"Cinemark","ticketType":"STANDARD"},{"id":"1794","name":"Avon Theatre - Heber City","address":"94 S Main St","city":"Heber City","state":"UT","zip":"84032","distance":"23.460773468017578","lon":"-111.413696","lat":"40.506664","theaterChainName":"Independent Chains","ticketType":"STANDARD"},{"id":"2576","name":"Ideal Theatre","address":"113 N Main","city":"Heber City","state":"UT","zip":"84032","distance":"23.607330322265625","lon":"-111.413643","lat":"40.509254","theaterChainName":"Independent Chains","ticketType":"STANDARD"},{"id":"4830","name":"Spanish 8 Theaters","address":"790 Expressway Lane","city":"Spanish Fork","state":"UT","zip":"84660","distance":"7.733272075653076","lon":"-111.641075","lat":"40.123116","theaterChainName":"Water Gardens Theatres","ticketType":"STANDARD"},{"id":"3089","name":"Stadium Cinemas","address":"633 S 950W","city":"Payson","state":"UT","zip":"84651","distance":"14.158952713012695","lon":"-111.748634","lat":"40.034763","theaterChainName":"Independent Chains","ticketType":"STANDARD"}]