[{"id":"2827","tribuneTheaterId":"5264","providerTheaterId":"","name":"Cinemark 16 Provo","address":"1200 Town Center Blvd","city":"Provo","state":"UT","zip":"84601","distance":1.2016244998521,"lon":"-111.663636","lat":"40.217054","theaterChainName":"Cinemark","ticketType":"STANDARD"},{"id":"237","tribuneTheaterId":"5261","providerTheaterId":"","name":"Cinemark Movies 8 Provo","address":"2424 N. University Pkwy","city":"Provo","state":"UT","zip":"84604","distance":2.4104410219352,"lon":"-111.668989","lat":"40.266431","theaterChainName":"Cinemark","ticketType":"STANDARD"},{"id":"1456","tribuneTheaterId":"2496","providerTheaterId":"","name":"SCERA Theatre","address":"745 S. State St.","city":"Orem","state":"UT","zip":"84058","distance":3.6209052549263,"lon":"-111.688904","lat":"40.283298","theaterChainName":"Independent Chains","ticketType":"STANDARD"},{"id":"4581","tribuneTheaterId":"9727","providerTheaterId":"","name":"Cinemark University Mall","address":"1010 South 800 East","city":"Orem","state":"UT","zip":"84097","distance":3.2094489561582,"lon":"-111.677238","lat":"40.278332","theaterChainName":"Cinemark","ticketType":"STANDARD"},{"id":"1263","tribuneTheaterId":"5764","providerTheaterId":"","name":"Carmike Wynnsong 12 Provo","address":"4925 N Edgewood Drive","city":"Provo","state":"UT","zip":"84604","distance":4.7292167646123,"lon":"-111.660415","lat":"40.299372","theaterChainName":"Carmike Cinemas","ticketType":"STANDARD"},{"id":"5647","tribuneTheaterId":"11112","providerTheaterId":"","name":"Megaplex Theatre Geneva at Vineyard","address":"600 N Mills Road","city":"Vineyard","state":"UT","zip":"84058","distance":6.0104240805894,"lon":"-111.7387","lat":"40.3043","theaterChainName":"Megaplex Theatres","ticketType":"STANDARD"},{"id":"4830","tribuneTheaterId":"10104","providerTheaterId":"","name":"Spanish 8 Theaters","address":"790 Expressway Lane","city":"Spanish Fork","state":"UT","zip":"84660","distance":7.7327713171091,"lon":"-111.641074","lat":"40.123117","theaterChainName":"Water Gardens Theatres","ticketType":"STANDARD"},{"id":"4996","tribuneTheaterId":"10365","providerTheaterId":"","name":"Water Gardens Cinema 6","address":"912 Garden Grove","city":"Pleasant Grove","state":"UT","zip":"84062","distance":10.210919502658,"lon":"-111.753185","lat":"40.367288","theaterChainName":"Water Gardens Theatres","ticketType":"STANDARD"},{"id":"3687","tribuneTheaterId":"4236","providerTheaterId":"","name":"Cinemark American Fork","address":"715 West 180 North","city":"American Fork","state":"UT","zip":"84003","distance":12.645037399179,"lon":"-111.818268","lat":"40.379006","theaterChainName":"Cinemark","ticketType":"STANDARD"},{"id":"1585","tribuneTheaterId":"2712","providerTheaterId":"","name":"Towne Cinemas 1 and 2","address":"120 W. Main St.","city":"American Fork","state":"UT","zip":"84003","distance":12.032066279384,"lon":"-111.801832","lat":"40.376964","theaterChainName":"Independent Chains","ticketType":"STANDARD"},{"id":"3089","tribuneTheaterId":"4963","providerTheaterId":"","name":"Stadium Cinemas","address":"633 S 950W","city":"Payson","state":"UT","zip":"84651","distance":14.157993723274,"lon":"-111.748634","lat":"40.034765","theaterChainName":"Independent Chains","ticketType":"STANDARD"},{"id":"4223","tribuneTheaterId":"2173","providerTheaterId":"","name":"Megaplex 8 at Thanksgiving Point","address":"2935 North Thanksgiving Way","city":"Lehi","state":"UT","zip":"84043","distance":17.27262962369,"lon":"-111.884766","lat":"40.424368","theaterChainName":"Megaplex Theatres","ticketType":"STANDARD"},{"id":"2576","tribuneTheaterId":"2551","providerTheaterId":"","name":"Ideal Theatre","address":"113 N Main","city":"Heber City","state":"UT","zip":"84032","distance":23.605883801892,"lon":"-111.413643","lat":"40.509255","theaterChainName":"Independent Chains","ticketType":"STANDARD"},{"id":"5038","tribuneTheaterId":"10414","providerTheaterId":"","name":"Cinemark Draper","address":"12129 S. State St.","city":"Draper","state":"UT","zip":"84020","distance":23.591817887025,"lon":"-111.890999","lat":"40.5313","theaterChainName":"Cinemark","ticketType":"STANDARD"},{"id":"1794","tribuneTheaterId":"278","providerTheaterId":"","name":"Avon Theatre - Heber City","address":"94 S Main St","city":"Heber City","state":"UT","zip":"84032","distance":23.459384568148,"lon":"-111.413697","lat":"40.506666","theaterChainName":"Independent Chains","ticketType":"STANDARD"}]