[{"id":"3089","tribuneTheaterId":"4963","providerTheaterId":"","name":"Stadium Cinemas","address":"633 S 950W","city":"Payson","state":"UT","zip":"84651","distance":11.72335497151,"lon":"-111.748634","lat":"40.034765","theaterChainName":"Independent Chains","ticketType":"STANDARD"},{"id":"4860","tribuneTheaterId":"10157","providerTheaterId":"","name":"Salt Creek Cinemas","address":"1101 E. Highway 132","city":"Nephi","state":"UT","zip":"84648","distance":19.622707526589,"lon":"-111.813904","lat":"39.711498","theaterChainName":"Independent Chains","ticketType":"STANDARD"},{"id":"4830","tribuneTheaterId":"10104","providerTheaterId":"","name":"Spanish 8 Theaters","address":"790 Expressway Lane","city":"Spanish Fork","state":"UT","zip":"84660","distance":19.562298231056,"lon":"-111.641074","lat":"40.123117","theaterChainName":"Water Gardens Theatres","ticketType":"STANDARD"},{"id":"2827","tribuneTheaterId":"5264","providerTheaterId":"","name":"Cinemark 16 Provo","address":"1200 Town Center Blvd","city":"Provo","state":"UT","zip":"84601","distance":22.804764901918,"lon":"-111.663636","lat":"40.217054","theaterChainName":"Cinemark","ticketType":"STANDARD"}]