[{"id":"237","name":"Cinemark Movies 8 Provo","address":"2424 N. University Pkwy","city":"Provo","state":"UT","zip":"84604","distance":"24.8819580078125","lon":"-111.668991","lat":"40.266430","theaterChainName":"Cinemark","ticketType":"STANDARD"},{"id":"2827","name":"Cinemark 16 Provo","address":"1200 Town Center Blvd","city":"Provo","state":"UT","zip":"84601","distance":"22.13816261291504","lon":"-111.663635","lat":"40.217052","theaterChainName":"Cinemark","ticketType":"STANDARD"},{"id":"4830","name":"Spanish 8 Theaters","address":"790 Expressway Lane","city":"Spanish Fork","state":"UT","zip":"84660","distance":"18.08213233947754","lon":"-111.641075","lat":"40.123116","theaterChainName":"Water Gardens Theatres","ticketType":"STANDARD"},{"id":"3089","name":"Stadium Cinemas","address":"633 S 950W","city":"Payson","state":"UT","zip":"84651","distance":"9.839028358459473","lon":"-111.748634","lat":"40.034763","theaterChainName":"Independent Chains","ticketType":"STANDARD"},{"id":"4860","name":"Salt Creek Cinemas","address":"1101 E. Highway 132","city":"Nephi","state":"UT","zip":"84648","distance":"17.312461853027344","lon":"-111.813904","lat":"39.711498","theaterChainName":"Independent Chains","ticketType":"STANDARD"}]