[{"id":"4996","name":"Water Gardens Cinema 6","address":"912 Garden Grove","city":"Pleasant Grove","state":"UT","zip":"84062","distance":"22.303970336914062","lon":"-111.753181","lat":"40.367287","theaterChainName":"Water Gardens Theatres","ticketType":"STANDARD"},{"id":"1585","name":"Towne Cinemas 1 and 2","address":"120 W. Main St.","city":"American Fork","state":"UT","zip":"84003","distance":"23.23810386657715","lon":"-111.801834","lat":"40.376965","theaterChainName":"Independent Chains","ticketType":"STANDARD"},{"id":"3687","name":"Cinemark American Fork","address":"715 West 180 North","city":"American Fork","state":"UT","zip":"84003","distance":"23.5294246673584","lon":"-111.818268","lat":"40.379005","theaterChainName":"Cinemark","ticketType":"STANDARD"},{"id":"5647","name":"Megaplex Theatre Geneva at Vineyard","address":"600 N Mills Road","city":"Vineyard","state":"UT","zip":"84058","distance":"17.92725944519043","lon":"-111.738701","lat":"40.304298","theaterChainName":"Megaplex Theatres","ticketType":"STANDARD"},{"id":"1263","name":"Carmike Wynnsong 12 Provo","address":"4925 N Edgewood Drive","city":"Provo","state":"UT","zip":"84604","distance":"17.986316680908203","lon":"-111.660416","lat":"40.299374","theaterChainName":"Carmike Cinemas","ticketType":"STANDARD"},{"id":"1456","name":"SCERA Theatre","address":"745 S. State St.","city":"Orem","state":"UT","zip":"84058","distance":"16.630008697509766","lon":"-111.688904","lat":"40.283298","theaterChainName":"Independent Chains","ticketType":"STANDARD"},{"id":"4581","name":"Cinemark University Mall","address":"1010 South 800 East","city":"Orem","state":"UT","zip":"84097","distance":"16.38775634765625","lon":"-111.677238","lat":"40.278332","theaterChainName":"Cinemark","ticketType":"STANDARD"},{"id":"237","name":"Cinemark Movies 8 Provo","address":"2424 N. University Pkwy","city":"Provo","state":"UT","zip":"84604","distance":"15.665894508361816","lon":"-111.668991","lat":"40.266430","theaterChainName":"Cinemark","ticketType":"STANDARD"},{"id":"2827","name":"Cinemark 16 Provo","address":"1200 Town Center Blvd","city":"Provo","state":"UT","zip":"84601","distance":"12.433161735534668","lon":"-111.663635","lat":"40.217052","theaterChainName":"Cinemark","ticketType":"STANDARD"},{"id":"4830","name":"Spanish 8 Theaters","address":"790 Expressway Lane","city":"Spanish Fork","state":"UT","zip":"84660","distance":"7.236519813537598","lon":"-111.641075","lat":"40.123116","theaterChainName":"Water Gardens Theatres","ticketType":"STANDARD"},{"id":"3089","name":"Stadium Cinemas","address":"633 S 950W","city":"Payson","state":"UT","zip":"84651","distance":"1.1204569339752197","lon":"-111.748634","lat":"40.034763","theaterChainName":"Independent Chains","ticketType":"STANDARD"},{"id":"4860","name":"Salt Creek Cinemas","address":"1101 E. Highway 132","city":"Nephi","state":"UT","zip":"84648","distance":"23.441993713378906","lon":"-111.813904","lat":"39.711498","theaterChainName":"Independent Chains","ticketType":"STANDARD"}]