[{"id":"3089","tribuneTheaterId":"4963","providerTheaterId":"","name":"Stadium Cinemas","address":"633 S 950W","city":"Payson","state":"UT","zip":"84651","distance":1.1204049257453,"lon":"-111.748634","lat":"40.034765","theaterChainName":"Independent Chains","ticketType":"STANDARD"},{"id":"4830","tribuneTheaterId":"10104","providerTheaterId":"","name":"Spanish 8 Theaters","address":"790 Expressway Lane","city":"Spanish Fork","state":"UT","zip":"84660","distance":7.2360834376513,"lon":"-111.641074","lat":"40.123117","theaterChainName":"Water Gardens Theatres","ticketType":"STANDARD"},{"id":"2827","tribuneTheaterId":"5264","providerTheaterId":"","name":"Cinemark 16 Provo","address":"1200 Town Center Blvd","city":"Provo","state":"UT","zip":"84601","distance":12.432392561786,"lon":"-111.663636","lat":"40.217054","theaterChainName":"Cinemark","ticketType":"STANDARD"},{"id":"237","tribuneTheaterId":"5261","providerTheaterId":"","name":"Cinemark Movies 8 Provo","address":"2424 N. University Pkwy","city":"Provo","state":"UT","zip":"84604","distance":15.66493626883,"lon":"-111.668989","lat":"40.266431","theaterChainName":"Cinemark","ticketType":"STANDARD"},{"id":"1456","tribuneTheaterId":"2496","providerTheaterId":"","name":"SCERA Theatre","address":"745 S. State St.","city":"Orem","state":"UT","zip":"84058","distance":16.628863004661,"lon":"-111.688904","lat":"40.283298","theaterChainName":"Independent Chains","ticketType":"STANDARD"},{"id":"4581","tribuneTheaterId":"9727","providerTheaterId":"","name":"Cinemark University Mall","address":"1010 South 800 East","city":"Orem","state":"UT","zip":"84097","distance":16.386678433999,"lon":"-111.677238","lat":"40.278332","theaterChainName":"Cinemark","ticketType":"STANDARD"},{"id":"1263","tribuneTheaterId":"5764","providerTheaterId":"","name":"Carmike Wynnsong 12 Provo","address":"4925 N Edgewood Drive","city":"Provo","state":"UT","zip":"84604","distance":17.985015532034,"lon":"-111.660415","lat":"40.299372","theaterChainName":"Carmike Cinemas","ticketType":"STANDARD"},{"id":"5647","tribuneTheaterId":"11112","providerTheaterId":"","name":"Megaplex Theatre Geneva at Vineyard","address":"600 N Mills Road","city":"Vineyard","state":"UT","zip":"84058","distance":17.926189310794,"lon":"-111.7387","lat":"40.3043","theaterChainName":"Megaplex Theatres","ticketType":"STANDARD"},{"id":"4996","tribuneTheaterId":"10365","providerTheaterId":"","name":"Water Gardens Cinema 6","address":"912 Garden Grove","city":"Pleasant Grove","state":"UT","zip":"84062","distance":22.302621748848,"lon":"-111.753185","lat":"40.367288","theaterChainName":"Water Gardens Theatres","ticketType":"STANDARD"},{"id":"4860","tribuneTheaterId":"10157","providerTheaterId":"","name":"Salt Creek Cinemas","address":"1101 E. Highway 132","city":"Nephi","state":"UT","zip":"84648","distance":23.44064283174,"lon":"-111.813904","lat":"39.711498","theaterChainName":"Independent Chains","ticketType":"STANDARD"},{"id":"3687","tribuneTheaterId":"4236","providerTheaterId":"","name":"Cinemark American Fork","address":"715 West 180 North","city":"American Fork","state":"UT","zip":"84003","distance":23.527952499635,"lon":"-111.818268","lat":"40.379006","theaterChainName":"Cinemark","ticketType":"STANDARD"},{"id":"1585","tribuneTheaterId":"2712","providerTheaterId":"","name":"Towne Cinemas 1 and 2","address":"120 W. Main St.","city":"American Fork","state":"UT","zip":"84003","distance":23.236550965143,"lon":"-111.801832","lat":"40.376964","theaterChainName":"Independent Chains","ticketType":"STANDARD"}]