[{"id":"4996","name":"Water Gardens Cinema 6","address":"912 Garden Grove","city":"Pleasant Grove","state":"UT","zip":"84062","distance":"18.658411026000977","lon":"-111.753181","lat":"40.367287","theaterChainName":"Water Gardens Theatres","ticketType":"STANDARD"},{"id":"1585","name":"Towne Cinemas 1 and 2","address":"120 W. Main St.","city":"American Fork","state":"UT","zip":"84003","distance":"20.19670295715332","lon":"-111.801834","lat":"40.376965","theaterChainName":"Independent Chains","ticketType":"STANDARD"},{"id":"3687","name":"Cinemark American Fork","address":"715 West 180 North","city":"American Fork","state":"UT","zip":"84003","distance":"20.69080352783203","lon":"-111.818268","lat":"40.379005","theaterChainName":"Cinemark","ticketType":"STANDARD"},{"id":"5647","name":"Megaplex Theatre Geneva at Vineyard","address":"600 N Mills Road","city":"Vineyard","state":"UT","zip":"84058","distance":"14.29177474975586","lon":"-111.738701","lat":"40.304298","theaterChainName":"Megaplex Theatres","ticketType":"STANDARD"},{"id":"1263","name":"Carmike Wynnsong 12 Provo","address":"4925 N Edgewood Drive","city":"Provo","state":"UT","zip":"84604","distance":"13.113541603088379","lon":"-111.660416","lat":"40.299374","theaterChainName":"Carmike Cinemas","ticketType":"STANDARD"},{"id":"1456","name":"SCERA Theatre","address":"745 S. State St.","city":"Orem","state":"UT","zip":"84058","distance":"12.191448211669922","lon":"-111.688904","lat":"40.283298","theaterChainName":"Independent Chains","ticketType":"STANDARD"},{"id":"4581","name":"Cinemark University Mall","address":"1010 South 800 East","city":"Orem","state":"UT","zip":"84097","distance":"11.752851486206055","lon":"-111.677238","lat":"40.278332","theaterChainName":"Cinemark","ticketType":"STANDARD"},{"id":"237","name":"Cinemark Movies 8 Provo","address":"2424 N. University Pkwy","city":"Provo","state":"UT","zip":"84604","distance":"10.882429122924805","lon":"-111.668991","lat":"40.266430","theaterChainName":"Cinemark","ticketType":"STANDARD"},{"id":"2827","name":"Cinemark 16 Provo","address":"1200 Town Center Blvd","city":"Provo","state":"UT","zip":"84601","distance":"7.460886478424072","lon":"-111.663635","lat":"40.217052","theaterChainName":"Cinemark","ticketType":"STANDARD"},{"id":"4830","name":"Spanish 8 Theaters","address":"790 Expressway Lane","city":"Spanish Fork","state":"UT","zip":"84660","distance":"0.9524072408676147","lon":"-111.641075","lat":"40.123116","theaterChainName":"Water Gardens Theatres","ticketType":"STANDARD"},{"id":"3089","name":"Stadium Cinemas","address":"633 S 950W","city":"Payson","state":"UT","zip":"84651","distance":"7.502691745758057","lon":"-111.748634","lat":"40.034763","theaterChainName":"Independent Chains","ticketType":"STANDARD"}]