[{"id":"5251","name":"Historic Cedar Theatre","address":"33 N. Main St.","city":"Cedar City","state":"UT","zip":"84720","distance":"13.23622989654541","lon":"-113.061699","lat":"37.677898","theaterChainName":"Independent Chains","ticketType":"STANDARD"},{"id":"3995","name":"Cedar City Cinema 8","address":"1040 Sage Way","city":"Cedar City","state":"UT","zip":"84720","distance":"11.43221378326416","lon":"-113.082001","lat":"37.657299","theaterChainName":"Megaplex Theatres","ticketType":"STANDARD"},{"id":"3994","name":"Cedar City Fiddler 6","address":"170 East Fiddler Canyon Road","city":"Cedar City","state":"UT","zip":"84720","distance":"15.232267379760742","lon":"-113.059174","lat":"37.711239","theaterChainName":"Megaplex Theatres","ticketType":"STANDARD"},{"id":"5767","name":"Fiddlers 6","address":"170 E. Fiddler Canyon Road","city":"Cedar City","state":"UT","zip":"84721","distance":"15.246077537536621","lon":"-113.059235","lat":"37.711502","theaterChainName":"Independent Chains","ticketType":"STANDARD"},{"id":"4063","name":"Coral Cliffs Cinema 8","address":"835 West State Street","city":"Hurricane","state":"UT","zip":"84737","distance":"24.627975463867188","lon":"-113.303925","lat":"37.175415","theaterChainName":"Independent Chains","ticketType":"STANDARD"}]