[{"id":"3341","tribuneTheaterId":"5104","providerTheaterId":"","name":"Washington Red Cliff Cinema","address":"1750 E. Red Cliff Dr.","city":"Washington","state":"UT","zip":"84780","distance":18.821782406281,"lon":"-113.545313","lat":"37.118277","theaterChainName":"Megaplex Theatres","ticketType":"STANDARD"},{"id":"4063","tribuneTheaterId":"2162","providerTheaterId":"","name":"Coral Cliffs Cinema 8","address":"835 West State Street","city":"Hurricane","state":"UT","zip":"84737","distance":18.908248529186,"lon":"-113.303928","lat":"37.175415","theaterChainName":"Independent Chains","ticketType":"STANDARD"},{"id":"3689","tribuneTheaterId":"5110","providerTheaterId":"","name":"St. George Stadium 8","address":"1091 N. Bluff Street","city":"Saint George","state":"UT","zip":"84770","distance":18.807716470426,"lon":"-113.604115","lat":"37.126425","theaterChainName":"Megaplex Theatres","ticketType":"STANDARD"},{"id":"3996","tribuneTheaterId":"5112","providerTheaterId":"","name":"Pineview Stadium 10","address":"2376 East Red Cliffs Drive","city":"St. George","state":"UT","zip":"84780","distance":18.459752242854,"lon":"-113.532629","lat":"37.122893","theaterChainName":"Megaplex Theatres","ticketType":"STANDARD"},{"id":"3338","tribuneTheaterId":"5106","providerTheaterId":"","name":"Westates St. George Cinema 6","address":"905 S. Main","city":"Saint George","state":"UT","zip":"84770","distance":20.829710408056,"lon":"-113.582902","lat":"37.09283","theaterChainName":"Megaplex Theatres","ticketType":"STANDARD"}]