[{"id":"267","tribuneTheaterId":"6962","providerTheaterId":"94","name":"AMC Ahwatukee 24","address":"4915 E. Ray Rd.","city":"Phoenix","state":"AZ","zip":"85044","distance":8.4476459075109,"lon":"-111.977355","lat":"33.316849","theaterChainName":"AMC Theatres","ticketType":"STANDARD"},{"id":"547","tribuneTheaterId":"9015","providerTheaterId":"127","name":"AMC Arizona Center 24","address":"455 N. 3rd St #270","city":"Phoenix","state":"AZ","zip":"85004","distance":10.901473494381,"lon":"-112.069312","lat":"33.453574","theaterChainName":"AMC Theatres","ticketType":"STANDARD"},{"id":"5023","tribuneTheaterId":"10397","providerTheaterId":"","name":"FilmBar","address":"815 N 2nd Street","city":"Phoenix","state":"AZ","zip":"85004","distance":11.085810964112,"lon":"-112.071198","lat":"33.456799","theaterChainName":"Independent Chains","ticketType":"STANDARD"},{"id":"1282","tribuneTheaterId":"8753","providerTheaterId":"","name":"Cinema Latino de Phoenix","address":"7611-120 W. Thomas Road","city":"Phoenix","state":"AZ","zip":"85033","distance":13.483752258551,"lon":"-112.22605","lat":"33.477197","theaterChainName":"Independent Chains","ticketType":"STANDARD"},{"id":"351","tribuneTheaterId":"6265","providerTheaterId":"","name":"Tempe Cinemas","address":"1825 E. Elliot Road","city":"Tempe","state":"AZ","zip":"85284","distance":12.733511544075,"lon":"-111.908927","lat":"33.347901","theaterChainName":"Independent Chains","ticketType":"STANDARD"},{"id":"5485","tribuneTheaterId":"10928","providerTheaterId":"98","name":"AMC Centerpoint 11","address":"730 S Mill Ave","city":"Tempe","state":"AZ","zip":"85281","distance":13.425306210406,"lon":"-111.94","lat":"33.4226","theaterChainName":"AMC Theatres","ticketType":"STANDARD"},{"id":"4205","tribuneTheaterId":"5268","providerTheaterId":"","name":"Cinemark Mesa 16","address":"N Loop 202 and Dobson Road","city":"Mesa","state":"AZ","zip":"85201","distance":17.584600304115,"lon":"-111.863","lat":"33.4355","theaterChainName":"Cinemark","ticketType":"STANDARD"},{"id":"4277","tribuneTheaterId":"4244","providerTheaterId":"2679","name":"AMC Westgate 20","address":"9400 West Hanna Lane","city":"Glendale","state":"AZ","zip":"85305","distance":17.97533033545,"lon":"-112.261283","lat":"33.53519","theaterChainName":"AMC Theatres","ticketType":"STANDARD"},{"id":"3249","tribuneTheaterId":"5138","providerTheaterId":"","name":"Regal Gilbert Stadium 14","address":"1012 S Gilbert Rd","city":"Gilbert","state":"AZ","zip":"85296","distance":19.235334057591,"lon":"-111.791127","lat":"33.330088","theaterChainName":"Regal Cinemas","ticketType":"STANDARD"},{"id":"5258","tribuneTheaterId":"10690","providerTheaterId":"","name":"UltraStar Ak-Chin Cinemas","address":"16000 Maricopa Road","city":"Maricopa","state":"AZ","zip":"85139","distance":19.505893825515,"lon":"-112.0479","lat":"33.0269","theaterChainName":"UltraStar Cinemas","ticketType":"STANDARD"},{"id":"2769","tribuneTheaterId":"9143","providerTheaterId":"103","name":"AMC Mesa Grand 24","address":"1645 S. Stapley Dr.","city":"Mesa","state":"AZ","zip":"85204","distance":19.331421899047,"lon":"-111.802368","lat":"33.38414","theaterChainName":"AMC Theatres","ticketType":"STANDARD"},{"id":"5766","tribuneTheaterId":"11209","providerTheaterId":"","name":" Dine Cinema 6","address":"4321 E. Baseline Dr.","city":"Gilbert","state":"AZ","zip":"85234","distance":22.607377076069,"lon":"-111.741657","lat":"33.378217","theaterChainName":"Independent Chains","ticketType":"STANDARD"},{"id":"4925","tribuneTheaterId":"10245","providerTheaterId":"","name":"Picture Show  Paradise Valley Mall","address":"4550 E. Cactus Rd.","city":"Phoenix","state":"AZ","zip":"85032","distance":22.245723314529,"lon":"-111.984394","lat":"33.602809","theaterChainName":"Picture Show Entertainment","ticketType":"STANDARD"},{"id":"238","tribuneTheaterId":"9092","providerTheaterId":"128","name":"AMC Arrowhead 14","address":"7700 W. Arrowhead Tn. Ctr Ste. 1079","city":"Glendale","state":"AZ","zip":"85308","distance":24.271248208662,"lon":"-112.225943","lat":"33.642741","theaterChainName":"AMC Theatres","ticketType":"STANDARD"}]