[{"id":"351","name":"Tempe Cinemas","address":"1825 E. Elliot Road","city":"Tempe","state":"AZ","zip":"85284","distance":"24.52954864501953","lon":"-111.908928","lat":"33.347900","theaterChainName":"Independent Chains","ticketType":"STANDARD"},{"id":"2769","name":"AMC Mesa Grand 24","address":"1645 S. Stapley Dr.","city":"Mesa","state":"AZ","zip":"85204","distance":"20.713842391967773","lon":"-111.802368","lat":"33.384140","theaterChainName":"AMC Theatres","ticketType":"STANDARD"},{"id":"3249","name":"Regal Gilbert Stadium 14","address":"1012 S Gilbert Rd","city":"Gilbert","state":"AZ","zip":"85296","distance":"17.982494354248047","lon":"-111.791130","lat":"33.330090","theaterChainName":"Regal Cinemas","ticketType":"STANDARD"},{"id":"5766","name":" Dine Cinema 6","address":"4321 E. Baseline Dr.","city":"Gilbert","state":"AZ","zip":"85234","distance":"17.87364387512207","lon":"-111.741653","lat":"33.378216","theaterChainName":"Independent Chains","ticketType":"STANDARD"},{"id":"4709","name":"Picture Show  Superstition Springs","address":"6555 E. Southern Ave.","city":"Mesa","state":"AZ","zip":"85206","distance":"16.741329193115234","lon":"-111.690079","lat":"33.391968","theaterChainName":"Picture Show Entertainment","ticketType":"STANDARD"},{"id":"6122","name":"AMC Superstition East 12","address":"1935 S Signal Butte Rd.","city":"Mesa","state":"AZ","zip":"85209","distance":"13.658758163452148","lon":"-111.598534","lat":"33.379776","theaterChainName":"AMC Theatres","ticketType":"STANDARD"}]