[{"id":"6122","tribuneTheaterId":"11537","providerTheaterId":"","name":"AMC Superstition East 12","address":"1935 S Signal Butte Rd.","city":"Mesa","state":"AZ","zip":"85209","distance":2.4297263010738,"lon":"-111.59853","lat":"33.379776","theaterChainName":"AMC Theatres","ticketType":"STANDARD"},{"id":"4709","tribuneTheaterId":"9923","providerTheaterId":"","name":"Picture Show  Superstition Springs","address":"6555 E. Southern Ave.","city":"Mesa","state":"AZ","zip":"85206","distance":3.0089017710671,"lon":"-111.69008","lat":"33.391966","theaterChainName":"Picture Show Entertainment","ticketType":"STANDARD"},{"id":"5766","tribuneTheaterId":"11209","providerTheaterId":"","name":" Dine Cinema 6","address":"4321 E. Baseline Dr.","city":"Gilbert","state":"AZ","zip":"85234","distance":5.8306712492568,"lon":"-111.741657","lat":"33.378217","theaterChainName":"Independent Chains","ticketType":"STANDARD"},{"id":"3249","tribuneTheaterId":"5138","providerTheaterId":"","name":"Regal Gilbert Stadium 14","address":"1012 S Gilbert Rd","city":"Gilbert","state":"AZ","zip":"85296","distance":9.3016249141568,"lon":"-111.791127","lat":"33.330088","theaterChainName":"Regal Cinemas","ticketType":"STANDARD"},{"id":"2769","tribuneTheaterId":"9143","providerTheaterId":"103","name":"AMC Mesa Grand 24","address":"1645 S. Stapley Dr.","city":"Mesa","state":"AZ","zip":"85204","distance":9.3422058394951,"lon":"-111.802368","lat":"33.38414","theaterChainName":"AMC Theatres","ticketType":"STANDARD"},{"id":"4205","tribuneTheaterId":"5268","providerTheaterId":"","name":"Cinemark Mesa 16","address":"N Loop 202 and Dobson Road","city":"Mesa","state":"AZ","zip":"85201","distance":13.424607337883,"lon":"-111.863","lat":"33.4355","theaterChainName":"Cinemark","ticketType":"STANDARD"},{"id":"351","tribuneTheaterId":"6265","providerTheaterId":"","name":"Tempe Cinemas","address":"1825 E. Elliot Road","city":"Tempe","state":"AZ","zip":"85284","distance":15.625193405772,"lon":"-111.908927","lat":"33.347901","theaterChainName":"Independent Chains","ticketType":"STANDARD"},{"id":"5485","tribuneTheaterId":"10928","providerTheaterId":"98","name":"AMC Centerpoint 11","address":"730 S Mill Ave","city":"Tempe","state":"AZ","zip":"85281","distance":17.54037451545,"lon":"-111.94","lat":"33.4226","theaterChainName":"AMC Theatres","ticketType":"STANDARD"},{"id":"267","tribuneTheaterId":"6962","providerTheaterId":"94","name":"AMC Ahwatukee 24","address":"4915 E. Ray Rd.","city":"Phoenix","state":"AZ","zip":"85044","distance":19.893416306128,"lon":"-111.977355","lat":"33.316849","theaterChainName":"AMC Theatres","ticketType":"STANDARD"},{"id":"5107","tribuneTheaterId":"10504","providerTheaterId":"","name":"Studio Movie Grill Scottsdale","address":"15515 N Hayden Rd.","city":"Scottsdale","state":"AZ","zip":"85260","distance":22.586718806687,"lon":"-111.894586","lat":"33.627219","theaterChainName":"Studio Movie Grill","ticketType":"SELECT_SEATING"}]