[{"id":"5766","tribuneTheaterId":"11209","providerTheaterId":"","name":" Dine Cinema 6","address":"4321 E. Baseline Dr.","city":"Gilbert","state":"AZ","zip":"85234","distance":1.9627573135871,"lon":"-111.741657","lat":"33.378217","theaterChainName":"Independent Chains","ticketType":"STANDARD"},{"id":"4709","tribuneTheaterId":"9923","providerTheaterId":"","name":"Picture Show  Superstition Springs","address":"6555 E. Southern Ave.","city":"Mesa","state":"AZ","zip":"85206","distance":2.1008550439646,"lon":"-111.69008","lat":"33.391966","theaterChainName":"Picture Show Entertainment","ticketType":"STANDARD"},{"id":"2769","tribuneTheaterId":"9143","providerTheaterId":"103","name":"AMC Mesa Grand 24","address":"1645 S. Stapley Dr.","city":"Mesa","state":"AZ","zip":"85204","distance":4.6861756882192,"lon":"-111.802368","lat":"33.38414","theaterChainName":"AMC Theatres","ticketType":"STANDARD"},{"id":"3249","tribuneTheaterId":"5138","providerTheaterId":"","name":"Regal Gilbert Stadium 14","address":"1012 S Gilbert Rd","city":"Gilbert","state":"AZ","zip":"85296","distance":6.3258287951695,"lon":"-111.791127","lat":"33.330088","theaterChainName":"Regal Cinemas","ticketType":"STANDARD"},{"id":"6122","tribuneTheaterId":"11537","providerTheaterId":"","name":"AMC Superstition East 12","address":"1935 S Signal Butte Rd.","city":"Mesa","state":"AZ","zip":"85209","distance":7.4192156694141,"lon":"-111.59853","lat":"33.379776","theaterChainName":"AMC Theatres","ticketType":"STANDARD"},{"id":"4205","tribuneTheaterId":"5268","providerTheaterId":"","name":"Cinemark Mesa 16","address":"N Loop 202 and Dobson Road","city":"Mesa","state":"AZ","zip":"85201","distance":8.3210745602889,"lon":"-111.863","lat":"33.4355","theaterChainName":"Cinemark","ticketType":"STANDARD"},{"id":"351","tribuneTheaterId":"6265","providerTheaterId":"","name":"Tempe Cinemas","address":"1825 E. Elliot Road","city":"Tempe","state":"AZ","zip":"85284","distance":11.308739144307,"lon":"-111.908927","lat":"33.347901","theaterChainName":"Independent Chains","ticketType":"STANDARD"},{"id":"5485","tribuneTheaterId":"10928","providerTheaterId":"98","name":"AMC Centerpoint 11","address":"730 S Mill Ave","city":"Tempe","state":"AZ","zip":"85281","distance":12.522531671014,"lon":"-111.94","lat":"33.4226","theaterChainName":"AMC Theatres","ticketType":"STANDARD"},{"id":"267","tribuneTheaterId":"6962","providerTheaterId":"94","name":"AMC Ahwatukee 24","address":"4915 E. Ray Rd.","city":"Phoenix","state":"AZ","zip":"85044","distance":15.765038901716,"lon":"-111.977355","lat":"33.316849","theaterChainName":"AMC Theatres","ticketType":"STANDARD"},{"id":"5107","tribuneTheaterId":"10504","providerTheaterId":"","name":"Studio Movie Grill Scottsdale","address":"15515 N Hayden Rd.","city":"Scottsdale","state":"AZ","zip":"85260","distance":18.362980539272,"lon":"-111.894586","lat":"33.627219","theaterChainName":"Studio Movie Grill","ticketType":"SELECT_SEATING"},{"id":"5023","tribuneTheaterId":"10397","providerTheaterId":"","name":"FilmBar","address":"815 N 2nd Street","city":"Phoenix","state":"AZ","zip":"85004","distance":20.356236477902,"lon":"-112.071198","lat":"33.456799","theaterChainName":"Independent Chains","ticketType":"STANDARD"},{"id":"4925","tribuneTheaterId":"10245","providerTheaterId":"","name":"Picture Show  Paradise Valley Mall","address":"4550 E. Cactus Rd.","city":"Phoenix","state":"AZ","zip":"85032","distance":20.39802966435,"lon":"-111.984394","lat":"33.602809","theaterChainName":"Picture Show Entertainment","ticketType":"STANDARD"},{"id":"547","tribuneTheaterId":"9015","providerTheaterId":"127","name":"AMC Arizona Center 24","address":"455 N. 3rd St #270","city":"Phoenix","state":"AZ","zip":"85004","distance":20.209693419681,"lon":"-112.069312","lat":"33.453574","theaterChainName":"AMC Theatres","ticketType":"STANDARD"},{"id":"3146","tribuneTheaterId":"7203","providerTheaterId":"190","name":"AMC Desert Ridge 18","address":"21001 N. Tatum #32","city":"Phoenix","state":"AZ","zip":"85050","distance":23.63384789894,"lon":"-111.971111","lat":"33.675819","theaterChainName":"AMC Theatres","ticketType":"STANDARD"}]