[{"id":"547","name":"AMC Arizona Center 24","address":"455 N. 3rd St #270","city":"Phoenix","state":"AZ","zip":"85004","distance":"12.912516593933105","lon":"-112.069313","lat":"33.453575","theaterChainName":"AMC Theatres","ticketType":"STANDARD"},{"id":"5023","name":"FilmBar","address":"815 N 2nd Street","city":"Phoenix","state":"AZ","zip":"85004","distance":"13.047921180725098","lon":"-112.071198","lat":"33.456799","theaterChainName":"Independent Chains","ticketType":"STANDARD"},{"id":"5485","name":"AMC Centerpoint 11","address":"730 S Mill Ave","city":"Tempe","state":"AZ","zip":"85281","distance":"5.405681610107422","lon":"-111.940002","lat":"33.422600","theaterChainName":"AMC Theatres","ticketType":"STANDARD"},{"id":"267","name":"AMC Ahwatukee 24","address":"4915 E. Ray Rd.","city":"Phoenix","state":"AZ","zip":"85044","distance":"10.938304901123047","lon":"-111.977356","lat":"33.316849","theaterChainName":"AMC Theatres","ticketType":"STANDARD"},{"id":"1282","name":"Cinema Latino de Phoenix","address":"7611-120 W. Thomas Road","city":"Phoenix","state":"AZ","zip":"85033","distance":"22.08281898498535","lon":"-112.226051","lat":"33.477196","theaterChainName":"Independent Chains","ticketType":"STANDARD"},{"id":"4925","name":"Picture Show  Paradise Valley Mall","address":"4550 E. Cactus Rd.","city":"Phoenix","state":"AZ","zip":"85032","distance":"14.230996131896973","lon":"-111.984390","lat":"33.602810","theaterChainName":"Picture Show Entertainment","ticketType":"STANDARD"},{"id":"351","name":"Tempe Cinemas","address":"1825 E. Elliot Road","city":"Tempe","state":"AZ","zip":"85284","distance":"6.806995868682861","lon":"-111.908928","lat":"33.347900","theaterChainName":"Independent Chains","ticketType":"STANDARD"},{"id":"4205","name":"Cinemark Mesa 16","address":"N Loop 202 and Dobson Road","city":"Mesa","state":"AZ","zip":"85201","distance":"0.9646811485290527","lon":"-111.862999","lat":"33.435501","theaterChainName":"Cinemark","ticketType":"STANDARD"},{"id":"4277","name":"AMC Westgate 20","address":"9400 West Hanna Lane","city":"Glendale","state":"AZ","zip":"85305","distance":"24.9287052154541","lon":"-112.261284","lat":"33.535191","theaterChainName":"AMC Theatres","ticketType":"STANDARD"},{"id":"1945","name":"AMC Deer Valley 30","address":"3033 W. Agua Fria Freeway","city":"Phoenix","state":"AZ","zip":"85027","distance":"22.744396209716797","lon":"-112.124039","lat":"33.666225","theaterChainName":"AMC Theatres","ticketType":"STANDARD"},{"id":"5107","name":"Studio Movie Grill Scottsdale","address":"15515 N Hayden Rd.","city":"Scottsdale","state":"AZ","zip":"85260","distance":"13.78622055053711","lon":"-111.894585","lat":"33.627220","theaterChainName":"Studio Movie Grill","ticketType":"SELECT_SEATING"},{"id":"3146","name":"AMC Desert Ridge 18","address":"21001 N. Tatum #32","city":"Phoenix","state":"AZ","zip":"85050","distance":"18.321638107299805","lon":"-111.971107","lat":"33.675819","theaterChainName":"AMC Theatres","ticketType":"STANDARD"},{"id":"2769","name":"AMC Mesa Grand 24","address":"1645 S. Stapley Dr.","city":"Mesa","state":"AZ","zip":"85204","distance":"4.1711530685424805","lon":"-111.802368","lat":"33.384140","theaterChainName":"AMC Theatres","ticketType":"STANDARD"},{"id":"3249","name":"Regal Gilbert Stadium 14","address":"1012 S Gilbert Rd","city":"Gilbert","state":"AZ","zip":"85296","distance":"7.723434925079346","lon":"-111.791130","lat":"33.330090","theaterChainName":"Regal Cinemas","ticketType":"STANDARD"},{"id":"5766","name":" Dine Cinema 6","address":"4321 E. Baseline Dr.","city":"Gilbert","state":"AZ","zip":"85234","distance":"7.107393741607666","lon":"-111.741653","lat":"33.378216","theaterChainName":"Independent Chains","ticketType":"STANDARD"},{"id":"4709","name":"Picture Show  Superstition Springs","address":"6555 E. Southern Ave.","city":"Mesa","state":"AZ","zip":"85206","distance":"9.452705383300781","lon":"-111.690079","lat":"33.391968","theaterChainName":"Picture Show Entertainment","ticketType":"STANDARD"},{"id":"6122","name":"AMC Superstition East 12","address":"1935 S Signal Butte Rd.","city":"Mesa","state":"AZ","zip":"85209","distance":"14.768813133239746","lon":"-111.598534","lat":"33.379776","theaterChainName":"AMC Theatres","ticketType":"STANDARD"}]