[{"id":"4205","tribuneTheaterId":"5268","providerTheaterId":"","name":"Cinemark Mesa 16","address":"N Loop 202 and Dobson Road","city":"Mesa","state":"AZ","zip":"85201","distance":2.593018170682,"lon":"-111.863","lat":"33.4355","theaterChainName":"Cinemark","ticketType":"STANDARD"},{"id":"2769","tribuneTheaterId":"9143","providerTheaterId":"103","name":"AMC Mesa Grand 24","address":"1645 S. Stapley Dr.","city":"Mesa","state":"AZ","zip":"85204","distance":6.0235121858419,"lon":"-111.802368","lat":"33.38414","theaterChainName":"AMC Theatres","ticketType":"STANDARD"},{"id":"5485","tribuneTheaterId":"10928","providerTheaterId":"98","name":"AMC Centerpoint 11","address":"730 S Mill Ave","city":"Tempe","state":"AZ","zip":"85281","distance":6.6463734968556,"lon":"-111.94","lat":"33.4226","theaterChainName":"AMC Theatres","ticketType":"STANDARD"},{"id":"351","tribuneTheaterId":"6265","providerTheaterId":"","name":"Tempe Cinemas","address":"1825 E. Elliot Road","city":"Tempe","state":"AZ","zip":"85284","distance":9.1645681847061,"lon":"-111.908927","lat":"33.347901","theaterChainName":"Independent Chains","ticketType":"STANDARD"},{"id":"5766","tribuneTheaterId":"11209","providerTheaterId":"","name":" Dine Cinema 6","address":"4321 E. Baseline Dr.","city":"Gilbert","state":"AZ","zip":"85234","distance":8.2133730857927,"lon":"-111.741657","lat":"33.378217","theaterChainName":"Independent Chains","ticketType":"STANDARD"},{"id":"3249","tribuneTheaterId":"5138","providerTheaterId":"","name":"Regal Gilbert Stadium 14","address":"1012 S Gilbert Rd","city":"Gilbert","state":"AZ","zip":"85296","distance":9.7809552837189,"lon":"-111.791127","lat":"33.330088","theaterChainName":"Regal Cinemas","ticketType":"STANDARD"},{"id":"4709","tribuneTheaterId":"9923","providerTheaterId":"","name":"Picture Show  Superstition Springs","address":"6555 E. Southern Ave.","city":"Mesa","state":"AZ","zip":"85206","distance":9.9218954470857,"lon":"-111.69008","lat":"33.391966","theaterChainName":"Picture Show Entertainment","ticketType":"STANDARD"},{"id":"5107","tribuneTheaterId":"10504","providerTheaterId":"","name":"Studio Movie Grill Scottsdale","address":"15515 N Hayden Rd.","city":"Scottsdale","state":"AZ","zip":"85260","distance":11.597476277498,"lon":"-111.894586","lat":"33.627219","theaterChainName":"Studio Movie Grill","ticketType":"SELECT_SEATING"},{"id":"547","tribuneTheaterId":"9015","providerTheaterId":"127","name":"AMC Arizona Center 24","address":"455 N. 3rd St #270","city":"Phoenix","state":"AZ","zip":"85004","distance":13.402640448369,"lon":"-112.069312","lat":"33.453574","theaterChainName":"AMC Theatres","ticketType":"STANDARD"},{"id":"267","tribuneTheaterId":"6962","providerTheaterId":"94","name":"AMC Ahwatukee 24","address":"4915 E. Ray Rd.","city":"Phoenix","state":"AZ","zip":"85044","distance":13.11128005817,"lon":"-111.977355","lat":"33.316849","theaterChainName":"AMC Theatres","ticketType":"STANDARD"},{"id":"5023","tribuneTheaterId":"10397","providerTheaterId":"","name":"FilmBar","address":"815 N 2nd Street","city":"Phoenix","state":"AZ","zip":"85004","distance":13.498201855214,"lon":"-112.071198","lat":"33.456799","theaterChainName":"Independent Chains","ticketType":"STANDARD"},{"id":"4925","tribuneTheaterId":"10245","providerTheaterId":"","name":"Picture Show  Paradise Valley Mall","address":"4550 E. Cactus Rd.","city":"Phoenix","state":"AZ","zip":"85032","distance":12.677830550834,"lon":"-111.984394","lat":"33.602809","theaterChainName":"Picture Show Entertainment","ticketType":"STANDARD"},{"id":"6122","tribuneTheaterId":"11537","providerTheaterId":"","name":"AMC Superstition East 12","address":"1935 S Signal Butte Rd.","city":"Mesa","state":"AZ","zip":"85209","distance":15.010968697181,"lon":"-111.59853","lat":"33.379776","theaterChainName":"AMC Theatres","ticketType":"STANDARD"},{"id":"3146","tribuneTheaterId":"7203","providerTheaterId":"190","name":"AMC Desert Ridge 18","address":"21001 N. Tatum #32","city":"Phoenix","state":"AZ","zip":"85050","distance":16.398347866401,"lon":"-111.971111","lat":"33.675819","theaterChainName":"AMC Theatres","ticketType":"STANDARD"},{"id":"1282","tribuneTheaterId":"8753","providerTheaterId":"","name":"Cinema Latino de Phoenix","address":"7611-120 W. Thomas Road","city":"Phoenix","state":"AZ","zip":"85033","distance":22.418131897856,"lon":"-112.22605","lat":"33.477197","theaterChainName":"Independent Chains","ticketType":"STANDARD"},{"id":"1945","tribuneTheaterId":"8761","providerTheaterId":"102","name":"AMC Deer Valley 30","address":"3033 W. Agua Fria Freeway","city":"Phoenix","state":"AZ","zip":"85027","distance":21.524877116517,"lon":"-112.124035","lat":"33.666225","theaterChainName":"AMC Theatres","ticketType":"STANDARD"},{"id":"4277","tribuneTheaterId":"4244","providerTheaterId":"2679","name":"AMC Westgate 20","address":"9400 West Hanna Lane","city":"Glendale","state":"AZ","zip":"85305","distance":24.887354654134,"lon":"-112.261283","lat":"33.53519","theaterChainName":"AMC Theatres","ticketType":"STANDARD"}]