[{"id":"5107","tribuneTheaterId":"10504","providerTheaterId":"","name":"Studio Movie Grill Scottsdale","address":"15515 N Hayden Rd.","city":"Scottsdale","state":"AZ","zip":"85260","distance":14.203570959039,"lon":"-111.894586","lat":"33.627219","theaterChainName":"Studio Movie Grill","ticketType":"SELECT_SEATING"},{"id":"3146","tribuneTheaterId":"7203","providerTheaterId":"190","name":"AMC Desert Ridge 18","address":"21001 N. Tatum #32","city":"Phoenix","state":"AZ","zip":"85050","distance":17.284702255857,"lon":"-111.971111","lat":"33.675819","theaterChainName":"AMC Theatres","ticketType":"STANDARD"},{"id":"4925","tribuneTheaterId":"10245","providerTheaterId":"","name":"Picture Show  Paradise Valley Mall","address":"4550 E. Cactus Rd.","city":"Phoenix","state":"AZ","zip":"85032","distance":19.583933501591,"lon":"-111.984394","lat":"33.602809","theaterChainName":"Picture Show Entertainment","ticketType":"STANDARD"},{"id":"4709","tribuneTheaterId":"9923","providerTheaterId":"","name":"Picture Show  Superstition Springs","address":"6555 E. Southern Ave.","city":"Mesa","state":"AZ","zip":"85206","distance":22.852689507205,"lon":"-111.69008","lat":"33.391966","theaterChainName":"Picture Show Entertainment","ticketType":"STANDARD"},{"id":"4205","tribuneTheaterId":"5268","providerTheaterId":"","name":"Cinemark Mesa 16","address":"N Loop 202 and Dobson Road","city":"Mesa","state":"AZ","zip":"85201","distance":22.571275627982,"lon":"-111.863","lat":"33.4355","theaterChainName":"Cinemark","ticketType":"STANDARD"},{"id":"6122","tribuneTheaterId":"11537","providerTheaterId":"","name":"AMC Superstition East 12","address":"1935 S Signal Butte Rd.","city":"Mesa","state":"AZ","zip":"85209","distance":24.093248207279,"lon":"-111.59853","lat":"33.379776","theaterChainName":"AMC Theatres","ticketType":"STANDARD"},{"id":"2769","tribuneTheaterId":"9143","providerTheaterId":"103","name":"AMC Mesa Grand 24","address":"1645 S. Stapley Dr.","city":"Mesa","state":"AZ","zip":"85204","distance":24.489716656549,"lon":"-111.802368","lat":"33.38414","theaterChainName":"AMC Theatres","ticketType":"STANDARD"},{"id":"5766","tribuneTheaterId":"11209","providerTheaterId":"","name":" Dine Cinema 6","address":"4321 E. Baseline Dr.","city":"Gilbert","state":"AZ","zip":"85234","distance":24.088932750031,"lon":"-111.741657","lat":"33.378217","theaterChainName":"Independent Chains","ticketType":"STANDARD"}]