[{"id":"547","name":"AMC Arizona Center 24","address":"455 N. 3rd St #270","city":"Phoenix","state":"AZ","zip":"85004","distance":"11.83893871307373","lon":"-112.069313","lat":"33.453575","theaterChainName":"AMC Theatres","ticketType":"STANDARD"},{"id":"5023","name":"FilmBar","address":"815 N 2nd Street","city":"Phoenix","state":"AZ","zip":"85004","distance":"12.070850372314453","lon":"-112.071198","lat":"33.456799","theaterChainName":"Independent Chains","ticketType":"STANDARD"},{"id":"5485","name":"AMC Centerpoint 11","address":"730 S Mill Ave","city":"Tempe","state":"AZ","zip":"85281","distance":"6.07708215713501","lon":"-111.940002","lat":"33.422600","theaterChainName":"AMC Theatres","ticketType":"STANDARD"},{"id":"267","name":"AMC Ahwatukee 24","address":"4915 E. Ray Rd.","city":"Phoenix","state":"AZ","zip":"85044","distance":"3.589808940887451","lon":"-111.977356","lat":"33.316849","theaterChainName":"AMC Theatres","ticketType":"STANDARD"},{"id":"1282","name":"Cinema Latino de Phoenix","address":"7611-120 W. Thomas Road","city":"Phoenix","state":"AZ","zip":"85033","distance":"20.175146102905273","lon":"-112.226051","lat":"33.477196","theaterChainName":"Independent Chains","ticketType":"STANDARD"},{"id":"4925","name":"Picture Show  Paradise Valley Mall","address":"4550 E. Cactus Rd.","city":"Phoenix","state":"AZ","zip":"85032","distance":"18.788896560668945","lon":"-111.984390","lat":"33.602810","theaterChainName":"Picture Show Entertainment","ticketType":"STANDARD"},{"id":"351","name":"Tempe Cinemas","address":"1825 E. Elliot Road","city":"Tempe","state":"AZ","zip":"85284","distance":"1.0144963264465332","lon":"-111.908928","lat":"33.347900","theaterChainName":"Independent Chains","ticketType":"STANDARD"},{"id":"4205","name":"Cinemark Mesa 16","address":"N Loop 202 and Dobson Road","city":"Mesa","state":"AZ","zip":"85201","distance":"7.595211029052734","lon":"-111.862999","lat":"33.435501","theaterChainName":"Cinemark","ticketType":"STANDARD"},{"id":"4277","name":"AMC Westgate 20","address":"9400 West Hanna Lane","city":"Glendale","state":"AZ","zip":"85305","distance":"24.01698112487793","lon":"-112.261284","lat":"33.535191","theaterChainName":"AMC Theatres","ticketType":"STANDARD"},{"id":"5107","name":"Studio Movie Grill Scottsdale","address":"15515 N Hayden Rd.","city":"Scottsdale","state":"AZ","zip":"85260","distance":"20.153934478759766","lon":"-111.894585","lat":"33.627220","theaterChainName":"Studio Movie Grill","ticketType":"SELECT_SEATING"},{"id":"3146","name":"AMC Desert Ridge 18","address":"21001 N. Tatum #32","city":"Phoenix","state":"AZ","zip":"85050","distance":"23.646203994750977","lon":"-111.971107","lat":"33.675819","theaterChainName":"AMC Theatres","ticketType":"STANDARD"},{"id":"2769","name":"AMC Mesa Grand 24","address":"1645 S. Stapley Dr.","city":"Mesa","state":"AZ","zip":"85204","distance":"7.535309791564941","lon":"-111.802368","lat":"33.384140","theaterChainName":"AMC Theatres","ticketType":"STANDARD"},{"id":"3249","name":"Regal Gilbert Stadium 14","address":"1012 S Gilbert Rd","city":"Gilbert","state":"AZ","zip":"85296","distance":"7.434808254241943","lon":"-111.791130","lat":"33.330090","theaterChainName":"Regal Cinemas","ticketType":"STANDARD"},{"id":"5766","name":" Dine Cinema 6","address":"4321 E. Baseline Dr.","city":"Gilbert","state":"AZ","zip":"85234","distance":"10.676236152648926","lon":"-111.741653","lat":"33.378216","theaterChainName":"Independent Chains","ticketType":"STANDARD"},{"id":"4709","name":"Picture Show  Superstition Springs","address":"6555 E. Southern Ave.","city":"Mesa","state":"AZ","zip":"85206","distance":"13.798401832580566","lon":"-111.690079","lat":"33.391968","theaterChainName":"Picture Show Entertainment","ticketType":"STANDARD"},{"id":"5258","name":"UltraStar Ak-Chin Cinemas","address":"16000 Maricopa Road","city":"Maricopa","state":"AZ","zip":"85139","distance":"22.62766456604004","lon":"-112.047897","lat":"33.026901","theaterChainName":"UltraStar Cinemas","ticketType":"STANDARD"},{"id":"6122","name":"AMC Superstition East 12","address":"1935 S Signal Butte Rd.","city":"Mesa","state":"AZ","zip":"85209","distance":"18.77762222290039","lon":"-111.598534","lat":"33.379776","theaterChainName":"AMC Theatres","ticketType":"STANDARD"}]