[{"id":"3249","tribuneTheaterId":"5138","providerTheaterId":"","name":"Regal Gilbert Stadium 14","address":"1012 S Gilbert Rd","city":"Gilbert","state":"AZ","zip":"85296","distance":5.9217003607624,"lon":"-111.791127","lat":"33.330088","theaterChainName":"Regal Cinemas","ticketType":"STANDARD"},{"id":"5766","tribuneTheaterId":"11209","providerTheaterId":"","name":" Dine Cinema 6","address":"4321 E. Baseline Dr.","city":"Gilbert","state":"AZ","zip":"85234","distance":7.1606933781618,"lon":"-111.741657","lat":"33.378217","theaterChainName":"Independent Chains","ticketType":"STANDARD"},{"id":"4709","tribuneTheaterId":"9923","providerTheaterId":"","name":"Picture Show  Superstition Springs","address":"6555 E. Southern Ave.","city":"Mesa","state":"AZ","zip":"85206","distance":7.9476611287933,"lon":"-111.69008","lat":"33.391966","theaterChainName":"Picture Show Entertainment","ticketType":"STANDARD"},{"id":"2769","tribuneTheaterId":"9143","providerTheaterId":"103","name":"AMC Mesa Grand 24","address":"1645 S. Stapley Dr.","city":"Mesa","state":"AZ","zip":"85204","distance":9.0752008811867,"lon":"-111.802368","lat":"33.38414","theaterChainName":"AMC Theatres","ticketType":"STANDARD"},{"id":"6122","tribuneTheaterId":"11537","providerTheaterId":"","name":"AMC Superstition East 12","address":"1935 S Signal Butte Rd.","city":"Mesa","state":"AZ","zip":"85209","distance":9.51138322418,"lon":"-111.59853","lat":"33.379776","theaterChainName":"AMC Theatres","ticketType":"STANDARD"},{"id":"351","tribuneTheaterId":"6265","providerTheaterId":"","name":"Tempe Cinemas","address":"1825 E. Elliot Road","city":"Tempe","state":"AZ","zip":"85284","distance":12.47877592674,"lon":"-111.908927","lat":"33.347901","theaterChainName":"Independent Chains","ticketType":"STANDARD"},{"id":"4205","tribuneTheaterId":"5268","providerTheaterId":"","name":"Cinemark Mesa 16","address":"N Loop 202 and Dobson Road","city":"Mesa","state":"AZ","zip":"85201","distance":14.023021475731,"lon":"-111.863","lat":"33.4355","theaterChainName":"Cinemark","ticketType":"STANDARD"},{"id":"5485","tribuneTheaterId":"10928","providerTheaterId":"98","name":"AMC Centerpoint 11","address":"730 S Mill Ave","city":"Tempe","state":"AZ","zip":"85281","distance":16.628473220459,"lon":"-111.94","lat":"33.4226","theaterChainName":"AMC Theatres","ticketType":"STANDARD"},{"id":"267","tribuneTheaterId":"6962","providerTheaterId":"94","name":"AMC Ahwatukee 24","address":"4915 E. Ray Rd.","city":"Phoenix","state":"AZ","zip":"85044","distance":15.693009243392,"lon":"-111.977355","lat":"33.316849","theaterChainName":"AMC Theatres","ticketType":"STANDARD"},{"id":"5023","tribuneTheaterId":"10397","providerTheaterId":"","name":"FilmBar","address":"815 N 2nd Street","city":"Phoenix","state":"AZ","zip":"85004","distance":24.245001642485,"lon":"-112.071198","lat":"33.456799","theaterChainName":"Independent Chains","ticketType":"STANDARD"},{"id":"547","tribuneTheaterId":"9015","providerTheaterId":"127","name":"AMC Arizona Center 24","address":"455 N. 3rd St #270","city":"Phoenix","state":"AZ","zip":"85004","distance":24.038585454619,"lon":"-112.069312","lat":"33.453574","theaterChainName":"AMC Theatres","ticketType":"STANDARD"}]