[{"id":"547","name":"AMC Arizona Center 24","address":"455 N. 3rd St #270","city":"Phoenix","state":"AZ","zip":"85004","distance":"13.239721298217773","lon":"-112.069313","lat":"33.453575","theaterChainName":"AMC Theatres","ticketType":"STANDARD"},{"id":"5023","name":"FilmBar","address":"815 N 2nd Street","city":"Phoenix","state":"AZ","zip":"85004","distance":"13.15461540222168","lon":"-112.071198","lat":"33.456799","theaterChainName":"Independent Chains","ticketType":"STANDARD"},{"id":"5485","name":"AMC Centerpoint 11","address":"730 S Mill Ave","city":"Tempe","state":"AZ","zip":"85281","distance":"20.657268524169922","lon":"-111.940002","lat":"33.422600","theaterChainName":"AMC Theatres","ticketType":"STANDARD"},{"id":"267","name":"AMC Ahwatukee 24","address":"4915 E. Ray Rd.","city":"Phoenix","state":"AZ","zip":"85044","distance":"20.225805282592773","lon":"-111.977356","lat":"33.316849","theaterChainName":"AMC Theatres","ticketType":"STANDARD"},{"id":"1282","name":"Cinema Latino de Phoenix","address":"7611-120 W. Thomas Road","city":"Phoenix","state":"AZ","zip":"85033","distance":"5.053269386291504","lon":"-112.226051","lat":"33.477196","theaterChainName":"Independent Chains","ticketType":"STANDARD"},{"id":"4925","name":"Picture Show  Paradise Valley Mall","address":"4550 E. Cactus Rd.","city":"Phoenix","state":"AZ","zip":"85032","distance":"21.45086097717285","lon":"-111.984390","lat":"33.602810","theaterChainName":"Picture Show Entertainment","ticketType":"STANDARD"},{"id":"351","name":"Tempe Cinemas","address":"1825 E. Elliot Road","city":"Tempe","state":"AZ","zip":"85284","distance":"23.23862648010254","lon":"-111.908928","lat":"33.347900","theaterChainName":"Independent Chains","ticketType":"STANDARD"},{"id":"4277","name":"AMC Westgate 20","address":"9400 West Hanna Lane","city":"Glendale","state":"AZ","zip":"85305","distance":"7.217582702636719","lon":"-112.261284","lat":"33.535191","theaterChainName":"AMC Theatres","ticketType":"STANDARD"},{"id":"1945","name":"AMC Deer Valley 30","address":"3033 W. Agua Fria Freeway","city":"Phoenix","state":"AZ","zip":"85027","distance":"18.83730125427246","lon":"-112.124039","lat":"33.666225","theaterChainName":"AMC Theatres","ticketType":"STANDARD"},{"id":"238","name":"AMC Arrowhead 14","address":"7700 W. Arrowhead Tn. Ctr Ste. 1079","city":"Glendale","state":"AZ","zip":"85308","distance":"14.920838356018066","lon":"-112.225945","lat":"33.642742","theaterChainName":"AMC Theatres","ticketType":"STANDARD"},{"id":"4516","name":"Digiplex Surprise Pointe 14 Cinemas","address":"13649 North Litchfield Road","city":"Surprise","state":"AZ","zip":"85374","distance":"12.396754264831543","lon":"-112.359100","lat":"33.607300","theaterChainName":"Carmike Cinemas","ticketType":"STANDARD"}]