[{"id":"1282","tribuneTheaterId":"8753","providerTheaterId":"","name":"Cinema Latino de Phoenix","address":"7611-120 W. Thomas Road","city":"Phoenix","state":"AZ","zip":"85033","distance":5.0531520272166,"lon":"-112.22605","lat":"33.477197","theaterChainName":"Independent Chains","ticketType":"STANDARD"},{"id":"4277","tribuneTheaterId":"4244","providerTheaterId":"2679","name":"AMC Westgate 20","address":"9400 West Hanna Lane","city":"Glendale","state":"AZ","zip":"85305","distance":7.2170852886759,"lon":"-112.261283","lat":"33.53519","theaterChainName":"AMC Theatres","ticketType":"STANDARD"},{"id":"547","tribuneTheaterId":"9015","providerTheaterId":"127","name":"AMC Arizona Center 24","address":"455 N. 3rd St #270","city":"Phoenix","state":"AZ","zip":"85004","distance":13.239098869418,"lon":"-112.069312","lat":"33.453574","theaterChainName":"AMC Theatres","ticketType":"STANDARD"},{"id":"4516","tribuneTheaterId":"9625","providerTheaterId":"","name":"Digiplex Surprise Pointe 14 Cinemas","address":"13649 North Litchfield Road","city":"Surprise","state":"AZ","zip":"85374","distance":12.395878366668,"lon":"-112.3591","lat":"33.6073","theaterChainName":"Carmike Cinemas","ticketType":"STANDARD"},{"id":"5023","tribuneTheaterId":"10397","providerTheaterId":"","name":"FilmBar","address":"815 N 2nd Street","city":"Phoenix","state":"AZ","zip":"85004","distance":13.153919872683,"lon":"-112.071198","lat":"33.456799","theaterChainName":"Independent Chains","ticketType":"STANDARD"},{"id":"238","tribuneTheaterId":"9092","providerTheaterId":"128","name":"AMC Arrowhead 14","address":"7700 W. Arrowhead Tn. Ctr Ste. 1079","city":"Glendale","state":"AZ","zip":"85308","distance":14.919831721463,"lon":"-112.225943","lat":"33.642741","theaterChainName":"AMC Theatres","ticketType":"STANDARD"},{"id":"1945","tribuneTheaterId":"8761","providerTheaterId":"102","name":"AMC Deer Valley 30","address":"3033 W. Agua Fria Freeway","city":"Phoenix","state":"AZ","zip":"85027","distance":18.836240313419,"lon":"-112.124035","lat":"33.666225","theaterChainName":"AMC Theatres","ticketType":"STANDARD"},{"id":"267","tribuneTheaterId":"6962","providerTheaterId":"94","name":"AMC Ahwatukee 24","address":"4915 E. Ray Rd.","city":"Phoenix","state":"AZ","zip":"85044","distance":20.224766303822,"lon":"-111.977355","lat":"33.316849","theaterChainName":"AMC Theatres","ticketType":"STANDARD"},{"id":"4925","tribuneTheaterId":"10245","providerTheaterId":"","name":"Picture Show  Paradise Valley Mall","address":"4550 E. Cactus Rd.","city":"Phoenix","state":"AZ","zip":"85032","distance":21.449405346958,"lon":"-111.984394","lat":"33.602809","theaterChainName":"Picture Show Entertainment","ticketType":"STANDARD"},{"id":"5485","tribuneTheaterId":"10928","providerTheaterId":"98","name":"AMC Centerpoint 11","address":"730 S Mill Ave","city":"Tempe","state":"AZ","zip":"85281","distance":20.656284943411,"lon":"-111.94","lat":"33.4226","theaterChainName":"AMC Theatres","ticketType":"STANDARD"},{"id":"351","tribuneTheaterId":"6265","providerTheaterId":"","name":"Tempe Cinemas","address":"1825 E. Elliot Road","city":"Tempe","state":"AZ","zip":"85284","distance":23.237393876063,"lon":"-111.908927","lat":"33.347901","theaterChainName":"Independent Chains","ticketType":"STANDARD"}]