[{"id":"547","name":"AMC Arizona Center 24","address":"455 N. 3rd St #270","city":"Phoenix","state":"AZ","zip":"85004","distance":"18.146041870117188","lon":"-112.069313","lat":"33.453575","theaterChainName":"AMC Theatres","ticketType":"STANDARD"},{"id":"5023","name":"FilmBar","address":"815 N 2nd Street","city":"Phoenix","state":"AZ","zip":"85004","distance":"18.052963256835938","lon":"-112.071198","lat":"33.456799","theaterChainName":"Independent Chains","ticketType":"STANDARD"},{"id":"267","name":"AMC Ahwatukee 24","address":"4915 E. Ray Rd.","city":"Phoenix","state":"AZ","zip":"85044","distance":"24.85205841064453","lon":"-111.977356","lat":"33.316849","theaterChainName":"AMC Theatres","ticketType":"STANDARD"},{"id":"1282","name":"Cinema Latino de Phoenix","address":"7611-120 W. Thomas Road","city":"Phoenix","state":"AZ","zip":"85033","distance":"9.490632057189941","lon":"-112.226051","lat":"33.477196","theaterChainName":"Independent Chains","ticketType":"STANDARD"},{"id":"4277","name":"AMC Westgate 20","address":"9400 West Hanna Lane","city":"Glendale","state":"AZ","zip":"85305","distance":"9.785046577453613","lon":"-112.261284","lat":"33.535191","theaterChainName":"AMC Theatres","ticketType":"STANDARD"},{"id":"1945","name":"AMC Deer Valley 30","address":"3033 W. Agua Fria Freeway","city":"Phoenix","state":"AZ","zip":"85027","distance":"21.78022003173828","lon":"-112.124039","lat":"33.666225","theaterChainName":"AMC Theatres","ticketType":"STANDARD"},{"id":"238","name":"AMC Arrowhead 14","address":"7700 W. Arrowhead Tn. Ctr Ste. 1079","city":"Glendale","state":"AZ","zip":"85308","distance":"16.874065399169922","lon":"-112.225945","lat":"33.642742","theaterChainName":"AMC Theatres","ticketType":"STANDARD"},{"id":"4516","name":"Digiplex Surprise Pointe 14 Cinemas","address":"13649 North Litchfield Road","city":"Surprise","state":"AZ","zip":"85374","distance":"11.864121437072754","lon":"-112.359100","lat":"33.607300","theaterChainName":"Carmike Cinemas","ticketType":"STANDARD"}]