[{"id":"547","name":"AMC Arizona Center 24","address":"455 N. 3rd St #270","city":"Phoenix","state":"AZ","zip":"85004","distance":"21.276321411132812","lon":"-112.069313","lat":"33.453575","theaterChainName":"AMC Theatres","ticketType":"STANDARD"},{"id":"5023","name":"FilmBar","address":"815 N 2nd Street","city":"Phoenix","state":"AZ","zip":"85004","distance":"21.04566764831543","lon":"-112.071198","lat":"33.456799","theaterChainName":"Independent Chains","ticketType":"STANDARD"},{"id":"1282","name":"Cinema Latino de Phoenix","address":"7611-120 W. Thomas Road","city":"Phoenix","state":"AZ","zip":"85033","distance":"14.39046573638916","lon":"-112.226051","lat":"33.477196","theaterChainName":"Independent Chains","ticketType":"STANDARD"},{"id":"4925","name":"Picture Show  Paradise Valley Mall","address":"4550 E. Cactus Rd.","city":"Phoenix","state":"AZ","zip":"85032","distance":"20.936830520629883","lon":"-111.984390","lat":"33.602810","theaterChainName":"Picture Show Entertainment","ticketType":"STANDARD"},{"id":"4277","name":"AMC Westgate 20","address":"9400 West Hanna Lane","city":"Glendale","state":"AZ","zip":"85305","distance":"9.898672103881836","lon":"-112.261284","lat":"33.535191","theaterChainName":"AMC Theatres","ticketType":"STANDARD"},{"id":"1945","name":"AMC Deer Valley 30","address":"3033 W. Agua Fria Freeway","city":"Phoenix","state":"AZ","zip":"85027","distance":"12.4981689453125","lon":"-112.124039","lat":"33.666225","theaterChainName":"AMC Theatres","ticketType":"STANDARD"},{"id":"3146","name":"AMC Desert Ridge 18","address":"21001 N. Tatum #32","city":"Phoenix","state":"AZ","zip":"85050","distance":"21.31004524230957","lon":"-111.971107","lat":"33.675819","theaterChainName":"AMC Theatres","ticketType":"STANDARD"},{"id":"238","name":"AMC Arrowhead 14","address":"7700 W. Arrowhead Tn. Ctr Ste. 1079","city":"Glendale","state":"AZ","zip":"85308","distance":"6.767158508300781","lon":"-112.225945","lat":"33.642742","theaterChainName":"AMC Theatres","ticketType":"STANDARD"},{"id":"4516","name":"Digiplex Surprise Pointe 14 Cinemas","address":"13649 North Litchfield Road","city":"Surprise","state":"AZ","zip":"85374","distance":"3.915823459625244","lon":"-112.359100","lat":"33.607300","theaterChainName":"Carmike Cinemas","ticketType":"STANDARD"}]