[{"id":"1282","name":"Cinema Latino de Phoenix","address":"7611-120 W. Thomas Road","city":"Phoenix","state":"AZ","zip":"85033","distance":"20.331300735473633","lon":"-112.226051","lat":"33.477196","theaterChainName":"Independent Chains","ticketType":"STANDARD"},{"id":"4277","name":"AMC Westgate 20","address":"9400 West Hanna Lane","city":"Glendale","state":"AZ","zip":"85305","distance":"15.924049377441406","lon":"-112.261284","lat":"33.535191","theaterChainName":"AMC Theatres","ticketType":"STANDARD"},{"id":"1945","name":"AMC Deer Valley 30","address":"3033 W. Agua Fria Freeway","city":"Phoenix","state":"AZ","zip":"85027","distance":"18.308103561401367","lon":"-112.124039","lat":"33.666225","theaterChainName":"AMC Theatres","ticketType":"STANDARD"},{"id":"238","name":"AMC Arrowhead 14","address":"7700 W. Arrowhead Tn. Ctr Ste. 1079","city":"Glendale","state":"AZ","zip":"85308","distance":"13.094934463500977","lon":"-112.225945","lat":"33.642742","theaterChainName":"AMC Theatres","ticketType":"STANDARD"},{"id":"4516","name":"Digiplex Surprise Pointe 14 Cinemas","address":"13649 North Litchfield Road","city":"Surprise","state":"AZ","zip":"85374","distance":"8.577364921569824","lon":"-112.359100","lat":"33.607300","theaterChainName":"Carmike Cinemas","ticketType":"STANDARD"}]