[{"id":"241","name":"Century Gateway 12","address":"770 N. Kolb Road","city":"Tucson","state":"AZ","zip":"85710","distance":"21.8670711517334","lon":"-110.839363","lat":"32.230827","theaterChainName":"Cinemark","ticketType":"STANDARD"},{"id":"3260","name":"Century Park Place Mall 20","address":"5870 E. Broadway","city":"Tucson","state":"AZ","zip":"85711","distance":"20.463869094848633","lon":"-110.865936","lat":"32.218639","theaterChainName":"Cinemark","ticketType":"STANDARD"},{"id":"2517","name":"Century 20 El Con","address":"3601 E. Broadway","city":"Tucson","state":"AZ","zip":"85716","distance":"19.9418888092041","lon":"-110.916534","lat":"32.224964","theaterChainName":"Cinemark","ticketType":"STANDARD"},{"id":"2330","name":"The Loft Cinema","address":"3233 E. Speedway Blvd.","city":"Tucson","state":"AZ","zip":"85716","distance":"20.60572624206543","lon":"-110.923569","lat":"32.236259","theaterChainName":"Independent Chains","ticketType":"STANDARD"},{"id":"6000","name":"Century Tucson Marketplace and XD","address":"1300 E. Tucson Marketplace Blvd","city":"Tucson","state":"AZ","zip":"85713","distance":"16.93210220336914","lon":"-110.953896","lat":"32.187084","theaterChainName":"Cinemark","ticketType":"STANDARD"},{"id":"3028","name":"Desert Sky Cinema","address":"70 W. Duval Mine Rd.","city":"Sahuarita","state":"AZ","zip":"85629","distance":"2.786619186401367","lon":"-110.987930","lat":"31.906239","theaterChainName":"Independent Chains","ticketType":"STANDARD"}]