[{"id":"56","tribuneTheaterId":"9173","providerTheaterId":"2698","name":"AMC Loews Foothills 15","address":"7401 LA Cholla Blvd. Ste 144","city":"Tucson","state":"AZ","zip":"85741","distance":1.7634527139862,"lon":"-111.015397","lat":"32.341555","theaterChainName":"AMC Theatres","ticketType":"STANDARD"},{"id":"4570","tribuneTheaterId":"9714","providerTheaterId":"","name":"Century Theatres at the Oro Valley Marketplace","address":"12155 North Oracle Road","city":"Tucson","state":"AZ","zip":"85737","distance":6.6808540945048,"lon":"-110.937597","lat":"32.425724","theaterChainName":"Cinemark","ticketType":"STANDARD"},{"id":"2330","tribuneTheaterId":"2729","providerTheaterId":"","name":"The Loft Cinema","address":"3233 E. Speedway Blvd.","city":"Tucson","state":"AZ","zip":"85716","distance":7.8996803443657,"lon":"-110.923567","lat":"32.236259","theaterChainName":"Independent Chains","ticketType":"STANDARD"},{"id":"2517","tribuneTheaterId":"9238","providerTheaterId":"","name":"Century 20 El Con","address":"3601 E. Broadway","city":"Tucson","state":"AZ","zip":"85716","distance":8.7816479713739,"lon":"-110.916531","lat":"32.224966","theaterChainName":"Cinemark","ticketType":"STANDARD"},{"id":"6000","tribuneTheaterId":"11434","providerTheaterId":"","name":"Century Tucson Marketplace and XD","address":"1300 E. Tucson Marketplace Blvd","city":"Tucson","state":"AZ","zip":"85713","distance":10.582554795877,"lon":"-110.953898","lat":"32.187086","theaterChainName":"Cinemark","ticketType":"STANDARD"},{"id":"241","tribuneTheaterId":"9036","providerTheaterId":"","name":"Century Gateway 12","address":"770 N. Kolb Road","city":"Tucson","state":"AZ","zip":"85710","distance":11.295827705035,"lon":"-110.839365","lat":"32.230826","theaterChainName":"Cinemark","ticketType":"STANDARD"},{"id":"3260","tribuneTheaterId":"9170","providerTheaterId":"","name":"Century Park Place Mall 20","address":"5870 E. Broadway","city":"Tucson","state":"AZ","zip":"85711","distance":10.802030820046,"lon":"-110.865934","lat":"32.218639","theaterChainName":"Cinemark","ticketType":"STANDARD"}]