[{"id":"241","name":"Century Gateway 12","address":"770 N. Kolb Road","city":"Tucson","state":"AZ","zip":"85710","distance":"16.512813568115234","lon":"-110.839363","lat":"32.230827","theaterChainName":"Cinemark","ticketType":"STANDARD"},{"id":"3260","name":"Century Park Place Mall 20","address":"5870 E. Broadway","city":"Tucson","state":"AZ","zip":"85711","distance":"14.752047538757324","lon":"-110.865936","lat":"32.218639","theaterChainName":"Cinemark","ticketType":"STANDARD"},{"id":"2517","name":"Century 20 El Con","address":"3601 E. Broadway","city":"Tucson","state":"AZ","zip":"85716","distance":"12.313201904296875","lon":"-110.916534","lat":"32.224964","theaterChainName":"Cinemark","ticketType":"STANDARD"},{"id":"2330","name":"The Loft Cinema","address":"3233 E. Speedway Blvd.","city":"Tucson","state":"AZ","zip":"85716","distance":"12.39100456237793","lon":"-110.923569","lat":"32.236259","theaterChainName":"Independent Chains","ticketType":"STANDARD"},{"id":"6000","name":"Century Tucson Marketplace and XD","address":"1300 E. Tucson Marketplace Blvd","city":"Tucson","state":"AZ","zip":"85713","distance":"9.166410446166992","lon":"-110.953896","lat":"32.187084","theaterChainName":"Cinemark","ticketType":"STANDARD"},{"id":"4570","name":"Century Theatres at the Oro Valley Marketplace","address":"12155 North Oracle Road","city":"Tucson","state":"AZ","zip":"85737","distance":"22.236865997314453","lon":"-110.937599","lat":"32.425724","theaterChainName":"Cinemark","ticketType":"STANDARD"},{"id":"56","name":"AMC Loews Foothills 15","address":"7401 LA Cholla Blvd. Ste 144","city":"Tucson","state":"AZ","zip":"85741","distance":"15.145736694335938","lon":"-111.015396","lat":"32.341557","theaterChainName":"AMC Theatres","ticketType":"STANDARD"},{"id":"3028","name":"Desert Sky Cinema","address":"70 W. Duval Mine Rd.","city":"Sahuarita","state":"AZ","zip":"85629","distance":"16.96638298034668","lon":"-110.987930","lat":"31.906239","theaterChainName":"Independent Chains","ticketType":"STANDARD"}]