[{"id":"4634","tribuneTheaterId":"9819","providerTheaterId":"","name":"UltraStar Lake Havasu 10","address":"5601 Highway 95","city":"Lake Havasu City","state":"AZ","zip":"86403","distance":14.716913851551,"lon":"-114.369301","lat":"34.586498","theaterChainName":"UltraStar Cinemas","ticketType":"STANDARD"},{"id":"5931","tribuneTheaterId":"11361","providerTheaterId":"","name":"Star Cinemas, Lake Havasu","address":"5601 Highway 95 N. Bldg. 1","city":"Lake Havasu City","state":"AZ","zip":"86403","distance":15.840157705158,"lon":"-114.368343","lat":"34.568953","theaterChainName":"Independent Chains","ticketType":"STANDARD"},{"id":"3662","tribuneTheaterId":"3114","providerTheaterId":"","name":"Brenden Avi 8","address":"10000 AHA MaCav Pkwy.","city":"Laughlin","state":"NV","zip":"89028","distance":18.779499534021,"lon":"-114.643257","lat":"35.015712","theaterChainName":"Brenden Theatres","ticketType":"STANDARD"},{"id":"1628","tribuneTheaterId":"2223","providerTheaterId":"","name":"Movies Havasu","address":"180 Swanson Ave.","city":"Lake Havasu City","state":"AZ","zip":"86403","distance":22.798515740789,"lon":"-114.341814","lat":"34.469163","theaterChainName":"Independent Chains","ticketType":"STANDARD"}]