[{"id":"290","tribuneTheaterId":"7273","providerTheaterId":"","name":"United Artists Cottonwood Stadium 10","address":"10000 NW Coors Blvd","city":"Albuquerque","state":"NM","zip":"87114","distance":11.425246368898,"lon":"-106.655982","lat":"35.198449","theaterChainName":"United Artists","ticketType":"STANDARD"},{"id":"5075","tribuneTheaterId":"10463","providerTheaterId":"","name":"Rio Rancho Premiere","address":"1000 Premiere Pkwy","city":"Rio Rancho","state":"NM","zip":"87124","distance":11.31638794991,"lon":"-106.699632","lat":"35.239876","theaterChainName":"Premiere Cinemas","ticketType":"STANDARD"},{"id":"920","tribuneTheaterId":"5232","providerTheaterId":"","name":"Cinemark Movies West","address":"9201 Coors Rd.NW","city":"Albuquerque","state":"NM","zip":"87114","distance":12.727951032232,"lon":"-106.668176","lat":"35.182319","theaterChainName":"Cinemark","ticketType":"STANDARD"},{"id":"919","tribuneTheaterId":"5231","providerTheaterId":"","name":"Cinemark Movies 8 Albuquerque","address":"4591 San Mateo N.E.","city":"Albuquerque","state":"NM","zip":"87109","distance":13.76120393612,"lon":"-106.588159","lat":"35.134901","theaterChainName":"Cinemark","ticketType":"STANDARD"},{"id":"341","tribuneTheaterId":"9187","providerTheaterId":"","name":"Century Rio 24","address":"4901 Pan American Fwy N.E.","city":"Albuquerque","state":"NM","zip":"87109","distance":13.52782181664,"lon":"-106.60238","lat":"35.141617","theaterChainName":"Cinemark","ticketType":"STANDARD"},{"id":"5412","tribuneTheaterId":"10849","providerTheaterId":"","name":"Regal Winrock Stadium 16 Imax + RPX","address":"2100 Louisiana Blvd. N.E.","city":"Albuquerque","state":"NM","zip":"87110","distance":16.019629191768,"lon":"-106.5686","lat":"35.0987","theaterChainName":"Regal Cinemas","ticketType":"STANDARD"},{"id":"74","tribuneTheaterId":"8420","providerTheaterId":"","name":"United Artists 8 Of High Ridge","address":"12921 Indian School NE","city":"Albuquerque","state":"NM","zip":"87112","distance":16.161012295145,"lon":"-106.499421","lat":"35.096017","theaterChainName":"United Artists","ticketType":"STANDARD"},{"id":"3431","tribuneTheaterId":"7601","providerTheaterId":"","name":"Century 14 Downtown Albuquerque","address":"100 Central Avenue","city":"Albuquerque","state":"NM","zip":"87102","distance":18.16620154945,"lon":"-106.648329","lat":"35.08371","theaterChainName":"Cinemark","ticketType":"STANDARD"},{"id":"922","tribuneTheaterId":"2424","providerTheaterId":"","name":"Guild Art Theatre","address":"3405 Central Ave. N.E.","city":"Albuquerque","state":"NM","zip":"87106","distance":17.690952352343,"lon":"-106.606903","lat":"35.080101","theaterChainName":"Independent Chains","ticketType":"STANDARD"},{"id":"5722","tribuneTheaterId":"11164","providerTheaterId":"","name":"Icon Cinemas-Albuquerque","address":"13120-A Central Avenue","city":"Albuquerque","state":"NM","zip":"87123","distance":18.120996767075,"lon":"-106.500962","lat":"35.067375","theaterChainName":"Independent Chains","ticketType":"STANDARD"},{"id":"5836","tribuneTheaterId":"11247","providerTheaterId":"","name":"Grande 12","address":"3810 Estancias Way SW","city":"Albuquerque","state":"NM","zip":"87121","distance":23.536984546321,"lon":"-106.711436","lat":"35.021467","theaterChainName":"Carmike Cinemas","ticketType":"STANDARD"}]