[{"id":"2834","tribuneTheaterId":"6261","providerTheaterId":"","name":"Dream Catcher Cinema","address":"15 State Road 106","city":"Espanola","state":"NM","zip":"87532","distance":7.1485939003515,"lon":"-106.064499","lat":"35.9631","theaterChainName":"Independent Chains","ticketType":"STANDARD"},{"id":"5086","tribuneTheaterId":"10478","providerTheaterId":"","name":"Reel Deal Movie Theater","address":"2551 Central Ave.","city":"Los Alamos","state":"NM","zip":"87544","distance":21.772858231968,"lon":"-106.306007","lat":"35.882148","theaterChainName":"Independent Chains","ticketType":"STANDARD"},{"id":"923","tribuneTheaterId":"5704","providerTheaterId":"","name":"United Artists DeVargas Mall 6","address":"562 North Guadalupe","city":"Santa Fe","state":"NM","zip":"87501","distance":21.485584587388,"lon":"-105.949885","lat":"35.692944","theaterChainName":"United Artists","ticketType":"STANDARD"},{"id":"4995","tribuneTheaterId":"10364","providerTheaterId":"","name":"CCA Cinematheque","address":"1050 Old Pecos Trail","city":"Santa Fe","state":"NM","zip":"87505","distance":22.824512611395,"lon":"-105.937847","lat":"35.67364","theaterChainName":"Independent Chains","ticketType":"STANDARD"},{"id":"5710","tribuneTheaterId":"11151","providerTheaterId":"","name":"Violet Crown Cinemas Santa Fe","address":"1606 Alcaldesa St.","city":"Santa Fe","state":"NM","zip":"87501","distance":22.162194169929,"lon":"-105.949093","lat":"35.683147","theaterChainName":"Independent Chains","ticketType":"STANDARD"},{"id":"5395","tribuneTheaterId":"10832","providerTheaterId":"","name":"Jean Cocteau Cinema","address":"418 Montezuma Ave.","city":"Santa Fe","state":"NM","zip":"87501","distance":22.029375626562,"lon":"-105.946582","lat":"35.685065","theaterChainName":"Independent Chains","ticketType":"STANDARD"},{"id":"2979","tribuneTheaterId":"503","providerTheaterId":"","name":"The Screen","address":"1600 St Michael's Drive","city":"Santa Fe","state":"NM","zip":"87505","distance":23.784170367142,"lon":"-105.976158","lat":"35.66048","theaterChainName":"Independent Chains","ticketType":"STANDARD"}]