[{"id":"4325","tribuneTheaterId":"9298","providerTheaterId":"","name":"Santa Fe Stadium 14","address":"3474 Zafarno Dr.","city":"Santa Fe","state":"NM","zip":"87507","distance":15.192084336743,"lon":"-106.016121","lat":"35.642286","theaterChainName":"Regal Cinemas","ticketType":"STANDARD"},{"id":"5395","tribuneTheaterId":"10832","providerTheaterId":"","name":"Jean Cocteau Cinema","address":"418 Montezuma Ave.","city":"Santa Fe","state":"NM","zip":"87501","distance":17.550186934249,"lon":"-105.946582","lat":"35.685065","theaterChainName":"Independent Chains","ticketType":"STANDARD"},{"id":"5710","tribuneTheaterId":"11151","providerTheaterId":"","name":"Violet Crown Cinemas Santa Fe","address":"1606 Alcaldesa St.","city":"Santa Fe","state":"NM","zip":"87501","distance":17.420847846182,"lon":"-105.949093","lat":"35.683147","theaterChainName":"Independent Chains","ticketType":"STANDARD"},{"id":"4995","tribuneTheaterId":"10364","providerTheaterId":"","name":"CCA Cinematheque","address":"1050 Old Pecos Trail","city":"Santa Fe","state":"NM","zip":"87505","distance":16.758768408566,"lon":"-105.937847","lat":"35.67364","theaterChainName":"Independent Chains","ticketType":"STANDARD"},{"id":"2979","tribuneTheaterId":"503","providerTheaterId":"","name":"The Screen","address":"1600 St Michael's Drive","city":"Santa Fe","state":"NM","zip":"87505","distance":15.972089217286,"lon":"-105.976158","lat":"35.66048","theaterChainName":"Independent Chains","ticketType":"STANDARD"},{"id":"923","tribuneTheaterId":"5704","providerTheaterId":"","name":"United Artists DeVargas Mall 6","address":"562 North Guadalupe","city":"Santa Fe","state":"NM","zip":"87501","distance":18.098713920902,"lon":"-105.949885","lat":"35.692944","theaterChainName":"United Artists","ticketType":"STANDARD"}]