[{"id":"3620","name":"Cinemark West 12","address":"7440 Remcon Circle","city":"El Paso","state":"TX","zip":"79912","distance":"16.62051773071289","lon":"-106.563400","lat":"31.834600","theaterChainName":"Cinemark","ticketType":"STANDARD"},{"id":"2632","name":"Carmike 16 El Paso","address":"9480 Gateway Blvd North","city":"El Paso","state":"TX","zip":"79924","distance":"16.505327224731445","lon":"-106.437836","lat":"31.894377","theaterChainName":"Carmike Cinemas","ticketType":"STANDARD"},{"id":"5402","name":"Cinemark Movie Bistro - El Paso","address":"750 Sunland Park Drive, Suite # T01 at Sunland Par","city":"El Paso","state":"TX","zip":"79912","distance":"18.23326873779297","lon":"-106.543915","lat":"31.814880","theaterChainName":"Cinemark","ticketType":"STANDARD"},{"id":"5884","name":"Alamo Drafthouse El Paso","address":"250 East Motecillo Blvd","city":"El Paso","state":"TX","zip":"79912","distance":"19.002662658691406","lon":"-106.510773","lat":"31.812811","theaterChainName":"Alamo Drafthouse","ticketType":"STANDARD"},{"id":"4972","name":"The Grand Fort Bliss 10","address":"1619 Pleasonton Road","city":"Fort Bliss","state":"TX","zip":"79906","distance":"21.068357467651367","lon":"-106.426857","lat":"31.817280","theaterChainName":"Southern Theatres","ticketType":"STANDARD"},{"id":"4348","name":"Premiere Cinema 18 at Bassett Place Mall","address":"6101 Gateway West","city":"El Paso","state":"TX","zip":"79925","distance":"23.449100494384766","lon":"-106.412971","lat":"31.783726","theaterChainName":"Premiere Cinemas","ticketType":"STANDARD"},{"id":"4169","name":"Cinemark Cielo Vista","address":"8401 Gateway West Blvd","city":"El Paso","state":"TX","zip":"79925","distance":"24.763456344604492","lon":"-106.382759","lat":"31.778290","theaterChainName":"Cinemark","ticketType":"STANDARD"},{"id":"2624","name":"Mesilla Valley Film Society at the Fountain Theatre","address":"2469 Calle de Guadalupe","city":"Mesilla","state":"NM","zip":"88046","distance":"17.11907196044922","lon":"-106.794502","lat":"32.273689","theaterChainName":"Independent Chains","ticketType":"STANDARD"},{"id":"2139","name":"Allen Cineport 10","address":"700 S. Telshor Blvd.","city":"Las Cruces","state":"NM","zip":"88011","distance":"17.906099319458008","lon":"-106.743561","lat":"32.309196","theaterChainName":"Allen Theatres","ticketType":"STANDARD"},{"id":"2621","name":"Allen Video 4 Las Cruces","address":"1005 El Paseo St.","city":"Las Cruces","state":"NM","zip":"88001","distance":"18.163257598876953","lon":"-106.775002","lat":"32.301102","theaterChainName":"Allen Theatres","ticketType":"STANDARD"},{"id":"1626","name":"Allen Telshor Cinema 12","address":"2811 N Telshor","city":"Las Cruces","state":"NM","zip":"88011","distance":"20.963428497314453","lon":"-106.766632","lat":"32.349045","theaterChainName":"Allen Theatres","ticketType":"STANDARD"}]