[{"id":"3620","tribuneTheaterId":"9014","providerTheaterId":"","name":"Cinemark West 12","address":"7440 Remcon Circle","city":"El Paso","state":"TX","zip":"79912","distance":14.023065465337,"lon":"-106.5634","lat":"31.8346","theaterChainName":"Cinemark","ticketType":"STANDARD"},{"id":"5402","tribuneTheaterId":"10840","providerTheaterId":"","name":"Cinemark Movie Bistro - El Paso","address":"750 Sunland Park Drive, Suite # T01 at Sunland Par","city":"El Paso","state":"TX","zip":"79912","distance":15.753085272889,"lon":"-106.543917","lat":"31.81488","theaterChainName":"Cinemark","ticketType":"STANDARD"},{"id":"5884","tribuneTheaterId":"11304","providerTheaterId":"","name":"Alamo Drafthouse El Paso","address":"250 East Motecillo Blvd","city":"El Paso","state":"TX","zip":"79912","distance":16.855083820496,"lon":"-106.510772","lat":"31.812811","theaterChainName":"Alamo Drafthouse","ticketType":"STANDARD"},{"id":"2632","tribuneTheaterId":"4793","providerTheaterId":"","name":"Carmike 16 El Paso","address":"9480 Gateway Blvd North","city":"El Paso","state":"TX","zip":"79924","distance":15.912534599698,"lon":"-106.437832","lat":"31.894376","theaterChainName":"Carmike Cinemas","ticketType":"STANDARD"},{"id":"2624","tribuneTheaterId":"2558","providerTheaterId":"","name":"Mesilla Valley Film Society at the Fountain Theatre","address":"2469 Calle de Guadalupe","city":"Mesilla","state":"NM","zip":"88046","distance":19.207895790688,"lon":"-106.794499","lat":"32.27369","theaterChainName":"Independent Chains","ticketType":"STANDARD"},{"id":"2621","tribuneTheaterId":"2900","providerTheaterId":"","name":"Allen Video 4 Las Cruces","address":"1005 El Paseo St.","city":"Las Cruces","state":"NM","zip":"88001","distance":20.589187291454,"lon":"-106.775","lat":"32.3011","theaterChainName":"Allen Theatres","ticketType":"STANDARD"},{"id":"2139","tribuneTheaterId":"4067","providerTheaterId":"","name":"Allen Cineport 10","address":"700 S. Telshor Blvd.","city":"Las Cruces","state":"NM","zip":"88011","distance":20.648811921319,"lon":"-106.743561","lat":"32.309198","theaterChainName":"Allen Theatres","ticketType":"STANDARD"},{"id":"4972","tribuneTheaterId":"10332","providerTheaterId":"","name":"The Grand Fort Bliss 10","address":"1619 Pleasonton Road","city":"Fort Bliss","state":"TX","zip":"79906","distance":19.74920299613,"lon":"-106.426857","lat":"31.81728","theaterChainName":"Southern Theatres","ticketType":"STANDARD"},{"id":"4348","tribuneTheaterId":"9364","providerTheaterId":"","name":"Premiere Cinema 18 at Bassett Place Mall","address":"6101 Gateway West","city":"El Paso","state":"TX","zip":"79925","distance":21.982391068839,"lon":"-106.412973","lat":"31.783726","theaterChainName":"Premiere Cinemas","ticketType":"STANDARD"},{"id":"1626","tribuneTheaterId":"3187","providerTheaterId":"","name":"Allen Telshor Cinema 12","address":"2811 N Telshor","city":"Las Cruces","state":"NM","zip":"88011","distance":23.639287608649,"lon":"-106.766633","lat":"32.349046","theaterChainName":"Allen Theatres","ticketType":"STANDARD"},{"id":"4169","tribuneTheaterId":"7326","providerTheaterId":"","name":"Cinemark Cielo Vista","address":"8401 Gateway West Blvd","city":"El Paso","state":"TX","zip":"79925","distance":23.484660537794,"lon":"-106.382761","lat":"31.778289","theaterChainName":"Cinemark","ticketType":"STANDARD"}]