[{"id":"4170","tribuneTheaterId":"5117","providerTheaterId":"","name":"Galaxy Cannery","address":"2121 E. Craig Road","city":"North Las Vegas","state":"NV","zip":"89030","distance":17.645926654414,"lon":"-115.119295","lat":"36.239446","theaterChainName":"Galaxy Theatres","ticketType":"STANDARD"},{"id":"165","tribuneTheaterId":"8044","providerTheaterId":"","name":"Regal Boulder Station 11 Theatre","address":"4111 Boulder Highway","city":"Las Vegas","state":"NV","zip":"89121","distance":19.670304010233,"lon":"-115.084534","lat":"36.134323","theaterChainName":"Regal Cinemas","ticketType":"STANDARD"},{"id":"3094","tribuneTheaterId":"7602","providerTheaterId":"","name":"Century 18 Sam's Town","address":"5111 Boulder Highway","city":"Las Vegas","state":"NV","zip":"89122","distance":19.813728719667,"lon":"-115.061338","lat":"36.112189","theaterChainName":"Cinemark","ticketType":"STANDARD"},{"id":"4567","tribuneTheaterId":"9709","providerTheaterId":"","name":"Regal Aliante Stadium 16 & IMAX","address":"7300 Aliante Parkway","city":"North Las Vegas","state":"NV","zip":"89084","distance":20.078843234529,"lon":"-115.178404","lat":"36.292591","theaterChainName":"Regal Cinemas","ticketType":"STANDARD"},{"id":"244","tribuneTheaterId":"9244","providerTheaterId":"","name":"Cinedome 12 Henderson","address":"851 S. Boulder Highway","city":"Henderson","state":"NV","zip":"89015","distance":22.181267693152,"lon":"-114.967082","lat":"36.024325","theaterChainName":"Cinemark","ticketType":"STANDARD"},{"id":"125","tribuneTheaterId":"8841","providerTheaterId":"","name":"Regal Texas Station Stadium 18","address":"2101 Texas Star Lane","city":"North Las Vegas","state":"NV","zip":"89030","distance":22.442881860346,"lon":"-115.192122","lat":"36.198686","theaterChainName":"Regal Cinemas","ticketType":"STANDARD"},{"id":"3711","tribuneTheaterId":"7626","providerTheaterId":"","name":"Regency Tropicana Cinemas","address":"3330 East Tropicana","city":"Las Vegas","state":"NV","zip":"89121","distance":21.960340543006,"lon":"-115.102633","lat":"36.101349","theaterChainName":"Regency Theatres","ticketType":"STANDARD"},{"id":"4410","tribuneTheaterId":"9469","providerTheaterId":"","name":"Regal Fiesta Henderson Stadium 12","address":"777 West Lake Mead Parkway","city":"Henderson","state":"NV","zip":"89015","distance":22.695131377331,"lon":"-115.009799","lat":"36.032074","theaterChainName":"Regal Cinemas","ticketType":"STANDARD"},{"id":"5311","tribuneTheaterId":"10748","providerTheaterId":"","name":"Galaxy Green Valley","address":"4500 E. Sunset Road, Unit 10","city":"Henderson","state":"NV","zip":"89014","distance":22.48616570099,"lon":"-115.0755","lat":"36.0709","theaterChainName":"Galaxy Theatres","ticketType":"STANDARD"},{"id":"180","tribuneTheaterId":"5615","providerTheaterId":"","name":"Regal Sunset Station Stadium 13 & IMAX","address":"1301-A W. Sunset Road","city":"Henderson","state":"NV","zip":"89014","distance":21.914304570964,"lon":"-115.041876","lat":"36.060878","theaterChainName":"Regal Cinemas","ticketType":"STANDARD"},{"id":"326","tribuneTheaterId":"9104","providerTheaterId":"","name":"United Artists Showcase 8","address":"3769 Las Vegas Blvd. S.","city":"Las Vegas","state":"NV","zip":"89109","distance":24.74106595481,"lon":"-115.171491","lat":"36.104184","theaterChainName":"United Artists","ticketType":"STANDARD"},{"id":"412","tribuneTheaterId":"9169","providerTheaterId":"419","name":"AMC Rainbow Promenade 10","address":"2321 N. Rainbow Blvd.","city":"Las Vegas","state":"NV","zip":"89108","distance":24.963030710045,"lon":"-115.2423","lat":"36.2024","theaterChainName":"AMC Theatres","ticketType":"STANDARD"},{"id":"4011","tribuneTheaterId":"4850","providerTheaterId":"","name":"Century 16 Santa Fe Station","address":"4949 North Rancho Drive","city":"Las Vegas","state":"NV","zip":"89130","distance":24.14686204761,"lon":"-115.243642","lat":"36.249292","theaterChainName":"Cinemark","ticketType":"STANDARD"}]