[{"id":"244","tribuneTheaterId":"9244","providerTheaterId":"","name":"Cinedome 12 Henderson","address":"851 S. Boulder Highway","city":"Henderson","state":"NV","zip":"89015","distance":8.2299013383627,"lon":"-114.967082","lat":"36.024325","theaterChainName":"Cinemark","ticketType":"STANDARD"},{"id":"4410","tribuneTheaterId":"9469","providerTheaterId":"","name":"Regal Fiesta Henderson Stadium 12","address":"777 West Lake Mead Parkway","city":"Henderson","state":"NV","zip":"89015","distance":10.627769999366,"lon":"-115.009799","lat":"36.032074","theaterChainName":"Regal Cinemas","ticketType":"STANDARD"},{"id":"180","tribuneTheaterId":"5615","providerTheaterId":"","name":"Regal Sunset Station Stadium 13 & IMAX","address":"1301-A W. Sunset Road","city":"Henderson","state":"NV","zip":"89014","distance":13.098147771002,"lon":"-115.041876","lat":"36.060878","theaterChainName":"Regal Cinemas","ticketType":"STANDARD"},{"id":"3094","tribuneTheaterId":"7602","providerTheaterId":"","name":"Century 18 Sam's Town","address":"5111 Boulder Highway","city":"Las Vegas","state":"NV","zip":"89122","distance":15.925755616731,"lon":"-115.061338","lat":"36.112189","theaterChainName":"Cinemark","ticketType":"STANDARD"},{"id":"5311","tribuneTheaterId":"10748","providerTheaterId":"","name":"Galaxy Green Valley","address":"4500 E. Sunset Road, Unit 10","city":"Henderson","state":"NV","zip":"89014","distance":15.085177547442,"lon":"-115.0755","lat":"36.0709","theaterChainName":"Galaxy Theatres","ticketType":"STANDARD"},{"id":"3454","tribuneTheaterId":"9071","providerTheaterId":"","name":"Regal Green Valley Ranch Stadium 10","address":"Green Valley Parkway at I-215","city":"Henderson","state":"NV","zip":"89052","distance":14.751081213988,"lon":"-115.091271","lat":"36.021596","theaterChainName":"Regal Cinemas","ticketType":"STANDARD"},{"id":"2519","tribuneTheaterId":"7731","providerTheaterId":"","name":"Regal Colonnade Stadium 14","address":"8880 S Eastern Ave","city":"Las Vegas","state":"NV","zip":"89123","distance":16.142490396815,"lon":"-115.114768","lat":"36.028709","theaterChainName":"Regal Cinemas","ticketType":"STANDARD"},{"id":"3711","tribuneTheaterId":"7626","providerTheaterId":"","name":"Regency Tropicana Cinemas","address":"3330 East Tropicana","city":"Las Vegas","state":"NV","zip":"89121","distance":17.424318816371,"lon":"-115.102633","lat":"36.101349","theaterChainName":"Regency Theatres","ticketType":"STANDARD"},{"id":"165","tribuneTheaterId":"8044","providerTheaterId":"","name":"Regal Boulder Station 11 Theatre","address":"4111 Boulder Highway","city":"Las Vegas","state":"NV","zip":"89121","distance":17.886620732509,"lon":"-115.084534","lat":"36.134323","theaterChainName":"Regal Cinemas","ticketType":"STANDARD"},{"id":"4119","tribuneTheaterId":"4851","providerTheaterId":"","name":"Century 16 South Point","address":"9777 Las Vegas Blvd.","city":"Las Vegas","state":"NV","zip":"89183","distance":19.100742397049,"lon":"-115.1725","lat":"36.0126","theaterChainName":"Cinemark","ticketType":"STANDARD"},{"id":"5288","tribuneTheaterId":"10722","providerTheaterId":"470","name":"AMC Town Square 18","address":"6587 Las Vegas Blvd. S","city":"Las Vegas","state":"NV","zip":"89119","distance":20.320636919292,"lon":"-115.178368","lat":"36.068094","theaterChainName":"AMC Theatres","ticketType":"STANDARD"},{"id":"326","tribuneTheaterId":"9104","providerTheaterId":"","name":"United Artists Showcase 8","address":"3769 Las Vegas Blvd. S.","city":"Las Vegas","state":"NV","zip":"89109","distance":20.909987934672,"lon":"-115.171491","lat":"36.104184","theaterChainName":"United Artists","ticketType":"STANDARD"},{"id":"516","tribuneTheaterId":"7157","providerTheaterId":"","name":"Century Orleans 18","address":"4500 Tropicana","city":"Las Vegas","state":"NV","zip":"89103","distance":22.403221496575,"lon":"-115.201945","lat":"36.102325","theaterChainName":"Cinemark","ticketType":"STANDARD"},{"id":"3451","tribuneTheaterId":"7187","providerTheaterId":"","name":"Brenden Theatres and IMAX at the Palms","address":"4321 W. Flamingo Road","city":"Las Vegas","state":"NV","zip":"89103","distance":22.444289735375,"lon":"-115.196065","lat":"36.114139","theaterChainName":"Brenden Theatres","ticketType":"STANDARD"},{"id":"4170","tribuneTheaterId":"5117","providerTheaterId":"","name":"Galaxy Cannery","address":"2121 E. Craig Road","city":"North Las Vegas","state":"NV","zip":"89030","distance":24.343349859754,"lon":"-115.119295","lat":"36.239446","theaterChainName":"Galaxy Theatres","ticketType":"STANDARD"}]