[{"id":"4119","tribuneTheaterId":"4851","providerTheaterId":"","name":"Century 16 South Point","address":"9777 Las Vegas Blvd.","city":"Las Vegas","state":"NV","zip":"89183","distance":18.235644594166,"lon":"-115.1725","lat":"36.0126","theaterChainName":"Cinemark","ticketType":"STANDARD"},{"id":"5288","tribuneTheaterId":"10722","providerTheaterId":"470","name":"AMC Town Square 18","address":"6587 Las Vegas Blvd. S","city":"Las Vegas","state":"NV","zip":"89119","distance":21.576830557078,"lon":"-115.178368","lat":"36.068094","theaterChainName":"AMC Theatres","ticketType":"STANDARD"},{"id":"2519","tribuneTheaterId":"7731","providerTheaterId":"","name":"Regal Colonnade Stadium 14","address":"8880 S Eastern Ave","city":"Las Vegas","state":"NV","zip":"89123","distance":20.854267635786,"lon":"-115.114768","lat":"36.028709","theaterChainName":"Regal Cinemas","ticketType":"STANDARD"},{"id":"3454","tribuneTheaterId":"9071","providerTheaterId":"","name":"Regal Green Valley Ranch Stadium 10","address":"Green Valley Parkway at I-215","city":"Henderson","state":"NV","zip":"89052","distance":21.22978678756,"lon":"-115.091271","lat":"36.021596","theaterChainName":"Regal Cinemas","ticketType":"STANDARD"},{"id":"516","tribuneTheaterId":"7157","providerTheaterId":"","name":"Century Orleans 18","address":"4500 Tropicana","city":"Las Vegas","state":"NV","zip":"89103","distance":23.364657961624,"lon":"-115.201945","lat":"36.102325","theaterChainName":"Cinemark","ticketType":"STANDARD"},{"id":"326","tribuneTheaterId":"9104","providerTheaterId":"","name":"United Artists Showcase 8","address":"3769 Las Vegas Blvd. S.","city":"Las Vegas","state":"NV","zip":"89109","distance":24.037654089594,"lon":"-115.171491","lat":"36.104184","theaterChainName":"United Artists","ticketType":"STANDARD"},{"id":"3451","tribuneTheaterId":"7187","providerTheaterId":"","name":"Brenden Theatres and IMAX at the Palms","address":"4321 W. Flamingo Road","city":"Las Vegas","state":"NV","zip":"89103","distance":24.241358252195,"lon":"-115.196065","lat":"36.114139","theaterChainName":"Brenden Theatres","ticketType":"STANDARD"},{"id":"4410","tribuneTheaterId":"9469","providerTheaterId":"","name":"Regal Fiesta Henderson Stadium 12","address":"777 West Lake Mead Parkway","city":"Henderson","state":"NV","zip":"89015","distance":24.79909510909,"lon":"-115.009799","lat":"36.032074","theaterChainName":"Regal Cinemas","ticketType":"STANDARD"},{"id":"5311","tribuneTheaterId":"10748","providerTheaterId":"","name":"Galaxy Green Valley","address":"4500 E. Sunset Road, Unit 10","city":"Henderson","state":"NV","zip":"89014","distance":24.498958225618,"lon":"-115.0755","lat":"36.0709","theaterChainName":"Galaxy Theatres","ticketType":"STANDARD"}]