[{"id":"165","tribuneTheaterId":"8044","providerTheaterId":"","name":"Regal Boulder Station 11 Theatre","address":"4111 Boulder Highway","city":"Las Vegas","state":"NV","zip":"89121","distance":3.3578979097999,"lon":"-115.084534","lat":"36.134323","theaterChainName":"Regal Cinemas","ticketType":"STANDARD"},{"id":"3711","tribuneTheaterId":"7626","providerTheaterId":"","name":"Regency Tropicana Cinemas","address":"3330 East Tropicana","city":"Las Vegas","state":"NV","zip":"89121","distance":5.0113155644759,"lon":"-115.102633","lat":"36.101349","theaterChainName":"Regency Theatres","ticketType":"STANDARD"},{"id":"125","tribuneTheaterId":"8841","providerTheaterId":"","name":"Regal Texas Station Stadium 18","address":"2101 Texas Star Lane","city":"North Las Vegas","state":"NV","zip":"89030","distance":4.3001957318653,"lon":"-115.192122","lat":"36.198686","theaterChainName":"Regal Cinemas","ticketType":"STANDARD"},{"id":"326","tribuneTheaterId":"9104","providerTheaterId":"","name":"United Artists Showcase 8","address":"3769 Las Vegas Blvd. S.","city":"Las Vegas","state":"NV","zip":"89109","distance":5.433549973043,"lon":"-115.171491","lat":"36.104184","theaterChainName":"United Artists","ticketType":"STANDARD"},{"id":"4170","tribuneTheaterId":"5117","providerTheaterId":"","name":"Galaxy Cannery","address":"2121 E. Craig Road","city":"North Las Vegas","state":"NV","zip":"89030","distance":4.656376466821,"lon":"-115.119295","lat":"36.239446","theaterChainName":"Galaxy Theatres","ticketType":"STANDARD"},{"id":"516","tribuneTheaterId":"7157","providerTheaterId":"","name":"Century Orleans 18","address":"4500 Tropicana","city":"Las Vegas","state":"NV","zip":"89103","distance":6.5531157812878,"lon":"-115.201945","lat":"36.102325","theaterChainName":"Cinemark","ticketType":"STANDARD"},{"id":"3451","tribuneTheaterId":"7187","providerTheaterId":"","name":"Brenden Theatres and IMAX at the Palms","address":"4321 W. Flamingo Road","city":"Las Vegas","state":"NV","zip":"89103","distance":5.7386079180542,"lon":"-115.196065","lat":"36.114139","theaterChainName":"Brenden Theatres","ticketType":"STANDARD"},{"id":"3094","tribuneTheaterId":"7602","providerTheaterId":"","name":"Century 18 Sam's Town","address":"5111 Boulder Highway","city":"Las Vegas","state":"NV","zip":"89122","distance":5.3612583605502,"lon":"-115.061338","lat":"36.112189","theaterChainName":"Cinemark","ticketType":"STANDARD"},{"id":"412","tribuneTheaterId":"9169","providerTheaterId":"419","name":"AMC Rainbow Promenade 10","address":"2321 N. Rainbow Blvd.","city":"Las Vegas","state":"NV","zip":"89108","distance":7.0062716692245,"lon":"-115.2423","lat":"36.2024","theaterChainName":"AMC Theatres","ticketType":"STANDARD"},{"id":"4011","tribuneTheaterId":"4850","providerTheaterId":"","name":"Century 16 Santa Fe Station","address":"4949 North Rancho Drive","city":"Las Vegas","state":"NV","zip":"89130","distance":8.6098564125859,"lon":"-115.243642","lat":"36.249292","theaterChainName":"Cinemark","ticketType":"STANDARD"},{"id":"5288","tribuneTheaterId":"10722","providerTheaterId":"470","name":"AMC Town Square 18","address":"6587 Las Vegas Blvd. S","city":"Las Vegas","state":"NV","zip":"89119","distance":7.8356775075855,"lon":"-115.178368","lat":"36.068094","theaterChainName":"AMC Theatres","ticketType":"STANDARD"},{"id":"5311","tribuneTheaterId":"10748","providerTheaterId":"","name":"Galaxy Green Valley","address":"4500 E. Sunset Road, Unit 10","city":"Henderson","state":"NV","zip":"89014","distance":7.4661262748101,"lon":"-115.0755","lat":"36.0709","theaterChainName":"Galaxy Theatres","ticketType":"STANDARD"},{"id":"180","tribuneTheaterId":"5615","providerTheaterId":"","name":"Regal Sunset Station Stadium 13 & IMAX","address":"1301-A W. Sunset Road","city":"Henderson","state":"NV","zip":"89014","distance":8.9025029294986,"lon":"-115.041876","lat":"36.060878","theaterChainName":"Regal Cinemas","ticketType":"STANDARD"},{"id":"4567","tribuneTheaterId":"9709","providerTheaterId":"","name":"Regal Aliante Stadium 16 & IMAX","address":"7300 Aliante Parkway","city":"North Las Vegas","state":"NV","zip":"89084","distance":8.8909950175116,"lon":"-115.178404","lat":"36.292591","theaterChainName":"Regal Cinemas","ticketType":"STANDARD"},{"id":"3454","tribuneTheaterId":"9071","providerTheaterId":"","name":"Regal Green Valley Ranch Stadium 10","address":"Green Valley Parkway at I-215","city":"Henderson","state":"NV","zip":"89052","distance":10.543040947126,"lon":"-115.091271","lat":"36.021596","theaterChainName":"Regal Cinemas","ticketType":"STANDARD"},{"id":"690","tribuneTheaterId":"8651","providerTheaterId":"","name":"Regal Village Square Stadium 18","address":"9400 W. Sahara Ave.","city":"Las Vegas","state":"NV","zip":"89117","distance":10.079450652157,"lon":"-115.300438","lat":"36.147215","theaterChainName":"Regal Cinemas","ticketType":"STANDARD"},{"id":"2519","tribuneTheaterId":"7731","providerTheaterId":"","name":"Regal Colonnade Stadium 14","address":"8880 S Eastern Ave","city":"Las Vegas","state":"NV","zip":"89123","distance":9.9165150654805,"lon":"-115.114768","lat":"36.028709","theaterChainName":"Regal Cinemas","ticketType":"STANDARD"},{"id":"3078","tribuneTheaterId":"8804","providerTheaterId":"","name":"Century Suncoast 16","address":"9090 Alta Drive","city":"Las Vegas","state":"NV","zip":"89144","distance":9.4182808471863,"lon":"-115.291203","lat":"36.16865","theaterChainName":"Cinemark","ticketType":"STANDARD"},{"id":"4410","tribuneTheaterId":"9469","providerTheaterId":"","name":"Regal Fiesta Henderson Stadium 12","address":"777 West Lake Mead Parkway","city":"Henderson","state":"NV","zip":"89015","distance":11.537604088587,"lon":"-115.009799","lat":"36.032074","theaterChainName":"Regal Cinemas","ticketType":"STANDARD"},{"id":"4182","tribuneTheaterId":"4630","providerTheaterId":"","name":"Regal Red Rock Stadium 16 & IMAX","address":"11011 West Charleston Blvd.","city":"Las Vegas","state":"NV","zip":"89135","distance":11.940325241209,"lon":"-115.335417","lat":"36.155098","theaterChainName":"Regal Cinemas","ticketType":"STANDARD"},{"id":"4119","tribuneTheaterId":"4851","providerTheaterId":"","name":"Century 16 South Point","address":"9777 Las Vegas Blvd.","city":"Las Vegas","state":"NV","zip":"89183","distance":11.369831587042,"lon":"-115.1725","lat":"36.0126","theaterChainName":"Cinemark","ticketType":"STANDARD"},{"id":"244","tribuneTheaterId":"9244","providerTheaterId":"","name":"Cinedome 12 Henderson","address":"851 S. Boulder Highway","city":"Henderson","state":"NV","zip":"89015","distance":13.395413138726,"lon":"-114.967082","lat":"36.024325","theaterChainName":"Cinemark","ticketType":"STANDARD"}]