[{"id":"4011","tribuneTheaterId":"4850","providerTheaterId":"","name":"Century 16 Santa Fe Station","address":"4949 North Rancho Drive","city":"Las Vegas","state":"NV","zip":"89130","distance":17.97049115622,"lon":"-115.243642","lat":"36.249292","theaterChainName":"Cinemark","ticketType":"STANDARD"},{"id":"4567","tribuneTheaterId":"9709","providerTheaterId":"","name":"Regal Aliante Stadium 16 & IMAX","address":"7300 Aliante Parkway","city":"North Las Vegas","state":"NV","zip":"89084","distance":19.180246914532,"lon":"-115.178404","lat":"36.292591","theaterChainName":"Regal Cinemas","ticketType":"STANDARD"},{"id":"412","tribuneTheaterId":"9169","providerTheaterId":"419","name":"AMC Rainbow Promenade 10","address":"2321 N. Rainbow Blvd.","city":"Las Vegas","state":"NV","zip":"89108","distance":20.359276541164,"lon":"-115.2423","lat":"36.2024","theaterChainName":"AMC Theatres","ticketType":"STANDARD"},{"id":"3078","tribuneTheaterId":"8804","providerTheaterId":"","name":"Century Suncoast 16","address":"9090 Alta Drive","city":"Las Vegas","state":"NV","zip":"89144","distance":20.664471096765,"lon":"-115.291203","lat":"36.16865","theaterChainName":"Cinemark","ticketType":"STANDARD"},{"id":"4182","tribuneTheaterId":"4630","providerTheaterId":"","name":"Regal Red Rock Stadium 16 & IMAX","address":"11011 West Charleston Blvd.","city":"Las Vegas","state":"NV","zip":"89135","distance":20.376791489415,"lon":"-115.335417","lat":"36.155098","theaterChainName":"Regal Cinemas","ticketType":"STANDARD"},{"id":"690","tribuneTheaterId":"8651","providerTheaterId":"","name":"Regal Village Square Stadium 18","address":"9400 W. Sahara Ave.","city":"Las Vegas","state":"NV","zip":"89117","distance":21.7082484674,"lon":"-115.300438","lat":"36.147215","theaterChainName":"Regal Cinemas","ticketType":"STANDARD"},{"id":"125","tribuneTheaterId":"8841","providerTheaterId":"","name":"Regal Texas Station Stadium 18","address":"2101 Texas Star Lane","city":"North Las Vegas","state":"NV","zip":"89030","distance":22.461538368919,"lon":"-115.192122","lat":"36.198686","theaterChainName":"Regal Cinemas","ticketType":"STANDARD"},{"id":"4170","tribuneTheaterId":"5117","providerTheaterId":"","name":"Galaxy Cannery","address":"2121 E. Craig Road","city":"North Las Vegas","state":"NV","zip":"89030","distance":23.889643864809,"lon":"-115.119295","lat":"36.239446","theaterChainName":"Galaxy Theatres","ticketType":"STANDARD"}]