[{"id":"4395","tribuneTheaterId":"9443","providerTheaterId":"","name":"Galaxy Fandango","address":"4000 South Curry St.","city":"Carson City","state":"NV","zip":"89701","distance":11.734855452982,"lon":"-119.773293","lat":"39.131101","theaterChainName":"Galaxy Theatres","ticketType":"STANDARD"},{"id":"4330","tribuneTheaterId":"9305","providerTheaterId":"","name":"Century Summit Sierra","address":"13965 South Virginia Street","city":"Reno","state":"NV","zip":"89511","distance":11.177013514635,"lon":"-119.747986","lat":"39.403173","theaterChainName":"Cinemark","ticketType":"STANDARD"},{"id":"5474","tribuneTheaterId":"10917","providerTheaterId":"","name":"Galaxy Luxury + IMAX, Sparks","address":"1170 SCHEELS DR.","city":"Sparks","state":"NV","zip":"89434","distance":18.861270296261,"lon":"-119.7204","lat":"39.5308","theaterChainName":"Galaxy Theatres","ticketType":"STANDARD"},{"id":"1375","tribuneTheaterId":"7448","providerTheaterId":"","name":"Century Park Lane 16","address":"210 E. Plumb Lane","city":"Reno","state":"NV","zip":"89502","distance":18.485107140572,"lon":"-119.797815","lat":"39.502837","theaterChainName":"Cinemark","ticketType":"STANDARD"},{"id":"773","tribuneTheaterId":"8851","providerTheaterId":"","name":"Century Sparks 14","address":"1250 Victorian Ave","city":"Sparks","state":"NV","zip":"89431","distance":19.797745723632,"lon":"-119.75875","lat":"39.536331","theaterChainName":"Cinemark","ticketType":"STANDARD"},{"id":"2894","tribuneTheaterId":"9058","providerTheaterId":"","name":"Century Riverside 12","address":"11 N Sierra St","city":"Reno","state":"NV","zip":"89501","distance":20.244696513236,"lon":"-119.814226","lat":"39.524957","theaterChainName":"Cinemark","ticketType":"STANDARD"}]