[{"id":"4485","tribuneTheaterId":"9585","providerTheaterId":"","name":"Pacific Theatres Glendale 18","address":"322 Americana Way","city":"Glendale","state":"CA","zip":"91210","distance":2.8844388017643,"lon":"-118.257316","lat":"34.143397","theaterChainName":"Pacific Theaters","ticketType":"STANDARD"},{"id":"161","tribuneTheaterId":"9228","providerTheaterId":"","name":"United Artists La Canada 8","address":"1919 Verdugo Blvd.","city":"Flintridge","state":"CA","zip":"91011","distance":5.0343096472006,"lon":"-118.216925","lat":"34.206404","theaterChainName":"United Artists","ticketType":"STANDARD"},{"id":"2270","tribuneTheaterId":"5824","providerTheaterId":"","name":"Laemmle Playhouse 7","address":"673 E. Colorado Blvd.","city":"Pasadena","state":"CA","zip":"91101","distance":4.1881239918002,"lon":"-118.136445","lat":"34.14603","theaterChainName":"Laemmle Theatres","ticketType":"STANDARD"},{"id":"4944","tribuneTheaterId":"10299","providerTheaterId":"2414","name":"AMC Atlantic Times Square 14","address":"450 N. Atlantic Blvd.","city":"Monterey Park","state":"CA","zip":"91754","distance":6.2694804887971,"lon":"-118.1343","lat":"34.0669","theaterChainName":"AMC Theatres","ticketType":"STANDARD"},{"id":"4619","tribuneTheaterId":"9794","providerTheaterId":"","name":"Downtown Independent","address":"251 S. Main St.","city":"Los Angeles","state":"CA","zip":"90012","distance":6.1712853946181,"lon":"-118.245463","lat":"34.050082","theaterChainName":"Independent Chains","ticketType":"STANDARD"},{"id":"3570","tribuneTheaterId":"8434","providerTheaterId":"","name":"Edwards Alhambra Renaissance Stadium 14 & IMAX","address":"1 E. Main St","city":"Alhambra","state":"CA","zip":"91801","distance":5.3376241432245,"lon":"-118.126924","lat":"34.095952","theaterChainName":"Edwards Theatres","ticketType":"STANDARD"},{"id":"293","tribuneTheaterId":"6324","providerTheaterId":"","name":"Los Feliz 3","address":"1822 N. Vermont Ave.","city":"Los Angeles","state":"CA","zip":"90027","distance":5.191785294467,"lon":"-118.291647","lat":"34.104341","theaterChainName":"Independent Chains","ticketType":"STANDARD"},{"id":"294","tribuneTheaterId":"5154","providerTheaterId":"","name":"Vintage Cinemas Vista Theatre","address":"4473 Sunset Blvd.","city":"Hollywood","state":"CA","zip":"90027","distance":5.131716350801,"lon":"-118.286906","lat":"34.098257","theaterChainName":"Independent Chains","ticketType":"STANDARD"},{"id":"5216","tribuneTheaterId":"10640","providerTheaterId":"","name":"CGV Cinemas LA","address":"621 S. Western Ave.","city":"Los Angeles","state":"CA","zip":"90005","distance":7.5991386478789,"lon":"-118.309469","lat":"34.062737","theaterChainName":"Independent Chains","ticketType":"STANDARD"},{"id":"20","tribuneTheaterId":"9275","providerTheaterId":"209","name":"AMC Theatres Burbank Town Center 8","address":"201 E. Magnolia Blvd. #345","city":"Burbank","state":"CA","zip":"91501","distance":6.8641211099255,"lon":"-118.312151","lat":"34.183604","theaterChainName":"AMC Theatres","ticketType":"STANDARD"},{"id":"3636","tribuneTheaterId":"8983","providerTheaterId":"218","name":"AMC Burbank 16","address":"125 E. Palm Ave.","city":"Burbank","state":"CA","zip":"91502","distance":6.7850407997036,"lon":"-118.311837","lat":"34.181742","theaterChainName":"AMC Theatres","ticketType":"STANDARD"},{"id":"164","tribuneTheaterId":"9262","providerTheaterId":"442","name":"AMC Theatres Burbank Town Center 6","address":"770 N. First St.","city":"Burbank","state":"CA","zip":"91501","distance":7.063952824909,"lon":"-118.315325","lat":"34.18484","theaterChainName":"AMC Theatres","ticketType":"STANDARD"},{"id":"6127","tribuneTheaterId":"11543","providerTheaterId":"","name":"Arena Cinelounge Sunset","address":"6464 Sunset Blvd.","city":"Hollywood","state":"CA","zip":"90028","distance":7.4743870254536,"lon":"-118.3313","lat":"34.097626","theaterChainName":"Independent Chains","ticketType":"STANDARD"},{"id":"7","tribuneTheaterId":"6710","providerTheaterId":"","name":"TCL Chinese Theatre","address":"6801 Hollywood Blvd.","city":"Hollywood","state":"CA","zip":"90028","distance":7.8699753418888,"lon":"-118.3401","lat":"34.1015","theaterChainName":"Independent Chains","ticketType":"STANDARD"},{"id":"4796","tribuneTheaterId":"10051","providerTheaterId":"","name":"Regal Cinemas LA Live Stadium 14","address":"1000 W. Olympic Blvd.","city":"Los Angeles","state":"CA","zip":"90015","distance":6.9690353061367,"lon":"-118.267409","lat":"34.045757","theaterChainName":"Regal Cinemas","ticketType":"STANDARD"},{"id":"429","tribuneTheaterId":"7765","providerTheaterId":"","name":"Commerce 14","address":"950 Goodrich Blvd.","city":"Commerce","state":"CA","zip":"90022","distance":8.5640822854392,"lon":"-118.153861","lat":"34.018411","theaterChainName":"Regency Theatres","ticketType":"STANDARD"},{"id":"1619","tribuneTheaterId":"6099","providerTheaterId":"","name":"New Beverly Cinema","address":"7165 W. Beverly Blvd.","city":"Los Angeles","state":"CA","zip":"90036","distance":8.8066872419343,"lon":"-118.345398","lat":"34.076099","theaterChainName":"Independent Chains","ticketType":"STANDARD"},{"id":"292","tribuneTheaterId":"8974","providerTheaterId":"","name":"Pacific El Capitan","address":"6838 Hollywood Blvd.","city":"Hollywood","state":"CA","zip":"90028","distance":7.8584754706539,"lon":"-118.33978","lat":"34.101195","theaterChainName":"Independent Chains","ticketType":"STANDARD"},{"id":"2855","tribuneTheaterId":"2588","providerTheaterId":"","name":"Egyptian Theatre - Hollywood","address":"6712 Hollywood Blvd.","city":"Hollywood","state":"CA","zip":"90028","distance":7.6829583716048,"lon":"-118.336496","lat":"34.100989","theaterChainName":"American Cinematheque","ticketType":"STANDARD"},{"id":"23","tribuneTheaterId":"9144","providerTheaterId":"232","name":"AMC Montebello 10","address":"1475 N. Montebello Blvd.","city":"Montebello","state":"CA","zip":"90640","distance":9.5683666425071,"lon":"-118.09276","lat":"34.033716","theaterChainName":"AMC Theatres","ticketType":"STANDARD"},{"id":"3894","tribuneTheaterId":"4246","providerTheaterId":"206","name":"AMC Santa Anita 16","address":"400 S. Baldwin Ave. Ste. 940-U","city":"Arcadia","state":"CA","zip":"91007","distance":9.1212707489207,"lon":"-118.048718","lat":"34.13527","theaterChainName":"AMC Theatres","ticketType":"STANDARD"},{"id":"297","tribuneTheaterId":"7605","providerTheaterId":"","name":"AMC Dine-in Sunset 5","address":"8000 W. Sunset Blvd.","city":"Los Angeles","state":"CA","zip":"90046","distance":9.3147640650129,"lon":"-118.364909","lat":"34.097263","theaterChainName":"Sundance Cinemas","ticketType":"STANDARD"},{"id":"5056","tribuneTheaterId":"10436","providerTheaterId":"","name":"Baldwin Hills Crenshaw Plaza 15","address":"4020 Marlton Ave.","city":"Los Angeles","state":"CA","zip":"90008","distance":11.215222974437,"lon":"-118.337275","lat":"34.011766","theaterChainName":"Cinemark","ticketType":"STANDARD"},{"id":"767","tribuneTheaterId":"6353","providerTheaterId":"","name":"Mann Plymouth Cinema 12","address":"3400 Vicksburgh Lane","city":"Plymouth","state":"MN","zip":"55447","distance":11.288133877962,"lon":"-118.091054","lat":"34.002467","theaterChainName":"Mann Theatres MN","ticketType":"STANDARD"},{"id":"100","tribuneTheaterId":"8973","providerTheaterId":"","name":"Edwards El Monte 8","address":"10661 Valley Blvd.","city":"El Monte","state":"CA","zip":"91731","distance":10.4189393316,"lon":"-118.03932","lat":"34.077457","theaterChainName":"Edwards Theatres","ticketType":"STANDARD"},{"id":"3477","tribuneTheaterId":"4865","providerTheaterId":"","name":"Pacific The Grove Stadium 14","address":"189 The Grove Drive","city":"Los Angeles","state":"CA","zip":"90036","distance":9.6085746623243,"lon":"-118.358296","lat":"34.071507","theaterChainName":"Pacific Theaters","ticketType":"STANDARD"},{"id":"5141","tribuneTheaterId":"10547","providerTheaterId":"","name":"Laemmle Noho 7","address":"5240 Lankershim Blvd.","city":"North Hollywood","state":"CA","zip":"91601","distance":9.7988923058809,"lon":"-118.375053","lat":"34.166249","theaterChainName":"Laemmle Theatres","ticketType":"STANDARD"},{"id":"307","tribuneTheaterId":"7783","providerTheaterId":"","name":"Park Twin Theatre","address":"6504 Pacific Blvd.","city":"Huntington Park","state":"CA","zip":"90255","distance":10.655697787185,"lon":"-118.225179","lat":"33.980321","theaterChainName":"Metropolitan Theatres","ticketType":"STANDARD"},{"id":"5782","tribuneTheaterId":"11222","providerTheaterId":"","name":"Ahrya Fine Arts","address":"8556 Wilshire Blvd","city":"Beverly Hills","state":"CA","zip":"90211","distance":10.804615190835,"lon":"-118.377928","lat":"34.065338","theaterChainName":"Laemmle Theatres","ticketType":"STANDARD"},{"id":"3110","tribuneTheaterId":"7772","providerTheaterId":"","name":"Krikorian Monrovia Cinema 12","address":"410 S. Myrtle Ave.","city":"Monrovia","state":"CA","zip":"91016","distance":11.907047248272,"lon":"-118.000651","lat":"34.147691","theaterChainName":"Krikorian Theatres","ticketType":"STANDARD"},{"id":"296","tribuneTheaterId":"7925","providerTheaterId":"","name":"Laemmle Music Hall 3","address":"9036 Wilshire Blvd.","city":"Beverly Hills","state":"CA","zip":"90211","distance":11.330723377161,"lon":"-118.388951","lat":"34.066881","theaterChainName":"Laemmle Theatres","ticketType":"STANDARD"},{"id":"3117","tribuneTheaterId":"8852","providerTheaterId":"","name":"Edwards South Gate Stadium 20 & IMAX","address":"8630 Garfield Ave","city":"South Gate","state":"CA","zip":"90280","distance":12.879663611594,"lon":"-118.161768","lat":"33.951504","theaterChainName":"Edwards Theatres","ticketType":"STANDARD"},{"id":"18","tribuneTheaterId":"8458","providerTheaterId":"245","name":"AMC Century City 15","address":"10250 Santa Monica Blvd., 2000","city":"Los Angeles","state":"CA","zip":"90067","distance":13.152230944266,"lon":"-118.420038","lat":"34.059992","theaterChainName":"AMC Theatres","ticketType":"STANDARD"},{"id":"246","tribuneTheaterId":"8667","providerTheaterId":"","name":"Century 8","address":"12827 Victory Blvd.","city":"North Hollywood","state":"CA","zip":"91606","distance":12.257833777615,"lon":"-118.412752","lat":"34.187053","theaterChainName":"Cinemark","ticketType":"STANDARD"},{"id":"1163","tribuneTheaterId":"5877","providerTheaterId":"","name":"Krikorian Downey Cinema 10","address":"8200 Third St.","city":"Downey","state":"CA","zip":"90241","distance":13.917944312331,"lon":"-118.133302","lat":"33.942263","theaterChainName":"Krikorian Theatres","ticketType":"STANDARD"},{"id":"495","tribuneTheaterId":"3071","providerTheaterId":"","name":"Whittier Village Stadium Cinemas","address":"7038 Greenleaf Ave.","city":"Whittier","state":"CA","zip":"90602","distance":14.557759818584,"lon":"-118.037209","lat":"33.977937","theaterChainName":"Independent Chains","ticketType":"STANDARD"},{"id":"3644","tribuneTheaterId":"7764","providerTheaterId":"","name":"Pacific Sherman Oaks 5","address":"14424 Milbank St.","city":"Sherman Oaks","state":"CA","zip":"91423","distance":13.754694305874,"lon":"-118.447642","lat":"34.152845","theaterChainName":"Pacific Theaters","ticketType":"STANDARD"},{"id":"5852","tribuneTheaterId":"11264","providerTheaterId":"","name":"Cinemark Downey and XD","address":"8840 Apollo Way","city":"Downey","state":"CA","zip":"90242","distance":15.205424025259,"lon":"-118.128651","lat":"33.923936","theaterChainName":"Cinemark","ticketType":"STANDARD"},{"id":"5054","tribuneTheaterId":"10434","providerTheaterId":"","name":"Regency Van Nuys Plant 16","address":"7876 Van Nuys Blvd.","city":"Van Nuys","state":"CA","zip":"91402","distance":14.825101543646,"lon":"-118.4487","lat":"34.2142","theaterChainName":"Regency Theatres","ticketType":"STANDARD"},{"id":"1645","tribuneTheaterId":"3170","providerTheaterId":"","name":"Bianchi Stadium 11 Theatres","address":"7770 Rosecrans Ave.","city":"Paramount","state":"CA","zip":"90723","distance":16.15571926082,"lon":"-118.163382","lat":"33.903045","theaterChainName":"Independent Chains","ticketType":"STANDARD"},{"id":"298","tribuneTheaterId":"8525","providerTheaterId":"","name":"Laemmle's Royal Theatre","address":"11523 Santa Monica Blvd.","city":"Los Angeles","state":"CA","zip":"90025","distance":15.260597987374,"lon":"-118.4525","lat":"34.0453","theaterChainName":"Laemmle Theatres","ticketType":"STANDARD"},{"id":"3169","tribuneTheaterId":"5151","providerTheaterId":"","name":"Cinemark 18 & XD","address":"6081 Center Drive","city":"Los Angeles","state":"CA","zip":"90045","distance":15.088528172105,"lon":"-118.3929","lat":"33.9781","theaterChainName":"Cinemark","ticketType":"STANDARD"},{"id":"3","tribuneTheaterId":"6802","providerTheaterId":"","name":"Village - Westwood Village","address":"961 Broxton Ave.","city":"Los Angeles","state":"CA","zip":"90024","distance":14.534283874433,"lon":"-118.447179","lat":"34.062566","theaterChainName":"Regency Theatres","ticketType":"STANDARD"},{"id":"4","tribuneTheaterId":"6803","providerTheaterId":"","name":"Bruin - Westwood Village","address":"948 Broxton Ave.","city":"Los Angeles","state":"CA","zip":"90024","distance":14.516801588672,"lon":"-118.446921","lat":"34.062719","theaterChainName":"Regency Theatres","ticketType":"STANDARD"},{"id":"5616","tribuneTheaterId":"11077","providerTheaterId":"","name":"Cinemark Playa Vista and XD","address":"12746 W Jefferson Blvd","city":"Los Angeles","state":"CA","zip":"90066","distance":16.091249146389,"lon":"-118.416474","lat":"33.977491","theaterChainName":"Cinemark","ticketType":"STANDARD"},{"id":"304","tribuneTheaterId":"7926","providerTheaterId":"","name":"Laemmle Town Center 5","address":"17200 Ventura Blvd.","city":"Encino","state":"CA","zip":"91316","distance":17.232761209375,"lon":"-118.507912","lat":"34.160017","theaterChainName":"Laemmle Theatres","ticketType":"STANDARD"},{"id":"5559","tribuneTheaterId":"11006","providerTheaterId":"446","name":"AMC Marina Marketplace 6","address":"4335 Glencoe","city":"Marina del Rey","state":"CA","zip":"90292","distance":16.723309734688,"lon":"-118.43954","lat":"33.986076","theaterChainName":"AMC Theatres","ticketType":"STANDARD"},{"id":"555","tribuneTheaterId":"5818","providerTheaterId":"","name":"Edwards West Covina Stadium 18","address":"1200 Lakes Dr.","city":"West Covina","state":"CA","zip":"91790","distance":16.862984351788,"lon":"-117.92355","lat":"34.070569","theaterChainName":"Edwards Theatres","ticketType":"STANDARD"},{"id":"548","tribuneTheaterId":"8246","providerTheaterId":"239","name":"AMC Covina 30","address":"1414 N. Azusa Ave.","city":"Covina","state":"CA","zip":"91722","distance":17.314827330517,"lon":"-117.9075","lat":"34.1051","theaterChainName":"AMC Theatres","ticketType":"STANDARD"},{"id":"198","tribuneTheaterId":"9268","providerTheaterId":"441","name":"AMC Norwalk 20","address":"12300 E. Civic Center Drive","city":"Norwalk","state":"CA","zip":"90650","distance":17.116700655774,"lon":"-118.071206","lat":"33.913718","theaterChainName":"AMC Theatres","ticketType":"STANDARD"},{"id":"4854","tribuneTheaterId":"10148","providerTheaterId":"","name":"Regency Granada Hills","address":"16830 Devonshire St.","city":"Granada Hills","state":"CA","zip":"91344","distance":18.665961242086,"lon":"-118.499082","lat":"34.256773","theaterChainName":"Regency Theatres","ticketType":"STANDARD"},{"id":"99","tribuneTheaterId":"8977","providerTheaterId":"","name":"Regency Foothill Cinema Stadium 10","address":"854 E. Alosta Ave.","city":"Azusa","state":"CA","zip":"91702","distance":18.087769095998,"lon":"-117.892027","lat":"34.127729","theaterChainName":"Regency Theatres","ticketType":"STANDARD"},{"id":"344","tribuneTheaterId":"9177","providerTheaterId":"249","name":"AMC Puente Hills 20","address":"1560 S. Azusa Ave.","city":"City of Industry","state":"CA","zip":"91748","distance":18.781749671719,"lon":"-117.926517","lat":"33.99447","theaterChainName":"AMC Theatres","ticketType":"STANDARD"},{"id":"49","tribuneTheaterId":"8241","providerTheaterId":"2417","name":"AMC Loews Broadway 4","address":"1441 Third Street Promenade","city":"Santa Monica","state":"CA","zip":"90401","distance":18.355909633605,"lon":"-118.494903","lat":"34.014806","theaterChainName":"AMC Theatres","ticketType":"STANDARD"},{"id":"301","tribuneTheaterId":"7293","providerTheaterId":"","name":"Laemmle Monica 4-plex","address":"1332 Second St.","city":"Santa Monica","state":"CA","zip":"90401","distance":18.48706831106,"lon":"-118.498","lat":"34.0157","theaterChainName":"Laemmle Theatres","ticketType":"STANDARD"},{"id":"299","tribuneTheaterId":"2417","providerTheaterId":"","name":"American Cinematheque at the Aero Theatre","address":"1328 Montana Ave.","city":"Santa Monica","state":"CA","zip":"90403","distance":17.899060210868,"lon":"-118.495598","lat":"34.031668","theaterChainName":"American Cinematheque","ticketType":"STANDARD"},{"id":"19","tribuneTheaterId":"9153","providerTheaterId":"203","name":"AMC Santa Monica 7","address":"1310 3rd St.","city":"Santa Monica","state":"CA","zip":"90401","distance":18.43150220009,"lon":"-118.497419","lat":"34.016542","theaterChainName":"AMC Theatres","ticketType":"STANDARD"},{"id":"303","tribuneTheaterId":"7480","providerTheaterId":"","name":"Gardena Cinema","address":"14948 Crenshaw Blvd.","city":"Gardena","state":"CA","zip":"90249","distance":17.770962634657,"lon":"-118.326074","lat":"33.895978","theaterChainName":"Independent Chains","ticketType":"STANDARD"},{"id":"3643","tribuneTheaterId":"2052","providerTheaterId":"","name":"La Mirada Dollar Movie 7","address":"15296 Rosecrans Avenue","city":"La Mirada","state":"CA","zip":"90638","distance":20.043686688268,"lon":"-118.005513","lat":"33.897404","theaterChainName":"Starplex Cinemas","ticketType":"STANDARD"},{"id":"556","tribuneTheaterId":"7066","providerTheaterId":"850","name":"AMC South Bay Galleria 16","address":"1815 Hawthorne Blvd. - Ste. 368","city":"Redondo Beach","state":"CA","zip":"90278","distance":19.982582357612,"lon":"-118.355584","lat":"33.871765","theaterChainName":"AMC Theatres","ticketType":"STANDARD"},{"id":"5702","tribuneTheaterId":"11139","providerTheaterId":"","name":"Cinemark Carson","address":"20700 Avalon Blvd.","city":"Carson","state":"CA","zip":"90746","distance":20.203269075738,"lon":"-118.261616","lat":"33.844868","theaterChainName":"Cinemark","ticketType":"STANDARD"},{"id":"101","tribuneTheaterId":"9271","providerTheaterId":"","name":"Edwards Cerritos Stadium 10","address":"12761 Towne Center Drive","city":"Cerritos","state":"CA","zip":"90701","distance":20.047578472918,"lon":"-118.059184","lat":"33.87136","theaterChainName":"Edwards Theatres","ticketType":"STANDARD"},{"id":"431","tribuneTheaterId":"8602","providerTheaterId":"","name":"Pacific Lakewood Center 16","address":"5200 Faculty Ave.","city":"Lakewood","state":"CA","zip":"90712","distance":19.962994221845,"lon":"-118.136803","lat":"33.851101","theaterChainName":"Pacific Theaters","ticketType":"STANDARD"},{"id":"4588","tribuneTheaterId":"9740","providerTheaterId":"430","name":"AMC Glendora 12","address":"1337 E. Gladstone St.","city":"Glendora","state":"CA","zip":"91740","distance":21.313296459084,"lon":"-117.836118","lat":"34.117098","theaterChainName":"AMC Theatres","ticketType":"STANDARD"},{"id":"1599","tribuneTheaterId":"7608","providerTheaterId":"","name":"Pacific Northridge Fashion Center 10","address":"9400 N. Shirley Ave.","city":"Northridge","state":"CA","zip":"91324","distance":21.275437599467,"lon":"-118.557562","lat":"34.240196","theaterChainName":"Pacific Theaters","ticketType":"STANDARD"},{"id":"2291","tribuneTheaterId":"8197","providerTheaterId":"","name":"Regal La Habra Stadium 16","address":"1351 W. Imperial Highway","city":"La Habra","state":"CA","zip":"90631","distance":20.557765115831,"lon":"-117.960463","lat":"33.918559","theaterChainName":"Regal Cinemas","ticketType":"STANDARD"},{"id":"4256","tribuneTheaterId":"5276","providerTheaterId":"421","name":"AMC Del Amo 18","address":"3525 W. Carson St. Space 73","city":"Torrance","state":"CA","zip":"90503","distance":22.220194373034,"lon":"-118.347666","lat":"33.833815","theaterChainName":"AMC Theatres","ticketType":"STANDARD"},{"id":"2446","tribuneTheaterId":"5821","providerTheaterId":"","name":"Edwards Long Beach 26 & IMAX","address":"7501 E. Carson Blvd","city":"Long Beach","state":"CA","zip":"90808","distance":22.08288986131,"lon":"-118.086816","lat":"33.830553","theaterChainName":"Edwards Theatres","ticketType":"STANDARD"},{"id":"691","tribuneTheaterId":"9007","providerTheaterId":"","name":"Pacific Winnetka 21","address":"9201 Winnetka Ave.","city":"Chatsworth","state":"CA","zip":"91311","distance":22.124319776829,"lon":"-118.574152","lat":"34.238273","theaterChainName":"Pacific Theaters","ticketType":"STANDARD"},{"id":"4940","tribuneTheaterId":"10293","providerTheaterId":"","name":"Brea Plaza 5 Discount Cinemas","address":"453 S. Associated Rd.","city":"Brea","state":"CA","zip":"92821","distance":24.246296282765,"lon":"-117.8797","lat":"33.9125","theaterChainName":"Tristone Cinemas","ticketType":"STANDARD"},{"id":"1603","tribuneTheaterId":"5809","providerTheaterId":"","name":"Edwards Canyon Country Stadium 10","address":"18800 Soledad Canyon Rd.","city":"Canyon Country","state":"CA","zip":"91351","distance":24.238374166986,"lon":"-118.462851","lat":"34.414585","theaterChainName":"Edwards Theatres","ticketType":"STANDARD"},{"id":"3625","tribuneTheaterId":"5879","providerTheaterId":"","name":"Krikorian Buena Park Metroplex 18","address":"8290 La Palma Ave.","city":"Buena Park","state":"CA","zip":"90620","distance":23.641992196698,"lon":"-117.989349","lat":"33.843803","theaterChainName":"Krikorian Theatres","ticketType":"STANDARD"},{"id":"197","tribuneTheaterId":"9176","providerTheaterId":"202","name":"AMC Promenade 16","address":"21801 Oxnard St.","city":"Woodland Hills","state":"CA","zip":"91367","distance":22.815159282406,"lon":"-118.603283","lat":"34.180302","theaterChainName":"AMC Theatres","ticketType":"STANDARD"},{"id":"2282","tribuneTheaterId":"5812","providerTheaterId":"","name":"Edwards Brea Stadium West 10","address":"155 W. Birch St.","city":"Brea","state":"CA","zip":"92821","distance":23.024406082034,"lon":"-117.901","lat":"33.9189","theaterChainName":"Edwards Theatres","ticketType":"STANDARD"},{"id":"3426","tribuneTheaterId":"5810","providerTheaterId":"","name":"Edwards Brea Stadium East 12","address":"155 W. Birch St.","city":"Brea","state":"CA","zip":"92821","distance":23.084878886372,"lon":"-117.899909","lat":"33.918615","theaterChainName":"Edwards Theatres","ticketType":"STANDARD"},{"id":"22","tribuneTheaterId":"9115","providerTheaterId":"242","name":"AMC Rolling Hills 20","address":"2591 Airport Drive","city":"Torrance","state":"CA","zip":"90505","distance":24.59345440858,"lon":"-118.328505","lat":"33.792226","theaterChainName":"AMC Theatres","ticketType":"STANDARD"},{"id":"5309","tribuneTheaterId":"10746","providerTheaterId":"445","name":"AMC Fallbrook 7","address":"6731 Fallbrook Ave.","city":"West Hills","state":"CA","zip":"91307","distance":24.195108131086,"lon":"-118.625488","lat":"34.192268","theaterChainName":"AMC Theatres","ticketType":"STANDARD"}]