[{"id":"302","tribuneTheaterId":"6244","providerTheaterId":"","name":"Hollywood Theatres Malibu Cinemas","address":"3822 Crosscreek Road","city":"Malibu","state":"CA","zip":"90265","distance":7.4705964815648,"lon":"-118.685148","lat":"34.036064","theaterChainName":"Regal Cinemas","ticketType":"STANDARD"},{"id":"2987","tribuneTheaterId":"5822","providerTheaterId":"","name":"Westlake Village Twin","address":"4711 Lakeview Canyon Road","city":"Westlake Village","state":"CA","zip":"91361","distance":9.9168287801832,"lon":"-118.819015","lat":"34.148338","theaterChainName":"Regency Theatres","ticketType":"STANDARD"},{"id":"12","tribuneTheaterId":"7407","providerTheaterId":"","name":"Regency Agoura Hills Stadium 8","address":"29045 Agoura Rd.","city":"Agoura Hills","state":"CA","zip":"91301","distance":10.094881184907,"lon":"-118.757105","lat":"34.144355","theaterChainName":"Regency Theatres","ticketType":"STANDARD"},{"id":"2008","tribuneTheaterId":"5807","providerTheaterId":"","name":"Edwards Calabasas Stadium 6","address":"4767 Commons Way","city":"Calabasas","state":"CA","zip":"91302","distance":13.904266324893,"lon":"-118.645829","lat":"34.153273","theaterChainName":"Edwards Theatres","ticketType":"STANDARD"},{"id":"163","tribuneTheaterId":"7555","providerTheaterId":"","name":"Janss Marketplace 9","address":"255 N. Moorpark Road","city":"Thousand Oaks","state":"CA","zip":"91360","distance":12.906667104379,"lon":"-118.876716","lat":"34.183469","theaterChainName":"Regency Theatres","ticketType":"STANDARD"},{"id":"4706","tribuneTheaterId":"9920","providerTheaterId":"","name":"Muvico Thousand Oaks 14","address":"166 W. Hillcrest Dr.","city":"Thousand Oaks","state":"CA","zip":"91360","distance":12.970453757738,"lon":"-118.885804","lat":"34.181946","theaterChainName":"Carmike Cinemas","ticketType":"STANDARD"},{"id":"5309","tribuneTheaterId":"10746","providerTheaterId":"445","name":"AMC Fallbrook 7","address":"6731 Fallbrook Ave.","city":"West Hills","state":"CA","zip":"91307","distance":16.702754118806,"lon":"-118.625488","lat":"34.192268","theaterChainName":"AMC Theatres","ticketType":"STANDARD"},{"id":"301","tribuneTheaterId":"7293","providerTheaterId":"","name":"Laemmle Monica 4-plex","address":"1332 Second St.","city":"Santa Monica","state":"CA","zip":"90401","distance":17.890478846966,"lon":"-118.498","lat":"34.0157","theaterChainName":"Laemmle Theatres","ticketType":"STANDARD"},{"id":"19","tribuneTheaterId":"9153","providerTheaterId":"203","name":"AMC Santa Monica 7","address":"1310 3rd St.","city":"Santa Monica","state":"CA","zip":"90401","distance":17.926131739138,"lon":"-118.497419","lat":"34.016542","theaterChainName":"AMC Theatres","ticketType":"STANDARD"},{"id":"197","tribuneTheaterId":"9176","providerTheaterId":"202","name":"AMC Promenade 16","address":"21801 Oxnard St.","city":"Woodland Hills","state":"CA","zip":"91367","distance":16.93346536856,"lon":"-118.603283","lat":"34.180302","theaterChainName":"AMC Theatres","ticketType":"STANDARD"},{"id":"4862","tribuneTheaterId":"10159","providerTheaterId":"","name":"Simi Valley 10 Cinemas","address":"1457 E. Los Angeles Avenue","city":"Simi Valley","state":"CA","zip":"93065","distance":18.672925455816,"lon":"-118.77072","lat":"34.273284","theaterChainName":"Tristone Cinemas","ticketType":"STANDARD"},{"id":"49","tribuneTheaterId":"8241","providerTheaterId":"2417","name":"AMC Loews Broadway 4","address":"1441 Third Street Promenade","city":"Santa Monica","state":"CA","zip":"90401","distance":18.065378986484,"lon":"-118.494903","lat":"34.014806","theaterChainName":"AMC Theatres","ticketType":"STANDARD"},{"id":"114","tribuneTheaterId":"9196","providerTheaterId":"","name":"Roxy Stadium 11","address":"5001 Verdugo Way","city":"Camarillo","state":"CA","zip":"93012","distance":18.303728202543,"lon":"-119.0042","lat":"34.2156","theaterChainName":"SR Entertainment","ticketType":"STANDARD"},{"id":"299","tribuneTheaterId":"2417","providerTheaterId":"","name":"American Cinematheque at the Aero Theatre","address":"1328 Montana Ave.","city":"Santa Monica","state":"CA","zip":"90403","distance":18.105079877639,"lon":"-118.495598","lat":"34.031668","theaterChainName":"American Cinematheque","ticketType":"STANDARD"},{"id":"2661","tribuneTheaterId":"8660","providerTheaterId":"","name":"Regal Simi Valley Civic Center Stadium 16 & IMAX","address":"2751 Tapo Canyon Road","city":"Simi Valley","state":"CA","zip":"93063","distance":20.006952763952,"lon":"-118.719066","lat":"34.284591","theaterChainName":"Regal Cinemas","ticketType":"STANDARD"},{"id":"5776","tribuneTheaterId":"11216","providerTheaterId":"","name":"Studio Movie Grill Simi Valley","address":"1555 Simi Town Center Way","city":"Simi Valley","state":"CA","zip":"93065","distance":19.324569338744,"lon":"-118.7709","lat":"34.2828","theaterChainName":"Studio Movie Grill","ticketType":"SELECT_SEATING"},{"id":"5559","tribuneTheaterId":"11006","providerTheaterId":"446","name":"AMC Marina Marketplace 6","address":"4335 Glencoe","city":"Marina del Rey","state":"CA","zip":"90292","distance":21.26736112214,"lon":"-118.43954","lat":"33.986076","theaterChainName":"AMC Theatres","ticketType":"STANDARD"},{"id":"105","tribuneTheaterId":"9272","providerTheaterId":"","name":"Edwards Camarillo Stadium 12 & IMAX","address":"680 Ventura Blvd.","city":"Camarillo","state":"CA","zip":"93010","distance":20.648239475882,"lon":"-119.063184","lat":"34.218077","theaterChainName":"Edwards Theatres","ticketType":"STANDARD"},{"id":"1162","tribuneTheaterId":"8745","providerTheaterId":"","name":"Paseo Camarillo","address":"390 N. Lantana St.","city":"Camarillo","state":"CA","zip":"93010","distance":20.356358692354,"lon":"-119.053929","lat":"34.219588","theaterChainName":"Regency Theatres","ticketType":"STANDARD"},{"id":"298","tribuneTheaterId":"8525","providerTheaterId":"","name":"Laemmle's Royal Theatre","address":"11523 Santa Monica Blvd.","city":"Los Angeles","state":"CA","zip":"90025","distance":20.666030268932,"lon":"-118.4525","lat":"34.0453","theaterChainName":"Laemmle Theatres","ticketType":"STANDARD"},{"id":"691","tribuneTheaterId":"9007","providerTheaterId":"","name":"Pacific Winnetka 21","address":"9201 Winnetka Ave.","city":"Chatsworth","state":"CA","zip":"91311","distance":21.021817799177,"lon":"-118.574152","lat":"34.238273","theaterChainName":"Pacific Theaters","ticketType":"STANDARD"},{"id":"3","tribuneTheaterId":"6802","providerTheaterId":"","name":"Village - Westwood Village","address":"961 Broxton Ave.","city":"Los Angeles","state":"CA","zip":"90024","distance":21.157398434089,"lon":"-118.447179","lat":"34.062566","theaterChainName":"Regency Theatres","ticketType":"STANDARD"},{"id":"304","tribuneTheaterId":"7926","providerTheaterId":"","name":"Laemmle Town Center 5","address":"17200 Ventura Blvd.","city":"Encino","state":"CA","zip":"91316","distance":20.341027972827,"lon":"-118.507912","lat":"34.160017","theaterChainName":"Laemmle Theatres","ticketType":"STANDARD"},{"id":"5616","tribuneTheaterId":"11077","providerTheaterId":"","name":"Cinemark Playa Vista and XD","address":"12746 W Jefferson Blvd","city":"Los Angeles","state":"CA","zip":"90066","distance":22.629540003766,"lon":"-118.416474","lat":"33.977491","theaterChainName":"Cinemark","ticketType":"STANDARD"},{"id":"1599","tribuneTheaterId":"7608","providerTheaterId":"","name":"Pacific Northridge Fashion Center 10","address":"9400 N. Shirley Ave.","city":"Northridge","state":"CA","zip":"91324","distance":21.742272159247,"lon":"-118.557562","lat":"34.240196","theaterChainName":"Pacific Theaters","ticketType":"STANDARD"},{"id":"4","tribuneTheaterId":"6803","providerTheaterId":"","name":"Bruin - Westwood Village","address":"948 Broxton Ave.","city":"Los Angeles","state":"CA","zip":"90024","distance":21.173877881671,"lon":"-118.446921","lat":"34.062719","theaterChainName":"Regency Theatres","ticketType":"STANDARD"},{"id":"18","tribuneTheaterId":"8458","providerTheaterId":"245","name":"AMC Century City 15","address":"10250 Santa Monica Blvd., 2000","city":"Los Angeles","state":"CA","zip":"90067","distance":22.655442077191,"lon":"-118.420038","lat":"34.059992","theaterChainName":"AMC Theatres","ticketType":"STANDARD"},{"id":"3644","tribuneTheaterId":"7764","providerTheaterId":"","name":"Pacific Sherman Oaks 5","address":"14424 Milbank St.","city":"Sherman Oaks","state":"CA","zip":"91423","distance":23.121500776701,"lon":"-118.447642","lat":"34.152845","theaterChainName":"Pacific Theaters","ticketType":"STANDARD"},{"id":"4102","tribuneTheaterId":"2352","providerTheaterId":"","name":"Plaza Cinemas 14","address":"255 West 5th Street","city":"Oxnard","state":"CA","zip":"93030","distance":24.987417402806,"lon":"-119.179226","lat":"34.198302","theaterChainName":"SR Entertainment","ticketType":"STANDARD"},{"id":"4854","tribuneTheaterId":"10148","providerTheaterId":"","name":"Regency Granada Hills","address":"16830 Devonshire St.","city":"Granada Hills","state":"CA","zip":"91344","distance":24.880173402746,"lon":"-118.499082","lat":"34.256773","theaterChainName":"Regency Theatres","ticketType":"STANDARD"},{"id":"3169","tribuneTheaterId":"5151","providerTheaterId":"","name":"Cinemark 18 & XD","address":"6081 Center Drive","city":"Los Angeles","state":"CA","zip":"90045","distance":23.972129392069,"lon":"-118.3929","lat":"33.9781","theaterChainName":"Cinemark","ticketType":"STANDARD"},{"id":"296","tribuneTheaterId":"7925","providerTheaterId":"","name":"Laemmle Music Hall 3","address":"9036 Wilshire Blvd.","city":"Beverly Hills","state":"CA","zip":"90211","distance":24.48969613554,"lon":"-118.388951","lat":"34.066881","theaterChainName":"Laemmle Theatres","ticketType":"STANDARD"}]