[{"id":"431","tribuneTheaterId":"8602","providerTheaterId":"","name":"Pacific Lakewood Center 16","address":"5200 Faculty Ave.","city":"Lakewood","state":"CA","zip":"90712","distance":0.51056569028068,"lon":"-118.136803","lat":"33.851101","theaterChainName":"Pacific Theaters","ticketType":"STANDARD"},{"id":"2446","tribuneTheaterId":"5821","providerTheaterId":"","name":"Edwards Long Beach 26 & IMAX","address":"7501 E. Carson Blvd","city":"Long Beach","state":"CA","zip":"90808","distance":3.668015665814,"lon":"-118.086816","lat":"33.830553","theaterChainName":"Edwards Theatres","ticketType":"STANDARD"},{"id":"1645","tribuneTheaterId":"3170","providerTheaterId":"","name":"Bianchi Stadium 11 Theatres","address":"7770 Rosecrans Ave.","city":"Paramount","state":"CA","zip":"90723","distance":3.72297685963,"lon":"-118.163382","lat":"33.903045","theaterChainName":"Independent Chains","ticketType":"STANDARD"},{"id":"5852","tribuneTheaterId":"11264","providerTheaterId":"","name":"Cinemark Downey and XD","address":"8840 Apollo Way","city":"Downey","state":"CA","zip":"90242","distance":5.1198237165014,"lon":"-118.128651","lat":"33.923936","theaterChainName":"Cinemark","ticketType":"STANDARD"},{"id":"101","tribuneTheaterId":"9271","providerTheaterId":"","name":"Edwards Cerritos Stadium 10","address":"12761 Towne Center Drive","city":"Cerritos","state":"CA","zip":"90701","distance":5.155531385071,"lon":"-118.059184","lat":"33.87136","theaterChainName":"Edwards Theatres","ticketType":"STANDARD"},{"id":"198","tribuneTheaterId":"9268","providerTheaterId":"441","name":"AMC Norwalk 20","address":"12300 E. Civic Center Drive","city":"Norwalk","state":"CA","zip":"90650","distance":6.0759444392242,"lon":"-118.071206","lat":"33.913718","theaterChainName":"AMC Theatres","ticketType":"STANDARD"},{"id":"5702","tribuneTheaterId":"11139","providerTheaterId":"","name":"Cinemark Carson","address":"20700 Avalon Blvd.","city":"Carson","state":"CA","zip":"90746","distance":6.6660050720562,"lon":"-118.261616","lat":"33.844868","theaterChainName":"Cinemark","ticketType":"STANDARD"},{"id":"3117","tribuneTheaterId":"8852","providerTheaterId":"","name":"Edwards South Gate Stadium 20 & IMAX","address":"8630 Garfield Ave","city":"South Gate","state":"CA","zip":"90280","distance":6.9913247696629,"lon":"-118.161768","lat":"33.951504","theaterChainName":"Edwards Theatres","ticketType":"STANDARD"},{"id":"1163","tribuneTheaterId":"5877","providerTheaterId":"","name":"Krikorian Downey Cinema 10","address":"8200 Third St.","city":"Downey","state":"CA","zip":"90241","distance":6.3318922194744,"lon":"-118.133302","lat":"33.942263","theaterChainName":"Krikorian Theatres","ticketType":"STANDARD"},{"id":"3672","tribuneTheaterId":"4174","providerTheaterId":"","name":"Cinemark At The Pike","address":"99 S. Pine Ave.","city":"Long Beach","state":"CA","zip":"90802","distance":6.5874730111049,"lon":"-118.193337","lat":"33.764463","theaterChainName":"Cinemark","ticketType":"STANDARD"},{"id":"76","tribuneTheaterId":"8884","providerTheaterId":"","name":"United Artists Long Beach Marketplace 6","address":"6601 Pacific Coast Highway","city":"Long Beach","state":"CA","zip":"90803","distance":6.9435300332511,"lon":"-118.108193","lat":"33.75566","theaterChainName":"United Artists","ticketType":"STANDARD"},{"id":"21","tribuneTheaterId":"9093","providerTheaterId":"234","name":"AMC Marina Pacifica 12","address":"6346 E. Pacific Coast Highway","city":"Long Beach","state":"CA","zip":"90803","distance":6.5741884625186,"lon":"-118.114051","lat":"33.759757","theaterChainName":"AMC Theatres","ticketType":"STANDARD"},{"id":"852","tribuneTheaterId":"6404","providerTheaterId":"","name":"4 Star Cinema","address":"12111 Valley View St.","city":"Garden Grove","state":"CA","zip":"92845","distance":8.0433302191183,"lon":"-118.029245","lat":"33.786461","theaterChainName":"Independent Chains","ticketType":"STANDARD"},{"id":"3643","tribuneTheaterId":"2052","providerTheaterId":"","name":"La Mirada Dollar Movie 7","address":"15296 Rosecrans Avenue","city":"La Mirada","state":"CA","zip":"90638","distance":8.65237445301,"lon":"-118.005513","lat":"33.897404","theaterChainName":"Starplex Cinemas","ticketType":"STANDARD"},{"id":"3625","tribuneTheaterId":"5879","providerTheaterId":"","name":"Krikorian Buena Park Metroplex 18","address":"8290 La Palma Ave.","city":"Buena Park","state":"CA","zip":"90620","distance":8.986523572936,"lon":"-117.989349","lat":"33.843803","theaterChainName":"Krikorian Theatres","ticketType":"STANDARD"},{"id":"303","tribuneTheaterId":"7480","providerTheaterId":"","name":"Gardena Cinema","address":"14948 Crenshaw Blvd.","city":"Gardena","state":"CA","zip":"90249","distance":10.799974364098,"lon":"-118.326074","lat":"33.895978","theaterChainName":"Independent Chains","ticketType":"STANDARD"},{"id":"5272","tribuneTheaterId":"10706","providerTheaterId":"","name":"Westminster 10","address":"6721 Westminster Blvd.","city":"Westminster","state":"CA","zip":"92683","distance":10.041584245363,"lon":"-118.0104","lat":"33.7591","theaterChainName":"Regency Theatres","ticketType":"STANDARD"},{"id":"307","tribuneTheaterId":"7783","providerTheaterId":"","name":"Park Twin Theatre","address":"6504 Pacific Blvd.","city":"Huntington Park","state":"CA","zip":"90255","distance":10.017925678761,"lon":"-118.225179","lat":"33.980321","theaterChainName":"Metropolitan Theatres","ticketType":"STANDARD"},{"id":"556","tribuneTheaterId":"7066","providerTheaterId":"850","name":"AMC South Bay Galleria 16","address":"1815 Hawthorne Blvd. - Ste. 368","city":"Redondo Beach","state":"CA","zip":"90278","distance":12.125461908013,"lon":"-118.355584","lat":"33.871765","theaterChainName":"AMC Theatres","ticketType":"STANDARD"},{"id":"4117","tribuneTheaterId":"4845","providerTheaterId":"","name":"Century Huntington Beach and XD","address":"7777 Edinger Ave.","city":"Huntington Beach","state":"CA","zip":"92647","distance":11.99091948231,"lon":"-117.994441","lat":"33.731549","theaterChainName":"Cinemark","ticketType":"STANDARD"},{"id":"2579","tribuneTheaterId":"7421","providerTheaterId":"","name":"Regal Garden Grove Stadium 16","address":"9741 Chapman Ave.","city":"Garden Grove","state":"CA","zip":"92841","distance":11.338964478105,"lon":"-117.9631","lat":"33.7886","theaterChainName":"Regal Cinemas","ticketType":"STANDARD"},{"id":"22","tribuneTheaterId":"9115","providerTheaterId":"242","name":"AMC Rolling Hills 20","address":"2591 Airport Drive","city":"Torrance","state":"CA","zip":"90505","distance":11.256545338763,"lon":"-118.328505","lat":"33.792226","theaterChainName":"AMC Theatres","ticketType":"STANDARD"},{"id":"2291","tribuneTheaterId":"8197","providerTheaterId":"","name":"Regal La Habra Stadium 16","address":"1351 W. Imperial Highway","city":"La Habra","state":"CA","zip":"90631","distance":11.599519754418,"lon":"-117.960463","lat":"33.918559","theaterChainName":"Regal Cinemas","ticketType":"STANDARD"},{"id":"4880","tribuneTheaterId":"10188","providerTheaterId":"","name":"Terrace Cinemas","address":"28901 S. Western Ave.","city":"Rancho Palos Verdes","state":"CA","zip":"90275","distance":11.532060220917,"lon":"-118.310888","lat":"33.756245","theaterChainName":"Independent Chains","ticketType":"STANDARD"},{"id":"767","tribuneTheaterId":"6353","providerTheaterId":"","name":"Mann Plymouth Cinema 12","address":"3400 Vicksburgh Lane","city":"Plymouth","state":"MN","zip":"55447","distance":10.910979177079,"lon":"-118.091054","lat":"34.002467","theaterChainName":"Mann Theatres MN","ticketType":"STANDARD"},{"id":"495","tribuneTheaterId":"3071","providerTheaterId":"","name":"Whittier Village Stadium Cinemas","address":"7038 Greenleaf Ave.","city":"Whittier","state":"CA","zip":"90602","distance":10.741350064479,"lon":"-118.037209","lat":"33.977937","theaterChainName":"Independent Chains","ticketType":"STANDARD"},{"id":"4256","tribuneTheaterId":"5276","providerTheaterId":"421","name":"AMC Del Amo 18","address":"3525 W. Carson St. Space 73","city":"Torrance","state":"CA","zip":"90503","distance":11.652284866596,"lon":"-118.347666","lat":"33.833815","theaterChainName":"AMC Theatres","ticketType":"STANDARD"},{"id":"429","tribuneTheaterId":"7765","providerTheaterId":"","name":"Commerce 14","address":"950 Goodrich Blvd.","city":"Commerce","state":"CA","zip":"90022","distance":11.562628362252,"lon":"-118.153861","lat":"34.018411","theaterChainName":"Regency Theatres","ticketType":"STANDARD"},{"id":"3097","tribuneTheaterId":"5274","providerTheaterId":"212","name":"AMC Downtown Disney District 12","address":"1565 Disneyland Drive","city":"Anaheim","state":"CA","zip":"92802","distance":12.98832818345,"lon":"-117.925304","lat":"33.808556","theaterChainName":"AMC Theatres","ticketType":"STANDARD"},{"id":"4189","tribuneTheaterId":"5005","providerTheaterId":"","name":"Charter Centre Cinemas","address":"7822 Warner Ave.","city":"Huntington Beach","state":"CA","zip":"92647","distance":12.906407129172,"lon":"-117.991535","lat":"33.715278","theaterChainName":"Regency Theatres","ticketType":"STANDARD"},{"id":"23","tribuneTheaterId":"9144","providerTheaterId":"232","name":"AMC Montebello 10","address":"1475 N. Montebello Blvd.","city":"Montebello","state":"CA","zip":"90640","distance":12.97059281938,"lon":"-118.09276","lat":"34.033716","theaterChainName":"AMC Theatres","ticketType":"STANDARD"},{"id":"17","tribuneTheaterId":"9234","providerTheaterId":"248","name":"AMC Fullerton 20","address":"1001 S. Lemon St.","city":"Fullerton","state":"CA","zip":"92832","distance":12.946334597019,"lon":"-117.920423","lat":"33.861739","theaterChainName":"AMC Theatres","ticketType":"STANDARD"},{"id":"2282","tribuneTheaterId":"5812","providerTheaterId":"","name":"Edwards Brea Stadium West 10","address":"155 W. Birch St.","city":"Brea","state":"CA","zip":"92821","distance":14.794513906278,"lon":"-117.901","lat":"33.9189","theaterChainName":"Edwards Theatres","ticketType":"STANDARD"},{"id":"3426","tribuneTheaterId":"5810","providerTheaterId":"","name":"Edwards Brea Stadium East 12","address":"155 W. Birch St.","city":"Brea","state":"CA","zip":"92821","distance":14.847727936748,"lon":"-117.899909","lat":"33.918615","theaterChainName":"Edwards Theatres","ticketType":"STANDARD"},{"id":"2964","tribuneTheaterId":"9204","providerTheaterId":"","name":"Regal Promenade Stadium 13","address":"550 Deep Valley Drive","city":"Rolling Hills Estates","state":"CA","zip":"90274","distance":14.197395880473,"lon":"-118.3739","lat":"33.772","theaterChainName":"Regal Cinemas","ticketType":"STANDARD"},{"id":"4940","tribuneTheaterId":"10293","providerTheaterId":"","name":"Brea Plaza 5 Discount Cinemas","address":"453 S. Associated Rd.","city":"Brea","state":"CA","zip":"92821","distance":15.834830331351,"lon":"-117.8797","lat":"33.9125","theaterChainName":"Tristone Cinemas","ticketType":"STANDARD"},{"id":"5056","tribuneTheaterId":"10436","providerTheaterId":"","name":"Baldwin Hills Crenshaw Plaza 15","address":"4020 Marlton Ave.","city":"Los Angeles","state":"CA","zip":"90008","distance":15.610617996266,"lon":"-118.337275","lat":"34.011766","theaterChainName":"Cinemark","ticketType":"STANDARD"},{"id":"4619","tribuneTheaterId":"9794","providerTheaterId":"","name":"Downtown Independent","address":"251 S. Main St.","city":"Los Angeles","state":"CA","zip":"90012","distance":14.88354958069,"lon":"-118.245463","lat":"34.050082","theaterChainName":"Independent Chains","ticketType":"STANDARD"},{"id":"4796","tribuneTheaterId":"10051","providerTheaterId":"","name":"Regal Cinemas LA Live Stadium 14","address":"1000 W. Olympic Blvd.","city":"Los Angeles","state":"CA","zip":"90015","distance":15.144808609218,"lon":"-118.267409","lat":"34.045757","theaterChainName":"Regal Cinemas","ticketType":"STANDARD"},{"id":"4944","tribuneTheaterId":"10299","providerTheaterId":"2414","name":"AMC Atlantic Times Square 14","address":"450 N. Atlantic Blvd.","city":"Monterey Park","state":"CA","zip":"91754","distance":14.917738141734,"lon":"-118.1343","lat":"34.0669","theaterChainName":"AMC Theatres","ticketType":"STANDARD"},{"id":"100","tribuneTheaterId":"8973","providerTheaterId":"","name":"Edwards El Monte 8","address":"10661 Valley Blvd.","city":"El Monte","state":"CA","zip":"91731","distance":16.779397078519,"lon":"-118.03932","lat":"34.077457","theaterChainName":"Edwards Theatres","ticketType":"STANDARD"},{"id":"344","tribuneTheaterId":"9177","providerTheaterId":"249","name":"AMC Puente Hills 20","address":"1560 S. Azusa Ave.","city":"City of Industry","state":"CA","zip":"91748","distance":15.997011602565,"lon":"-117.926517","lat":"33.99447","theaterChainName":"AMC Theatres","ticketType":"STANDARD"},{"id":"580","tribuneTheaterId":"8524","providerTheaterId":"","name":"Century Stadium 25 and XD","address":"1701 W. Katella Ave.","city":"Orange","state":"CA","zip":"92867","distance":16.059512940466,"lon":"-117.8705","lat":"33.8092","theaterChainName":"Cinemark","ticketType":"STANDARD"},{"id":"1601","tribuneTheaterId":"5278","providerTheaterId":"437","name":"AMC Orange 30","address":"20 City Blvd. W.","city":"Orange","state":"CA","zip":"92868","distance":15.219174343914,"lon":"-117.893815","lat":"33.782466","theaterChainName":"AMC Theatres","ticketType":"STANDARD"},{"id":"5490","tribuneTheaterId":"10931","providerTheaterId":"","name":"The Frida Cinema","address":"305 E 4th St","city":"Santa Ana","state":"CA","zip":"92701","distance":17.602488133102,"lon":"-117.8654","lat":"33.748","theaterChainName":"Metropolitan Theatres","ticketType":"STANDARD"},{"id":"4275","tribuneTheaterId":"2020","providerTheaterId":"","name":"Picture Show at Main Place","address":"2800 N. Main St. Suite 999","city":"Santa Ana","state":"CA","zip":"92705","distance":16.691057701585,"lon":"-117.869267","lat":"33.77632","theaterChainName":"Picture Show Entertainment","ticketType":"STANDARD"},{"id":"3169","tribuneTheaterId":"5151","providerTheaterId":"","name":"Cinemark 18 & XD","address":"6081 Center Drive","city":"Los Angeles","state":"CA","zip":"90045","distance":16.666748068463,"lon":"-118.3929","lat":"33.9781","theaterChainName":"Cinemark","ticketType":"STANDARD"},{"id":"3570","tribuneTheaterId":"8434","providerTheaterId":"","name":"Edwards Alhambra Renaissance Stadium 14 & IMAX","address":"1 E. Main St","city":"Alhambra","state":"CA","zip":"91801","distance":16.944911276327,"lon":"-118.126924","lat":"34.095952","theaterChainName":"Edwards Theatres","ticketType":"STANDARD"},{"id":"553","tribuneTheaterId":"5811","providerTheaterId":"","name":"Edwards Metro Pointe Stadium 12","address":"901 South Coast Dr.","city":"Costa Mesa","state":"CA","zip":"92626","distance":18.216592855555,"lon":"-117.89602","lat":"33.688614","theaterChainName":"Edwards Theatres","ticketType":"STANDARD"},{"id":"4333","tribuneTheaterId":"9308","providerTheaterId":"","name":"Regency South Coast Village","address":"1561 W. Sunflower Ave.","city":"Santa Ana","state":"CA","zip":"92704","distance":18.284664536808,"lon":"-117.888913","lat":"33.694769","theaterChainName":"Regency Theatres","ticketType":"STANDARD"},{"id":"5616","tribuneTheaterId":"11077","providerTheaterId":"","name":"Cinemark Playa Vista and XD","address":"12746 W Jefferson Blvd","city":"Los Angeles","state":"CA","zip":"90066","distance":17.809861515527,"lon":"-118.416474","lat":"33.977491","theaterChainName":"Cinemark","ticketType":"STANDARD"},{"id":"5216","tribuneTheaterId":"10640","providerTheaterId":"","name":"CGV Cinemas LA","address":"621 S. Western Ave.","city":"Los Angeles","state":"CA","zip":"90005","distance":17.369813118457,"lon":"-118.309469","lat":"34.062737","theaterChainName":"Independent Chains","ticketType":"STANDARD"},{"id":"4928","tribuneTheaterId":"10248","providerTheaterId":"","name":"Triangle Square Cinemas","address":"1870 Harbor Blvd.","city":"Costa Mesa","state":"CA","zip":"92627","distance":19.465294514097,"lon":"-117.918427","lat":"33.642259","theaterChainName":"Independent Chains","ticketType":"STANDARD"},{"id":"293","tribuneTheaterId":"6324","providerTheaterId":"","name":"Los Feliz 3","address":"1822 N. Vermont Ave.","city":"Los Angeles","state":"CA","zip":"90027","distance":19.386537997612,"lon":"-118.291647","lat":"34.104341","theaterChainName":"Independent Chains","ticketType":"STANDARD"},{"id":"6127","tribuneTheaterId":"11543","providerTheaterId":"","name":"Arena Cinelounge Sunset","address":"6464 Sunset Blvd.","city":"Hollywood","state":"CA","zip":"90028","distance":20.074633806064,"lon":"-118.3313","lat":"34.097626","theaterChainName":"Independent Chains","ticketType":"STANDARD"},{"id":"555","tribuneTheaterId":"5818","providerTheaterId":"","name":"Edwards West Covina Stadium 18","address":"1200 Lakes Dr.","city":"West Covina","state":"CA","zip":"91790","distance":19.794082306196,"lon":"-117.92355","lat":"34.070569","theaterChainName":"Edwards Theatres","ticketType":"STANDARD"},{"id":"294","tribuneTheaterId":"5154","providerTheaterId":"","name":"Vintage Cinemas Vista Theatre","address":"4473 Sunset Blvd.","city":"Hollywood","state":"CA","zip":"90027","distance":18.890353410481,"lon":"-118.286906","lat":"34.098257","theaterChainName":"Independent Chains","ticketType":"STANDARD"},{"id":"1619","tribuneTheaterId":"6099","providerTheaterId":"","name":"New Beverly Cinema","address":"7165 W. Beverly Blvd.","city":"Los Angeles","state":"CA","zip":"90036","distance":19.298204643309,"lon":"-118.345398","lat":"34.076099","theaterChainName":"Independent Chains","ticketType":"STANDARD"},{"id":"2855","tribuneTheaterId":"2588","providerTheaterId":"","name":"Egyptian Theatre - Hollywood","address":"6712 Hollywood Blvd.","city":"Hollywood","state":"CA","zip":"90028","distance":20.42972289876,"lon":"-118.336496","lat":"34.100989","theaterChainName":"American Cinematheque","ticketType":"STANDARD"},{"id":"863","tribuneTheaterId":"5190","providerTheaterId":"","name":"Cinema City Stadium Theatres","address":"5635 E. La Palma Ave.","city":"Anaheim","state":"CA","zip":"92807","distance":20.317336399182,"lon":"-117.7918","lat":"33.861026","theaterChainName":"Independent Chains","ticketType":"STANDARD"},{"id":"3477","tribuneTheaterId":"4865","providerTheaterId":"","name":"Pacific The Grove Stadium 14","address":"189 The Grove Drive","city":"Los Angeles","state":"CA","zip":"90036","distance":19.496976661162,"lon":"-118.358296","lat":"34.071507","theaterChainName":"Pacific Theaters","ticketType":"STANDARD"},{"id":"5782","tribuneTheaterId":"11222","providerTheaterId":"","name":"Ahrya Fine Arts","address":"8556 Wilshire Blvd","city":"Beverly Hills","state":"CA","zip":"90211","distance":19.900494503605,"lon":"-118.377928","lat":"34.065338","theaterChainName":"Laemmle Theatres","ticketType":"STANDARD"},{"id":"5559","tribuneTheaterId":"11006","providerTheaterId":"446","name":"AMC Marina Marketplace 6","address":"4335 Glencoe","city":"Marina del Rey","state":"CA","zip":"90292","distance":19.253137281493,"lon":"-118.43954","lat":"33.986076","theaterChainName":"AMC Theatres","ticketType":"STANDARD"},{"id":"4382","tribuneTheaterId":"9426","providerTheaterId":"427","name":"AMC Tustin 14 at The District","address":"2457 Park Ave.","city":"Tustin","state":"CA","zip":"92782","distance":21.0956522442,"lon":"-117.828906","lat":"33.696675","theaterChainName":"AMC Theatres","ticketType":"STANDARD"},{"id":"292","tribuneTheaterId":"8974","providerTheaterId":"","name":"Pacific El Capitan","address":"6838 Hollywood Blvd.","city":"Hollywood","state":"CA","zip":"90028","distance":20.542983935873,"lon":"-118.33978","lat":"34.101195","theaterChainName":"Independent Chains","ticketType":"STANDARD"},{"id":"3894","tribuneTheaterId":"4246","providerTheaterId":"206","name":"AMC Santa Anita 16","address":"400 S. Baldwin Ave. Ste. 940-U","city":"Arcadia","state":"CA","zip":"91007","distance":20.398468045293,"lon":"-118.048718","lat":"34.13527","theaterChainName":"AMC Theatres","ticketType":"STANDARD"},{"id":"2270","tribuneTheaterId":"5824","providerTheaterId":"","name":"Laemmle Playhouse 7","address":"673 E. Colorado Blvd.","city":"Pasadena","state":"CA","zip":"91101","distance":20.377675671678,"lon":"-118.136445","lat":"34.14603","theaterChainName":"Laemmle Theatres","ticketType":"STANDARD"},{"id":"95","tribuneTheaterId":"8972","providerTheaterId":"","name":"Edwards Westpark 8","address":"3755 Alton Parkway","city":"Irvine","state":"CA","zip":"92606","distance":22.192487822216,"lon":"-117.81646","lat":"33.683104","theaterChainName":"Edwards Theatres","ticketType":"STANDARD"},{"id":"18","tribuneTheaterId":"8458","providerTheaterId":"245","name":"AMC Century City 15","address":"10250 Santa Monica Blvd., 2000","city":"Los Angeles","state":"CA","zip":"90067","distance":21.338016820028,"lon":"-118.420038","lat":"34.059992","theaterChainName":"AMC Theatres","ticketType":"STANDARD"},{"id":"297","tribuneTheaterId":"7605","providerTheaterId":"","name":"AMC Dine-in Sunset 5","address":"8000 W. Sunset Blvd.","city":"Los Angeles","state":"CA","zip":"90046","distance":21.137763480839,"lon":"-118.364909","lat":"34.097263","theaterChainName":"Sundance Cinemas","ticketType":"STANDARD"},{"id":"7","tribuneTheaterId":"6710","providerTheaterId":"","name":"TCL Chinese Theatre","address":"6801 Hollywood Blvd.","city":"Hollywood","state":"CA","zip":"90028","distance":20.570617458829,"lon":"-118.3401","lat":"34.1015","theaterChainName":"Independent Chains","ticketType":"STANDARD"},{"id":"4485","tribuneTheaterId":"9585","providerTheaterId":"","name":"Pacific Theatres Glendale 18","address":"322 Americana Way","city":"Glendale","state":"CA","zip":"91210","distance":21.177080561174,"lon":"-118.257316","lat":"34.143397","theaterChainName":"Pacific Theaters","ticketType":"STANDARD"},{"id":"296","tribuneTheaterId":"7925","providerTheaterId":"","name":"Laemmle Music Hall 3","address":"9036 Wilshire Blvd.","city":"Beverly Hills","state":"CA","zip":"90211","distance":20.406029053906,"lon":"-118.388951","lat":"34.066881","theaterChainName":"Laemmle Theatres","ticketType":"STANDARD"},{"id":"299","tribuneTheaterId":"2417","providerTheaterId":"","name":"American Cinematheque at the Aero Theatre","address":"1328 Montana Ave.","city":"Santa Monica","state":"CA","zip":"90403","distance":23.616372166469,"lon":"-118.495598","lat":"34.031668","theaterChainName":"American Cinematheque","ticketType":"STANDARD"},{"id":"49","tribuneTheaterId":"8241","providerTheaterId":"2417","name":"AMC Loews Broadway 4","address":"1441 Third Street Promenade","city":"Santa Monica","state":"CA","zip":"90401","distance":22.98954371003,"lon":"-118.494903","lat":"34.014806","theaterChainName":"AMC Theatres","ticketType":"STANDARD"},{"id":"3168","tribuneTheaterId":"1857","providerTheaterId":"","name":"Woodbridge Movies 5","address":"4626 Barranca Parkway","city":"Irvine","state":"CA","zip":"92604","distance":23.207429451153,"lon":"-117.799847","lat":"33.677555","theaterChainName":"Starplex Cinemas","ticketType":"STANDARD"},{"id":"84","tribuneTheaterId":"9248","providerTheaterId":"","name":"Edwards Big Newport 6","address":"300 Newport Center Drive","city":"Newport Beach","state":"CA","zip":"92660","distance":22.72873076499,"lon":"-117.873393","lat":"33.612605","theaterChainName":"Edwards Theatres","ticketType":"STANDARD"},{"id":"1612","tribuneTheaterId":"9079","providerTheaterId":"","name":"Edwards Marketplace Stadium 10","address":"13782 Jamboree Road","city":"Irvine","state":"CA","zip":"92602","distance":22.236685720432,"lon":"-117.790552","lat":"33.722924","theaterChainName":"Edwards Theatres","ticketType":"STANDARD"},{"id":"551","tribuneTheaterId":"5813","providerTheaterId":"","name":"Edwards Anaheim Hills 14","address":"8032 E. Santa Ana Canyon Rd.","city":"Anaheim","state":"CA","zip":"92808","distance":22.599655564204,"lon":"-117.752175","lat":"33.86517","theaterChainName":"Edwards Theatres","ticketType":"STANDARD"},{"id":"94","tribuneTheaterId":"8806","providerTheaterId":"","name":"Edwards University Town Center 6","address":"4245 Campus Drive","city":"Irvine","state":"CA","zip":"92612","distance":22.471321792569,"lon":"-117.838368","lat":"33.65001","theaterChainName":"Edwards Theatres","ticketType":"STANDARD"},{"id":"4","tribuneTheaterId":"6803","providerTheaterId":"","name":"Bruin - Westwood Village","address":"948 Broxton Ave.","city":"Los Angeles","state":"CA","zip":"90024","distance":22.618438713083,"lon":"-118.446921","lat":"34.062719","theaterChainName":"Regency Theatres","ticketType":"STANDARD"},{"id":"3","tribuneTheaterId":"6802","providerTheaterId":"","name":"Village - Westwood Village","address":"961 Broxton Ave.","city":"Los Angeles","state":"CA","zip":"90024","distance":22.622911979635,"lon":"-118.447179","lat":"34.062566","theaterChainName":"Regency Theatres","ticketType":"STANDARD"},{"id":"3110","tribuneTheaterId":"7772","providerTheaterId":"","name":"Krikorian Monrovia Cinema 12","address":"410 S. Myrtle Ave.","city":"Monrovia","state":"CA","zip":"91016","distance":22.106331029805,"lon":"-118.000651","lat":"34.147691","theaterChainName":"Krikorian Theatres","ticketType":"STANDARD"},{"id":"301","tribuneTheaterId":"7293","providerTheaterId":"","name":"Laemmle Monica 4-plex","address":"1332 Second St.","city":"Santa Monica","state":"CA","zip":"90401","distance":23.174441452096,"lon":"-118.498","lat":"34.0157","theaterChainName":"Laemmle Theatres","ticketType":"STANDARD"},{"id":"548","tribuneTheaterId":"8246","providerTheaterId":"239","name":"AMC Covina 30","address":"1414 N. Azusa Ave.","city":"Covina","state":"CA","zip":"91722","distance":22.226378777583,"lon":"-117.9075","lat":"34.1051","theaterChainName":"AMC Theatres","ticketType":"STANDARD"},{"id":"298","tribuneTheaterId":"8525","providerTheaterId":"","name":"Laemmle's Royal Theatre","address":"11523 Santa Monica Blvd.","city":"Los Angeles","state":"CA","zip":"90025","distance":22.114896545323,"lon":"-118.4525","lat":"34.0453","theaterChainName":"Laemmle Theatres","ticketType":"STANDARD"},{"id":"19","tribuneTheaterId":"9153","providerTheaterId":"203","name":"AMC Santa Monica 7","address":"1310 3rd St.","city":"Santa Monica","state":"CA","zip":"90401","distance":23.17395870456,"lon":"-118.497419","lat":"34.016542","theaterChainName":"AMC Theatres","ticketType":"STANDARD"},{"id":"161","tribuneTheaterId":"9228","providerTheaterId":"","name":"United Artists La Canada 8","address":"1919 Verdugo Blvd.","city":"Flintridge","state":"CA","zip":"91011","distance":24.878787739276,"lon":"-118.216925","lat":"34.206404","theaterChainName":"United Artists","ticketType":"STANDARD"},{"id":"3636","tribuneTheaterId":"8983","providerTheaterId":"218","name":"AMC Burbank 16","address":"125 E. Palm Ave.","city":"Burbank","state":"CA","zip":"91502","distance":24.740914881577,"lon":"-118.311837","lat":"34.181742","theaterChainName":"AMC Theatres","ticketType":"STANDARD"},{"id":"99","tribuneTheaterId":"8977","providerTheaterId":"","name":"Regency Foothill Cinema Stadium 10","address":"854 E. Alosta Ave.","city":"Azusa","state":"CA","zip":"91702","distance":24.00502537261,"lon":"-117.892027","lat":"34.127729","theaterChainName":"Regency Theatres","ticketType":"STANDARD"},{"id":"20","tribuneTheaterId":"9275","providerTheaterId":"209","name":"AMC Theatres Burbank Town Center 8","address":"201 E. Magnolia Blvd. #345","city":"Burbank","state":"CA","zip":"91501","distance":24.866569880135,"lon":"-118.312151","lat":"34.183604","theaterChainName":"AMC Theatres","ticketType":"STANDARD"}]