[{"id":"3110","tribuneTheaterId":"7772","providerTheaterId":"","name":"Krikorian Monrovia Cinema 12","address":"410 S. Myrtle Ave.","city":"Monrovia","state":"CA","zip":"91016","distance":0.25859485954822,"lon":"-118.000651","lat":"34.147691","theaterChainName":"Krikorian Theatres","ticketType":"STANDARD"},{"id":"3894","tribuneTheaterId":"4246","providerTheaterId":"206","name":"AMC Santa Anita 16","address":"400 S. Baldwin Ave. Ste. 940-U","city":"Arcadia","state":"CA","zip":"91007","distance":2.7723690628101,"lon":"-118.048718","lat":"34.13527","theaterChainName":"AMC Theatres","ticketType":"STANDARD"},{"id":"100","tribuneTheaterId":"8973","providerTheaterId":"","name":"Edwards El Monte 8","address":"10661 Valley Blvd.","city":"El Monte","state":"CA","zip":"91731","distance":5.0837289474109,"lon":"-118.03932","lat":"34.077457","theaterChainName":"Edwards Theatres","ticketType":"STANDARD"},{"id":"2270","tribuneTheaterId":"5824","providerTheaterId":"","name":"Laemmle Playhouse 7","address":"673 E. Colorado Blvd.","city":"Pasadena","state":"CA","zip":"91101","distance":7.7235475634321,"lon":"-118.136445","lat":"34.14603","theaterChainName":"Laemmle Theatres","ticketType":"STANDARD"},{"id":"555","tribuneTheaterId":"5818","providerTheaterId":"","name":"Edwards West Covina Stadium 18","address":"1200 Lakes Dr.","city":"West Covina","state":"CA","zip":"91790","distance":6.751043685002,"lon":"-117.92355","lat":"34.070569","theaterChainName":"Edwards Theatres","ticketType":"STANDARD"},{"id":"548","tribuneTheaterId":"8246","providerTheaterId":"239","name":"AMC Covina 30","address":"1414 N. Azusa Ave.","city":"Covina","state":"CA","zip":"91722","distance":6.0057620960542,"lon":"-117.9075","lat":"34.1051","theaterChainName":"AMC Theatres","ticketType":"STANDARD"},{"id":"99","tribuneTheaterId":"8977","providerTheaterId":"","name":"Regency Foothill Cinema Stadium 10","address":"854 E. Alosta Ave.","city":"Azusa","state":"CA","zip":"91702","distance":6.3551763235831,"lon":"-117.892027","lat":"34.127729","theaterChainName":"Regency Theatres","ticketType":"STANDARD"},{"id":"3570","tribuneTheaterId":"8434","providerTheaterId":"","name":"Edwards Alhambra Renaissance Stadium 14 & IMAX","address":"1 E. Main St","city":"Alhambra","state":"CA","zip":"91801","distance":7.9103021891308,"lon":"-118.126924","lat":"34.095952","theaterChainName":"Edwards Theatres","ticketType":"STANDARD"},{"id":"4588","tribuneTheaterId":"9740","providerTheaterId":"430","name":"AMC Glendora 12","address":"1337 E. Gladstone St.","city":"Glendora","state":"CA","zip":"91740","distance":9.6339443128817,"lon":"-117.836118","lat":"34.117098","theaterChainName":"AMC Theatres","ticketType":"STANDARD"},{"id":"4944","tribuneTheaterId":"10299","providerTheaterId":"2414","name":"AMC Atlantic Times Square 14","address":"450 N. Atlantic Blvd.","city":"Monterey Park","state":"CA","zip":"91754","distance":9.2836499548452,"lon":"-118.1343","lat":"34.0669","theaterChainName":"AMC Theatres","ticketType":"STANDARD"},{"id":"23","tribuneTheaterId":"9144","providerTheaterId":"232","name":"AMC Montebello 10","address":"1475 N. Montebello Blvd.","city":"Montebello","state":"CA","zip":"90640","distance":9.2407549840578,"lon":"-118.09276","lat":"34.033716","theaterChainName":"AMC Theatres","ticketType":"STANDARD"},{"id":"767","tribuneTheaterId":"6353","providerTheaterId":"","name":"Mann Plymouth Cinema 12","address":"3400 Vicksburgh Lane","city":"Plymouth","state":"MN","zip":"55447","distance":11.043367904899,"lon":"-118.091054","lat":"34.002467","theaterChainName":"Mann Theatres MN","ticketType":"STANDARD"},{"id":"495","tribuneTheaterId":"3071","providerTheaterId":"","name":"Whittier Village Stadium Cinemas","address":"7038 Greenleaf Ave.","city":"Whittier","state":"CA","zip":"90602","distance":11.655483399435,"lon":"-118.037209","lat":"33.977937","theaterChainName":"Independent Chains","ticketType":"STANDARD"},{"id":"344","tribuneTheaterId":"9177","providerTheaterId":"249","name":"AMC Puente Hills 20","address":"1560 S. Azusa Ave.","city":"City of Industry","state":"CA","zip":"91748","distance":11.185213065246,"lon":"-117.926517","lat":"33.99447","theaterChainName":"AMC Theatres","ticketType":"STANDARD"},{"id":"429","tribuneTheaterId":"7765","providerTheaterId":"","name":"Commerce 14","address":"950 Goodrich Blvd.","city":"Commerce","state":"CA","zip":"90022","distance":12.305193050658,"lon":"-118.153861","lat":"34.018411","theaterChainName":"Regency Theatres","ticketType":"STANDARD"},{"id":"102","tribuneTheaterId":"9004","providerTheaterId":"","name":"Edwards La Verne Stadium 12","address":"1950 Foothill Blvd.","city":"La Verne","state":"CA","zip":"91750","distance":13.502607691678,"lon":"-117.768282","lat":"34.11312","theaterChainName":"Edwards Theatres","ticketType":"STANDARD"},{"id":"161","tribuneTheaterId":"9228","providerTheaterId":"","name":"United Artists La Canada 8","address":"1919 Verdugo Blvd.","city":"Flintridge","state":"CA","zip":"91011","distance":13.052660039655,"lon":"-118.216925","lat":"34.206404","theaterChainName":"United Artists","ticketType":"STANDARD"},{"id":"4485","tribuneTheaterId":"9585","providerTheaterId":"","name":"Pacific Theatres Glendale 18","address":"322 Americana Way","city":"Glendale","state":"CA","zip":"91210","distance":14.634321005964,"lon":"-118.257316","lat":"34.143397","theaterChainName":"Pacific Theaters","ticketType":"STANDARD"},{"id":"4619","tribuneTheaterId":"9794","providerTheaterId":"","name":"Downtown Independent","address":"251 S. Main St.","city":"Los Angeles","state":"CA","zip":"90012","distance":15.398255502299,"lon":"-118.245463","lat":"34.050082","theaterChainName":"Independent Chains","ticketType":"STANDARD"},{"id":"1163","tribuneTheaterId":"5877","providerTheaterId":"","name":"Krikorian Downey Cinema 10","address":"8200 Third St.","city":"Downey","state":"CA","zip":"90241","distance":15.852876234189,"lon":"-118.133302","lat":"33.942263","theaterChainName":"Krikorian Theatres","ticketType":"STANDARD"},{"id":"5852","tribuneTheaterId":"11264","providerTheaterId":"","name":"Cinemark Downey and XD","address":"8840 Apollo Way","city":"Downey","state":"CA","zip":"90242","distance":16.86055027447,"lon":"-118.128651","lat":"33.923936","theaterChainName":"Cinemark","ticketType":"STANDARD"},{"id":"198","tribuneTheaterId":"9268","providerTheaterId":"441","name":"AMC Norwalk 20","address":"12300 E. Civic Center Drive","city":"Norwalk","state":"CA","zip":"90650","distance":16.4053543222,"lon":"-118.071206","lat":"33.913718","theaterChainName":"AMC Theatres","ticketType":"STANDARD"},{"id":"2291","tribuneTheaterId":"8197","providerTheaterId":"","name":"Regal La Habra Stadium 16","address":"1351 W. Imperial Highway","city":"La Habra","state":"CA","zip":"90631","distance":15.751848893966,"lon":"-117.960463","lat":"33.918559","theaterChainName":"Regal Cinemas","ticketType":"STANDARD"},{"id":"4940","tribuneTheaterId":"10293","providerTheaterId":"","name":"Brea Plaza 5 Discount Cinemas","address":"453 S. Associated Rd.","city":"Brea","state":"CA","zip":"92821","distance":17.447258443805,"lon":"-117.8797","lat":"33.9125","theaterChainName":"Tristone Cinemas","ticketType":"STANDARD"},{"id":"2282","tribuneTheaterId":"5812","providerTheaterId":"","name":"Edwards Brea Stadium West 10","address":"155 W. Birch St.","city":"Brea","state":"CA","zip":"92821","distance":16.581382755663,"lon":"-117.901","lat":"33.9189","theaterChainName":"Edwards Theatres","ticketType":"STANDARD"},{"id":"3426","tribuneTheaterId":"5810","providerTheaterId":"","name":"Edwards Brea Stadium East 12","address":"155 W. Birch St.","city":"Brea","state":"CA","zip":"92821","distance":16.621595798149,"lon":"-117.899909","lat":"33.918615","theaterChainName":"Edwards Theatres","ticketType":"STANDARD"},{"id":"3117","tribuneTheaterId":"8852","providerTheaterId":"","name":"Edwards South Gate Stadium 20 & IMAX","address":"8630 Garfield Ave","city":"South Gate","state":"CA","zip":"90280","distance":16.161155602408,"lon":"-118.161768","lat":"33.951504","theaterChainName":"Edwards Theatres","ticketType":"STANDARD"},{"id":"293","tribuneTheaterId":"6324","providerTheaterId":"","name":"Los Feliz 3","address":"1822 N. Vermont Ave.","city":"Los Angeles","state":"CA","zip":"90027","distance":16.825897501106,"lon":"-118.291647","lat":"34.104341","theaterChainName":"Independent Chains","ticketType":"STANDARD"},{"id":"4796","tribuneTheaterId":"10051","providerTheaterId":"","name":"Regal Cinemas LA Live Stadium 14","address":"1000 W. Olympic Blvd.","city":"Los Angeles","state":"CA","zip":"90015","distance":16.665247102722,"lon":"-118.267409","lat":"34.045757","theaterChainName":"Regal Cinemas","ticketType":"STANDARD"},{"id":"307","tribuneTheaterId":"7783","providerTheaterId":"","name":"Park Twin Theatre","address":"6504 Pacific Blvd.","city":"Huntington Park","state":"CA","zip":"90255","distance":17.086938095997,"lon":"-118.225179","lat":"33.980321","theaterChainName":"Metropolitan Theatres","ticketType":"STANDARD"},{"id":"294","tribuneTheaterId":"5154","providerTheaterId":"","name":"Vintage Cinemas Vista Theatre","address":"4473 Sunset Blvd.","city":"Hollywood","state":"CA","zip":"90027","distance":16.633713160992,"lon":"-118.286906","lat":"34.098257","theaterChainName":"Independent Chains","ticketType":"STANDARD"},{"id":"4391","tribuneTheaterId":"9439","providerTheaterId":"","name":"Claremont 5","address":"450 W. 2nd St.","city":"Claremont","state":"CA","zip":"91711","distance":16.426919116074,"lon":"-117.720286","lat":"34.095379","theaterChainName":"Laemmle Theatres","ticketType":"STANDARD"},{"id":"3643","tribuneTheaterId":"2052","providerTheaterId":"","name":"La Mirada Dollar Movie 7","address":"15296 Rosecrans Avenue","city":"La Mirada","state":"CA","zip":"90638","distance":17.03976007818,"lon":"-118.005513","lat":"33.897404","theaterChainName":"Starplex Cinemas","ticketType":"STANDARD"},{"id":"20","tribuneTheaterId":"9275","providerTheaterId":"209","name":"AMC Theatres Burbank Town Center 8","address":"201 E. Magnolia Blvd. #345","city":"Burbank","state":"CA","zip":"91501","distance":17.975205703546,"lon":"-118.312151","lat":"34.183604","theaterChainName":"AMC Theatres","ticketType":"STANDARD"},{"id":"3636","tribuneTheaterId":"8983","providerTheaterId":"218","name":"AMC Burbank 16","address":"125 E. Palm Ave.","city":"Burbank","state":"CA","zip":"91502","distance":17.938504000694,"lon":"-118.311837","lat":"34.181742","theaterChainName":"AMC Theatres","ticketType":"STANDARD"},{"id":"164","tribuneTheaterId":"9262","providerTheaterId":"442","name":"AMC Theatres Burbank Town Center 6","address":"770 N. First St.","city":"Burbank","state":"CA","zip":"91501","distance":18.167508235602,"lon":"-118.315325","lat":"34.18484","theaterChainName":"AMC Theatres","ticketType":"STANDARD"},{"id":"6127","tribuneTheaterId":"11543","providerTheaterId":"","name":"Arena Cinelounge Sunset","address":"6464 Sunset Blvd.","city":"Hollywood","state":"CA","zip":"90028","distance":19.140153244743,"lon":"-118.3313","lat":"34.097626","theaterChainName":"Independent Chains","ticketType":"STANDARD"},{"id":"5216","tribuneTheaterId":"10640","providerTheaterId":"","name":"CGV Cinemas LA","address":"621 S. Western Ave.","city":"Los Angeles","state":"CA","zip":"90005","distance":18.497696120197,"lon":"-118.309469","lat":"34.062737","theaterChainName":"Independent Chains","ticketType":"STANDARD"},{"id":"1157","tribuneTheaterId":"5210","providerTheaterId":"","name":"Cinemark Movies 8 Chino","address":"5546 Philadelphia St.","city":"Chino","state":"CA","zip":"91710","distance":19.629931199549,"lon":"-117.684807","lat":"34.034579","theaterChainName":"Cinemark","ticketType":"STANDARD"},{"id":"2298","tribuneTheaterId":"9137","providerTheaterId":"","name":"Edwards Ontario Mountain Village Stadium 14","address":"1575 N. Mountain Ave.","city":"Ontario","state":"CA","zip":"91762","distance":19.306839816357,"lon":"-117.671219","lat":"34.086072","theaterChainName":"Edwards Theatres","ticketType":"STANDARD"},{"id":"1619","tribuneTheaterId":"6099","providerTheaterId":"","name":"New Beverly Cinema","address":"7165 W. Beverly Blvd.","city":"Los Angeles","state":"CA","zip":"90036","distance":20.230458007907,"lon":"-118.345398","lat":"34.076099","theaterChainName":"Independent Chains","ticketType":"STANDARD"},{"id":"17","tribuneTheaterId":"9234","providerTheaterId":"248","name":"AMC Fullerton 20","address":"1001 S. Lemon St.","city":"Fullerton","state":"CA","zip":"92832","distance":20.046321576492,"lon":"-117.920423","lat":"33.861739","theaterChainName":"AMC Theatres","ticketType":"STANDARD"},{"id":"292","tribuneTheaterId":"8974","providerTheaterId":"","name":"Pacific El Capitan","address":"6838 Hollywood Blvd.","city":"Hollywood","state":"CA","zip":"90028","distance":19.579359970129,"lon":"-118.33978","lat":"34.101195","theaterChainName":"Independent Chains","ticketType":"STANDARD"},{"id":"7","tribuneTheaterId":"6710","providerTheaterId":"","name":"TCL Chinese Theatre","address":"6801 Hollywood Blvd.","city":"Hollywood","state":"CA","zip":"90028","distance":19.594249776099,"lon":"-118.3401","lat":"34.1015","theaterChainName":"Independent Chains","ticketType":"STANDARD"},{"id":"1645","tribuneTheaterId":"3170","providerTheaterId":"","name":"Bianchi Stadium 11 Theatres","address":"7770 Rosecrans Ave.","city":"Paramount","state":"CA","zip":"90723","distance":19.058086715069,"lon":"-118.163382","lat":"33.903045","theaterChainName":"Independent Chains","ticketType":"STANDARD"},{"id":"101","tribuneTheaterId":"9271","providerTheaterId":"","name":"Edwards Cerritos Stadium 10","address":"12761 Towne Center Drive","city":"Cerritos","state":"CA","zip":"90701","distance":19.126124925187,"lon":"-118.059184","lat":"33.87136","theaterChainName":"Edwards Theatres","ticketType":"STANDARD"},{"id":"2855","tribuneTheaterId":"2588","providerTheaterId":"","name":"Egyptian Theatre - Hollywood","address":"6712 Hollywood Blvd.","city":"Hollywood","state":"CA","zip":"90028","distance":19.395896372239,"lon":"-118.336496","lat":"34.100989","theaterChainName":"American Cinematheque","ticketType":"STANDARD"},{"id":"3625","tribuneTheaterId":"5879","providerTheaterId":"","name":"Krikorian Buena Park Metroplex 18","address":"8290 La Palma Ave.","city":"Buena Park","state":"CA","zip":"90620","distance":20.753087288942,"lon":"-117.989349","lat":"33.843803","theaterChainName":"Krikorian Theatres","ticketType":"STANDARD"},{"id":"3477","tribuneTheaterId":"4865","providerTheaterId":"","name":"Pacific The Grove Stadium 14","address":"189 The Grove Drive","city":"Los Angeles","state":"CA","zip":"90036","distance":21.022758264118,"lon":"-118.358296","lat":"34.071507","theaterChainName":"Pacific Theaters","ticketType":"STANDARD"},{"id":"297","tribuneTheaterId":"7605","providerTheaterId":"","name":"AMC Dine-in Sunset 5","address":"8000 W. Sunset Blvd.","city":"Los Angeles","state":"CA","zip":"90046","distance":21.041775183627,"lon":"-118.364909","lat":"34.097263","theaterChainName":"Sundance Cinemas","ticketType":"STANDARD"},{"id":"5141","tribuneTheaterId":"10547","providerTheaterId":"","name":"Laemmle Noho 7","address":"5240 Lankershim Blvd.","city":"North Hollywood","state":"CA","zip":"91601","distance":21.419255258711,"lon":"-118.375053","lat":"34.166249","theaterChainName":"Laemmle Theatres","ticketType":"STANDARD"},{"id":"296","tribuneTheaterId":"7925","providerTheaterId":"","name":"Laemmle Music Hall 3","address":"9036 Wilshire Blvd.","city":"Beverly Hills","state":"CA","zip":"90211","distance":22.802963802043,"lon":"-118.388951","lat":"34.066881","theaterChainName":"Laemmle Theatres","ticketType":"STANDARD"},{"id":"2446","tribuneTheaterId":"5821","providerTheaterId":"","name":"Edwards Long Beach 26 & IMAX","address":"7501 E. Carson Blvd","city":"Long Beach","state":"CA","zip":"90808","distance":22.203042847273,"lon":"-118.086816","lat":"33.830553","theaterChainName":"Edwards Theatres","ticketType":"STANDARD"},{"id":"5782","tribuneTheaterId":"11222","providerTheaterId":"","name":"Ahrya Fine Arts","address":"8556 Wilshire Blvd","city":"Beverly Hills","state":"CA","zip":"90211","distance":22.216320829371,"lon":"-118.377928","lat":"34.065338","theaterChainName":"Laemmle Theatres","ticketType":"STANDARD"},{"id":"5056","tribuneTheaterId":"10436","providerTheaterId":"","name":"Baldwin Hills Crenshaw Plaza 15","address":"4020 Marlton Ave.","city":"Los Angeles","state":"CA","zip":"90008","distance":21.282474730312,"lon":"-118.337275","lat":"34.011766","theaterChainName":"Cinemark","ticketType":"STANDARD"},{"id":"431","tribuneTheaterId":"8602","providerTheaterId":"","name":"Pacific Lakewood Center 16","address":"5200 Faculty Ave.","city":"Lakewood","state":"CA","zip":"90712","distance":21.672784281551,"lon":"-118.136803","lat":"33.851101","theaterChainName":"Pacific Theaters","ticketType":"STANDARD"},{"id":"551","tribuneTheaterId":"5813","providerTheaterId":"","name":"Edwards Anaheim Hills 14","address":"8032 E. Santa Ana Canyon Rd.","city":"Anaheim","state":"CA","zip":"92808","distance":23.977653709861,"lon":"-117.752175","lat":"33.86517","theaterChainName":"Edwards Theatres","ticketType":"STANDARD"},{"id":"246","tribuneTheaterId":"8667","providerTheaterId":"","name":"Century 8","address":"12827 Victory Blvd.","city":"North Hollywood","state":"CA","zip":"91606","distance":23.703990599642,"lon":"-118.412752","lat":"34.187053","theaterChainName":"Cinemark","ticketType":"STANDARD"},{"id":"3097","tribuneTheaterId":"5274","providerTheaterId":"212","name":"AMC Downtown Disney District 12","address":"1565 Disneyland Drive","city":"Anaheim","state":"CA","zip":"92802","distance":23.583475639682,"lon":"-117.925304","lat":"33.808556","theaterChainName":"AMC Theatres","ticketType":"STANDARD"},{"id":"863","tribuneTheaterId":"5190","providerTheaterId":"","name":"Cinema City Stadium Theatres","address":"5635 E. La Palma Ave.","city":"Anaheim","state":"CA","zip":"92807","distance":22.943456822072,"lon":"-117.7918","lat":"33.861026","theaterChainName":"Independent Chains","ticketType":"STANDARD"},{"id":"4436","tribuneTheaterId":"9511","providerTheaterId":"","name":"Terra Vista 6","address":"10701 Town Center Dr.","city":"Rancho Cucamonga","state":"CA","zip":"91730","distance":24.687510337257,"lon":"-117.571717","lat":"34.110042","theaterChainName":"Tristone Cinemas","ticketType":"STANDARD"},{"id":"852","tribuneTheaterId":"6404","providerTheaterId":"","name":"4 Star Cinema","address":"12111 Valley View St.","city":"Garden Grove","state":"CA","zip":"92845","distance":24.755028785214,"lon":"-118.029245","lat":"33.786461","theaterChainName":"Independent Chains","ticketType":"STANDARD"},{"id":"580","tribuneTheaterId":"8524","providerTheaterId":"","name":"Century Stadium 25 and XD","address":"1701 W. Katella Ave.","city":"Orange","state":"CA","zip":"92867","distance":24.317923395198,"lon":"-117.8705","lat":"33.8092","theaterChainName":"Cinemark","ticketType":"STANDARD"},{"id":"18","tribuneTheaterId":"8458","providerTheaterId":"245","name":"AMC Century City 15","address":"10250 Santa Monica Blvd., 2000","city":"Los Angeles","state":"CA","zip":"90067","distance":24.644419229648,"lon":"-118.420038","lat":"34.059992","theaterChainName":"AMC Theatres","ticketType":"STANDARD"},{"id":"2579","tribuneTheaterId":"7421","providerTheaterId":"","name":"Regal Garden Grove Stadium 16","address":"9741 Chapman Ave.","city":"Garden Grove","state":"CA","zip":"92841","distance":24.653643612135,"lon":"-117.9631","lat":"33.7886","theaterChainName":"Regal Cinemas","ticketType":"STANDARD"}]