[{"id":"104","tribuneTheaterId":"8892","providerTheaterId":"","name":"Edwards Valencia Stadium 12","address":"24435 Town Center Drive","city":"Santa Clarita","state":"CA","zip":"91355","distance":5.9782051819439,"lon":"-118.561707","lat":"34.418613","theaterChainName":"Edwards Theatres","ticketType":"STANDARD"},{"id":"1603","tribuneTheaterId":"5809","providerTheaterId":"","name":"Edwards Canyon Country Stadium 10","address":"18800 Soledad Canyon Rd.","city":"Canyon Country","state":"CA","zip":"91351","distance":10.464979854222,"lon":"-118.462851","lat":"34.414585","theaterChainName":"Edwards Theatres","ticketType":"STANDARD"},{"id":"2661","tribuneTheaterId":"8660","providerTheaterId":"","name":"Regal Simi Valley Civic Center Stadium 16 & IMAX","address":"2751 Tapo Canyon Road","city":"Simi Valley","state":"CA","zip":"93063","distance":15.14392630373,"lon":"-118.719066","lat":"34.284591","theaterChainName":"Regal Cinemas","ticketType":"STANDARD"},{"id":"691","tribuneTheaterId":"9007","providerTheaterId":"","name":"Pacific Winnetka 21","address":"9201 Winnetka Ave.","city":"Chatsworth","state":"CA","zip":"91311","distance":17.538427469704,"lon":"-118.574152","lat":"34.238273","theaterChainName":"Pacific Theaters","ticketType":"STANDARD"},{"id":"5776","tribuneTheaterId":"11216","providerTheaterId":"","name":"Studio Movie Grill Simi Valley","address":"1555 Simi Town Center Way","city":"Simi Valley","state":"CA","zip":"93065","distance":16.552817946749,"lon":"-118.7709","lat":"34.2828","theaterChainName":"Studio Movie Grill","ticketType":"SELECT_SEATING"},{"id":"4862","tribuneTheaterId":"10159","providerTheaterId":"","name":"Simi Valley 10 Cinemas","address":"1457 E. Los Angeles Avenue","city":"Simi Valley","state":"CA","zip":"93065","distance":17.116908437674,"lon":"-118.77072","lat":"34.273284","theaterChainName":"Tristone Cinemas","ticketType":"STANDARD"},{"id":"1599","tribuneTheaterId":"7608","providerTheaterId":"","name":"Pacific Northridge Fashion Center 10","address":"9400 N. Shirley Ave.","city":"Northridge","state":"CA","zip":"91324","distance":17.583201012629,"lon":"-118.557562","lat":"34.240196","theaterChainName":"Pacific Theaters","ticketType":"STANDARD"},{"id":"4854","tribuneTheaterId":"10148","providerTheaterId":"","name":"Regency Granada Hills","address":"16830 Devonshire St.","city":"Granada Hills","state":"CA","zip":"91344","distance":17.523994060715,"lon":"-118.499082","lat":"34.256773","theaterChainName":"Regency Theatres","ticketType":"STANDARD"},{"id":"5054","tribuneTheaterId":"10434","providerTheaterId":"","name":"Regency Van Nuys Plant 16","address":"7876 Van Nuys Blvd.","city":"Van Nuys","state":"CA","zip":"91402","distance":21.42378106203,"lon":"-118.4487","lat":"34.2142","theaterChainName":"Regency Theatres","ticketType":"STANDARD"},{"id":"197","tribuneTheaterId":"9176","providerTheaterId":"202","name":"AMC Promenade 16","address":"21801 Oxnard St.","city":"Woodland Hills","state":"CA","zip":"91367","distance":21.351410044795,"lon":"-118.603283","lat":"34.180302","theaterChainName":"AMC Theatres","ticketType":"STANDARD"},{"id":"5309","tribuneTheaterId":"10746","providerTheaterId":"445","name":"AMC Fallbrook 7","address":"6731 Fallbrook Ave.","city":"West Hills","state":"CA","zip":"91307","distance":20.495816389973,"lon":"-118.625488","lat":"34.192268","theaterChainName":"AMC Theatres","ticketType":"STANDARD"},{"id":"2008","tribuneTheaterId":"5807","providerTheaterId":"","name":"Edwards Calabasas Stadium 6","address":"4767 Commons Way","city":"Calabasas","state":"CA","zip":"91302","distance":23.226460090503,"lon":"-118.645829","lat":"34.153273","theaterChainName":"Edwards Theatres","ticketType":"STANDARD"},{"id":"304","tribuneTheaterId":"7926","providerTheaterId":"","name":"Laemmle Town Center 5","address":"17200 Ventura Blvd.","city":"Encino","state":"CA","zip":"91316","distance":23.651927886203,"lon":"-118.507912","lat":"34.160017","theaterChainName":"Laemmle Theatres","ticketType":"STANDARD"},{"id":"246","tribuneTheaterId":"8667","providerTheaterId":"","name":"Century 8","address":"12827 Victory Blvd.","city":"North Hollywood","state":"CA","zip":"91606","distance":24.056194655,"lon":"-118.412752","lat":"34.187053","theaterChainName":"Cinemark","ticketType":"STANDARD"}]