[{"id":"104","tribuneTheaterId":"8892","providerTheaterId":"","name":"Edwards Valencia Stadium 12","address":"24435 Town Center Drive","city":"Santa Clarita","state":"CA","zip":"91355","distance":4.080923864353,"lon":"-118.561707","lat":"34.418613","theaterChainName":"Edwards Theatres","ticketType":"STANDARD"},{"id":"2661","tribuneTheaterId":"8660","providerTheaterId":"","name":"Regal Simi Valley Civic Center Stadium 16 & IMAX","address":"2751 Tapo Canyon Road","city":"Simi Valley","state":"CA","zip":"93063","distance":8.8183658356509,"lon":"-118.719066","lat":"34.284591","theaterChainName":"Regal Cinemas","ticketType":"STANDARD"},{"id":"1603","tribuneTheaterId":"5809","providerTheaterId":"","name":"Edwards Canyon Country Stadium 10","address":"18800 Soledad Canyon Rd.","city":"Canyon Country","state":"CA","zip":"91351","distance":8.9410904189597,"lon":"-118.462851","lat":"34.414585","theaterChainName":"Edwards Theatres","ticketType":"STANDARD"},{"id":"1599","tribuneTheaterId":"7608","providerTheaterId":"","name":"Pacific Northridge Fashion Center 10","address":"9400 N. Shirley Ave.","city":"Northridge","state":"CA","zip":"91324","distance":10.00229139739,"lon":"-118.557562","lat":"34.240196","theaterChainName":"Pacific Theaters","ticketType":"STANDARD"},{"id":"4854","tribuneTheaterId":"10148","providerTheaterId":"","name":"Regency Granada Hills","address":"16830 Devonshire St.","city":"Granada Hills","state":"CA","zip":"91344","distance":10.578983300078,"lon":"-118.499082","lat":"34.256773","theaterChainName":"Regency Theatres","ticketType":"STANDARD"},{"id":"691","tribuneTheaterId":"9007","providerTheaterId":"","name":"Pacific Winnetka 21","address":"9201 Winnetka Ave.","city":"Chatsworth","state":"CA","zip":"91311","distance":9.8731367029882,"lon":"-118.574152","lat":"34.238273","theaterChainName":"Pacific Theaters","ticketType":"STANDARD"},{"id":"4862","tribuneTheaterId":"10159","providerTheaterId":"","name":"Simi Valley 10 Cinemas","address":"1457 E. Los Angeles Avenue","city":"Simi Valley","state":"CA","zip":"93065","distance":11.521243593872,"lon":"-118.77072","lat":"34.273284","theaterChainName":"Tristone Cinemas","ticketType":"STANDARD"},{"id":"5776","tribuneTheaterId":"11216","providerTheaterId":"","name":"Studio Movie Grill Simi Valley","address":"1555 Simi Town Center Way","city":"Simi Valley","state":"CA","zip":"93065","distance":11.130063443099,"lon":"-118.7709","lat":"34.2828","theaterChainName":"Studio Movie Grill","ticketType":"SELECT_SEATING"},{"id":"5309","tribuneTheaterId":"10746","providerTheaterId":"445","name":"AMC Fallbrook 7","address":"6731 Fallbrook Ave.","city":"West Hills","state":"CA","zip":"91307","distance":12.817815161605,"lon":"-118.625488","lat":"34.192268","theaterChainName":"AMC Theatres","ticketType":"STANDARD"},{"id":"197","tribuneTheaterId":"9176","providerTheaterId":"202","name":"AMC Promenade 16","address":"21801 Oxnard St.","city":"Woodland Hills","state":"CA","zip":"91367","distance":13.636583916723,"lon":"-118.603283","lat":"34.180302","theaterChainName":"AMC Theatres","ticketType":"STANDARD"},{"id":"2008","tribuneTheaterId":"5807","providerTheaterId":"","name":"Edwards Calabasas Stadium 6","address":"4767 Commons Way","city":"Calabasas","state":"CA","zip":"91302","distance":15.60489750809,"lon":"-118.645829","lat":"34.153273","theaterChainName":"Edwards Theatres","ticketType":"STANDARD"},{"id":"5054","tribuneTheaterId":"10434","providerTheaterId":"","name":"Regency Van Nuys Plant 16","address":"7876 Van Nuys Blvd.","city":"Van Nuys","state":"CA","zip":"91402","distance":14.675324272503,"lon":"-118.4487","lat":"34.2142","theaterChainName":"Regency Theatres","ticketType":"STANDARD"},{"id":"304","tribuneTheaterId":"7926","providerTheaterId":"","name":"Laemmle Town Center 5","address":"17200 Ventura Blvd.","city":"Encino","state":"CA","zip":"91316","distance":16.18248623064,"lon":"-118.507912","lat":"34.160017","theaterChainName":"Laemmle Theatres","ticketType":"STANDARD"},{"id":"246","tribuneTheaterId":"8667","providerTheaterId":"","name":"Century 8","address":"12827 Victory Blvd.","city":"North Hollywood","state":"CA","zip":"91606","distance":17.434824356563,"lon":"-118.412752","lat":"34.187053","theaterChainName":"Cinemark","ticketType":"STANDARD"},{"id":"12","tribuneTheaterId":"7407","providerTheaterId":"","name":"Regency Agoura Hills Stadium 8","address":"29045 Agoura Rd.","city":"Agoura Hills","state":"CA","zip":"91301","distance":18.086315979946,"lon":"-118.757105","lat":"34.144355","theaterChainName":"Regency Theatres","ticketType":"STANDARD"},{"id":"3644","tribuneTheaterId":"7764","providerTheaterId":"","name":"Pacific Sherman Oaks 5","address":"14424 Milbank St.","city":"Sherman Oaks","state":"CA","zip":"91423","distance":18.171403272812,"lon":"-118.447642","lat":"34.152845","theaterChainName":"Pacific Theaters","ticketType":"STANDARD"},{"id":"2987","tribuneTheaterId":"5822","providerTheaterId":"","name":"Westlake Village Twin","address":"4711 Lakeview Canyon Road","city":"Westlake Village","state":"CA","zip":"91361","distance":19.722080795869,"lon":"-118.819015","lat":"34.148338","theaterChainName":"Regency Theatres","ticketType":"STANDARD"},{"id":"5141","tribuneTheaterId":"10547","providerTheaterId":"","name":"Laemmle Noho 7","address":"5240 Lankershim Blvd.","city":"North Hollywood","state":"CA","zip":"91601","distance":19.944409334783,"lon":"-118.375053","lat":"34.166249","theaterChainName":"Laemmle Theatres","ticketType":"STANDARD"},{"id":"4706","tribuneTheaterId":"9920","providerTheaterId":"","name":"Muvico Thousand Oaks 14","address":"166 W. Hillcrest Dr.","city":"Thousand Oaks","state":"CA","zip":"91360","distance":20.614474884264,"lon":"-118.885804","lat":"34.181946","theaterChainName":"Carmike Cinemas","ticketType":"STANDARD"},{"id":"163","tribuneTheaterId":"7555","providerTheaterId":"","name":"Janss Marketplace 9","address":"255 N. Moorpark Road","city":"Thousand Oaks","state":"CA","zip":"91360","distance":20.15522701802,"lon":"-118.876716","lat":"34.183469","theaterChainName":"Regency Theatres","ticketType":"STANDARD"},{"id":"3636","tribuneTheaterId":"8983","providerTheaterId":"218","name":"AMC Burbank 16","address":"125 E. Palm Ave.","city":"Burbank","state":"CA","zip":"91502","distance":21.880743097973,"lon":"-118.311837","lat":"34.181742","theaterChainName":"AMC Theatres","ticketType":"STANDARD"},{"id":"20","tribuneTheaterId":"9275","providerTheaterId":"209","name":"AMC Theatres Burbank Town Center 8","address":"201 E. Magnolia Blvd. #345","city":"Burbank","state":"CA","zip":"91501","distance":21.787161904159,"lon":"-118.312151","lat":"34.183604","theaterChainName":"AMC Theatres","ticketType":"STANDARD"},{"id":"164","tribuneTheaterId":"9262","providerTheaterId":"442","name":"AMC Theatres Burbank Town Center 6","address":"770 N. First St.","city":"Burbank","state":"CA","zip":"91501","distance":21.591696107841,"lon":"-118.315325","lat":"34.18484","theaterChainName":"AMC Theatres","ticketType":"STANDARD"},{"id":"292","tribuneTheaterId":"8974","providerTheaterId":"","name":"Pacific El Capitan","address":"6838 Hollywood Blvd.","city":"Hollywood","state":"CA","zip":"90028","distance":24.661425628267,"lon":"-118.33978","lat":"34.101195","theaterChainName":"Independent Chains","ticketType":"STANDARD"},{"id":"7","tribuneTheaterId":"6710","providerTheaterId":"","name":"TCL Chinese Theatre","address":"6801 Hollywood Blvd.","city":"Hollywood","state":"CA","zip":"90028","distance":24.633523714489,"lon":"-118.3401","lat":"34.1015","theaterChainName":"Independent Chains","ticketType":"STANDARD"},{"id":"297","tribuneTheaterId":"7605","providerTheaterId":"","name":"AMC Dine-in Sunset 5","address":"8000 W. Sunset Blvd.","city":"Los Angeles","state":"CA","zip":"90046","distance":23.997624429714,"lon":"-118.364909","lat":"34.097263","theaterChainName":"Sundance Cinemas","ticketType":"STANDARD"},{"id":"296","tribuneTheaterId":"7925","providerTheaterId":"","name":"Laemmle Music Hall 3","address":"9036 Wilshire Blvd.","city":"Beverly Hills","state":"CA","zip":"90211","distance":24.991825990994,"lon":"-118.388951","lat":"34.066881","theaterChainName":"Laemmle Theatres","ticketType":"STANDARD"},{"id":"18","tribuneTheaterId":"8458","providerTheaterId":"245","name":"AMC Century City 15","address":"10250 Santa Monica Blvd., 2000","city":"Los Angeles","state":"CA","zip":"90067","distance":24.554561821813,"lon":"-118.420038","lat":"34.059992","theaterChainName":"AMC Theatres","ticketType":"STANDARD"},{"id":"114","tribuneTheaterId":"9196","providerTheaterId":"","name":"Roxy Stadium 11","address":"5001 Verdugo Way","city":"Camarillo","state":"CA","zip":"93012","distance":24.969857651575,"lon":"-119.0042","lat":"34.2156","theaterChainName":"SR Entertainment","ticketType":"STANDARD"},{"id":"298","tribuneTheaterId":"8525","providerTheaterId":"","name":"Laemmle's Royal Theatre","address":"11523 Santa Monica Blvd.","city":"Los Angeles","state":"CA","zip":"90025","distance":24.719139569093,"lon":"-118.4525","lat":"34.0453","theaterChainName":"Laemmle Theatres","ticketType":"STANDARD"},{"id":"302","tribuneTheaterId":"6244","providerTheaterId":"","name":"Hollywood Theatres Malibu Cinemas","address":"3822 Crosscreek Road","city":"Malibu","state":"CA","zip":"90265","distance":23.947469042736,"lon":"-118.685148","lat":"34.036064","theaterChainName":"Regal Cinemas","ticketType":"STANDARD"},{"id":"3","tribuneTheaterId":"6802","providerTheaterId":"","name":"Village - Westwood Village","address":"961 Broxton Ave.","city":"Los Angeles","state":"CA","zip":"90024","distance":23.734976474831,"lon":"-118.447179","lat":"34.062566","theaterChainName":"Regency Theatres","ticketType":"STANDARD"},{"id":"4","tribuneTheaterId":"6803","providerTheaterId":"","name":"Bruin - Westwood Village","address":"948 Broxton Ave.","city":"Los Angeles","state":"CA","zip":"90024","distance":23.731175047788,"lon":"-118.446921","lat":"34.062719","theaterChainName":"Regency Theatres","ticketType":"STANDARD"},{"id":"299","tribuneTheaterId":"2417","providerTheaterId":"","name":"American Cinematheque at the Aero Theatre","address":"1328 Montana Ave.","city":"Santa Monica","state":"CA","zip":"90403","distance":24.820112021733,"lon":"-118.495598","lat":"34.031668","theaterChainName":"American Cinematheque","ticketType":"STANDARD"},{"id":"2855","tribuneTheaterId":"2588","providerTheaterId":"","name":"Egyptian Theatre - Hollywood","address":"6712 Hollywood Blvd.","city":"Hollywood","state":"CA","zip":"90028","distance":24.791575308759,"lon":"-118.336496","lat":"34.100989","theaterChainName":"American Cinematheque","ticketType":"STANDARD"}]