[{"id":"1603","tribuneTheaterId":"5809","providerTheaterId":"","name":"Edwards Canyon Country Stadium 10","address":"18800 Soledad Canyon Rd.","city":"Canyon Country","state":"CA","zip":"91351","distance":0.79655999151277,"lon":"-118.462851","lat":"34.414585","theaterChainName":"Edwards Theatres","ticketType":"STANDARD"},{"id":"104","tribuneTheaterId":"8892","providerTheaterId":"","name":"Edwards Valencia Stadium 12","address":"24435 Town Center Drive","city":"Santa Clarita","state":"CA","zip":"91355","distance":5.1231437380896,"lon":"-118.561707","lat":"34.418613","theaterChainName":"Edwards Theatres","ticketType":"STANDARD"},{"id":"4854","tribuneTheaterId":"10148","providerTheaterId":"","name":"Regency Granada Hills","address":"16830 Devonshire St.","city":"Granada Hills","state":"CA","zip":"91344","distance":11.609173351439,"lon":"-118.499082","lat":"34.256773","theaterChainName":"Regency Theatres","ticketType":"STANDARD"},{"id":"691","tribuneTheaterId":"9007","providerTheaterId":"","name":"Pacific Winnetka 21","address":"9201 Winnetka Ave.","city":"Chatsworth","state":"CA","zip":"91311","distance":14.050088647206,"lon":"-118.574152","lat":"34.238273","theaterChainName":"Pacific Theaters","ticketType":"STANDARD"},{"id":"1599","tribuneTheaterId":"7608","providerTheaterId":"","name":"Pacific Northridge Fashion Center 10","address":"9400 N. Shirley Ave.","city":"Northridge","state":"CA","zip":"91324","distance":13.560486087415,"lon":"-118.557562","lat":"34.240196","theaterChainName":"Pacific Theaters","ticketType":"STANDARD"},{"id":"5054","tribuneTheaterId":"10434","providerTheaterId":"","name":"Regency Van Nuys Plant 16","address":"7876 Van Nuys Blvd.","city":"Van Nuys","state":"CA","zip":"91402","distance":14.508463788352,"lon":"-118.4487","lat":"34.2142","theaterChainName":"Regency Theatres","ticketType":"STANDARD"},{"id":"2661","tribuneTheaterId":"8660","providerTheaterId":"","name":"Regal Simi Valley Civic Center Stadium 16 & IMAX","address":"2751 Tapo Canyon Road","city":"Simi Valley","state":"CA","zip":"93063","distance":17.042913890259,"lon":"-118.719066","lat":"34.284591","theaterChainName":"Regal Cinemas","ticketType":"STANDARD"},{"id":"246","tribuneTheaterId":"8667","providerTheaterId":"","name":"Century 8","address":"12827 Victory Blvd.","city":"North Hollywood","state":"CA","zip":"91606","distance":16.669669996716,"lon":"-118.412752","lat":"34.187053","theaterChainName":"Cinemark","ticketType":"STANDARD"},{"id":"304","tribuneTheaterId":"7926","providerTheaterId":"","name":"Laemmle Town Center 5","address":"17200 Ventura Blvd.","city":"Encino","state":"CA","zip":"91316","distance":18.306235125572,"lon":"-118.507912","lat":"34.160017","theaterChainName":"Laemmle Theatres","ticketType":"STANDARD"},{"id":"5309","tribuneTheaterId":"10746","providerTheaterId":"445","name":"AMC Fallbrook 7","address":"6731 Fallbrook Ave.","city":"West Hills","state":"CA","zip":"91307","distance":18.208414857096,"lon":"-118.625488","lat":"34.192268","theaterChainName":"AMC Theatres","ticketType":"STANDARD"},{"id":"197","tribuneTheaterId":"9176","providerTheaterId":"202","name":"AMC Promenade 16","address":"21801 Oxnard St.","city":"Woodland Hills","state":"CA","zip":"91367","distance":18.385760281764,"lon":"-118.603283","lat":"34.180302","theaterChainName":"AMC Theatres","ticketType":"STANDARD"},{"id":"5141","tribuneTheaterId":"10547","providerTheaterId":"","name":"Laemmle Noho 7","address":"5240 Lankershim Blvd.","city":"North Hollywood","state":"CA","zip":"91601","distance":18.602662707741,"lon":"-118.375053","lat":"34.166249","theaterChainName":"Laemmle Theatres","ticketType":"STANDARD"},{"id":"5776","tribuneTheaterId":"11216","providerTheaterId":"","name":"Studio Movie Grill Simi Valley","address":"1555 Simi Town Center Way","city":"Simi Valley","state":"CA","zip":"93065","distance":19.61969499223,"lon":"-118.7709","lat":"34.2828","theaterChainName":"Studio Movie Grill","ticketType":"SELECT_SEATING"},{"id":"3644","tribuneTheaterId":"7764","providerTheaterId":"","name":"Pacific Sherman Oaks 5","address":"14424 Milbank St.","city":"Sherman Oaks","state":"CA","zip":"91423","distance":18.738292136804,"lon":"-118.447642","lat":"34.152845","theaterChainName":"Pacific Theaters","ticketType":"STANDARD"},{"id":"20","tribuneTheaterId":"9275","providerTheaterId":"209","name":"AMC Theatres Burbank Town Center 8","address":"201 E. Magnolia Blvd. #345","city":"Burbank","state":"CA","zip":"91501","distance":18.908116396327,"lon":"-118.312151","lat":"34.183604","theaterChainName":"AMC Theatres","ticketType":"STANDARD"},{"id":"164","tribuneTheaterId":"9262","providerTheaterId":"442","name":"AMC Theatres Burbank Town Center 6","address":"770 N. First St.","city":"Burbank","state":"CA","zip":"91501","distance":18.746241804956,"lon":"-118.315325","lat":"34.18484","theaterChainName":"AMC Theatres","ticketType":"STANDARD"},{"id":"4862","tribuneTheaterId":"10159","providerTheaterId":"","name":"Simi Valley 10 Cinemas","address":"1457 E. Los Angeles Avenue","city":"Simi Valley","state":"CA","zip":"93065","distance":19.94524940488,"lon":"-118.77072","lat":"34.273284","theaterChainName":"Tristone Cinemas","ticketType":"STANDARD"},{"id":"3636","tribuneTheaterId":"8983","providerTheaterId":"218","name":"AMC Burbank 16","address":"125 E. Palm Ave.","city":"Burbank","state":"CA","zip":"91502","distance":19.029553428937,"lon":"-118.311837","lat":"34.181742","theaterChainName":"AMC Theatres","ticketType":"STANDARD"},{"id":"2008","tribuneTheaterId":"5807","providerTheaterId":"","name":"Edwards Calabasas Stadium 6","address":"4767 Commons Way","city":"Calabasas","state":"CA","zip":"91302","distance":21.131839546807,"lon":"-118.645829","lat":"34.153273","theaterChainName":"Edwards Theatres","ticketType":"STANDARD"},{"id":"161","tribuneTheaterId":"9228","providerTheaterId":"","name":"United Artists La Canada 8","address":"1919 Verdugo Blvd.","city":"Flintridge","state":"CA","zip":"91011","distance":20.891978095208,"lon":"-118.216925","lat":"34.206404","theaterChainName":"United Artists","ticketType":"STANDARD"},{"id":"4286","tribuneTheaterId":"4176","providerTheaterId":"","name":"Cinemark Antelope Valley Mall","address":"1475 W. Ave. P","city":"Palmdale","state":"CA","zip":"93551","distance":22.068394872138,"lon":"-118.155684","lat":"34.607923","theaterChainName":"Cinemark","ticketType":"STANDARD"},{"id":"292","tribuneTheaterId":"8974","providerTheaterId":"","name":"Pacific El Capitan","address":"6838 Hollywood Blvd.","city":"Hollywood","state":"CA","zip":"90028","distance":23.501145360052,"lon":"-118.33978","lat":"34.101195","theaterChainName":"Independent Chains","ticketType":"STANDARD"},{"id":"2855","tribuneTheaterId":"2588","providerTheaterId":"","name":"Egyptian Theatre - Hollywood","address":"6712 Hollywood Blvd.","city":"Hollywood","state":"CA","zip":"90028","distance":23.575508788817,"lon":"-118.336496","lat":"34.100989","theaterChainName":"American Cinematheque","ticketType":"STANDARD"},{"id":"293","tribuneTheaterId":"6324","providerTheaterId":"","name":"Los Feliz 3","address":"1822 N. Vermont Ave.","city":"Los Angeles","state":"CA","zip":"90027","distance":24.32551695001,"lon":"-118.291647","lat":"34.104341","theaterChainName":"Independent Chains","ticketType":"STANDARD"},{"id":"6127","tribuneTheaterId":"11543","providerTheaterId":"","name":"Arena Cinelounge Sunset","address":"6464 Sunset Blvd.","city":"Hollywood","state":"CA","zip":"90028","distance":23.893305785227,"lon":"-118.3313","lat":"34.097626","theaterChainName":"Independent Chains","ticketType":"STANDARD"},{"id":"297","tribuneTheaterId":"7605","providerTheaterId":"","name":"AMC Dine-in Sunset 5","address":"8000 W. Sunset Blvd.","city":"Los Angeles","state":"CA","zip":"90046","distance":23.342291321481,"lon":"-118.364909","lat":"34.097263","theaterChainName":"Sundance Cinemas","ticketType":"STANDARD"},{"id":"7","tribuneTheaterId":"6710","providerTheaterId":"","name":"TCL Chinese Theatre","address":"6801 Hollywood Blvd.","city":"Hollywood","state":"CA","zip":"90028","distance":23.475316472888,"lon":"-118.3401","lat":"34.1015","theaterChainName":"Independent Chains","ticketType":"STANDARD"},{"id":"4485","tribuneTheaterId":"9585","providerTheaterId":"","name":"Pacific Theatres Glendale 18","address":"322 Americana Way","city":"Glendale","state":"CA","zip":"91210","distance":22.895966269987,"lon":"-118.257316","lat":"34.143397","theaterChainName":"Pacific Theaters","ticketType":"STANDARD"},{"id":"294","tribuneTheaterId":"5154","providerTheaterId":"","name":"Vintage Cinemas Vista Theatre","address":"4473 Sunset Blvd.","city":"Hollywood","state":"CA","zip":"90027","distance":24.821216800055,"lon":"-118.286906","lat":"34.098257","theaterChainName":"Independent Chains","ticketType":"STANDARD"},{"id":"4","tribuneTheaterId":"6803","providerTheaterId":"","name":"Bruin - Westwood Village","address":"948 Broxton Ave.","city":"Los Angeles","state":"CA","zip":"90024","distance":24.954876897296,"lon":"-118.446921","lat":"34.062719","theaterChainName":"Regency Theatres","ticketType":"STANDARD"},{"id":"3","tribuneTheaterId":"6802","providerTheaterId":"","name":"Village - Westwood Village","address":"961 Broxton Ave.","city":"Los Angeles","state":"CA","zip":"90024","distance":24.964589662297,"lon":"-118.447179","lat":"34.062566","theaterChainName":"Regency Theatres","ticketType":"STANDARD"}]