[{"id":"2298","tribuneTheaterId":"9137","providerTheaterId":"","name":"Edwards Ontario Mountain Village Stadium 14","address":"1575 N. Mountain Ave.","city":"Ontario","state":"CA","zip":"91762","distance":2.7075791703018,"lon":"-117.671219","lat":"34.086072","theaterChainName":"Edwards Theatres","ticketType":"STANDARD"},{"id":"1157","tribuneTheaterId":"5210","providerTheaterId":"","name":"Cinemark Movies 8 Chino","address":"5546 Philadelphia St.","city":"Chino","state":"CA","zip":"91710","distance":4.4580437878196,"lon":"-117.684807","lat":"34.034579","theaterChainName":"Cinemark","ticketType":"STANDARD"},{"id":"266","tribuneTheaterId":"9270","providerTheaterId":"435","name":"AMC Ontario Mills 30","address":"4549 Mills Circle","city":"Ontario","state":"CA","zip":"91764","distance":4.1862235737593,"lon":"-117.552274","lat":"34.074833","theaterChainName":"AMC Theatres","ticketType":"STANDARD"},{"id":"4436","tribuneTheaterId":"9511","providerTheaterId":"","name":"Terra Vista 6","address":"10701 Town Center Dr.","city":"Rancho Cucamonga","state":"CA","zip":"91730","distance":3.856179753442,"lon":"-117.571717","lat":"34.110042","theaterChainName":"Tristone Cinemas","ticketType":"STANDARD"},{"id":"554","tribuneTheaterId":"5820","providerTheaterId":"","name":"Edwards Ontario Palace Stadium 22 & IMAX","address":"4900 E. 4th St.","city":"Ontario","state":"CA","zip":"91764","distance":4.3981949794041,"lon":"-117.54855","lat":"34.075868","theaterChainName":"Edwards Theatres","ticketType":"STANDARD"},{"id":"3935","tribuneTheaterId":"4245","providerTheaterId":"237","name":"AMC Victoria Gardens 12","address":"12600 N. MainStreet","city":"Rancho Cucamonga","state":"CA","zip":"91739","distance":6.000751581133,"lon":"-117.530176","lat":"34.112695","theaterChainName":"AMC Theatres","ticketType":"STANDARD"},{"id":"4391","tribuneTheaterId":"9439","providerTheaterId":"","name":"Claremont 5","address":"450 W. 2nd St.","city":"Claremont","state":"CA","zip":"91711","distance":5.5873921016321,"lon":"-117.720286","lat":"34.095379","theaterChainName":"Laemmle Theatres","ticketType":"STANDARD"},{"id":"4423","tribuneTheaterId":"9492","providerTheaterId":"","name":"Edwards Eastvale Gateway Stadium 14","address":"12285 Limonite Ave.","city":"Mira Loma","state":"CA","zip":"91752","distance":8.123104190289,"lon":"-117.551576","lat":"33.975908","theaterChainName":"Regal Cinemas","ticketType":"STANDARD"},{"id":"102","tribuneTheaterId":"9004","providerTheaterId":"","name":"Edwards La Verne Stadium 12","address":"1950 Foothill Blvd.","city":"La Verne","state":"CA","zip":"91750","distance":8.5619618264701,"lon":"-117.768282","lat":"34.11312","theaterChainName":"Edwards Theatres","ticketType":"STANDARD"},{"id":"4588","tribuneTheaterId":"9740","providerTheaterId":"430","name":"AMC Glendora 12","address":"1337 E. Gladstone St.","city":"Glendora","state":"CA","zip":"91740","distance":12.381517391217,"lon":"-117.836118","lat":"34.117098","theaterChainName":"AMC Theatres","ticketType":"STANDARD"},{"id":"5105","tribuneTheaterId":"10501","providerTheaterId":"","name":"Jurupa 14 Cinemas","address":"8032 Limonite Ave.","city":"Riverside","state":"CA","zip":"92509","distance":11.754530312839,"lon":"-117.459233","lat":"33.976415","theaterChainName":"Tristone Cinemas","ticketType":"STANDARD"},{"id":"99","tribuneTheaterId":"8977","providerTheaterId":"","name":"Regency Foothill Cinema Stadium 10","address":"854 E. Alosta Ave.","city":"Azusa","state":"CA","zip":"91702","distance":15.662680041644,"lon":"-117.892027","lat":"34.127729","theaterChainName":"Regency Theatres","ticketType":"STANDARD"},{"id":"4447","tribuneTheaterId":"9527","providerTheaterId":"422","name":"AMC Tyler Galleria 16","address":"3775 Tyler Ave.","city":"Riverside","state":"CA","zip":"92503","distance":14.833761648084,"lon":"-117.457583","lat":"33.912795","theaterChainName":"AMC Theatres","ticketType":"STANDARD"},{"id":"3904","tribuneTheaterId":"4654","providerTheaterId":"","name":"Regal Riverside Plaza Stadium 16","address":"3535 Riverside Plaza Dr.","city":"Riverside","state":"CA","zip":"92506","distance":15.844184672877,"lon":"-117.390008","lat":"33.955813","theaterChainName":"Regal Cinemas","ticketType":"STANDARD"},{"id":"551","tribuneTheaterId":"5813","providerTheaterId":"","name":"Edwards Anaheim Hills 14","address":"8032 E. Santa Ana Canyon Rd.","city":"Anaheim","state":"CA","zip":"92808","distance":16.296315098436,"lon":"-117.752175","lat":"33.86517","theaterChainName":"Edwards Theatres","ticketType":"STANDARD"},{"id":"548","tribuneTheaterId":"8246","providerTheaterId":"239","name":"AMC Covina 30","address":"1414 N. Azusa Ave.","city":"Covina","state":"CA","zip":"91722","distance":16.26386526485,"lon":"-117.9075","lat":"34.1051","theaterChainName":"AMC Theatres","ticketType":"STANDARD"},{"id":"344","tribuneTheaterId":"9177","providerTheaterId":"249","name":"AMC Puente Hills 20","address":"1560 S. Azusa Ave.","city":"City of Industry","state":"CA","zip":"91748","distance":18.144450032814,"lon":"-117.926517","lat":"33.99447","theaterChainName":"AMC Theatres","ticketType":"STANDARD"},{"id":"863","tribuneTheaterId":"5190","providerTheaterId":"","name":"Cinema City Stadium Theatres","address":"5635 E. La Palma Ave.","city":"Anaheim","state":"CA","zip":"92807","distance":17.667846500189,"lon":"-117.7918","lat":"33.861026","theaterChainName":"Independent Chains","ticketType":"STANDARD"},{"id":"5129","tribuneTheaterId":"10535","providerTheaterId":"","name":"Regency University Village 10 - Riverside","address":"1201 A University Ave.","city":"Riverside","state":"CA","zip":"92507","distance":17.85727218479,"lon":"-117.337574","lat":"33.976831","theaterChainName":"Regency Theatres","ticketType":"STANDARD"},{"id":"555","tribuneTheaterId":"5818","providerTheaterId":"","name":"Edwards West Covina Stadium 18","address":"1200 Lakes Dr.","city":"West Covina","state":"CA","zip":"91790","distance":17.068123006493,"lon":"-117.92355","lat":"34.070569","theaterChainName":"Edwards Theatres","ticketType":"STANDARD"},{"id":"4936","tribuneTheaterId":"10286","providerTheaterId":"","name":"Dos Lagos Stadium 15","address":"2710 Lakeshore Drive","city":"Corona","state":"CA","zip":"92883","distance":19.304801848704,"lon":"-117.509596","lat":"33.813933","theaterChainName":"Independent Chains","ticketType":"STANDARD"},{"id":"3903","tribuneTheaterId":"4855","providerTheaterId":"","name":"Edwards Corona Stadium 18","address":"2650 Tuscany Street","city":"Corona","state":"CA","zip":"92881","distance":18.600092464332,"lon":"-117.51601","lat":"33.822852","theaterChainName":"Edwards Theatres","ticketType":"STANDARD"},{"id":"2282","tribuneTheaterId":"5812","providerTheaterId":"","name":"Edwards Brea Stadium West 10","address":"155 W. Birch St.","city":"Brea","state":"CA","zip":"92821","distance":19.170368615694,"lon":"-117.901","lat":"33.9189","theaterChainName":"Edwards Theatres","ticketType":"STANDARD"},{"id":"3426","tribuneTheaterId":"5810","providerTheaterId":"","name":"Edwards Brea Stadium East 12","address":"155 W. Birch St.","city":"Brea","state":"CA","zip":"92821","distance":19.130165394763,"lon":"-117.899909","lat":"33.918615","theaterChainName":"Edwards Theatres","ticketType":"STANDARD"},{"id":"5167","tribuneTheaterId":"10574","providerTheaterId":"","name":"Regal San Bernardino Theatre Square Stadium 14 & RPX","address":"450 N.E St.","city":"San Bernardino","state":"CA","zip":"92401","distance":19.028481321965,"lon":"-117.294958","lat":"34.107301","theaterChainName":"Regal Cinemas","ticketType":"STANDARD"},{"id":"4940","tribuneTheaterId":"10293","providerTheaterId":"","name":"Brea Plaza 5 Discount Cinemas","address":"453 S. Associated Rd.","city":"Brea","state":"CA","zip":"92821","distance":18.447144821741,"lon":"-117.8797","lat":"33.9125","theaterChainName":"Tristone Cinemas","ticketType":"STANDARD"},{"id":"5711","tribuneTheaterId":"11153","providerTheaterId":"","name":"Galaxy Mission Grove 18","address":"121 East Alessandro Blvd.","city":"Riverside","state":"CA","zip":"92508","distance":20.233462547653,"lon":"-117.330357","lat":"33.9153","theaterChainName":"Galaxy Theatres","ticketType":"STANDARD"},{"id":"3110","tribuneTheaterId":"7772","providerTheaterId":"","name":"Krikorian Monrovia Cinema 12","address":"410 S. Myrtle Ave.","city":"Monrovia","state":"CA","zip":"91016","distance":22.025768701167,"lon":"-118.000651","lat":"34.147691","theaterChainName":"Krikorian Theatres","ticketType":"STANDARD"},{"id":"2291","tribuneTheaterId":"8197","providerTheaterId":"","name":"Regal La Habra Stadium 16","address":"1351 W. Imperial Highway","city":"La Habra","state":"CA","zip":"90631","distance":22.071859107056,"lon":"-117.960463","lat":"33.918559","theaterChainName":"Regal Cinemas","ticketType":"STANDARD"},{"id":"4853","tribuneTheaterId":"10147","providerTheaterId":"","name":"Regency Sterling 6","address":"2373 Sterling Ave.","city":"San Bernardino","state":"CA","zip":"92404","distance":22.253116394144,"lon":"-117.243599","lat":"34.137901","theaterChainName":"Regency Theatres","ticketType":"STANDARD"},{"id":"580","tribuneTheaterId":"8524","providerTheaterId":"","name":"Century Stadium 25 and XD","address":"1701 W. Katella Ave.","city":"Orange","state":"CA","zip":"92867","distance":23.193841823814,"lon":"-117.8705","lat":"33.8092","theaterChainName":"Cinemark","ticketType":"STANDARD"},{"id":"17","tribuneTheaterId":"9234","providerTheaterId":"248","name":"AMC Fullerton 20","address":"1001 S. Lemon St.","city":"Fullerton","state":"CA","zip":"92832","distance":22.484720785545,"lon":"-117.920423","lat":"33.861739","theaterChainName":"AMC Theatres","ticketType":"STANDARD"},{"id":"495","tribuneTheaterId":"3071","providerTheaterId":"","name":"Whittier Village Stadium Cinemas","address":"7038 Greenleaf Ave.","city":"Whittier","state":"CA","zip":"90602","distance":24.541070092709,"lon":"-118.037209","lat":"33.977937","theaterChainName":"Independent Chains","ticketType":"STANDARD"},{"id":"100","tribuneTheaterId":"8973","providerTheaterId":"","name":"Edwards El Monte 8","address":"10661 Valley Blvd.","city":"El Monte","state":"CA","zip":"91731","distance":23.688367372652,"lon":"-118.03932","lat":"34.077457","theaterChainName":"Edwards Theatres","ticketType":"STANDARD"},{"id":"3894","tribuneTheaterId":"4246","providerTheaterId":"206","name":"AMC Santa Anita 16","address":"400 S. Baldwin Ave. Ste. 940-U","city":"Arcadia","state":"CA","zip":"91007","distance":24.558148473881,"lon":"-118.048718","lat":"34.13527","theaterChainName":"AMC Theatres","ticketType":"STANDARD"}]