[{"id":"4446","tribuneTheaterId":"9526","providerTheaterId":"428","name":"AMC Otay Ranch 12","address":"2015 Birch Road Bldg 750","city":"Chula Vista","state":"CA","zip":"91915","distance":13.848114215499,"lon":"-116.966136","lat":"32.625696","theaterChainName":"AMC Theatres","ticketType":"STANDARD"},{"id":"2079","tribuneTheaterId":"5816","providerTheaterId":"","name":"Edwards Rancho San Diego Stadium 15","address":"2951 Jamacha Road","city":"El Cajon","state":"CA","zip":"92019","distance":14.905544616534,"lon":"-116.939732","lat":"32.737374","theaterChainName":"Edwards Theatres","ticketType":"STANDARD"},{"id":"2568","tribuneTheaterId":"5277","providerTheaterId":"235","name":"AMC Palm Promenade 24","address":"770 Dennery Rd","city":"San Diego","state":"CA","zip":"92154","distance":17.968648672318,"lon":"-117.0343","lat":"32.5797","theaterChainName":"AMC Theatres","ticketType":"STANDARD"},{"id":"1486","tribuneTheaterId":"6313","providerTheaterId":"","name":"Regal Rancho Del Rey Stadium 16","address":"1025 Tierra Del Rey","city":"Chula Vista","state":"CA","zip":"91910","distance":16.983612050938,"lon":"-117.019079","lat":"32.638228","theaterChainName":"Regal Cinemas","ticketType":"STANDARD"},{"id":"1610","tribuneTheaterId":"5656","providerTheaterId":"","name":"Regal Parkway Plaza Stadium 18 & IMAX","address":"405 Parkway Plaza","city":"El Cajon","state":"CA","zip":"92020","distance":19.126822437138,"lon":"-116.967758","lat":"32.805213","theaterChainName":"Regal Cinemas","ticketType":"STANDARD"},{"id":"42","tribuneTheaterId":"5826","providerTheaterId":"","name":"Grossmont Center 10","address":"5500 Grossmont Center Dr.","city":"La Mesa","state":"CA","zip":"91942","distance":19.921836785652,"lon":"-117.010704","lat":"32.778712","theaterChainName":"Reading International, Inc","ticketType":"STANDARD"},{"id":"4509","tribuneTheaterId":"9615","providerTheaterId":"429","name":"AMC Plaza Bonita 14","address":"3050 Plaza Bonita Rd.","city":"National City","state":"CA","zip":"91950","distance":19.773223215316,"lon":"-117.065089","lat":"32.654649","theaterChainName":"AMC Theatres","ticketType":"STANDARD"},{"id":"5499","tribuneTheaterId":"11001","providerTheaterId":"454","name":"AMC Chula Vista 10","address":"555 Broadway","city":"Chula Vista","state":"CA","zip":"91910","distance":20.976829985487,"lon":"-117.0886","lat":"32.628899","theaterChainName":"AMC Theatres","ticketType":"STANDARD"}]