[{"id":"2079","tribuneTheaterId":"5816","providerTheaterId":"","name":"Edwards Rancho San Diego Stadium 15","address":"2951 Jamacha Road","city":"El Cajon","state":"CA","zip":"92019","distance":21.145100435765,"lon":"-116.939732","lat":"32.737374","theaterChainName":"Edwards Theatres","ticketType":"STANDARD"},{"id":"4446","tribuneTheaterId":"9526","providerTheaterId":"428","name":"AMC Otay Ranch 12","address":"2015 Birch Road Bldg 750","city":"Chula Vista","state":"CA","zip":"91915","distance":21.094213177287,"lon":"-116.966136","lat":"32.625696","theaterChainName":"AMC Theatres","ticketType":"STANDARD"},{"id":"1610","tribuneTheaterId":"5656","providerTheaterId":"","name":"Regal Parkway Plaza Stadium 18 & IMAX","address":"405 Parkway Plaza","city":"El Cajon","state":"CA","zip":"92020","distance":24.714477150189,"lon":"-116.967758","lat":"32.805213","theaterChainName":"Regal Cinemas","ticketType":"STANDARD"},{"id":"1486","tribuneTheaterId":"6313","providerTheaterId":"","name":"Regal Rancho Del Rey Stadium 16","address":"1025 Tierra Del Rey","city":"Chula Vista","state":"CA","zip":"91910","distance":24.20137907013,"lon":"-117.019079","lat":"32.638228","theaterChainName":"Regal Cinemas","ticketType":"STANDARD"}]