[{"id":"5548","tribuneTheaterId":"10989","providerTheaterId":"","name":"Plaza Camino Real St. 12","address":"2501 El Camino Real","city":"Carlsbad","state":"CA","zip":"92008","distance":1.8136589297733,"lon":"-117.3268","lat":"33.1787","theaterChainName":"Regal Cinemas","ticketType":"STANDARD"},{"id":"353","tribuneTheaterId":"3206","providerTheaterId":"","name":"Digiplex Mission Marketplace 13","address":"431 College Blvd.","city":"Oceanside","state":"CA","zip":"92057","distance":5.80161907835,"lon":"-117.290298","lat":"33.247398","theaterChainName":"Carmike Cinemas","ticketType":"STANDARD"},{"id":"2656","tribuneTheaterId":"8968","providerTheaterId":"","name":"Regal Cinemas Oceanside Stadium 16","address":"401 Mission Ave","city":"Oceanside","state":"CA","zip":"92054","distance":5.0515385428888,"lon":"-117.379882","lat":"33.195133","theaterChainName":"Regal Cinemas","ticketType":"STANDARD"},{"id":"1304","tribuneTheaterId":"5819","providerTheaterId":"","name":"Edwards San Marcos Stadium 18","address":"1180 West San Marcos","city":"San Marcos","state":"CA","zip":"92069","distance":6.5618434041007,"lon":"-117.19297","lat":"33.134681","theaterChainName":"Edwards Theatres","ticketType":"STANDARD"},{"id":"354","tribuneTheaterId":"9254","providerTheaterId":"","name":"Digiplex River Village Cinemas","address":"5256 S. Mission Road","city":"Bonsall","state":"CA","zip":"92003","distance":10.190020865239,"lon":"-117.222504","lat":"33.296001","theaterChainName":"Carmike Cinemas","ticketType":"STANDARD"},{"id":"3693","tribuneTheaterId":"5655","providerTheaterId":"","name":"Regal Escondido Stadium 16 & IMAX","address":"350 W. Valley Parkway","city":"Escondido","state":"CA","zip":"92025","distance":12.714243301831,"lon":"-117.087009","lat":"33.121623","theaterChainName":"Regal Cinemas","ticketType":"STANDARD"},{"id":"106","tribuneTheaterId":"5847","providerTheaterId":"","name":"Digiplex Poway ","address":"13475 Poway Road","city":"Poway","state":"CA","zip":"92064","distance":20.870327744322,"lon":"-117.039101","lat":"32.956299","theaterChainName":"Carmike Cinemas","ticketType":"STANDARD"},{"id":"3039","tribuneTheaterId":"8744","providerTheaterId":"","name":"Edwards Mira Mesa Stadium 18 & IMAX","address":"10733 Westview Parkway","city":"San Diego","state":"CA","zip":"92126","distance":20.198891444574,"lon":"-117.117578","lat":"32.915209","theaterChainName":"Edwards Theatres","ticketType":"STANDARD"},{"id":"44","tribuneTheaterId":"5828","providerTheaterId":"","name":"Town Square Stadium","address":"4665 Clairemont Dr.","city":"San Diego","state":"CA","zip":"92117","distance":23.778577353818,"lon":"-117.205383","lat":"32.829202","theaterChainName":"Reading International, Inc","ticketType":"STANDARD"}]