[{"id":"353","tribuneTheaterId":"3206","providerTheaterId":"","name":"Digiplex Mission Marketplace 13","address":"431 College Blvd.","city":"Oceanside","state":"CA","zip":"92057","distance":3.3734341021234,"lon":"-117.290298","lat":"33.247398","theaterChainName":"Carmike Cinemas","ticketType":"STANDARD"},{"id":"354","tribuneTheaterId":"9254","providerTheaterId":"","name":"Digiplex River Village Cinemas","address":"5256 S. Mission Road","city":"Bonsall","state":"CA","zip":"92003","distance":7.1558303521806,"lon":"-117.222504","lat":"33.296001","theaterChainName":"Carmike Cinemas","ticketType":"STANDARD"},{"id":"5548","tribuneTheaterId":"10989","providerTheaterId":"","name":"Plaza Camino Real St. 12","address":"2501 El Camino Real","city":"Carlsbad","state":"CA","zip":"92008","distance":6.3441551995648,"lon":"-117.3268","lat":"33.1787","theaterChainName":"Regal Cinemas","ticketType":"STANDARD"},{"id":"2656","tribuneTheaterId":"8968","providerTheaterId":"","name":"Regal Cinemas Oceanside Stadium 16","address":"401 Mission Ave","city":"Oceanside","state":"CA","zip":"92054","distance":5.5848307820731,"lon":"-117.379882","lat":"33.195133","theaterChainName":"Regal Cinemas","ticketType":"STANDARD"},{"id":"1304","tribuneTheaterId":"5819","providerTheaterId":"","name":"Edwards San Marcos Stadium 18","address":"1180 West San Marcos","city":"San Marcos","state":"CA","zip":"92069","distance":12.705629019656,"lon":"-117.19297","lat":"33.134681","theaterChainName":"Edwards Theatres","ticketType":"STANDARD"},{"id":"3693","tribuneTheaterId":"5655","providerTheaterId":"","name":"Regal Escondido Stadium 16 & IMAX","address":"350 W. Valley Parkway","city":"Escondido","state":"CA","zip":"92025","distance":17.955554346458,"lon":"-117.087009","lat":"33.121623","theaterChainName":"Regal Cinemas","ticketType":"STANDARD"},{"id":"4999","tribuneTheaterId":"10368","providerTheaterId":"","name":"Digiplex Temecula Tower Cinemas","address":"27531 Ynez Rd.","city":"Temecula","state":"CA","zip":"92591","distance":19.661013008905,"lon":"-117.149597","lat":"33.504299","theaterChainName":"Carmike Cinemas","ticketType":"STANDARD"},{"id":"2797","tribuneTheaterId":"5817","providerTheaterId":"","name":"Edwards Temecula Stadium 15","address":"40750 Winchester Road","city":"Temecula","state":"CA","zip":"92591","distance":20.775273885206,"lon":"-117.15242","lat":"33.525101","theaterChainName":"Edwards Theatres","ticketType":"STANDARD"},{"id":"1159","tribuneTheaterId":"3038","providerTheaterId":"","name":"Temeku Cinemas","address":"26463 Ynez Rd.","city":"Temecula","state":"CA","zip":"92591","distance":20.232579947456,"lon":"-117.159529","lat":"33.519528","theaterChainName":"Tristone Cinemas","ticketType":"STANDARD"},{"id":"1821","tribuneTheaterId":"3227","providerTheaterId":"","name":"Reading Cinemas Cal Oaks 17","address":"California Oaks Shopping Plaza","city":"Murrieta","state":"CA","zip":"92562","distance":21.866005960497,"lon":"-117.202514","lat":"33.563777","theaterChainName":"Reading International, Inc","ticketType":"STANDARD"},{"id":"864","tribuneTheaterId":"8606","providerTheaterId":"","name":"Krikorian San Clemente 6","address":"641 B Camino de los Mares","city":"San Clemente","state":"CA","zip":"92673","distance":22.099320533246,"lon":"-117.650639","lat":"33.459298","theaterChainName":"Krikorian Theatres","ticketType":"STANDARD"},{"id":"4910","tribuneTheaterId":"10227","providerTheaterId":"","name":"Regency Theatres San Juan Capistrano","address":"26762 Verdugo St.","city":"San Juan Capistrano","state":"CA","zip":"92675","distance":24.471476591041,"lon":"-117.663319","lat":"33.501105","theaterChainName":"Regency Theatres","ticketType":"STANDARD"}]