[{"id":"2656","tribuneTheaterId":"8968","providerTheaterId":"","name":"Regal Cinemas Oceanside Stadium 16","address":"401 Mission Ave","city":"Oceanside","state":"CA","zip":"92054","distance":0.057412823291228,"lon":"-117.379882","lat":"33.195133","theaterChainName":"Regal Cinemas","ticketType":"STANDARD"},{"id":"5548","tribuneTheaterId":"10989","providerTheaterId":"","name":"Plaza Camino Real St. 12","address":"2501 El Camino Real","city":"Carlsbad","state":"CA","zip":"92008","distance":3.270815704534,"lon":"-117.3268","lat":"33.1787","theaterChainName":"Regal Cinemas","ticketType":"STANDARD"},{"id":"353","tribuneTheaterId":"3206","providerTheaterId":"","name":"Digiplex Mission Marketplace 13","address":"431 College Blvd.","city":"Oceanside","state":"CA","zip":"92057","distance":6.2645086922161,"lon":"-117.290298","lat":"33.247398","theaterChainName":"Carmike Cinemas","ticketType":"STANDARD"},{"id":"1304","tribuneTheaterId":"5819","providerTheaterId":"","name":"Edwards San Marcos Stadium 18","address":"1180 West San Marcos","city":"San Marcos","state":"CA","zip":"92069","distance":11.588029279369,"lon":"-117.19297","lat":"33.134681","theaterChainName":"Edwards Theatres","ticketType":"STANDARD"},{"id":"354","tribuneTheaterId":"9254","providerTheaterId":"","name":"Digiplex River Village Cinemas","address":"5256 S. Mission Road","city":"Bonsall","state":"CA","zip":"92003","distance":11.407678605178,"lon":"-117.222504","lat":"33.296001","theaterChainName":"Carmike Cinemas","ticketType":"STANDARD"},{"id":"3693","tribuneTheaterId":"5655","providerTheaterId":"","name":"Regal Escondido Stadium 16 & IMAX","address":"350 W. Valley Parkway","city":"Escondido","state":"CA","zip":"92025","distance":17.679522377246,"lon":"-117.087009","lat":"33.121623","theaterChainName":"Regal Cinemas","ticketType":"STANDARD"},{"id":"864","tribuneTheaterId":"8606","providerTheaterId":"","name":"Krikorian San Clemente 6","address":"641 B Camino de los Mares","city":"San Clemente","state":"CA","zip":"92673","distance":24.00456614073,"lon":"-117.650639","lat":"33.459298","theaterChainName":"Krikorian Theatres","ticketType":"STANDARD"},{"id":"3039","tribuneTheaterId":"8744","providerTheaterId":"","name":"Edwards Mira Mesa Stadium 18 & IMAX","address":"10733 Westview Parkway","city":"San Diego","state":"CA","zip":"92126","distance":24.620850576371,"lon":"-117.117578","lat":"32.915209","theaterChainName":"Edwards Theatres","ticketType":"STANDARD"}]