[{"id":"106","tribuneTheaterId":"5847","providerTheaterId":"","name":"Digiplex Poway ","address":"13475 Poway Road","city":"Poway","state":"CA","zip":"92064","distance":11.879734947804,"lon":"-117.039101","lat":"32.956299","theaterChainName":"Carmike Cinemas","ticketType":"STANDARD"},{"id":"3693","tribuneTheaterId":"5655","providerTheaterId":"","name":"Regal Escondido Stadium 16 & IMAX","address":"350 W. Valley Parkway","city":"Escondido","state":"CA","zip":"92025","distance":14.948769594712,"lon":"-117.087009","lat":"33.121623","theaterChainName":"Regal Cinemas","ticketType":"STANDARD"},{"id":"3039","tribuneTheaterId":"8744","providerTheaterId":"","name":"Edwards Mira Mesa Stadium 18 & IMAX","address":"10733 Westview Parkway","city":"San Diego","state":"CA","zip":"92126","distance":17.217749968955,"lon":"-117.117578","lat":"32.915209","theaterChainName":"Edwards Theatres","ticketType":"STANDARD"},{"id":"1610","tribuneTheaterId":"5656","providerTheaterId":"","name":"Regal Parkway Plaza Stadium 18 & IMAX","address":"405 Parkway Plaza","city":"El Cajon","state":"CA","zip":"92020","distance":16.841563739047,"lon":"-116.967758","lat":"32.805213","theaterChainName":"Regal Cinemas","ticketType":"STANDARD"},{"id":"42","tribuneTheaterId":"5826","providerTheaterId":"","name":"Grossmont Center 10","address":"5500 Grossmont Center Dr.","city":"La Mesa","state":"CA","zip":"91942","distance":19.568717204987,"lon":"-117.010704","lat":"32.778712","theaterChainName":"Reading International, Inc","ticketType":"STANDARD"},{"id":"2079","tribuneTheaterId":"5816","providerTheaterId":"","name":"Edwards Rancho San Diego Stadium 15","address":"2951 Jamacha Road","city":"El Cajon","state":"CA","zip":"92019","distance":20.781446176977,"lon":"-116.939732","lat":"32.737374","theaterChainName":"Edwards Theatres","ticketType":"STANDARD"},{"id":"1304","tribuneTheaterId":"5819","providerTheaterId":"","name":"Edwards San Marcos Stadium 18","address":"1180 West San Marcos","city":"San Marcos","state":"CA","zip":"92069","distance":20.958217089755,"lon":"-117.19297","lat":"33.134681","theaterChainName":"Edwards Theatres","ticketType":"STANDARD"},{"id":"44","tribuneTheaterId":"5828","providerTheaterId":"","name":"Town Square Stadium","address":"4665 Clairemont Dr.","city":"San Diego","state":"CA","zip":"92117","distance":24.649054049675,"lon":"-117.205383","lat":"32.829202","theaterChainName":"Reading International, Inc","ticketType":"STANDARD"},{"id":"128","tribuneTheaterId":"8821","providerTheaterId":"246","name":"AMC Mission Valley 20","address":"1640 Camino Del Rio North","city":"San Diego","state":"CA","zip":"92108","distance":24.918862815054,"lon":"-117.148657","lat":"32.767278","theaterChainName":"AMC Theatres","ticketType":"STANDARD"}]