[{"id":"1304","tribuneTheaterId":"5819","providerTheaterId":"","name":"Edwards San Marcos Stadium 18","address":"1180 West San Marcos","city":"San Marcos","state":"CA","zip":"92069","distance":10.481361404527,"lon":"-117.19297","lat":"33.134681","theaterChainName":"Edwards Theatres","ticketType":"STANDARD"},{"id":"3039","tribuneTheaterId":"8744","providerTheaterId":"","name":"Edwards Mira Mesa Stadium 18 & IMAX","address":"10733 Westview Parkway","city":"San Diego","state":"CA","zip":"92126","distance":9.8691295188815,"lon":"-117.117578","lat":"32.915209","theaterChainName":"Edwards Theatres","ticketType":"STANDARD"},{"id":"44","tribuneTheaterId":"5828","providerTheaterId":"","name":"Town Square Stadium","address":"4665 Clairemont Dr.","city":"San Diego","state":"CA","zip":"92117","distance":11.795865534824,"lon":"-117.205383","lat":"32.829202","theaterChainName":"Reading International, Inc","ticketType":"STANDARD"},{"id":"5548","tribuneTheaterId":"10989","providerTheaterId":"","name":"Plaza Camino Real St. 12","address":"2501 El Camino Real","city":"Carlsbad","state":"CA","zip":"92008","distance":13.357763788778,"lon":"-117.3268","lat":"33.1787","theaterChainName":"Regal Cinemas","ticketType":"STANDARD"},{"id":"3693","tribuneTheaterId":"5655","providerTheaterId":"","name":"Regal Escondido Stadium 16 & IMAX","address":"350 W. Valley Parkway","city":"Escondido","state":"CA","zip":"92025","distance":13.350765250091,"lon":"-117.087009","lat":"33.121623","theaterChainName":"Regal Cinemas","ticketType":"STANDARD"},{"id":"106","tribuneTheaterId":"5847","providerTheaterId":"","name":"Digiplex Poway ","address":"13475 Poway Road","city":"Poway","state":"CA","zip":"92064","distance":13.050759229221,"lon":"-117.039101","lat":"32.956299","theaterChainName":"Carmike Cinemas","ticketType":"STANDARD"},{"id":"6","tribuneTheaterId":"7766","providerTheaterId":"","name":"UltraStar Mission Valley ","address":"7510 Hazard Center Drive #100","city":"San Diego","state":"CA","zip":"92108","distance":16.530078199896,"lon":"-117.159103","lat":"32.769901","theaterChainName":"UltraStar Cinemas","ticketType":"STANDARD"},{"id":"2656","tribuneTheaterId":"8968","providerTheaterId":"","name":"Regal Cinemas Oceanside Stadium 16","address":"401 Mission Ave","city":"Oceanside","state":"CA","zip":"92054","distance":15.556868605763,"lon":"-117.379882","lat":"33.195133","theaterChainName":"Regal Cinemas","ticketType":"STANDARD"},{"id":"128","tribuneTheaterId":"8821","providerTheaterId":"246","name":"AMC Mission Valley 20","address":"1640 Camino Del Rio North","city":"San Diego","state":"CA","zip":"92108","distance":16.921365551133,"lon":"-117.148657","lat":"32.767278","theaterChainName":"AMC Theatres","ticketType":"STANDARD"},{"id":"835","tribuneTheaterId":"7332","providerTheaterId":"444","name":"AMC Fashion Valley 18","address":"7037 Friars Road","city":"San Diego","state":"CA","zip":"92108","distance":16.557096333569,"lon":"-117.166043","lat":"32.767371","theaterChainName":"AMC Theatres","ticketType":"STANDARD"},{"id":"353","tribuneTheaterId":"3206","providerTheaterId":"","name":"Digiplex Mission Marketplace 13","address":"431 College Blvd.","city":"Oceanside","state":"CA","zip":"92057","distance":17.617451729779,"lon":"-117.290298","lat":"33.247398","theaterChainName":"Carmike Cinemas","ticketType":"STANDARD"},{"id":"86","tribuneTheaterId":"7426","providerTheaterId":"","name":"United Artists Horton Plaza 14","address":"475 Horton Plaza","city":"San Diego","state":"CA","zip":"92101","distance":20.136851730917,"lon":"-117.1619","lat":"32.7141","theaterChainName":"United Artists","ticketType":"STANDARD"},{"id":"354","tribuneTheaterId":"9254","providerTheaterId":"","name":"Digiplex River Village Cinemas","address":"5256 S. Mission Road","city":"Bonsall","state":"CA","zip":"92003","distance":20.99811888468,"lon":"-117.222504","lat":"33.296001","theaterChainName":"Carmike Cinemas","ticketType":"STANDARD"},{"id":"42","tribuneTheaterId":"5826","providerTheaterId":"","name":"Grossmont Center 10","address":"5500 Grossmont Center Dr.","city":"La Mesa","state":"CA","zip":"91942","distance":20.725152794813,"lon":"-117.010704","lat":"32.778712","theaterChainName":"Reading International, Inc","ticketType":"STANDARD"},{"id":"5066","tribuneTheaterId":"10449","providerTheaterId":"","name":"Vintage Village Theatres","address":"820 Orange Ave.","city":"Coronado","state":"CA","zip":"92118","distance":21.608724670682,"lon":"-117.178614","lat":"32.688482","theaterChainName":"Independent Chains","ticketType":"STANDARD"},{"id":"1610","tribuneTheaterId":"5656","providerTheaterId":"","name":"Regal Parkway Plaza Stadium 18 & IMAX","address":"405 Parkway Plaza","city":"El Cajon","state":"CA","zip":"92020","distance":21.369058199466,"lon":"-116.967758","lat":"32.805213","theaterChainName":"Regal Cinemas","ticketType":"STANDARD"}]