[{"id":"1165","tribuneTheaterId":"5651","providerTheaterId":"","name":"Regal San Jacinto Metro 12","address":"1599 S. San Jacinto Ave.","city":"San Jacinto","state":"CA","zip":"92583","distance":12.38617810055,"lon":"-116.955271","lat":"33.771556","theaterChainName":"Regal Cinemas","ticketType":"STANDARD"},{"id":"1164","tribuneTheaterId":"5878","providerTheaterId":"","name":"Krikorian Redlands Cinema 14","address":"340 N. Eureka St.","city":"Redlands","state":"CA","zip":"92373","distance":14.433106290191,"lon":"-117.185898","lat":"34.058255","theaterChainName":"Krikorian Theatres","ticketType":"STANDARD"},{"id":"588","tribuneTheaterId":"8196","providerTheaterId":"","name":"Regal Hemet Cinema 12","address":"2369 W. Florida Ave.","city":"Hemet","state":"CA","zip":"92545","distance":14.216225332472,"lon":"-116.997061","lat":"33.745868","theaterChainName":"Regal Cinemas","ticketType":"STANDARD"},{"id":"4031","tribuneTheaterId":"1032","providerTheaterId":"","name":"Historic Hemet Theatre","address":"216 E. Florida Ave.","city":"Hemet","state":"CA","zip":"92543","distance":14.018972466602,"lon":"-116.970398","lat":"33.747501","theaterChainName":"Independent Chains","ticketType":"STANDARD"},{"id":"4459","tribuneTheaterId":"9550","providerTheaterId":"","name":"Regency Perris 10","address":"1688 N. Perris Blvd.","city":"Perris","state":"CA","zip":"92571","distance":18.001889525194,"lon":"-117.228274","lat":"33.802282","theaterChainName":"Regency Theatres","ticketType":"STANDARD"},{"id":"4853","tribuneTheaterId":"10147","providerTheaterId":"","name":"Regency Sterling 6","address":"2373 Sterling Ave.","city":"San Bernardino","state":"CA","zip":"92404","distance":20.322651154758,"lon":"-117.243599","lat":"34.137901","theaterChainName":"Regency Theatres","ticketType":"STANDARD"},{"id":"5167","tribuneTheaterId":"10574","providerTheaterId":"","name":"Regal San Bernardino Theatre Square Stadium 14 & RPX","address":"450 N.E St.","city":"San Bernardino","state":"CA","zip":"92401","distance":21.530238350416,"lon":"-117.294958","lat":"34.107301","theaterChainName":"Regal Cinemas","ticketType":"STANDARD"},{"id":"5129","tribuneTheaterId":"10535","providerTheaterId":"","name":"Regency University Village 10 - Riverside","address":"1201 A University Ave.","city":"Riverside","state":"CA","zip":"92507","distance":21.13729510912,"lon":"-117.337574","lat":"33.976831","theaterChainName":"Regency Theatres","ticketType":"STANDARD"},{"id":"5711","tribuneTheaterId":"11153","providerTheaterId":"","name":"Galaxy Mission Grove 18","address":"121 East Alessandro Blvd.","city":"Riverside","state":"CA","zip":"92508","distance":20.79405469507,"lon":"-117.330357","lat":"33.9153","theaterChainName":"Galaxy Theatres","ticketType":"STANDARD"},{"id":"2339","tribuneTheaterId":"2533","providerTheaterId":"","name":"Rustic Theatre","address":"54290 N. Circle Drive","city":"Idyllwild","state":"CA","zip":"92549","distance":20.44644773957,"lon":"-116.712898","lat":"33.745602","theaterChainName":"Independent Chains","ticketType":"STANDARD"},{"id":"1820","tribuneTheaterId":"2889","providerTheaterId":"","name":"Blue Jay Cinema","address":"27215 N Bay Rd.","city":"Blue Jay","state":"CA","zip":"92317","distance":24.613876517631,"lon":"-117.207057","lat":"34.247733","theaterChainName":"Independent Chains","ticketType":"STANDARD"},{"id":"3904","tribuneTheaterId":"4654","providerTheaterId":"","name":"Regal Riverside Plaza Stadium 16","address":"3535 Riverside Plaza Dr.","city":"Riverside","state":"CA","zip":"92506","distance":24.068885984154,"lon":"-117.390008","lat":"33.955813","theaterChainName":"Regal Cinemas","ticketType":"STANDARD"}]