[{"id":"5781","tribuneTheaterId":"11221","providerTheaterId":"","name":"Century La Quinta and XD","address":"46800 Washington Street","city":"La Quinta","state":"CA","zip":"92253","distance":2.4349639160668,"lon":"-116.292785","lat":"33.708789","theaterChainName":"Cinemark","ticketType":"STANDARD"},{"id":"1266","tribuneTheaterId":"5647","providerTheaterId":"","name":"Regal Indio Metro 8","address":"81725 Highway 111","city":"Indio","state":"CA","zip":"92201","distance":4.1568578340134,"lon":"-116.236486","lat":"33.70883","theaterChainName":"Regal Cinemas","ticketType":"STANDARD"},{"id":"5949","tribuneTheaterId":"11379","providerTheaterId":"","name":"Tristone Palm Desert 10 Cinemas","address":"Westfield Palm Desert, 72-840 Highway 111","city":"Palm Desert","state":"CA","zip":"92260","distance":6.6957407621845,"lon":"-116.394298","lat":"33.724396","theaterChainName":"Tristone Cinemas","ticketType":"STANDARD"},{"id":"3540","tribuneTheaterId":"8803","providerTheaterId":"","name":"Century Theatres at The River","address":"71800 Highway 111 Ste A-137","city":"Rancho Mirage","state":"CA","zip":"92270","distance":8.0090358412345,"lon":"-116.409658","lat":"33.739589","theaterChainName":"Cinemark","ticketType":"STANDARD"},{"id":"2571","tribuneTheaterId":"5653","providerTheaterId":"","name":"Regal Rancho Mirage Stadium 16","address":"72-777 Dinah Shore Drive","city":"Rancho Mirage","state":"CA","zip":"92270","distance":10.442992068103,"lon":"-116.392162","lat":"33.801386","theaterChainName":"Regal Cinemas","ticketType":"STANDARD"},{"id":"5944","tribuneTheaterId":"11376","providerTheaterId":"","name":"Pickford Stadium 14","address":"68510 E Palm Canyon Drive","city":"Cathedral City","state":"CA","zip":"92234","distance":12.309812314843,"lon":"-116.4662","lat":"33.7808","theaterChainName":"Independent Chains","ticketType":"STANDARD"},{"id":"6037","tribuneTheaterId":"11441","providerTheaterId":"","name":"Cathedral City 10","address":"34491 Date Palm Drive","city":"Cathedral City","state":"CA","zip":"92234","distance":12.84078828185,"lon":"-116.460724","lat":"33.798374","theaterChainName":"Regency Theatres","ticketType":"STANDARD"},{"id":"2997","tribuneTheaterId":"5823","providerTheaterId":"","name":"Camelot Theatres","address":"2300 E Baristo Rd.","city":"Palm Springs","state":"CA","zip":"92262","distance":16.463955510027,"lon":"-116.521245","lat":"33.81996","theaterChainName":"Independent Chains","ticketType":"STANDARD"},{"id":"1265","tribuneTheaterId":"5646","providerTheaterId":"","name":"Regal Palm Springs Stadium 9","address":"789 E. Tahquitz Canyon Way","city":"Palm Springs","state":"CA","zip":"92262","distance":17.427701388501,"lon":"-116.539718","lat":"33.822771","theaterChainName":"Regal Cinemas","ticketType":"STANDARD"},{"id":"2339","tribuneTheaterId":"2533","providerTheaterId":"","name":"Rustic Theatre","address":"54290 N. Circle Drive","city":"Idyllwild","state":"CA","zip":"92549","distance":24.523259393749,"lon":"-116.712898","lat":"33.745602","theaterChainName":"Independent Chains","ticketType":"STANDARD"}]