[{"id":"2876","tribuneTheaterId":"2906","providerTheaterId":"","name":"Cinema 6 - Yucca Valley","address":"56401 Twentynine Palms Highway","city":"Yucca Valley","state":"CA","zip":"92284","distance":2.4569091022874,"lon":"-116.43378","lat":"34.1204","theaterChainName":"Independent Chains","ticketType":"STANDARD"},{"id":"1265","tribuneTheaterId":"5646","providerTheaterId":"","name":"Regal Palm Springs Stadium 9","address":"789 E. Tahquitz Canyon Way","city":"Palm Springs","state":"CA","zip":"92262","distance":23.840271963058,"lon":"-116.539718","lat":"33.822771","theaterChainName":"Regal Cinemas","ticketType":"STANDARD"},{"id":"2997","tribuneTheaterId":"5823","providerTheaterId":"","name":"Camelot Theatres","address":"2300 E Baristo Rd.","city":"Palm Springs","state":"CA","zip":"92262","distance":23.776287527773,"lon":"-116.521245","lat":"33.81996","theaterChainName":"Independent Chains","ticketType":"STANDARD"},{"id":"6037","tribuneTheaterId":"11441","providerTheaterId":"","name":"Cathedral City 10","address":"34491 Date Palm Drive","city":"Cathedral City","state":"CA","zip":"92234","distance":24.760113498921,"lon":"-116.460724","lat":"33.798374","theaterChainName":"Regency Theatres","ticketType":"STANDARD"},{"id":"2571","tribuneTheaterId":"5653","providerTheaterId":"","name":"Regal Rancho Mirage Stadium 16","address":"72-777 Dinah Shore Drive","city":"Rancho Mirage","state":"CA","zip":"92270","distance":24.596972898076,"lon":"-116.392162","lat":"33.801386","theaterChainName":"Regal Cinemas","ticketType":"STANDARD"}]