[{"id":"1343","tribuneTheaterId":"4172","providerTheaterId":"","name":"Cinemark  Movies 10 Victorville","address":"12353 Mariposa Rd.","city":"Victorville","state":"CA","zip":"92392","distance":13.720221881632,"lon":"-117.339303","lat":"34.476277","theaterChainName":"Cinemark","ticketType":"STANDARD"},{"id":"4285","tribuneTheaterId":"4175","providerTheaterId":"","name":"Cinemark 16 Victorville and XD","address":"14470 Bear Valley Rd.","city":"Victorville","state":"CA","zip":"92392","distance":13.194463004076,"lon":"-117.34834","lat":"34.474689","theaterChainName":"Cinemark","ticketType":"STANDARD"},{"id":"5246","tribuneTheaterId":"10674","providerTheaterId":"","name":"Civic Plaza 12","address":"9711 Ninth St.","city":"Hesperia","state":"CA","zip":"92340","distance":16.794287320569,"lon":"-117.2778","lat":"34.418","theaterChainName":"CinemaWest","ticketType":"STANDARD"},{"id":"4713","tribuneTheaterId":"9928","providerTheaterId":"","name":"Cinemark Jess Ranch","address":"18935 Bear Valley Road","city":"Apple Valley","state":"CA","zip":"92308","distance":18.565110976891,"lon":"-117.250342","lat":"34.4674","theaterChainName":"Cinemark","ticketType":"STANDARD"},{"id":"4436","tribuneTheaterId":"9511","providerTheaterId":"","name":"Terra Vista 6","address":"10701 Town Center Dr.","city":"Rancho Cucamonga","state":"CA","zip":"91730","distance":21.837516457711,"lon":"-117.571717","lat":"34.110042","theaterChainName":"Tristone Cinemas","ticketType":"STANDARD"},{"id":"3935","tribuneTheaterId":"4245","providerTheaterId":"237","name":"AMC Victoria Gardens 12","address":"12600 N. MainStreet","city":"Rancho Cucamonga","state":"CA","zip":"91739","distance":21.787355517113,"lon":"-117.530176","lat":"34.112695","theaterChainName":"AMC Theatres","ticketType":"STANDARD"},{"id":"4439","tribuneTheaterId":"9515","providerTheaterId":"","name":"UltraStar Apple Valley 14","address":"22311 Bear Valley Rd.","city":"Apple Valley","state":"CA","zip":"92308","distance":22.757303237994,"lon":"-117.176697","lat":"34.4715","theaterChainName":"Carmike Cinemas","ticketType":"STANDARD"},{"id":"1820","tribuneTheaterId":"2889","providerTheaterId":"","name":"Blue Jay Cinema","address":"27215 N Bay Rd.","city":"Blue Jay","state":"CA","zip":"92317","distance":24.209628560958,"lon":"-117.207057","lat":"34.247733","theaterChainName":"Independent Chains","ticketType":"STANDARD"},{"id":"554","tribuneTheaterId":"5820","providerTheaterId":"","name":"Edwards Ontario Palace Stadium 22 & IMAX","address":"4900 E. 4th St.","city":"Ontario","state":"CA","zip":"91764","distance":24.236669839642,"lon":"-117.54855","lat":"34.075868","theaterChainName":"Edwards Theatres","ticketType":"STANDARD"},{"id":"4391","tribuneTheaterId":"9439","providerTheaterId":"","name":"Claremont 5","address":"450 W. 2nd St.","city":"Claremont","state":"CA","zip":"91711","distance":24.363159607703,"lon":"-117.720286","lat":"34.095379","theaterChainName":"Laemmle Theatres","ticketType":"STANDARD"},{"id":"2298","tribuneTheaterId":"9137","providerTheaterId":"","name":"Edwards Ontario Mountain Village Stadium 14","address":"1575 N. Mountain Ave.","city":"Ontario","state":"CA","zip":"91762","distance":24.163263772441,"lon":"-117.671219","lat":"34.086072","theaterChainName":"Edwards Theatres","ticketType":"STANDARD"},{"id":"266","tribuneTheaterId":"9270","providerTheaterId":"435","name":"AMC Ontario Mills 30","address":"4549 Mills Circle","city":"Ontario","state":"CA","zip":"91764","distance":24.297130389973,"lon":"-117.552274","lat":"34.074833","theaterChainName":"AMC Theatres","ticketType":"STANDARD"},{"id":"102","tribuneTheaterId":"9004","providerTheaterId":"","name":"Edwards La Verne Stadium 12","address":"1950 Foothill Blvd.","city":"La Verne","state":"CA","zip":"91750","distance":24.348603242718,"lon":"-117.768282","lat":"34.11312","theaterChainName":"Edwards Theatres","ticketType":"STANDARD"}]