[{"id":"1820","tribuneTheaterId":"2889","providerTheaterId":"","name":"Blue Jay Cinema","address":"27215 N Bay Rd.","city":"Blue Jay","state":"CA","zip":"92317","distance":14.613047757758,"lon":"-117.207057","lat":"34.247733","theaterChainName":"Independent Chains","ticketType":"STANDARD"},{"id":"1164","tribuneTheaterId":"5878","providerTheaterId":"","name":"Krikorian Redlands Cinema 14","address":"340 N. Eureka St.","city":"Redlands","state":"CA","zip":"92373","distance":19.252018018382,"lon":"-117.185898","lat":"34.058255","theaterChainName":"Krikorian Theatres","ticketType":"STANDARD"},{"id":"4853","tribuneTheaterId":"10147","providerTheaterId":"","name":"Regency Sterling 6","address":"2373 Sterling Ave.","city":"San Bernardino","state":"CA","zip":"92404","distance":18.650572206925,"lon":"-117.243599","lat":"34.137901","theaterChainName":"Regency Theatres","ticketType":"STANDARD"},{"id":"4439","tribuneTheaterId":"9515","providerTheaterId":"","name":"UltraStar Apple Valley 14","address":"22311 Bear Valley Rd.","city":"Apple Valley","state":"CA","zip":"92308","distance":19.543708547397,"lon":"-117.176697","lat":"34.4715","theaterChainName":"Carmike Cinemas","ticketType":"STANDARD"},{"id":"4713","tribuneTheaterId":"9928","providerTheaterId":"","name":"Cinemark Jess Ranch","address":"18935 Bear Valley Road","city":"Apple Valley","state":"CA","zip":"92308","distance":22.343706606702,"lon":"-117.250342","lat":"34.4674","theaterChainName":"Cinemark","ticketType":"STANDARD"},{"id":"5167","tribuneTheaterId":"10574","providerTheaterId":"","name":"Regal San Bernardino Theatre Square Stadium 14 & RPX","address":"450 N.E St.","city":"San Bernardino","state":"CA","zip":"92401","distance":22.231272525108,"lon":"-117.294958","lat":"34.107301","theaterChainName":"Regal Cinemas","ticketType":"STANDARD"},{"id":"5246","tribuneTheaterId":"10674","providerTheaterId":"","name":"Civic Plaza 12","address":"9711 Ninth St.","city":"Hesperia","state":"CA","zip":"92340","distance":21.640465919233,"lon":"-117.2778","lat":"34.418","theaterChainName":"CinemaWest","ticketType":"STANDARD"}]