[{"id":"1164","tribuneTheaterId":"5878","providerTheaterId":"","name":"Krikorian Redlands Cinema 14","address":"340 N. Eureka St.","city":"Redlands","state":"CA","zip":"92373","distance":1.1673249396238,"lon":"-117.185898","lat":"34.058255","theaterChainName":"Krikorian Theatres","ticketType":"STANDARD"},{"id":"4853","tribuneTheaterId":"10147","providerTheaterId":"","name":"Regency Sterling 6","address":"2373 Sterling Ave.","city":"San Bernardino","state":"CA","zip":"92404","distance":6.6690686797668,"lon":"-117.243599","lat":"34.137901","theaterChainName":"Regency Theatres","ticketType":"STANDARD"},{"id":"5167","tribuneTheaterId":"10574","providerTheaterId":"","name":"Regal San Bernardino Theatre Square Stadium 14 & RPX","address":"450 N.E St.","city":"San Bernardino","state":"CA","zip":"92401","distance":7.8732540890632,"lon":"-117.294958","lat":"34.107301","theaterChainName":"Regal Cinemas","ticketType":"STANDARD"},{"id":"5129","tribuneTheaterId":"10535","providerTheaterId":"","name":"Regency University Village 10 - Riverside","address":"1201 A University Ave.","city":"Riverside","state":"CA","zip":"92507","distance":11.502424991038,"lon":"-117.337574","lat":"33.976831","theaterChainName":"Regency Theatres","ticketType":"STANDARD"},{"id":"1820","tribuneTheaterId":"2889","providerTheaterId":"","name":"Blue Jay Cinema","address":"27215 N Bay Rd.","city":"Blue Jay","state":"CA","zip":"92317","distance":12.829634631203,"lon":"-117.207057","lat":"34.247733","theaterChainName":"Independent Chains","ticketType":"STANDARD"},{"id":"3904","tribuneTheaterId":"4654","providerTheaterId":"","name":"Regal Riverside Plaza Stadium 16","address":"3535 Riverside Plaza Dr.","city":"Riverside","state":"CA","zip":"92506","distance":14.824254033881,"lon":"-117.390008","lat":"33.955813","theaterChainName":"Regal Cinemas","ticketType":"STANDARD"},{"id":"5711","tribuneTheaterId":"11153","providerTheaterId":"","name":"Galaxy Mission Grove 18","address":"121 East Alessandro Blvd.","city":"Riverside","state":"CA","zip":"92508","distance":13.940840518874,"lon":"-117.330357","lat":"33.9153","theaterChainName":"Galaxy Theatres","ticketType":"STANDARD"},{"id":"5105","tribuneTheaterId":"10501","providerTheaterId":"","name":"Jurupa 14 Cinemas","address":"8032 Limonite Ave.","city":"Riverside","state":"CA","zip":"92509","distance":17.808673438226,"lon":"-117.459233","lat":"33.976415","theaterChainName":"Tristone Cinemas","ticketType":"STANDARD"},{"id":"4459","tribuneTheaterId":"9550","providerTheaterId":"","name":"Regency Perris 10","address":"1688 N. Perris Blvd.","city":"Perris","state":"CA","zip":"92571","distance":18.486610692947,"lon":"-117.228274","lat":"33.802282","theaterChainName":"Regency Theatres","ticketType":"STANDARD"},{"id":"4447","tribuneTheaterId":"9527","providerTheaterId":"422","name":"AMC Tyler Galleria 16","address":"3775 Tyler Ave.","city":"Riverside","state":"CA","zip":"92503","distance":19.680845788265,"lon":"-117.457583","lat":"33.912795","theaterChainName":"AMC Theatres","ticketType":"STANDARD"},{"id":"554","tribuneTheaterId":"5820","providerTheaterId":"","name":"Edwards Ontario Palace Stadium 22 & IMAX","address":"4900 E. 4th St.","city":"Ontario","state":"CA","zip":"91764","distance":21.838859533247,"lon":"-117.54855","lat":"34.075868","theaterChainName":"Edwards Theatres","ticketType":"STANDARD"},{"id":"3935","tribuneTheaterId":"4245","providerTheaterId":"237","name":"AMC Victoria Gardens 12","address":"12600 N. MainStreet","city":"Rancho Cucamonga","state":"CA","zip":"91739","distance":21.029628382359,"lon":"-117.530176","lat":"34.112695","theaterChainName":"AMC Theatres","ticketType":"STANDARD"},{"id":"266","tribuneTheaterId":"9270","providerTheaterId":"435","name":"AMC Ontario Mills 30","address":"4549 Mills Circle","city":"Ontario","state":"CA","zip":"91764","distance":22.049686851674,"lon":"-117.552274","lat":"34.074833","theaterChainName":"AMC Theatres","ticketType":"STANDARD"},{"id":"1165","tribuneTheaterId":"5651","providerTheaterId":"","name":"Regal San Jacinto Metro 12","address":"1599 S. San Jacinto Ave.","city":"San Jacinto","state":"CA","zip":"92583","distance":23.637387972318,"lon":"-116.955271","lat":"33.771556","theaterChainName":"Regal Cinemas","ticketType":"STANDARD"},{"id":"588","tribuneTheaterId":"8196","providerTheaterId":"","name":"Regal Hemet Cinema 12","address":"2369 W. Florida Ave.","city":"Hemet","state":"CA","zip":"92545","distance":24.111972529034,"lon":"-116.997061","lat":"33.745868","theaterChainName":"Regal Cinemas","ticketType":"STANDARD"},{"id":"4436","tribuneTheaterId":"9511","providerTheaterId":"","name":"Terra Vista 6","address":"10701 Town Center Dr.","city":"Rancho Cucamonga","state":"CA","zip":"91730","distance":23.355469423263,"lon":"-117.571717","lat":"34.110042","theaterChainName":"Tristone Cinemas","ticketType":"STANDARD"},{"id":"4423","tribuneTheaterId":"9492","providerTheaterId":"","name":"Edwards Eastvale Gateway Stadium 14","address":"12285 Limonite Ave.","city":"Mira Loma","state":"CA","zip":"91752","distance":22.856610767727,"lon":"-117.551576","lat":"33.975908","theaterChainName":"Regal Cinemas","ticketType":"STANDARD"},{"id":"4031","tribuneTheaterId":"1032","providerTheaterId":"","name":"Historic Hemet Theatre","address":"216 E. Florida Ave.","city":"Hemet","state":"CA","zip":"92543","distance":24.669708199266,"lon":"-116.970398","lat":"33.747501","theaterChainName":"Independent Chains","ticketType":"STANDARD"}]