[{"id":"1820","tribuneTheaterId":"2889","providerTheaterId":"","name":"Blue Jay Cinema","address":"27215 N Bay Rd.","city":"Blue Jay","state":"CA","zip":"92317","distance":1.808209304554,"lon":"-117.207057","lat":"34.247733","theaterChainName":"Independent Chains","ticketType":"STANDARD"},{"id":"4853","tribuneTheaterId":"10147","providerTheaterId":"","name":"Regency Sterling 6","address":"2373 Sterling Ave.","city":"San Bernardino","state":"CA","zip":"92404","distance":7.6704239288877,"lon":"-117.243599","lat":"34.137901","theaterChainName":"Regency Theatres","ticketType":"STANDARD"},{"id":"5167","tribuneTheaterId":"10574","providerTheaterId":"","name":"Regal San Bernardino Theatre Square Stadium 14 & RPX","address":"450 N.E St.","city":"San Bernardino","state":"CA","zip":"92401","distance":11.045499540589,"lon":"-117.294958","lat":"34.107301","theaterChainName":"Regal Cinemas","ticketType":"STANDARD"},{"id":"1164","tribuneTheaterId":"5878","providerTheaterId":"","name":"Krikorian Redlands Cinema 14","address":"340 N. Eureka St.","city":"Redlands","state":"CA","zip":"92373","distance":12.238618230087,"lon":"-117.185898","lat":"34.058255","theaterChainName":"Krikorian Theatres","ticketType":"STANDARD"},{"id":"5246","tribuneTheaterId":"10674","providerTheaterId":"","name":"Civic Plaza 12","address":"9711 Ninth St.","city":"Hesperia","state":"CA","zip":"92340","distance":13.820336615587,"lon":"-117.2778","lat":"34.418","theaterChainName":"CinemaWest","ticketType":"STANDARD"},{"id":"4713","tribuneTheaterId":"9928","providerTheaterId":"","name":"Cinemark Jess Ranch","address":"18935 Bear Valley Road","city":"Apple Valley","state":"CA","zip":"92308","distance":16.542056479664,"lon":"-117.250342","lat":"34.4674","theaterChainName":"Cinemark","ticketType":"STANDARD"},{"id":"4439","tribuneTheaterId":"9515","providerTheaterId":"","name":"UltraStar Apple Valley 14","address":"22311 Bear Valley Rd.","city":"Apple Valley","state":"CA","zip":"92308","distance":16.320462636177,"lon":"-117.176697","lat":"34.4715","theaterChainName":"Carmike Cinemas","ticketType":"STANDARD"},{"id":"4285","tribuneTheaterId":"4175","providerTheaterId":"","name":"Cinemark 16 Victorville and XD","address":"14470 Bear Valley Rd.","city":"Victorville","state":"CA","zip":"92392","distance":19.148305346118,"lon":"-117.34834","lat":"34.474689","theaterChainName":"Cinemark","ticketType":"STANDARD"},{"id":"1343","tribuneTheaterId":"4172","providerTheaterId":"","name":"Cinemark  Movies 10 Victorville","address":"12353 Mariposa Rd.","city":"Victorville","state":"CA","zip":"92392","distance":18.989917567591,"lon":"-117.339303","lat":"34.476277","theaterChainName":"Cinemark","ticketType":"STANDARD"},{"id":"5129","tribuneTheaterId":"10535","providerTheaterId":"","name":"Regency University Village 10 - Riverside","address":"1201 A University Ave.","city":"Riverside","state":"CA","zip":"92507","distance":20.025407646633,"lon":"-117.337574","lat":"33.976831","theaterChainName":"Regency Theatres","ticketType":"STANDARD"},{"id":"3904","tribuneTheaterId":"4654","providerTheaterId":"","name":"Regal Riverside Plaza Stadium 16","address":"3535 Riverside Plaza Dr.","city":"Riverside","state":"CA","zip":"92506","distance":22.768086468227,"lon":"-117.390008","lat":"33.955813","theaterChainName":"Regal Cinemas","ticketType":"STANDARD"},{"id":"3935","tribuneTheaterId":"4245","providerTheaterId":"237","name":"AMC Victoria Gardens 12","address":"12600 N. MainStreet","city":"Rancho Cucamonga","state":"CA","zip":"91739","distance":21.778032285487,"lon":"-117.530176","lat":"34.112695","theaterChainName":"AMC Theatres","ticketType":"STANDARD"},{"id":"4436","tribuneTheaterId":"9511","providerTheaterId":"","name":"Terra Vista 6","address":"10701 Town Center Dr.","city":"Rancho Cucamonga","state":"CA","zip":"91730","distance":24.049119723054,"lon":"-117.571717","lat":"34.110042","theaterChainName":"Tristone Cinemas","ticketType":"STANDARD"},{"id":"5105","tribuneTheaterId":"10501","providerTheaterId":"","name":"Jurupa 14 Cinemas","address":"8032 Limonite Ave.","city":"Riverside","state":"CA","zip":"92509","distance":24.012685259199,"lon":"-117.459233","lat":"33.976415","theaterChainName":"Tristone Cinemas","ticketType":"STANDARD"},{"id":"5711","tribuneTheaterId":"11153","providerTheaterId":"","name":"Galaxy Mission Grove 18","address":"121 East Alessandro Blvd.","city":"Riverside","state":"CA","zip":"92508","distance":23.741956000503,"lon":"-117.330357","lat":"33.9153","theaterChainName":"Galaxy Theatres","ticketType":"STANDARD"},{"id":"266","tribuneTheaterId":"9270","providerTheaterId":"435","name":"AMC Ontario Mills 30","address":"4549 Mills Circle","city":"Ontario","state":"CA","zip":"91764","distance":24.04025266854,"lon":"-117.552274","lat":"34.074833","theaterChainName":"AMC Theatres","ticketType":"STANDARD"},{"id":"554","tribuneTheaterId":"5820","providerTheaterId":"","name":"Edwards Ontario Palace Stadium 22 & IMAX","address":"4900 E. 4th St.","city":"Ontario","state":"CA","zip":"91764","distance":23.818255809847,"lon":"-117.54855","lat":"34.075868","theaterChainName":"Edwards Theatres","ticketType":"STANDARD"}]