[{"id":"4447","tribuneTheaterId":"9527","providerTheaterId":"422","name":"AMC Tyler Galleria 16","address":"3775 Tyler Ave.","city":"Riverside","state":"CA","zip":"92503","distance":2.9206639402116,"lon":"-117.457583","lat":"33.912795","theaterChainName":"AMC Theatres","ticketType":"STANDARD"},{"id":"3904","tribuneTheaterId":"4654","providerTheaterId":"","name":"Regal Riverside Plaza Stadium 16","address":"3535 Riverside Plaza Dr.","city":"Riverside","state":"CA","zip":"92506","distance":2.0967916446571,"lon":"-117.390008","lat":"33.955813","theaterChainName":"Regal Cinemas","ticketType":"STANDARD"},{"id":"5129","tribuneTheaterId":"10535","providerTheaterId":"","name":"Regency University Village 10 - Riverside","address":"1201 A University Ave.","city":"Riverside","state":"CA","zip":"92507","distance":5.2872866074526,"lon":"-117.337574","lat":"33.976831","theaterChainName":"Regency Theatres","ticketType":"STANDARD"},{"id":"5711","tribuneTheaterId":"11153","providerTheaterId":"","name":"Galaxy Mission Grove 18","address":"121 East Alessandro Blvd.","city":"Riverside","state":"CA","zip":"92508","distance":4.8071942191854,"lon":"-117.330357","lat":"33.9153","theaterChainName":"Galaxy Theatres","ticketType":"STANDARD"},{"id":"5105","tribuneTheaterId":"10501","providerTheaterId":"","name":"Jurupa 14 Cinemas","address":"8032 Limonite Ave.","city":"Riverside","state":"CA","zip":"92509","distance":4.1218477790867,"lon":"-117.459233","lat":"33.976415","theaterChainName":"Tristone Cinemas","ticketType":"STANDARD"},{"id":"4423","tribuneTheaterId":"9492","providerTheaterId":"","name":"Edwards Eastvale Gateway Stadium 14","address":"12285 Limonite Ave.","city":"Mira Loma","state":"CA","zip":"91752","distance":8.5730124484599,"lon":"-117.551576","lat":"33.975908","theaterChainName":"Regal Cinemas","ticketType":"STANDARD"},{"id":"4936","tribuneTheaterId":"10286","providerTheaterId":"","name":"Dos Lagos Stadium 15","address":"2710 Lakeshore Drive","city":"Corona","state":"CA","zip":"92883","distance":9.8688862878131,"lon":"-117.509596","lat":"33.813933","theaterChainName":"Independent Chains","ticketType":"STANDARD"},{"id":"3903","tribuneTheaterId":"4855","providerTheaterId":"","name":"Edwards Corona Stadium 18","address":"2650 Tuscany Street","city":"Corona","state":"CA","zip":"92881","distance":9.5926571684729,"lon":"-117.51601","lat":"33.822852","theaterChainName":"Edwards Theatres","ticketType":"STANDARD"},{"id":"554","tribuneTheaterId":"5820","providerTheaterId":"","name":"Edwards Ontario Palace Stadium 22 & IMAX","address":"4900 E. 4th St.","city":"Ontario","state":"CA","zip":"91764","distance":12.679168067598,"lon":"-117.54855","lat":"34.075868","theaterChainName":"Edwards Theatres","ticketType":"STANDARD"},{"id":"266","tribuneTheaterId":"9270","providerTheaterId":"435","name":"AMC Ontario Mills 30","address":"4549 Mills Circle","city":"Ontario","state":"CA","zip":"91764","distance":12.756378129452,"lon":"-117.552274","lat":"34.074833","theaterChainName":"AMC Theatres","ticketType":"STANDARD"},{"id":"5167","tribuneTheaterId":"10574","providerTheaterId":"","name":"Regal San Bernardino Theatre Square Stadium 14 & RPX","address":"450 N.E St.","city":"San Bernardino","state":"CA","zip":"92401","distance":13.870529703782,"lon":"-117.294958","lat":"34.107301","theaterChainName":"Regal Cinemas","ticketType":"STANDARD"},{"id":"4459","tribuneTheaterId":"9550","providerTheaterId":"","name":"Regency Perris 10","address":"1688 N. Perris Blvd.","city":"Perris","state":"CA","zip":"92571","distance":13.809099198588,"lon":"-117.228274","lat":"33.802282","theaterChainName":"Regency Theatres","ticketType":"STANDARD"},{"id":"3935","tribuneTheaterId":"4245","providerTheaterId":"237","name":"AMC Victoria Gardens 12","address":"12600 N. MainStreet","city":"Rancho Cucamonga","state":"CA","zip":"91739","distance":14.234132045097,"lon":"-117.530176","lat":"34.112695","theaterChainName":"AMC Theatres","ticketType":"STANDARD"},{"id":"1164","tribuneTheaterId":"5878","providerTheaterId":"","name":"Krikorian Redlands Cinema 14","address":"340 N. Eureka St.","city":"Redlands","state":"CA","zip":"92373","distance":15.630417043814,"lon":"-117.185898","lat":"34.058255","theaterChainName":"Krikorian Theatres","ticketType":"STANDARD"},{"id":"4436","tribuneTheaterId":"9511","providerTheaterId":"","name":"Terra Vista 6","address":"10701 Town Center Dr.","city":"Rancho Cucamonga","state":"CA","zip":"91730","distance":15.360384665197,"lon":"-117.571717","lat":"34.110042","theaterChainName":"Tristone Cinemas","ticketType":"STANDARD"},{"id":"4853","tribuneTheaterId":"10147","providerTheaterId":"","name":"Regency Sterling 6","address":"2373 Sterling Ave.","city":"San Bernardino","state":"CA","zip":"92404","distance":17.211505161443,"lon":"-117.243599","lat":"34.137901","theaterChainName":"Regency Theatres","ticketType":"STANDARD"},{"id":"1157","tribuneTheaterId":"5210","providerTheaterId":"","name":"Cinemark Movies 8 Chino","address":"5546 Philadelphia St.","city":"Chino","state":"CA","zip":"91710","distance":17.181156647281,"lon":"-117.684807","lat":"34.034579","theaterChainName":"Cinemark","ticketType":"STANDARD"},{"id":"2298","tribuneTheaterId":"9137","providerTheaterId":"","name":"Edwards Ontario Mountain Village Stadium 14","address":"1575 N. Mountain Ave.","city":"Ontario","state":"CA","zip":"91762","distance":18.2936160657,"lon":"-117.671219","lat":"34.086072","theaterChainName":"Edwards Theatres","ticketType":"STANDARD"},{"id":"551","tribuneTheaterId":"5813","providerTheaterId":"","name":"Edwards Anaheim Hills 14","address":"8032 E. Santa Ana Canyon Rd.","city":"Anaheim","state":"CA","zip":"92808","distance":20.045486360209,"lon":"-117.752175","lat":"33.86517","theaterChainName":"Edwards Theatres","ticketType":"STANDARD"},{"id":"4391","tribuneTheaterId":"9439","providerTheaterId":"","name":"Claremont 5","address":"450 W. 2nd St.","city":"Claremont","state":"CA","zip":"91711","distance":20.979729807745,"lon":"-117.720286","lat":"34.095379","theaterChainName":"Laemmle Theatres","ticketType":"STANDARD"},{"id":"589","tribuneTheaterId":"2081","providerTheaterId":"","name":"Diamond Cinemas","address":"32260 Mission Trail","city":"Lake Elsinore","state":"CA","zip":"92530","distance":20.34070853567,"lon":"-117.295812","lat":"33.653362","theaterChainName":"UEC Theatres","ticketType":"STANDARD"},{"id":"102","tribuneTheaterId":"9004","providerTheaterId":"","name":"Edwards La Verne Stadium 12","address":"1950 Foothill Blvd.","city":"La Verne","state":"CA","zip":"91750","distance":23.957828391803,"lon":"-117.768282","lat":"34.11312","theaterChainName":"Edwards Theatres","ticketType":"STANDARD"},{"id":"2585","tribuneTheaterId":"8198","providerTheaterId":"","name":"Regal Foothill Towne Center Stadium 22","address":"26602 Towne Center Drive","city":"Foothill Ranch","state":"CA","zip":"92610","distance":22.958303997107,"lon":"-117.668552","lat":"33.676689","theaterChainName":"Regal Cinemas","ticketType":"STANDARD"},{"id":"863","tribuneTheaterId":"5190","providerTheaterId":"","name":"Cinema City Stadium Theatres","address":"5635 E. La Palma Ave.","city":"Anaheim","state":"CA","zip":"92807","distance":22.325040566916,"lon":"-117.7918","lat":"33.861026","theaterChainName":"Independent Chains","ticketType":"STANDARD"},{"id":"1820","tribuneTheaterId":"2889","providerTheaterId":"","name":"Blue Jay Cinema","address":"27215 N Bay Rd.","city":"Blue Jay","state":"CA","zip":"92317","distance":24.794960651081,"lon":"-117.207057","lat":"34.247733","theaterChainName":"Independent Chains","ticketType":"STANDARD"}]