[{"id":"589","tribuneTheaterId":"2081","providerTheaterId":"","name":"Diamond Cinemas","address":"32260 Mission Trail","city":"Lake Elsinore","state":"CA","zip":"92530","distance":2.7492381621904,"lon":"-117.295812","lat":"33.653362","theaterChainName":"UEC Theatres","ticketType":"STANDARD"},{"id":"4459","tribuneTheaterId":"9550","providerTheaterId":"","name":"Regency Perris 10","address":"1688 N. Perris Blvd.","city":"Perris","state":"CA","zip":"92571","distance":8.7038017457748,"lon":"-117.228274","lat":"33.802282","theaterChainName":"Regency Theatres","ticketType":"STANDARD"},{"id":"1821","tribuneTheaterId":"3227","providerTheaterId":"","name":"Reading Cinemas Cal Oaks 17","address":"California Oaks Shopping Plaza","city":"Murrieta","state":"CA","zip":"92562","distance":10.619197585912,"lon":"-117.202514","lat":"33.563777","theaterChainName":"Reading International, Inc","ticketType":"STANDARD"},{"id":"2797","tribuneTheaterId":"5817","providerTheaterId":"","name":"Edwards Temecula Stadium 15","address":"40750 Winchester Road","city":"Temecula","state":"CA","zip":"92591","distance":14.462904541529,"lon":"-117.15242","lat":"33.525101","theaterChainName":"Edwards Theatres","ticketType":"STANDARD"},{"id":"5711","tribuneTheaterId":"11153","providerTheaterId":"","name":"Galaxy Mission Grove 18","address":"121 East Alessandro Blvd.","city":"Riverside","state":"CA","zip":"92508","distance":15.460158844375,"lon":"-117.330357","lat":"33.9153","theaterChainName":"Galaxy Theatres","ticketType":"STANDARD"},{"id":"1159","tribuneTheaterId":"3038","providerTheaterId":"","name":"Temeku Cinemas","address":"26463 Ynez Rd.","city":"Temecula","state":"CA","zip":"92591","distance":14.536999289513,"lon":"-117.159529","lat":"33.519528","theaterChainName":"Tristone Cinemas","ticketType":"STANDARD"},{"id":"3903","tribuneTheaterId":"4855","providerTheaterId":"","name":"Edwards Corona Stadium 18","address":"2650 Tuscany Street","city":"Corona","state":"CA","zip":"92881","distance":15.185167322259,"lon":"-117.51601","lat":"33.822852","theaterChainName":"Edwards Theatres","ticketType":"STANDARD"},{"id":"4936","tribuneTheaterId":"10286","providerTheaterId":"","name":"Dos Lagos Stadium 15","address":"2710 Lakeshore Drive","city":"Corona","state":"CA","zip":"92883","distance":14.526512408555,"lon":"-117.509596","lat":"33.813933","theaterChainName":"Independent Chains","ticketType":"STANDARD"},{"id":"4999","tribuneTheaterId":"10368","providerTheaterId":"","name":"Digiplex Temecula Tower Cinemas","address":"27531 Ynez Rd.","city":"Temecula","state":"CA","zip":"92591","distance":15.728602771972,"lon":"-117.149597","lat":"33.504299","theaterChainName":"Carmike Cinemas","ticketType":"STANDARD"},{"id":"4447","tribuneTheaterId":"9527","providerTheaterId":"422","name":"AMC Tyler Galleria 16","address":"3775 Tyler Ave.","city":"Riverside","state":"CA","zip":"92503","distance":17.607498116556,"lon":"-117.457583","lat":"33.912795","theaterChainName":"AMC Theatres","ticketType":"STANDARD"},{"id":"588","tribuneTheaterId":"8196","providerTheaterId":"","name":"Regal Hemet Cinema 12","address":"2369 W. Florida Ave.","city":"Hemet","state":"CA","zip":"92545","distance":17.96183925963,"lon":"-116.997061","lat":"33.745868","theaterChainName":"Regal Cinemas","ticketType":"STANDARD"},{"id":"4031","tribuneTheaterId":"1032","providerTheaterId":"","name":"Historic Hemet Theatre","address":"216 E. Florida Ave.","city":"Hemet","state":"CA","zip":"92543","distance":19.485712916121,"lon":"-116.970398","lat":"33.747501","theaterChainName":"Independent Chains","ticketType":"STANDARD"},{"id":"5129","tribuneTheaterId":"10535","providerTheaterId":"","name":"Regency University Village 10 - Riverside","address":"1201 A University Ave.","city":"Riverside","state":"CA","zip":"92507","distance":19.731575061946,"lon":"-117.337574","lat":"33.976831","theaterChainName":"Regency Theatres","ticketType":"STANDARD"},{"id":"3904","tribuneTheaterId":"4654","providerTheaterId":"","name":"Regal Riverside Plaza Stadium 16","address":"3535 Riverside Plaza Dr.","city":"Riverside","state":"CA","zip":"92506","distance":18.852862879249,"lon":"-117.390008","lat":"33.955813","theaterChainName":"Regal Cinemas","ticketType":"STANDARD"},{"id":"2585","tribuneTheaterId":"8198","providerTheaterId":"","name":"Regal Foothill Towne Center Stadium 22","address":"26602 Towne Center Drive","city":"Foothill Ranch","state":"CA","zip":"92610","distance":21.045654047669,"lon":"-117.668552","lat":"33.676689","theaterChainName":"Regal Cinemas","ticketType":"STANDARD"},{"id":"1165","tribuneTheaterId":"5651","providerTheaterId":"","name":"Regal San Jacinto Metro 12","address":"1599 S. San Jacinto Ave.","city":"San Jacinto","state":"CA","zip":"92583","distance":20.710352977828,"lon":"-116.955271","lat":"33.771556","theaterChainName":"Regal Cinemas","ticketType":"STANDARD"},{"id":"5105","tribuneTheaterId":"10501","providerTheaterId":"","name":"Jurupa 14 Cinemas","address":"8032 Limonite Ave.","city":"Riverside","state":"CA","zip":"92509","distance":21.556180746149,"lon":"-117.459233","lat":"33.976415","theaterChainName":"Tristone Cinemas","ticketType":"STANDARD"},{"id":"1406","tribuneTheaterId":"5808","providerTheaterId":"","name":"Edwards Kaleidoscope Stadium 10","address":"27741 Crown Valley Parkway","city":"Mission Viejo","state":"CA","zip":"92691","distance":23.05868448312,"lon":"-117.671398","lat":"33.56124","theaterChainName":"Edwards Theatres","ticketType":"STANDARD"},{"id":"886","tribuneTheaterId":"2794","providerTheaterId":"","name":"Laguna Hills Mall Cinema","address":"24155 Laguna Hills Mall Rd.","city":"Laguna Hills","state":"CA","zip":"92653","distance":23.872655680897,"lon":"-117.705814","lat":"33.609367","theaterChainName":"Independent Chains","ticketType":"STANDARD"},{"id":"4910","tribuneTheaterId":"10227","providerTheaterId":"","name":"Regency Theatres San Juan Capistrano","address":"26762 Verdugo St.","city":"San Juan Capistrano","state":"CA","zip":"92675","distance":24.601994710846,"lon":"-117.663319","lat":"33.501105","theaterChainName":"Regency Theatres","ticketType":"STANDARD"},{"id":"4423","tribuneTheaterId":"9492","providerTheaterId":"","name":"Edwards Eastvale Gateway Stadium 14","address":"12285 Limonite Ave.","city":"Mira Loma","state":"CA","zip":"91752","distance":24.216243904457,"lon":"-117.551576","lat":"33.975908","theaterChainName":"Regal Cinemas","ticketType":"STANDARD"},{"id":"3457","tribuneTheaterId":"8964","providerTheaterId":"","name":"Regency Rancho Niguel","address":"25471 Rancho Niguel Road","city":"Laguna Niguel","state":"CA","zip":"92677","distance":23.939456632785,"lon":"-117.685332","lat":"33.555974","theaterChainName":"Regency Theatres","ticketType":"STANDARD"}]