[{"id":"4999","tribuneTheaterId":"10368","providerTheaterId":"","name":"Digiplex Temecula Tower Cinemas","address":"27531 Ynez Rd.","city":"Temecula","state":"CA","zip":"92591","distance":20.546230955146,"lon":"-117.149597","lat":"33.504299","theaterChainName":"Carmike Cinemas","ticketType":"STANDARD"},{"id":"2339","tribuneTheaterId":"2533","providerTheaterId":"","name":"Rustic Theatre","address":"54290 N. Circle Drive","city":"Idyllwild","state":"CA","zip":"92549","distance":21.207442150395,"lon":"-116.712898","lat":"33.745602","theaterChainName":"Independent Chains","ticketType":"STANDARD"},{"id":"2797","tribuneTheaterId":"5817","providerTheaterId":"","name":"Edwards Temecula Stadium 15","address":"40750 Winchester Road","city":"Temecula","state":"CA","zip":"92591","distance":21.024339683107,"lon":"-117.15242","lat":"33.525101","theaterChainName":"Edwards Theatres","ticketType":"STANDARD"},{"id":"1159","tribuneTheaterId":"3038","providerTheaterId":"","name":"Temeku Cinemas","address":"26463 Ynez Rd.","city":"Temecula","state":"CA","zip":"92591","distance":21.327911533769,"lon":"-117.159529","lat":"33.519528","theaterChainName":"Tristone Cinemas","ticketType":"STANDARD"},{"id":"4031","tribuneTheaterId":"1032","providerTheaterId":"","name":"Historic Hemet Theatre","address":"216 E. Florida Ave.","city":"Hemet","state":"CA","zip":"92543","distance":22.950661945731,"lon":"-116.970398","lat":"33.747501","theaterChainName":"Independent Chains","ticketType":"STANDARD"},{"id":"588","tribuneTheaterId":"8196","providerTheaterId":"","name":"Regal Hemet Cinema 12","address":"2369 W. Florida Ave.","city":"Hemet","state":"CA","zip":"92545","distance":23.549330345211,"lon":"-116.997061","lat":"33.745868","theaterChainName":"Regal Cinemas","ticketType":"STANDARD"},{"id":"1821","tribuneTheaterId":"3227","providerTheaterId":"","name":"Reading Cinemas Cal Oaks 17","address":"California Oaks Shopping Plaza","city":"Murrieta","state":"CA","zip":"92562","distance":24.562802754901,"lon":"-117.202514","lat":"33.563777","theaterChainName":"Reading International, Inc","ticketType":"STANDARD"},{"id":"1165","tribuneTheaterId":"5651","providerTheaterId":"","name":"Regal San Jacinto Metro 12","address":"1599 S. San Jacinto Ave.","city":"San Jacinto","state":"CA","zip":"92583","distance":24.126203413726,"lon":"-116.955271","lat":"33.771556","theaterChainName":"Regal Cinemas","ticketType":"STANDARD"}]