[{"id":"2339","tribuneTheaterId":"2533","providerTheaterId":"","name":"Rustic Theatre","address":"54290 N. Circle Drive","city":"Idyllwild","state":"CA","zip":"92549","distance":1.0579214717886,"lon":"-116.712898","lat":"33.745602","theaterChainName":"Independent Chains","ticketType":"STANDARD"},{"id":"1265","tribuneTheaterId":"5646","providerTheaterId":"","name":"Regal Palm Springs Stadium 9","address":"789 E. Tahquitz Canyon Way","city":"Palm Springs","state":"CA","zip":"92262","distance":11.711491990322,"lon":"-116.539718","lat":"33.822771","theaterChainName":"Regal Cinemas","ticketType":"STANDARD"},{"id":"2997","tribuneTheaterId":"5823","providerTheaterId":"","name":"Camelot Theatres","address":"2300 E Baristo Rd.","city":"Palm Springs","state":"CA","zip":"92262","distance":12.517308400029,"lon":"-116.521245","lat":"33.81996","theaterChainName":"Independent Chains","ticketType":"STANDARD"},{"id":"6037","tribuneTheaterId":"11441","providerTheaterId":"","name":"Cathedral City 10","address":"34491 Date Palm Drive","city":"Cathedral City","state":"CA","zip":"92234","distance":15.107040955345,"lon":"-116.460724","lat":"33.798374","theaterChainName":"Regency Theatres","ticketType":"STANDARD"},{"id":"5944","tribuneTheaterId":"11376","providerTheaterId":"","name":"Pickford Stadium 14","address":"68510 E Palm Canyon Drive","city":"Cathedral City","state":"CA","zip":"92234","distance":14.470604940687,"lon":"-116.4662","lat":"33.7808","theaterChainName":"Independent Chains","ticketType":"STANDARD"},{"id":"1165","tribuneTheaterId":"5651","providerTheaterId":"","name":"Regal San Jacinto Metro 12","address":"1599 S. San Jacinto Ave.","city":"San Jacinto","state":"CA","zip":"92583","distance":14.335059841089,"lon":"-116.955271","lat":"33.771556","theaterChainName":"Regal Cinemas","ticketType":"STANDARD"},{"id":"4031","tribuneTheaterId":"1032","providerTheaterId":"","name":"Historic Hemet Theatre","address":"216 E. Florida Ave.","city":"Hemet","state":"CA","zip":"92543","distance":14.968012604528,"lon":"-116.970398","lat":"33.747501","theaterChainName":"Independent Chains","ticketType":"STANDARD"},{"id":"3540","tribuneTheaterId":"8803","providerTheaterId":"","name":"Century Theatres at The River","address":"71800 Highway 111 Ste A-137","city":"Rancho Mirage","state":"CA","zip":"92270","distance":17.30922387118,"lon":"-116.409658","lat":"33.739589","theaterChainName":"Cinemark","ticketType":"STANDARD"},{"id":"588","tribuneTheaterId":"8196","providerTheaterId":"","name":"Regal Hemet Cinema 12","address":"2369 W. Florida Ave.","city":"Hemet","state":"CA","zip":"92545","distance":16.488092023843,"lon":"-116.997061","lat":"33.745868","theaterChainName":"Regal Cinemas","ticketType":"STANDARD"},{"id":"2571","tribuneTheaterId":"5653","providerTheaterId":"","name":"Regal Rancho Mirage Stadium 16","address":"72-777 Dinah Shore Drive","city":"Rancho Mirage","state":"CA","zip":"92270","distance":18.942269423975,"lon":"-116.392162","lat":"33.801386","theaterChainName":"Regal Cinemas","ticketType":"STANDARD"},{"id":"5949","tribuneTheaterId":"11379","providerTheaterId":"","name":"Tristone Palm Desert 10 Cinemas","address":"Westfield Palm Desert, 72-840 Highway 111","city":"Palm Desert","state":"CA","zip":"92260","distance":18.186487124175,"lon":"-116.394298","lat":"33.724396","theaterChainName":"Tristone Cinemas","ticketType":"STANDARD"},{"id":"5781","tribuneTheaterId":"11221","providerTheaterId":"","name":"Century La Quinta and XD","address":"46800 Washington Street","city":"La Quinta","state":"CA","zip":"92253","distance":24.063655479329,"lon":"-116.292785","lat":"33.708789","theaterChainName":"Cinemark","ticketType":"STANDARD"}]