[{"id":"2797","tribuneTheaterId":"5817","providerTheaterId":"","name":"Edwards Temecula Stadium 15","address":"40750 Winchester Road","city":"Temecula","state":"CA","zip":"92591","distance":7.7792538895606,"lon":"-117.15242","lat":"33.525101","theaterChainName":"Edwards Theatres","ticketType":"STANDARD"},{"id":"1159","tribuneTheaterId":"3038","providerTheaterId":"","name":"Temeku Cinemas","address":"26463 Ynez Rd.","city":"Temecula","state":"CA","zip":"92591","distance":8.3140633174291,"lon":"-117.159529","lat":"33.519528","theaterChainName":"Tristone Cinemas","ticketType":"STANDARD"},{"id":"1821","tribuneTheaterId":"3227","providerTheaterId":"","name":"Reading Cinemas Cal Oaks 17","address":"California Oaks Shopping Plaza","city":"Murrieta","state":"CA","zip":"92562","distance":7.7810742413426,"lon":"-117.202514","lat":"33.563777","theaterChainName":"Reading International, Inc","ticketType":"STANDARD"},{"id":"4999","tribuneTheaterId":"10368","providerTheaterId":"","name":"Digiplex Temecula Tower Cinemas","address":"27531 Ynez Rd.","city":"Temecula","state":"CA","zip":"92591","distance":9.006563269284,"lon":"-117.149597","lat":"33.504299","theaterChainName":"Carmike Cinemas","ticketType":"STANDARD"},{"id":"588","tribuneTheaterId":"8196","providerTheaterId":"","name":"Regal Hemet Cinema 12","address":"2369 W. Florida Ave.","city":"Hemet","state":"CA","zip":"92545","distance":9.9090231581163,"lon":"-116.997061","lat":"33.745868","theaterChainName":"Regal Cinemas","ticketType":"STANDARD"},{"id":"4031","tribuneTheaterId":"1032","providerTheaterId":"","name":"Historic Hemet Theatre","address":"216 E. Florida Ave.","city":"Hemet","state":"CA","zip":"92543","distance":10.888669992828,"lon":"-116.970398","lat":"33.747501","theaterChainName":"Independent Chains","ticketType":"STANDARD"},{"id":"1165","tribuneTheaterId":"5651","providerTheaterId":"","name":"Regal San Jacinto Metro 12","address":"1599 S. San Jacinto Ave.","city":"San Jacinto","state":"CA","zip":"92583","distance":12.734647793828,"lon":"-116.955271","lat":"33.771556","theaterChainName":"Regal Cinemas","ticketType":"STANDARD"},{"id":"589","tribuneTheaterId":"2081","providerTheaterId":"","name":"Diamond Cinemas","address":"32260 Mission Trail","city":"Lake Elsinore","state":"CA","zip":"92530","distance":12.093151039904,"lon":"-117.295812","lat":"33.653362","theaterChainName":"UEC Theatres","ticketType":"STANDARD"},{"id":"4459","tribuneTheaterId":"9550","providerTheaterId":"","name":"Regency Perris 10","address":"1688 N. Perris Blvd.","city":"Perris","state":"CA","zip":"92571","distance":14.688740693813,"lon":"-117.228274","lat":"33.802282","theaterChainName":"Regency Theatres","ticketType":"STANDARD"},{"id":"2339","tribuneTheaterId":"2533","providerTheaterId":"","name":"Rustic Theatre","address":"54290 N. Circle Drive","city":"Idyllwild","state":"CA","zip":"92549","distance":23.163699336624,"lon":"-116.712898","lat":"33.745602","theaterChainName":"Independent Chains","ticketType":"STANDARD"},{"id":"354","tribuneTheaterId":"9254","providerTheaterId":"","name":"Digiplex River Village Cinemas","address":"5256 S. Mission Road","city":"Bonsall","state":"CA","zip":"92003","distance":23.962367775267,"lon":"-117.222504","lat":"33.296001","theaterChainName":"Carmike Cinemas","ticketType":"STANDARD"},{"id":"5711","tribuneTheaterId":"11153","providerTheaterId":"","name":"Galaxy Mission Grove 18","address":"121 East Alessandro Blvd.","city":"Riverside","state":"CA","zip":"92508","distance":24.438136216036,"lon":"-117.330357","lat":"33.9153","theaterChainName":"Galaxy Theatres","ticketType":"STANDARD"}]