[{"id":"4928","tribuneTheaterId":"10248","providerTheaterId":"","name":"Triangle Square Cinemas","address":"1870 Harbor Blvd.","city":"Costa Mesa","state":"CA","zip":"92627","distance":0.45006790139176,"lon":"-117.918427","lat":"33.642259","theaterChainName":"Independent Chains","ticketType":"STANDARD"},{"id":"94","tribuneTheaterId":"8806","providerTheaterId":"","name":"Edwards University Town Center 6","address":"4245 Campus Drive","city":"Irvine","state":"CA","zip":"92612","distance":4.4379321324244,"lon":"-117.838368","lat":"33.65001","theaterChainName":"Edwards Theatres","ticketType":"STANDARD"},{"id":"84","tribuneTheaterId":"9248","providerTheaterId":"","name":"Edwards Big Newport 6","address":"300 Newport Center Drive","city":"Newport Beach","state":"CA","zip":"92660","distance":3.4569418384116,"lon":"-117.873393","lat":"33.612605","theaterChainName":"Edwards Theatres","ticketType":"STANDARD"},{"id":"4333","tribuneTheaterId":"9308","providerTheaterId":"","name":"Regency South Coast Village","address":"1561 W. Sunflower Ave.","city":"Santa Ana","state":"CA","zip":"92704","distance":3.5560903802049,"lon":"-117.888913","lat":"33.694769","theaterChainName":"Regency Theatres","ticketType":"STANDARD"},{"id":"553","tribuneTheaterId":"5811","providerTheaterId":"","name":"Edwards Metro Pointe Stadium 12","address":"901 South Coast Dr.","city":"Costa Mesa","state":"CA","zip":"92626","distance":3.0022299788912,"lon":"-117.89602","lat":"33.688614","theaterChainName":"Edwards Theatres","ticketType":"STANDARD"},{"id":"95","tribuneTheaterId":"8972","providerTheaterId":"","name":"Edwards Westpark 8","address":"3755 Alton Parkway","city":"Irvine","state":"CA","zip":"92606","distance":6.1821940896321,"lon":"-117.81646","lat":"33.683104","theaterChainName":"Edwards Theatres","ticketType":"STANDARD"},{"id":"4382","tribuneTheaterId":"9426","providerTheaterId":"427","name":"AMC Tustin 14 at The District","address":"2457 Park Ave.","city":"Tustin","state":"CA","zip":"92782","distance":5.9970227660247,"lon":"-117.828906","lat":"33.696675","theaterChainName":"AMC Theatres","ticketType":"STANDARD"},{"id":"4117","tribuneTheaterId":"4845","providerTheaterId":"","name":"Century Huntington Beach and XD","address":"7777 Edinger Ave.","city":"Huntington Beach","state":"CA","zip":"92647","distance":7.3267084938012,"lon":"-117.994441","lat":"33.731549","theaterChainName":"Cinemark","ticketType":"STANDARD"},{"id":"4189","tribuneTheaterId":"5005","providerTheaterId":"","name":"Charter Centre Cinemas","address":"7822 Warner Ave.","city":"Huntington Beach","state":"CA","zip":"92647","distance":6.3660678791657,"lon":"-117.991535","lat":"33.715278","theaterChainName":"Regency Theatres","ticketType":"STANDARD"},{"id":"3168","tribuneTheaterId":"1857","providerTheaterId":"","name":"Woodbridge Movies 5","address":"4626 Barranca Parkway","city":"Irvine","state":"CA","zip":"92604","distance":6.9512611702843,"lon":"-117.799847","lat":"33.677555","theaterChainName":"Starplex Cinemas","ticketType":"STANDARD"},{"id":"5490","tribuneTheaterId":"10931","providerTheaterId":"","name":"The Frida Cinema","address":"305 E 4th St","city":"Santa Ana","state":"CA","zip":"92701","distance":7.4663814136668,"lon":"-117.8654","lat":"33.748","theaterChainName":"Metropolitan Theatres","ticketType":"STANDARD"},{"id":"5272","tribuneTheaterId":"10706","providerTheaterId":"","name":"Westminster 10","address":"6721 Westminster Blvd.","city":"Westminster","state":"CA","zip":"92683","distance":9.4001398666141,"lon":"-118.0104","lat":"33.7591","theaterChainName":"Regency Theatres","ticketType":"STANDARD"},{"id":"1612","tribuneTheaterId":"9079","providerTheaterId":"","name":"Edwards Marketplace Stadium 10","address":"13782 Jamboree Road","city":"Irvine","state":"CA","zip":"92602","distance":8.8423682252612,"lon":"-117.790552","lat":"33.722924","theaterChainName":"Edwards Theatres","ticketType":"STANDARD"},{"id":"2579","tribuneTheaterId":"7421","providerTheaterId":"","name":"Regal Garden Grove Stadium 16","address":"9741 Chapman Ave.","city":"Garden Grove","state":"CA","zip":"92841","distance":10.072385314663,"lon":"-117.9631","lat":"33.7886","theaterChainName":"Regal Cinemas","ticketType":"STANDARD"},{"id":"4275","tribuneTheaterId":"2020","providerTheaterId":"","name":"Picture Show at Main Place","address":"2800 N. Main St. Suite 999","city":"Santa Ana","state":"CA","zip":"92705","distance":9.2358271084588,"lon":"-117.869267","lat":"33.77632","theaterChainName":"Picture Show Entertainment","ticketType":"STANDARD"},{"id":"167","tribuneTheaterId":"9217","providerTheaterId":"","name":"Edwards Irvine Spectrum 21 IMAX & RPX","address":"65 Fortune Drive","city":"Irvine","state":"CA","zip":"92618","distance":9.7862808234842,"lon":"-117.745406","lat":"33.651914","theaterChainName":"Edwards Theatres","ticketType":"STANDARD"},{"id":"1601","tribuneTheaterId":"5278","providerTheaterId":"437","name":"AMC Orange 30","address":"20 City Blvd. W.","city":"Orange","state":"CA","zip":"92868","distance":9.3533739244425,"lon":"-117.893815","lat":"33.782466","theaterChainName":"AMC Theatres","ticketType":"STANDARD"},{"id":"580","tribuneTheaterId":"8524","providerTheaterId":"","name":"Century Stadium 25 and XD","address":"1701 W. Katella Ave.","city":"Orange","state":"CA","zip":"92867","distance":11.413884992666,"lon":"-117.8705","lat":"33.8092","theaterChainName":"Cinemark","ticketType":"STANDARD"},{"id":"3450","tribuneTheaterId":"7924","providerTheaterId":"","name":"Regency Laguna South Coast Cinemas","address":"162 S. Coast Highway","city":"Laguna Beach","state":"CA","zip":"92651","distance":10.489178340285,"lon":"-117.784792","lat":"33.542503","theaterChainName":"Regency Theatres","ticketType":"STANDARD"},{"id":"782","tribuneTheaterId":"8330","providerTheaterId":"","name":"Edwards Aliso Viejo Stadium 20 & IMAX","address":"26701 Aliso Creek Rd.","city":"Aliso Viejo","state":"CA","zip":"92656","distance":11.933979386145,"lon":"-117.726697","lat":"33.576814","theaterChainName":"Edwards Theatres","ticketType":"STANDARD"},{"id":"3097","tribuneTheaterId":"5274","providerTheaterId":"212","name":"AMC Downtown Disney District 12","address":"1565 Disneyland Drive","city":"Anaheim","state":"CA","zip":"92802","distance":11.086939129868,"lon":"-117.925304","lat":"33.808556","theaterChainName":"AMC Theatres","ticketType":"STANDARD"},{"id":"852","tribuneTheaterId":"6404","providerTheaterId":"","name":"4 Star Cinema","address":"12111 Valley View St.","city":"Garden Grove","state":"CA","zip":"92845","distance":11.569731143118,"lon":"-118.029245","lat":"33.786461","theaterChainName":"Independent Chains","ticketType":"STANDARD"},{"id":"76","tribuneTheaterId":"8884","providerTheaterId":"","name":"United Artists Long Beach Marketplace 6","address":"6601 Pacific Coast Highway","city":"Long Beach","state":"CA","zip":"90803","distance":13.330677220799,"lon":"-118.108193","lat":"33.75566","theaterChainName":"United Artists","ticketType":"STANDARD"},{"id":"886","tribuneTheaterId":"2794","providerTheaterId":"","name":"Laguna Hills Mall Cinema","address":"24155 Laguna Hills Mall Rd.","city":"Laguna Hills","state":"CA","zip":"92653","distance":12.359526506286,"lon":"-117.705814","lat":"33.609367","theaterChainName":"Independent Chains","ticketType":"STANDARD"},{"id":"3457","tribuneTheaterId":"8964","providerTheaterId":"","name":"Regency Rancho Niguel","address":"25471 Rancho Niguel Road","city":"Laguna Niguel","state":"CA","zip":"92677","distance":14.701726074592,"lon":"-117.685332","lat":"33.555974","theaterChainName":"Regency Theatres","ticketType":"STANDARD"},{"id":"1406","tribuneTheaterId":"5808","providerTheaterId":"","name":"Edwards Kaleidoscope Stadium 10","address":"27741 Crown Valley Parkway","city":"Mission Viejo","state":"CA","zip":"92691","distance":15.280860856084,"lon":"-117.671398","lat":"33.56124","theaterChainName":"Edwards Theatres","ticketType":"STANDARD"},{"id":"2585","tribuneTheaterId":"8198","providerTheaterId":"","name":"Regal Foothill Towne Center Stadium 22","address":"26602 Towne Center Drive","city":"Foothill Ranch","state":"CA","zip":"92610","distance":14.336188646899,"lon":"-117.668552","lat":"33.676689","theaterChainName":"Regal Cinemas","ticketType":"STANDARD"},{"id":"21","tribuneTheaterId":"9093","providerTheaterId":"234","name":"AMC Marina Pacifica 12","address":"6346 E. Pacific Coast Highway","city":"Long Beach","state":"CA","zip":"90803","distance":13.767829469118,"lon":"-118.114051","lat":"33.759757","theaterChainName":"AMC Theatres","ticketType":"STANDARD"},{"id":"17","tribuneTheaterId":"9234","providerTheaterId":"248","name":"AMC Fullerton 20","address":"1001 S. Lemon St.","city":"Fullerton","state":"CA","zip":"92832","distance":14.749916842889,"lon":"-117.920423","lat":"33.861739","theaterChainName":"AMC Theatres","ticketType":"STANDARD"},{"id":"3625","tribuneTheaterId":"5879","providerTheaterId":"","name":"Krikorian Buena Park Metroplex 18","address":"8290 La Palma Ave.","city":"Buena Park","state":"CA","zip":"90620","distance":14.158584093283,"lon":"-117.989349","lat":"33.843803","theaterChainName":"Krikorian Theatres","ticketType":"STANDARD"},{"id":"863","tribuneTheaterId":"5190","providerTheaterId":"","name":"Cinema City Stadium Theatres","address":"5635 E. La Palma Ave.","city":"Anaheim","state":"CA","zip":"92807","distance":16.325603757482,"lon":"-117.7918","lat":"33.861026","theaterChainName":"Independent Chains","ticketType":"STANDARD"},{"id":"2446","tribuneTheaterId":"5821","providerTheaterId":"","name":"Edwards Long Beach 26 & IMAX","address":"7501 E. Carson Blvd","city":"Long Beach","state":"CA","zip":"90808","distance":15.983033059684,"lon":"-118.086816","lat":"33.830553","theaterChainName":"Edwards Theatres","ticketType":"STANDARD"},{"id":"551","tribuneTheaterId":"5813","providerTheaterId":"","name":"Edwards Anaheim Hills 14","address":"8032 E. Santa Ana Canyon Rd.","city":"Anaheim","state":"CA","zip":"92808","distance":17.679141857464,"lon":"-117.752175","lat":"33.86517","theaterChainName":"Edwards Theatres","ticketType":"STANDARD"},{"id":"4910","tribuneTheaterId":"10227","providerTheaterId":"","name":"Regency Theatres San Juan Capistrano","address":"26762 Verdugo St.","city":"San Juan Capistrano","state":"CA","zip":"92675","distance":17.725075140327,"lon":"-117.663319","lat":"33.501105","theaterChainName":"Regency Theatres","ticketType":"STANDARD"},{"id":"4940","tribuneTheaterId":"10293","providerTheaterId":"","name":"Brea Plaza 5 Discount Cinemas","address":"453 S. Associated Rd.","city":"Brea","state":"CA","zip":"92821","distance":18.369862682655,"lon":"-117.8797","lat":"33.9125","theaterChainName":"Tristone Cinemas","ticketType":"STANDARD"},{"id":"3643","tribuneTheaterId":"2052","providerTheaterId":"","name":"La Mirada Dollar Movie 7","address":"15296 Rosecrans Avenue","city":"La Mirada","state":"CA","zip":"90638","distance":17.971071289212,"lon":"-118.005513","lat":"33.897404","theaterChainName":"Starplex Cinemas","ticketType":"STANDARD"},{"id":"101","tribuneTheaterId":"9271","providerTheaterId":"","name":"Edwards Cerritos Stadium 10","address":"12761 Towne Center Drive","city":"Cerritos","state":"CA","zip":"90701","distance":17.482825693362,"lon":"-118.059184","lat":"33.87136","theaterChainName":"Edwards Theatres","ticketType":"STANDARD"},{"id":"2291","tribuneTheaterId":"8197","providerTheaterId":"","name":"Regal La Habra Stadium 16","address":"1351 W. Imperial Highway","city":"La Habra","state":"CA","zip":"90631","distance":18.850762237488,"lon":"-117.960463","lat":"33.918559","theaterChainName":"Regal Cinemas","ticketType":"STANDARD"},{"id":"3672","tribuneTheaterId":"4174","providerTheaterId":"","name":"Cinemark At The Pike","address":"99 S. Pine Ave.","city":"Long Beach","state":"CA","zip":"90802","distance":17.873017854924,"lon":"-118.193337","lat":"33.764463","theaterChainName":"Cinemark","ticketType":"STANDARD"},{"id":"431","tribuneTheaterId":"8602","providerTheaterId":"","name":"Pacific Lakewood Center 16","address":"5200 Faculty Ave.","city":"Lakewood","state":"CA","zip":"90712","distance":18.920322520913,"lon":"-118.136803","lat":"33.851101","theaterChainName":"Pacific Theaters","ticketType":"STANDARD"},{"id":"2282","tribuneTheaterId":"5812","providerTheaterId":"","name":"Edwards Brea Stadium West 10","address":"155 W. Birch St.","city":"Brea","state":"CA","zip":"92821","distance":18.715180879701,"lon":"-117.901","lat":"33.9189","theaterChainName":"Edwards Theatres","ticketType":"STANDARD"},{"id":"3426","tribuneTheaterId":"5810","providerTheaterId":"","name":"Edwards Brea Stadium East 12","address":"155 W. Birch St.","city":"Brea","state":"CA","zip":"92821","distance":18.698404107886,"lon":"-117.899909","lat":"33.918615","theaterChainName":"Edwards Theatres","ticketType":"STANDARD"},{"id":"198","tribuneTheaterId":"9268","providerTheaterId":"441","name":"AMC Norwalk 20","address":"12300 E. Civic Center Drive","city":"Norwalk","state":"CA","zip":"90650","distance":20.40249918659,"lon":"-118.071206","lat":"33.913718","theaterChainName":"AMC Theatres","ticketType":"STANDARD"},{"id":"864","tribuneTheaterId":"8606","providerTheaterId":"","name":"Krikorian San Clemente 6","address":"641 B Camino de los Mares","city":"San Clemente","state":"CA","zip":"92673","distance":20.077734131911,"lon":"-117.650639","lat":"33.459298","theaterChainName":"Krikorian Theatres","ticketType":"STANDARD"},{"id":"5852","tribuneTheaterId":"11264","providerTheaterId":"","name":"Cinemark Downey and XD","address":"8840 Apollo Way","city":"Downey","state":"CA","zip":"90242","distance":22.638845701283,"lon":"-118.128651","lat":"33.923936","theaterChainName":"Cinemark","ticketType":"STANDARD"},{"id":"1645","tribuneTheaterId":"3170","providerTheaterId":"","name":"Bianchi Stadium 11 Theatres","address":"7770 Rosecrans Ave.","city":"Paramount","state":"CA","zip":"90723","distance":22.637861309526,"lon":"-118.163382","lat":"33.903045","theaterChainName":"Independent Chains","ticketType":"STANDARD"},{"id":"1163","tribuneTheaterId":"5877","providerTheaterId":"","name":"Krikorian Downey Cinema 10","address":"8200 Third St.","city":"Downey","state":"CA","zip":"90241","distance":23.852213544278,"lon":"-118.133302","lat":"33.942263","theaterChainName":"Krikorian Theatres","ticketType":"STANDARD"},{"id":"5702","tribuneTheaterId":"11139","providerTheaterId":"","name":"Cinemark Carson","address":"20700 Avalon Blvd.","city":"Carson","state":"CA","zip":"90746","distance":24.08032735445,"lon":"-118.261616","lat":"33.844868","theaterChainName":"Cinemark","ticketType":"STANDARD"},{"id":"4880","tribuneTheaterId":"10188","providerTheaterId":"","name":"Terrace Cinemas","address":"28901 S. Western Ave.","city":"Rancho Palos Verdes","state":"CA","zip":"90275","distance":23.919737365813,"lon":"-118.310888","lat":"33.756245","theaterChainName":"Independent Chains","ticketType":"STANDARD"},{"id":"495","tribuneTheaterId":"3071","providerTheaterId":"","name":"Whittier Village Stadium Cinemas","address":"7038 Greenleaf Ave.","city":"Whittier","state":"CA","zip":"90602","distance":23.823296836768,"lon":"-118.037209","lat":"33.977937","theaterChainName":"Independent Chains","ticketType":"STANDARD"},{"id":"344","tribuneTheaterId":"9177","providerTheaterId":"249","name":"AMC Puente Hills 20","address":"1560 S. Azusa Ave.","city":"City of Industry","state":"CA","zip":"91748","distance":23.926387206387,"lon":"-117.926517","lat":"33.99447","theaterChainName":"AMC Theatres","ticketType":"STANDARD"}]