[{"id":"864","tribuneTheaterId":"8606","providerTheaterId":"","name":"Krikorian San Clemente 6","address":"641 B Camino de los Mares","city":"San Clemente","state":"CA","zip":"92673","distance":0.72567359553646,"lon":"-117.650639","lat":"33.459298","theaterChainName":"Krikorian Theatres","ticketType":"STANDARD"},{"id":"4910","tribuneTheaterId":"10227","providerTheaterId":"","name":"Regency Theatres San Juan Capistrano","address":"26762 Verdugo St.","city":"San Juan Capistrano","state":"CA","zip":"92675","distance":2.8400884897819,"lon":"-117.663319","lat":"33.501105","theaterChainName":"Regency Theatres","ticketType":"STANDARD"},{"id":"1406","tribuneTheaterId":"5808","providerTheaterId":"","name":"Edwards Kaleidoscope Stadium 10","address":"27741 Crown Valley Parkway","city":"Mission Viejo","state":"CA","zip":"92691","distance":7.0109310619985,"lon":"-117.671398","lat":"33.56124","theaterChainName":"Edwards Theatres","ticketType":"STANDARD"},{"id":"3457","tribuneTheaterId":"8964","providerTheaterId":"","name":"Regency Rancho Niguel","address":"25471 Rancho Niguel Road","city":"Laguna Niguel","state":"CA","zip":"92677","distance":6.7526300385473,"lon":"-117.685332","lat":"33.555974","theaterChainName":"Regency Theatres","ticketType":"STANDARD"},{"id":"782","tribuneTheaterId":"8330","providerTheaterId":"","name":"Edwards Aliso Viejo Stadium 20 & IMAX","address":"26701 Aliso Creek Rd.","city":"Aliso Viejo","state":"CA","zip":"92656","distance":8.861182716919,"lon":"-117.726697","lat":"33.576814","theaterChainName":"Edwards Theatres","ticketType":"STANDARD"},{"id":"3450","tribuneTheaterId":"7924","providerTheaterId":"","name":"Regency Laguna South Coast Cinemas","address":"162 S. Coast Highway","city":"Laguna Beach","state":"CA","zip":"92651","distance":9.0317274382126,"lon":"-117.784792","lat":"33.542503","theaterChainName":"Regency Theatres","ticketType":"STANDARD"},{"id":"886","tribuneTheaterId":"2794","providerTheaterId":"","name":"Laguna Hills Mall Cinema","address":"24155 Laguna Hills Mall Rd.","city":"Laguna Hills","state":"CA","zip":"92653","distance":10.608069642923,"lon":"-117.705814","lat":"33.609367","theaterChainName":"Independent Chains","ticketType":"STANDARD"},{"id":"167","tribuneTheaterId":"9217","providerTheaterId":"","name":"Edwards Irvine Spectrum 21 IMAX & RPX","address":"65 Fortune Drive","city":"Irvine","state":"CA","zip":"92618","distance":14.0794546038,"lon":"-117.745406","lat":"33.651914","theaterChainName":"Edwards Theatres","ticketType":"STANDARD"},{"id":"2585","tribuneTheaterId":"8198","providerTheaterId":"","name":"Regal Foothill Towne Center Stadium 22","address":"26602 Towne Center Drive","city":"Foothill Ranch","state":"CA","zip":"92610","distance":14.974928838717,"lon":"-117.668552","lat":"33.676689","theaterChainName":"Regal Cinemas","ticketType":"STANDARD"},{"id":"84","tribuneTheaterId":"9248","providerTheaterId":"","name":"Edwards Big Newport 6","address":"300 Newport Center Drive","city":"Newport Beach","state":"CA","zip":"92660","distance":16.053524078004,"lon":"-117.873393","lat":"33.612605","theaterChainName":"Edwards Theatres","ticketType":"STANDARD"},{"id":"3168","tribuneTheaterId":"1857","providerTheaterId":"","name":"Woodbridge Movies 5","address":"4626 Barranca Parkway","city":"Irvine","state":"CA","zip":"92604","distance":16.965697342555,"lon":"-117.799847","lat":"33.677555","theaterChainName":"Starplex Cinemas","ticketType":"STANDARD"},{"id":"94","tribuneTheaterId":"8806","providerTheaterId":"","name":"Edwards University Town Center 6","address":"4245 Campus Drive","city":"Irvine","state":"CA","zip":"92612","distance":16.555467724885,"lon":"-117.838368","lat":"33.65001","theaterChainName":"Edwards Theatres","ticketType":"STANDARD"},{"id":"95","tribuneTheaterId":"8972","providerTheaterId":"","name":"Edwards Westpark 8","address":"3755 Alton Parkway","city":"Irvine","state":"CA","zip":"92606","distance":17.761348535008,"lon":"-117.81646","lat":"33.683104","theaterChainName":"Edwards Theatres","ticketType":"STANDARD"},{"id":"4928","tribuneTheaterId":"10248","providerTheaterId":"","name":"Triangle Square Cinemas","address":"1870 Harbor Blvd.","city":"Costa Mesa","state":"CA","zip":"92627","distance":19.353697207019,"lon":"-117.918427","lat":"33.642259","theaterChainName":"Independent Chains","ticketType":"STANDARD"},{"id":"4382","tribuneTheaterId":"9426","providerTheaterId":"427","name":"AMC Tustin 14 at The District","address":"2457 Park Ave.","city":"Tustin","state":"CA","zip":"92782","distance":18.931324249726,"lon":"-117.828906","lat":"33.696675","theaterChainName":"AMC Theatres","ticketType":"STANDARD"},{"id":"1612","tribuneTheaterId":"9079","providerTheaterId":"","name":"Edwards Marketplace Stadium 10","address":"13782 Jamboree Road","city":"Irvine","state":"CA","zip":"92602","distance":19.589254340939,"lon":"-117.790552","lat":"33.722924","theaterChainName":"Edwards Theatres","ticketType":"STANDARD"},{"id":"553","tribuneTheaterId":"5811","providerTheaterId":"","name":"Edwards Metro Pointe Stadium 12","address":"901 South Coast Dr.","city":"Costa Mesa","state":"CA","zip":"92626","distance":20.715536444772,"lon":"-117.89602","lat":"33.688614","theaterChainName":"Edwards Theatres","ticketType":"STANDARD"},{"id":"4333","tribuneTheaterId":"9308","providerTheaterId":"","name":"Regency South Coast Village","address":"1561 W. Sunflower Ave.","city":"Santa Ana","state":"CA","zip":"92704","distance":20.783114165636,"lon":"-117.888913","lat":"33.694769","theaterChainName":"Regency Theatres","ticketType":"STANDARD"},{"id":"5490","tribuneTheaterId":"10931","providerTheaterId":"","name":"The Frida Cinema","address":"305 E 4th St","city":"Santa Ana","state":"CA","zip":"92701","distance":23.051227926827,"lon":"-117.8654","lat":"33.748","theaterChainName":"Metropolitan Theatres","ticketType":"STANDARD"},{"id":"4275","tribuneTheaterId":"2020","providerTheaterId":"","name":"Picture Show at Main Place","address":"2800 N. Main St. Suite 999","city":"Santa Ana","state":"CA","zip":"92705","distance":24.864490917321,"lon":"-117.869267","lat":"33.77632","theaterChainName":"Picture Show Entertainment","ticketType":"STANDARD"},{"id":"2656","tribuneTheaterId":"8968","providerTheaterId":"","name":"Regal Cinemas Oceanside Stadium 16","address":"401 Mission Ave","city":"Oceanside","state":"CA","zip":"92054","distance":24.544437437499,"lon":"-117.379882","lat":"33.195133","theaterChainName":"Regal Cinemas","ticketType":"STANDARD"}]