[{"id":"886","tribuneTheaterId":"2794","providerTheaterId":"","name":"Laguna Hills Mall Cinema","address":"24155 Laguna Hills Mall Rd.","city":"Laguna Hills","state":"CA","zip":"92653","distance":1.2977373421648,"lon":"-117.705814","lat":"33.609367","theaterChainName":"Independent Chains","ticketType":"STANDARD"},{"id":"3457","tribuneTheaterId":"8964","providerTheaterId":"","name":"Regency Rancho Niguel","address":"25471 Rancho Niguel Road","city":"Laguna Niguel","state":"CA","zip":"92677","distance":2.5755958998557,"lon":"-117.685332","lat":"33.555974","theaterChainName":"Regency Theatres","ticketType":"STANDARD"},{"id":"1406","tribuneTheaterId":"5808","providerTheaterId":"","name":"Edwards Kaleidoscope Stadium 10","address":"27741 Crown Valley Parkway","city":"Mission Viejo","state":"CA","zip":"92691","distance":2.6142353518908,"lon":"-117.671398","lat":"33.56124","theaterChainName":"Edwards Theatres","ticketType":"STANDARD"},{"id":"782","tribuneTheaterId":"8330","providerTheaterId":"","name":"Edwards Aliso Viejo Stadium 20 & IMAX","address":"26701 Aliso Creek Rd.","city":"Aliso Viejo","state":"CA","zip":"92656","distance":1.9177771422951,"lon":"-117.726697","lat":"33.576814","theaterChainName":"Edwards Theatres","ticketType":"STANDARD"},{"id":"167","tribuneTheaterId":"9217","providerTheaterId":"","name":"Edwards Irvine Spectrum 21 IMAX & RPX","address":"65 Fortune Drive","city":"Irvine","state":"CA","zip":"92618","distance":4.9648213646414,"lon":"-117.745406","lat":"33.651914","theaterChainName":"Edwards Theatres","ticketType":"STANDARD"},{"id":"2585","tribuneTheaterId":"8198","providerTheaterId":"","name":"Regal Foothill Towne Center Stadium 22","address":"26602 Towne Center Drive","city":"Foothill Ranch","state":"CA","zip":"92610","distance":6.1263065065638,"lon":"-117.668552","lat":"33.676689","theaterChainName":"Regal Cinemas","ticketType":"STANDARD"},{"id":"4910","tribuneTheaterId":"10227","providerTheaterId":"","name":"Regency Theatres San Juan Capistrano","address":"26762 Verdugo St.","city":"San Juan Capistrano","state":"CA","zip":"92675","distance":6.572614036274,"lon":"-117.663319","lat":"33.501105","theaterChainName":"Regency Theatres","ticketType":"STANDARD"},{"id":"3450","tribuneTheaterId":"7924","providerTheaterId":"","name":"Regency Laguna South Coast Cinemas","address":"162 S. Coast Highway","city":"Laguna Beach","state":"CA","zip":"92651","distance":6.015640848347,"lon":"-117.784792","lat":"33.542503","theaterChainName":"Regency Theatres","ticketType":"STANDARD"},{"id":"95","tribuneTheaterId":"8972","providerTheaterId":"","name":"Edwards Westpark 8","address":"3755 Alton Parkway","city":"Irvine","state":"CA","zip":"92606","distance":9.2744594607291,"lon":"-117.81646","lat":"33.683104","theaterChainName":"Edwards Theatres","ticketType":"STANDARD"},{"id":"94","tribuneTheaterId":"8806","providerTheaterId":"","name":"Edwards University Town Center 6","address":"4245 Campus Drive","city":"Irvine","state":"CA","zip":"92612","distance":9.0026206514876,"lon":"-117.838368","lat":"33.65001","theaterChainName":"Edwards Theatres","ticketType":"STANDARD"},{"id":"3168","tribuneTheaterId":"1857","providerTheaterId":"","name":"Woodbridge Movies 5","address":"4626 Barranca Parkway","city":"Irvine","state":"CA","zip":"92604","distance":8.3223098837798,"lon":"-117.799847","lat":"33.677555","theaterChainName":"Starplex Cinemas","ticketType":"STANDARD"},{"id":"1612","tribuneTheaterId":"9079","providerTheaterId":"","name":"Edwards Marketplace Stadium 10","address":"13782 Jamboree Road","city":"Irvine","state":"CA","zip":"92602","distance":10.505086757747,"lon":"-117.790552","lat":"33.722924","theaterChainName":"Edwards Theatres","ticketType":"STANDARD"},{"id":"864","tribuneTheaterId":"8606","providerTheaterId":"","name":"Krikorian San Clemente 6","address":"641 B Camino de los Mares","city":"San Clemente","state":"CA","zip":"92673","distance":9.5478188699869,"lon":"-117.650639","lat":"33.459298","theaterChainName":"Krikorian Theatres","ticketType":"STANDARD"},{"id":"84","tribuneTheaterId":"9248","providerTheaterId":"","name":"Edwards Big Newport 6","address":"300 Newport Center Drive","city":"Newport Beach","state":"CA","zip":"92660","distance":10.168818146502,"lon":"-117.873393","lat":"33.612605","theaterChainName":"Edwards Theatres","ticketType":"STANDARD"},{"id":"4382","tribuneTheaterId":"9426","providerTheaterId":"427","name":"AMC Tustin 14 at The District","address":"2457 Park Ave.","city":"Tustin","state":"CA","zip":"92782","distance":10.438925684528,"lon":"-117.828906","lat":"33.696675","theaterChainName":"AMC Theatres","ticketType":"STANDARD"},{"id":"4333","tribuneTheaterId":"9308","providerTheaterId":"","name":"Regency South Coast Village","address":"1561 W. Sunflower Ave.","city":"Santa Ana","state":"CA","zip":"92704","distance":13.068002795434,"lon":"-117.888913","lat":"33.694769","theaterChainName":"Regency Theatres","ticketType":"STANDARD"},{"id":"4928","tribuneTheaterId":"10248","providerTheaterId":"","name":"Triangle Square Cinemas","address":"1870 Harbor Blvd.","city":"Costa Mesa","state":"CA","zip":"92627","distance":13.129316119935,"lon":"-117.918427","lat":"33.642259","theaterChainName":"Independent Chains","ticketType":"STANDARD"},{"id":"553","tribuneTheaterId":"5811","providerTheaterId":"","name":"Edwards Metro Pointe Stadium 12","address":"901 South Coast Dr.","city":"Costa Mesa","state":"CA","zip":"92626","distance":13.191733794463,"lon":"-117.89602","lat":"33.688614","theaterChainName":"Edwards Theatres","ticketType":"STANDARD"},{"id":"5490","tribuneTheaterId":"10931","providerTheaterId":"","name":"The Frida Cinema","address":"305 E 4th St","city":"Santa Ana","state":"CA","zip":"92701","distance":14.452673280679,"lon":"-117.8654","lat":"33.748","theaterChainName":"Metropolitan Theatres","ticketType":"STANDARD"},{"id":"4275","tribuneTheaterId":"2020","providerTheaterId":"","name":"Picture Show at Main Place","address":"2800 N. Main St. Suite 999","city":"Santa Ana","state":"CA","zip":"92705","distance":16.102288983519,"lon":"-117.869267","lat":"33.77632","theaterChainName":"Picture Show Entertainment","ticketType":"STANDARD"},{"id":"1601","tribuneTheaterId":"5278","providerTheaterId":"437","name":"AMC Orange 30","address":"20 City Blvd. W.","city":"Orange","state":"CA","zip":"92868","distance":17.320486410164,"lon":"-117.893815","lat":"33.782466","theaterChainName":"AMC Theatres","ticketType":"STANDARD"},{"id":"4189","tribuneTheaterId":"5005","providerTheaterId":"","name":"Charter Centre Cinemas","address":"7822 Warner Ave.","city":"Huntington Beach","state":"CA","zip":"92647","distance":18.896094471354,"lon":"-117.991535","lat":"33.715278","theaterChainName":"Regency Theatres","ticketType":"STANDARD"},{"id":"580","tribuneTheaterId":"8524","providerTheaterId":"","name":"Century Stadium 25 and XD","address":"1701 W. Katella Ave.","city":"Orange","state":"CA","zip":"92867","distance":17.994263145507,"lon":"-117.8705","lat":"33.8092","theaterChainName":"Cinemark","ticketType":"STANDARD"},{"id":"4117","tribuneTheaterId":"4845","providerTheaterId":"","name":"Century Huntington Beach and XD","address":"7777 Edinger Ave.","city":"Huntington Beach","state":"CA","zip":"92647","distance":19.574128807478,"lon":"-117.994441","lat":"33.731549","theaterChainName":"Cinemark","ticketType":"STANDARD"},{"id":"4936","tribuneTheaterId":"10286","providerTheaterId":"","name":"Dos Lagos Stadium 15","address":"2710 Lakeshore Drive","city":"Corona","state":"CA","zip":"92883","distance":18.811835139641,"lon":"-117.509596","lat":"33.813933","theaterChainName":"Independent Chains","ticketType":"STANDARD"},{"id":"3903","tribuneTheaterId":"4855","providerTheaterId":"","name":"Edwards Corona Stadium 18","address":"2650 Tuscany Street","city":"Corona","state":"CA","zip":"92881","distance":19.113241704599,"lon":"-117.51601","lat":"33.822852","theaterChainName":"Edwards Theatres","ticketType":"STANDARD"},{"id":"3097","tribuneTheaterId":"5274","providerTheaterId":"212","name":"AMC Downtown Disney District 12","address":"1565 Disneyland Drive","city":"Anaheim","state":"CA","zip":"92802","distance":19.866438209984,"lon":"-117.925304","lat":"33.808556","theaterChainName":"AMC Theatres","ticketType":"STANDARD"},{"id":"551","tribuneTheaterId":"5813","providerTheaterId":"","name":"Edwards Anaheim Hills 14","address":"8032 E. Santa Ana Canyon Rd.","city":"Anaheim","state":"CA","zip":"92808","distance":19.151848367114,"lon":"-117.752175","lat":"33.86517","theaterChainName":"Edwards Theatres","ticketType":"STANDARD"},{"id":"863","tribuneTheaterId":"5190","providerTheaterId":"","name":"Cinema City Stadium Theatres","address":"5635 E. La Palma Ave.","city":"Anaheim","state":"CA","zip":"92807","distance":19.372229484071,"lon":"-117.7918","lat":"33.861026","theaterChainName":"Independent Chains","ticketType":"STANDARD"},{"id":"2579","tribuneTheaterId":"7421","providerTheaterId":"","name":"Regal Garden Grove Stadium 16","address":"9741 Chapman Ave.","city":"Garden Grove","state":"CA","zip":"92841","distance":20.412303401914,"lon":"-117.9631","lat":"33.7886","theaterChainName":"Regal Cinemas","ticketType":"STANDARD"},{"id":"5272","tribuneTheaterId":"10706","providerTheaterId":"","name":"Westminster 10","address":"6721 Westminster Blvd.","city":"Westminster","state":"CA","zip":"92683","distance":21.343899542257,"lon":"-118.0104","lat":"33.7591","theaterChainName":"Regency Theatres","ticketType":"STANDARD"},{"id":"17","tribuneTheaterId":"9234","providerTheaterId":"248","name":"AMC Fullerton 20","address":"1001 S. Lemon St.","city":"Fullerton","state":"CA","zip":"92832","distance":22.60543410696,"lon":"-117.920423","lat":"33.861739","theaterChainName":"AMC Theatres","ticketType":"STANDARD"},{"id":"852","tribuneTheaterId":"6404","providerTheaterId":"","name":"4 Star Cinema","address":"12111 Valley View St.","city":"Garden Grove","state":"CA","zip":"92845","distance":23.298431919933,"lon":"-118.029245","lat":"33.786461","theaterChainName":"Independent Chains","ticketType":"STANDARD"},{"id":"3625","tribuneTheaterId":"5879","providerTheaterId":"","name":"Krikorian Buena Park Metroplex 18","address":"8290 La Palma Ave.","city":"Buena Park","state":"CA","zip":"90620","distance":24.146394978682,"lon":"-117.989349","lat":"33.843803","theaterChainName":"Krikorian Theatres","ticketType":"STANDARD"},{"id":"4940","tribuneTheaterId":"10293","providerTheaterId":"","name":"Brea Plaza 5 Discount Cinemas","address":"453 S. Associated Rd.","city":"Brea","state":"CA","zip":"92821","distance":24.49401014435,"lon":"-117.8797","lat":"33.9125","theaterChainName":"Tristone Cinemas","ticketType":"STANDARD"},{"id":"589","tribuneTheaterId":"2081","providerTheaterId":"","name":"Diamond Cinemas","address":"32260 Mission Trail","city":"Lake Elsinore","state":"CA","zip":"92530","distance":23.558063509875,"lon":"-117.295812","lat":"33.653362","theaterChainName":"UEC Theatres","ticketType":"STANDARD"}]