[{"id":"2585","tribuneTheaterId":"8198","providerTheaterId":"","name":"Regal Foothill Towne Center Stadium 22","address":"26602 Towne Center Drive","city":"Foothill Ranch","state":"CA","zip":"92610","distance":5.6311431192806,"lon":"-117.668552","lat":"33.676689","theaterChainName":"Regal Cinemas","ticketType":"STANDARD"},{"id":"3903","tribuneTheaterId":"4855","providerTheaterId":"","name":"Edwards Corona Stadium 18","address":"2650 Tuscany Street","city":"Corona","state":"CA","zip":"92881","distance":7.833962874759,"lon":"-117.51601","lat":"33.822852","theaterChainName":"Edwards Theatres","ticketType":"STANDARD"},{"id":"4936","tribuneTheaterId":"10286","providerTheaterId":"","name":"Dos Lagos Stadium 15","address":"2710 Lakeshore Drive","city":"Corona","state":"CA","zip":"92883","distance":7.7116461890343,"lon":"-117.509596","lat":"33.813933","theaterChainName":"Independent Chains","ticketType":"STANDARD"},{"id":"886","tribuneTheaterId":"2794","providerTheaterId":"","name":"Laguna Hills Mall Cinema","address":"24155 Laguna Hills Mall Rd.","city":"Laguna Hills","state":"CA","zip":"92653","distance":10.725511217224,"lon":"-117.705814","lat":"33.609367","theaterChainName":"Independent Chains","ticketType":"STANDARD"},{"id":"167","tribuneTheaterId":"9217","providerTheaterId":"","name":"Edwards Irvine Spectrum 21 IMAX & RPX","address":"65 Fortune Drive","city":"Irvine","state":"CA","zip":"92618","distance":9.8685964771417,"lon":"-117.745406","lat":"33.651914","theaterChainName":"Edwards Theatres","ticketType":"STANDARD"},{"id":"1612","tribuneTheaterId":"9079","providerTheaterId":"","name":"Edwards Marketplace Stadium 10","address":"13782 Jamboree Road","city":"Irvine","state":"CA","zip":"92602","distance":10.185826129619,"lon":"-117.790552","lat":"33.722924","theaterChainName":"Edwards Theatres","ticketType":"STANDARD"},{"id":"95","tribuneTheaterId":"8972","providerTheaterId":"","name":"Edwards Westpark 8","address":"3755 Alton Parkway","city":"Irvine","state":"CA","zip":"92606","distance":12.329290395871,"lon":"-117.81646","lat":"33.683104","theaterChainName":"Edwards Theatres","ticketType":"STANDARD"},{"id":"3168","tribuneTheaterId":"1857","providerTheaterId":"","name":"Woodbridge Movies 5","address":"4626 Barranca Parkway","city":"Irvine","state":"CA","zip":"92604","distance":11.588119489208,"lon":"-117.799847","lat":"33.677555","theaterChainName":"Starplex Cinemas","ticketType":"STANDARD"},{"id":"551","tribuneTheaterId":"5813","providerTheaterId":"","name":"Edwards Anaheim Hills 14","address":"8032 E. Santa Ana Canyon Rd.","city":"Anaheim","state":"CA","zip":"92808","distance":11.427007606767,"lon":"-117.752175","lat":"33.86517","theaterChainName":"Edwards Theatres","ticketType":"STANDARD"},{"id":"3457","tribuneTheaterId":"8964","providerTheaterId":"","name":"Regency Rancho Niguel","address":"25471 Rancho Niguel Road","city":"Laguna Niguel","state":"CA","zip":"92677","distance":13.674046253198,"lon":"-117.685332","lat":"33.555974","theaterChainName":"Regency Theatres","ticketType":"STANDARD"},{"id":"4382","tribuneTheaterId":"9426","providerTheaterId":"427","name":"AMC Tustin 14 at The District","address":"2457 Park Ave.","city":"Tustin","state":"CA","zip":"92782","distance":12.723412984287,"lon":"-117.828906","lat":"33.696675","theaterChainName":"AMC Theatres","ticketType":"STANDARD"},{"id":"1406","tribuneTheaterId":"5808","providerTheaterId":"","name":"Edwards Kaleidoscope Stadium 10","address":"27741 Crown Valley Parkway","city":"Mission Viejo","state":"CA","zip":"92691","distance":13.106809724807,"lon":"-117.671398","lat":"33.56124","theaterChainName":"Edwards Theatres","ticketType":"STANDARD"},{"id":"863","tribuneTheaterId":"5190","providerTheaterId":"","name":"Cinema City Stadium Theatres","address":"5635 E. La Palma Ave.","city":"Anaheim","state":"CA","zip":"92807","distance":12.916752271418,"lon":"-117.7918","lat":"33.861026","theaterChainName":"Independent Chains","ticketType":"STANDARD"},{"id":"782","tribuneTheaterId":"8330","providerTheaterId":"","name":"Edwards Aliso Viejo Stadium 20 & IMAX","address":"26701 Aliso Creek Rd.","city":"Aliso Viejo","state":"CA","zip":"92656","distance":13.275452274952,"lon":"-117.726697","lat":"33.576814","theaterChainName":"Edwards Theatres","ticketType":"STANDARD"},{"id":"5490","tribuneTheaterId":"10931","providerTheaterId":"","name":"The Frida Cinema","address":"305 E 4th St","city":"Santa Ana","state":"CA","zip":"92701","distance":14.369961862361,"lon":"-117.8654","lat":"33.748","theaterChainName":"Metropolitan Theatres","ticketType":"STANDARD"},{"id":"4447","tribuneTheaterId":"9527","providerTheaterId":"422","name":"AMC Tyler Galleria 16","address":"3775 Tyler Ave.","city":"Riverside","state":"CA","zip":"92503","distance":14.703532418987,"lon":"-117.457583","lat":"33.912795","theaterChainName":"AMC Theatres","ticketType":"STANDARD"},{"id":"94","tribuneTheaterId":"8806","providerTheaterId":"","name":"Edwards University Town Center 6","address":"4245 Campus Drive","city":"Irvine","state":"CA","zip":"92612","distance":14.408039905061,"lon":"-117.838368","lat":"33.65001","theaterChainName":"Edwards Theatres","ticketType":"STANDARD"},{"id":"580","tribuneTheaterId":"8524","providerTheaterId":"","name":"Century Stadium 25 and XD","address":"1701 W. Katella Ave.","city":"Orange","state":"CA","zip":"92867","distance":15.3108791928,"lon":"-117.8705","lat":"33.8092","theaterChainName":"Cinemark","ticketType":"STANDARD"},{"id":"4275","tribuneTheaterId":"2020","providerTheaterId":"","name":"Picture Show at Main Place","address":"2800 N. Main St. Suite 999","city":"Santa Ana","state":"CA","zip":"92705","distance":14.746935176481,"lon":"-117.869267","lat":"33.77632","theaterChainName":"Picture Show Entertainment","ticketType":"STANDARD"},{"id":"4910","tribuneTheaterId":"10227","providerTheaterId":"","name":"Regency Theatres San Juan Capistrano","address":"26762 Verdugo St.","city":"San Juan Capistrano","state":"CA","zip":"92675","distance":17.08329371429,"lon":"-117.663319","lat":"33.501105","theaterChainName":"Regency Theatres","ticketType":"STANDARD"},{"id":"4423","tribuneTheaterId":"9492","providerTheaterId":"","name":"Edwards Eastvale Gateway Stadium 14","address":"12285 Limonite Ave.","city":"Mira Loma","state":"CA","zip":"91752","distance":16.361032525132,"lon":"-117.551576","lat":"33.975908","theaterChainName":"Regal Cinemas","ticketType":"STANDARD"},{"id":"4333","tribuneTheaterId":"9308","providerTheaterId":"","name":"Regency South Coast Village","address":"1561 W. Sunflower Ave.","city":"Santa Ana","state":"CA","zip":"92704","distance":16.104241569825,"lon":"-117.888913","lat":"33.694769","theaterChainName":"Regency Theatres","ticketType":"STANDARD"},{"id":"3450","tribuneTheaterId":"7924","providerTheaterId":"","name":"Regency Laguna South Coast Cinemas","address":"162 S. Coast Highway","city":"Laguna Beach","state":"CA","zip":"92651","distance":17.058518397975,"lon":"-117.784792","lat":"33.542503","theaterChainName":"Regency Theatres","ticketType":"STANDARD"},{"id":"1601","tribuneTheaterId":"5278","providerTheaterId":"437","name":"AMC Orange 30","address":"20 City Blvd. W.","city":"Orange","state":"CA","zip":"92868","distance":16.204807845458,"lon":"-117.893815","lat":"33.782466","theaterChainName":"AMC Theatres","ticketType":"STANDARD"},{"id":"84","tribuneTheaterId":"9248","providerTheaterId":"","name":"Edwards Big Newport 6","address":"300 Newport Center Drive","city":"Newport Beach","state":"CA","zip":"92660","distance":17.436018430435,"lon":"-117.873393","lat":"33.612605","theaterChainName":"Edwards Theatres","ticketType":"STANDARD"},{"id":"553","tribuneTheaterId":"5811","providerTheaterId":"","name":"Edwards Metro Pointe Stadium 12","address":"901 South Coast Dr.","city":"Costa Mesa","state":"CA","zip":"92626","distance":16.598654227248,"lon":"-117.89602","lat":"33.688614","theaterChainName":"Edwards Theatres","ticketType":"STANDARD"},{"id":"17","tribuneTheaterId":"9234","providerTheaterId":"248","name":"AMC Fullerton 20","address":"1001 S. Lemon St.","city":"Fullerton","state":"CA","zip":"92832","distance":19.282884592295,"lon":"-117.920423","lat":"33.861739","theaterChainName":"AMC Theatres","ticketType":"STANDARD"},{"id":"5105","tribuneTheaterId":"10501","providerTheaterId":"","name":"Jurupa 14 Cinemas","address":"8032 Limonite Ave.","city":"Riverside","state":"CA","zip":"92509","distance":18.319758571743,"lon":"-117.459233","lat":"33.976415","theaterChainName":"Tristone Cinemas","ticketType":"STANDARD"},{"id":"3904","tribuneTheaterId":"4654","providerTheaterId":"","name":"Regal Riverside Plaza Stadium 16","address":"3535 Riverside Plaza Dr.","city":"Riverside","state":"CA","zip":"92506","distance":19.470053908795,"lon":"-117.390008","lat":"33.955813","theaterChainName":"Regal Cinemas","ticketType":"STANDARD"},{"id":"589","tribuneTheaterId":"2081","providerTheaterId":"","name":"Diamond Cinemas","address":"32260 Mission Trail","city":"Lake Elsinore","state":"CA","zip":"92530","distance":19.428163572317,"lon":"-117.295812","lat":"33.653362","theaterChainName":"UEC Theatres","ticketType":"STANDARD"},{"id":"864","tribuneTheaterId":"8606","providerTheaterId":"","name":"Krikorian San Clemente 6","address":"641 B Camino de los Mares","city":"San Clemente","state":"CA","zip":"92673","distance":19.851448677525,"lon":"-117.650639","lat":"33.459298","theaterChainName":"Krikorian Theatres","ticketType":"STANDARD"},{"id":"4940","tribuneTheaterId":"10293","providerTheaterId":"","name":"Brea Plaza 5 Discount Cinemas","address":"453 S. Associated Rd.","city":"Brea","state":"CA","zip":"92821","distance":19.080719512367,"lon":"-117.8797","lat":"33.9125","theaterChainName":"Tristone Cinemas","ticketType":"STANDARD"},{"id":"3097","tribuneTheaterId":"5274","providerTheaterId":"212","name":"AMC Downtown Disney District 12","address":"1565 Disneyland Drive","city":"Anaheim","state":"CA","zip":"92802","distance":18.33573667677,"lon":"-117.925304","lat":"33.808556","theaterChainName":"AMC Theatres","ticketType":"STANDARD"},{"id":"4928","tribuneTheaterId":"10248","providerTheaterId":"","name":"Triangle Square Cinemas","address":"1870 Harbor Blvd.","city":"Costa Mesa","state":"CA","zip":"92627","distance":18.818789554251,"lon":"-117.918427","lat":"33.642259","theaterChainName":"Independent Chains","ticketType":"STANDARD"},{"id":"1157","tribuneTheaterId":"5210","providerTheaterId":"","name":"Cinemark Movies 8 Chino","address":"5546 Philadelphia St.","city":"Chino","state":"CA","zip":"91710","distance":20.394488689551,"lon":"-117.684807","lat":"34.034579","theaterChainName":"Cinemark","ticketType":"STANDARD"},{"id":"5711","tribuneTheaterId":"11153","providerTheaterId":"","name":"Galaxy Mission Grove 18","address":"121 East Alessandro Blvd.","city":"Riverside","state":"CA","zip":"92508","distance":20.143348691219,"lon":"-117.330357","lat":"33.9153","theaterChainName":"Galaxy Theatres","ticketType":"STANDARD"},{"id":"3426","tribuneTheaterId":"5810","providerTheaterId":"","name":"Edwards Brea Stadium East 12","address":"155 W. Birch St.","city":"Brea","state":"CA","zip":"92821","distance":20.262204007895,"lon":"-117.899909","lat":"33.918615","theaterChainName":"Edwards Theatres","ticketType":"STANDARD"},{"id":"2579","tribuneTheaterId":"7421","providerTheaterId":"","name":"Regal Garden Grove Stadium 16","address":"9741 Chapman Ave.","city":"Garden Grove","state":"CA","zip":"92841","distance":20.201649519827,"lon":"-117.9631","lat":"33.7886","theaterChainName":"Regal Cinemas","ticketType":"STANDARD"},{"id":"2282","tribuneTheaterId":"5812","providerTheaterId":"","name":"Edwards Brea Stadium West 10","address":"155 W. Birch St.","city":"Brea","state":"CA","zip":"92821","distance":20.324324077669,"lon":"-117.901","lat":"33.9189","theaterChainName":"Edwards Theatres","ticketType":"STANDARD"},{"id":"4189","tribuneTheaterId":"5005","providerTheaterId":"","name":"Charter Centre Cinemas","address":"7822 Warner Ave.","city":"Huntington Beach","state":"CA","zip":"92647","distance":21.717266939263,"lon":"-117.991535","lat":"33.715278","theaterChainName":"Regency Theatres","ticketType":"STANDARD"},{"id":"4117","tribuneTheaterId":"4845","providerTheaterId":"","name":"Century Huntington Beach and XD","address":"7777 Edinger Ave.","city":"Huntington Beach","state":"CA","zip":"92647","distance":21.804328629888,"lon":"-117.994441","lat":"33.731549","theaterChainName":"Cinemark","ticketType":"STANDARD"},{"id":"2291","tribuneTheaterId":"8197","providerTheaterId":"","name":"Regal La Habra Stadium 16","address":"1351 W. Imperial Highway","city":"La Habra","state":"CA","zip":"90631","distance":23.153497642287,"lon":"-117.960463","lat":"33.918559","theaterChainName":"Regal Cinemas","ticketType":"STANDARD"},{"id":"4459","tribuneTheaterId":"9550","providerTheaterId":"","name":"Regency Perris 10","address":"1688 N. Perris Blvd.","city":"Perris","state":"CA","zip":"92571","distance":22.576481594625,"lon":"-117.228274","lat":"33.802282","theaterChainName":"Regency Theatres","ticketType":"STANDARD"},{"id":"554","tribuneTheaterId":"5820","providerTheaterId":"","name":"Edwards Ontario Palace Stadium 22 & IMAX","address":"4900 E. 4th St.","city":"Ontario","state":"CA","zip":"91764","distance":23.172149107279,"lon":"-117.54855","lat":"34.075868","theaterChainName":"Edwards Theatres","ticketType":"STANDARD"},{"id":"266","tribuneTheaterId":"9270","providerTheaterId":"435","name":"AMC Ontario Mills 30","address":"4549 Mills Circle","city":"Ontario","state":"CA","zip":"91764","distance":23.067208233821,"lon":"-117.552274","lat":"34.074833","theaterChainName":"AMC Theatres","ticketType":"STANDARD"},{"id":"5129","tribuneTheaterId":"10535","providerTheaterId":"","name":"Regency University Village 10 - Riverside","address":"1201 A University Ave.","city":"Riverside","state":"CA","zip":"92507","distance":22.588894390563,"lon":"-117.337574","lat":"33.976831","theaterChainName":"Regency Theatres","ticketType":"STANDARD"},{"id":"5272","tribuneTheaterId":"10706","providerTheaterId":"","name":"Westminster 10","address":"6721 Westminster Blvd.","city":"Westminster","state":"CA","zip":"92683","distance":22.718125368462,"lon":"-118.0104","lat":"33.7591","theaterChainName":"Regency Theatres","ticketType":"STANDARD"},{"id":"3625","tribuneTheaterId":"5879","providerTheaterId":"","name":"Krikorian Buena Park Metroplex 18","address":"8290 La Palma Ave.","city":"Buena Park","state":"CA","zip":"90620","distance":22.534297145375,"lon":"-117.989349","lat":"33.843803","theaterChainName":"Krikorian Theatres","ticketType":"STANDARD"},{"id":"2298","tribuneTheaterId":"9137","providerTheaterId":"","name":"Edwards Ontario Mountain Village Stadium 14","address":"1575 N. Mountain Ave.","city":"Ontario","state":"CA","zip":"91762","distance":23.776059738126,"lon":"-117.671219","lat":"34.086072","theaterChainName":"Edwards Theatres","ticketType":"STANDARD"},{"id":"4391","tribuneTheaterId":"9439","providerTheaterId":"","name":"Claremont 5","address":"450 W. 2nd St.","city":"Claremont","state":"CA","zip":"91711","distance":24.939240613077,"lon":"-117.720286","lat":"34.095379","theaterChainName":"Laemmle Theatres","ticketType":"STANDARD"},{"id":"852","tribuneTheaterId":"6404","providerTheaterId":"","name":"4 Star Cinema","address":"12111 Valley View St.","city":"Garden Grove","state":"CA","zip":"92845","distance":23.947451492689,"lon":"-118.029245","lat":"33.786461","theaterChainName":"Independent Chains","ticketType":"STANDARD"},{"id":"344","tribuneTheaterId":"9177","providerTheaterId":"249","name":"AMC Puente Hills 20","address":"1560 S. Azusa Ave.","city":"City of Industry","state":"CA","zip":"91748","distance":24.811949223112,"lon":"-117.926517","lat":"33.99447","theaterChainName":"AMC Theatres","ticketType":"STANDARD"},{"id":"3643","tribuneTheaterId":"2052","providerTheaterId":"","name":"La Mirada Dollar Movie 7","address":"15296 Rosecrans Avenue","city":"La Mirada","state":"CA","zip":"90638","distance":24.747478386064,"lon":"-118.005513","lat":"33.897404","theaterChainName":"Starplex Cinemas","ticketType":"STANDARD"}]