[{"id":"3457","tribuneTheaterId":"8964","providerTheaterId":"","name":"Regency Rancho Niguel","address":"25471 Rancho Niguel Road","city":"Laguna Niguel","state":"CA","zip":"92677","distance":3.5945971994021,"lon":"-117.685332","lat":"33.555974","theaterChainName":"Regency Theatres","ticketType":"STANDARD"},{"id":"1406","tribuneTheaterId":"5808","providerTheaterId":"","name":"Edwards Kaleidoscope Stadium 10","address":"27741 Crown Valley Parkway","city":"Mission Viejo","state":"CA","zip":"92691","distance":2.9072983466212,"lon":"-117.671398","lat":"33.56124","theaterChainName":"Edwards Theatres","ticketType":"STANDARD"},{"id":"4910","tribuneTheaterId":"10227","providerTheaterId":"","name":"Regency Theatres San Juan Capistrano","address":"26762 Verdugo St.","city":"San Juan Capistrano","state":"CA","zip":"92675","distance":3.9146895147612,"lon":"-117.663319","lat":"33.501105","theaterChainName":"Regency Theatres","ticketType":"STANDARD"},{"id":"886","tribuneTheaterId":"2794","providerTheaterId":"","name":"Laguna Hills Mall Cinema","address":"24155 Laguna Hills Mall Rd.","city":"Laguna Hills","state":"CA","zip":"92653","distance":6.3826300509191,"lon":"-117.705814","lat":"33.609367","theaterChainName":"Independent Chains","ticketType":"STANDARD"},{"id":"782","tribuneTheaterId":"8330","providerTheaterId":"","name":"Edwards Aliso Viejo Stadium 20 & IMAX","address":"26701 Aliso Creek Rd.","city":"Aliso Viejo","state":"CA","zip":"92656","distance":6.2676507525008,"lon":"-117.726697","lat":"33.576814","theaterChainName":"Edwards Theatres","ticketType":"STANDARD"},{"id":"864","tribuneTheaterId":"8606","providerTheaterId":"","name":"Krikorian San Clemente 6","address":"641 B Camino de los Mares","city":"San Clemente","state":"CA","zip":"92673","distance":6.2671921074156,"lon":"-117.650639","lat":"33.459298","theaterChainName":"Krikorian Theatres","ticketType":"STANDARD"},{"id":"2585","tribuneTheaterId":"8198","providerTheaterId":"","name":"Regal Foothill Towne Center Stadium 22","address":"26602 Towne Center Drive","city":"Foothill Ranch","state":"CA","zip":"92610","distance":9.3100327938184,"lon":"-117.668552","lat":"33.676689","theaterChainName":"Regal Cinemas","ticketType":"STANDARD"},{"id":"167","tribuneTheaterId":"9217","providerTheaterId":"","name":"Edwards Irvine Spectrum 21 IMAX & RPX","address":"65 Fortune Drive","city":"Irvine","state":"CA","zip":"92618","distance":10.065929841815,"lon":"-117.745406","lat":"33.651914","theaterChainName":"Edwards Theatres","ticketType":"STANDARD"},{"id":"3450","tribuneTheaterId":"7924","providerTheaterId":"","name":"Regency Laguna South Coast Cinemas","address":"162 S. Coast Highway","city":"Laguna Beach","state":"CA","zip":"92651","distance":9.2765717402502,"lon":"-117.784792","lat":"33.542503","theaterChainName":"Regency Theatres","ticketType":"STANDARD"},{"id":"95","tribuneTheaterId":"8972","providerTheaterId":"","name":"Edwards Westpark 8","address":"3755 Alton Parkway","city":"Irvine","state":"CA","zip":"92606","distance":14.527945534772,"lon":"-117.81646","lat":"33.683104","theaterChainName":"Edwards Theatres","ticketType":"STANDARD"},{"id":"3168","tribuneTheaterId":"1857","providerTheaterId":"","name":"Woodbridge Movies 5","address":"4626 Barranca Parkway","city":"Irvine","state":"CA","zip":"92604","distance":13.554892249409,"lon":"-117.799847","lat":"33.677555","theaterChainName":"Starplex Cinemas","ticketType":"STANDARD"},{"id":"84","tribuneTheaterId":"9248","providerTheaterId":"","name":"Edwards Big Newport 6","address":"300 Newport Center Drive","city":"Newport Beach","state":"CA","zip":"92660","distance":15.061186408743,"lon":"-117.873393","lat":"33.612605","theaterChainName":"Edwards Theatres","ticketType":"STANDARD"},{"id":"94","tribuneTheaterId":"8806","providerTheaterId":"","name":"Edwards University Town Center 6","address":"4245 Campus Drive","city":"Irvine","state":"CA","zip":"92612","distance":14.245810762623,"lon":"-117.838368","lat":"33.65001","theaterChainName":"Edwards Theatres","ticketType":"STANDARD"},{"id":"4382","tribuneTheaterId":"9426","providerTheaterId":"427","name":"AMC Tustin 14 at The District","address":"2457 Park Ave.","city":"Tustin","state":"CA","zip":"92782","distance":15.681775931793,"lon":"-117.828906","lat":"33.696675","theaterChainName":"AMC Theatres","ticketType":"STANDARD"},{"id":"1612","tribuneTheaterId":"9079","providerTheaterId":"","name":"Edwards Marketplace Stadium 10","address":"13782 Jamboree Road","city":"Irvine","state":"CA","zip":"92602","distance":15.473503825835,"lon":"-117.790552","lat":"33.722924","theaterChainName":"Edwards Theatres","ticketType":"STANDARD"},{"id":"4333","tribuneTheaterId":"9308","providerTheaterId":"","name":"Regency South Coast Village","address":"1561 W. Sunflower Ave.","city":"Santa Ana","state":"CA","zip":"92704","distance":18.347295012923,"lon":"-117.888913","lat":"33.694769","theaterChainName":"Regency Theatres","ticketType":"STANDARD"},{"id":"553","tribuneTheaterId":"5811","providerTheaterId":"","name":"Edwards Metro Pointe Stadium 12","address":"901 South Coast Dr.","city":"Costa Mesa","state":"CA","zip":"92626","distance":18.460524808262,"lon":"-117.89602","lat":"33.688614","theaterChainName":"Edwards Theatres","ticketType":"STANDARD"},{"id":"4928","tribuneTheaterId":"10248","providerTheaterId":"","name":"Triangle Square Cinemas","address":"1870 Harbor Blvd.","city":"Costa Mesa","state":"CA","zip":"92627","distance":18.184169999842,"lon":"-117.918427","lat":"33.642259","theaterChainName":"Independent Chains","ticketType":"STANDARD"},{"id":"4936","tribuneTheaterId":"10286","providerTheaterId":"","name":"Dos Lagos Stadium 15","address":"2710 Lakeshore Drive","city":"Corona","state":"CA","zip":"92883","distance":19.564255275747,"lon":"-117.509596","lat":"33.813933","theaterChainName":"Independent Chains","ticketType":"STANDARD"},{"id":"5490","tribuneTheaterId":"10931","providerTheaterId":"","name":"The Frida Cinema","address":"305 E 4th St","city":"Santa Ana","state":"CA","zip":"92701","distance":19.636462107416,"lon":"-117.8654","lat":"33.748","theaterChainName":"Metropolitan Theatres","ticketType":"STANDARD"},{"id":"4275","tribuneTheaterId":"2020","providerTheaterId":"","name":"Picture Show at Main Place","address":"2800 N. Main St. Suite 999","city":"Santa Ana","state":"CA","zip":"92705","distance":21.210365529922,"lon":"-117.869267","lat":"33.77632","theaterChainName":"Picture Show Entertainment","ticketType":"STANDARD"},{"id":"589","tribuneTheaterId":"2081","providerTheaterId":"","name":"Diamond Cinemas","address":"32260 Mission Trail","city":"Lake Elsinore","state":"CA","zip":"92530","distance":20.250532650509,"lon":"-117.295812","lat":"33.653362","theaterChainName":"UEC Theatres","ticketType":"STANDARD"},{"id":"3903","tribuneTheaterId":"4855","providerTheaterId":"","name":"Edwards Corona Stadium 18","address":"2650 Tuscany Street","city":"Corona","state":"CA","zip":"92881","distance":20.028554688155,"lon":"-117.51601","lat":"33.822852","theaterChainName":"Edwards Theatres","ticketType":"STANDARD"},{"id":"1601","tribuneTheaterId":"5278","providerTheaterId":"437","name":"AMC Orange 30","address":"20 City Blvd. W.","city":"Orange","state":"CA","zip":"92868","distance":22.479691646297,"lon":"-117.893815","lat":"33.782466","theaterChainName":"AMC Theatres","ticketType":"STANDARD"},{"id":"580","tribuneTheaterId":"8524","providerTheaterId":"","name":"Century Stadium 25 and XD","address":"1701 W. Katella Ave.","city":"Orange","state":"CA","zip":"92867","distance":22.99778717344,"lon":"-117.8705","lat":"33.8092","theaterChainName":"Cinemark","ticketType":"STANDARD"},{"id":"551","tribuneTheaterId":"5813","providerTheaterId":"","name":"Edwards Anaheim Hills 14","address":"8032 E. Santa Ana Canyon Rd.","city":"Anaheim","state":"CA","zip":"92808","distance":23.175617863928,"lon":"-117.752175","lat":"33.86517","theaterChainName":"Edwards Theatres","ticketType":"STANDARD"},{"id":"4189","tribuneTheaterId":"5005","providerTheaterId":"","name":"Charter Centre Cinemas","address":"7822 Warner Ave.","city":"Huntington Beach","state":"CA","zip":"92647","distance":24.133071940204,"lon":"-117.991535","lat":"33.715278","theaterChainName":"Regency Theatres","ticketType":"STANDARD"},{"id":"1821","tribuneTheaterId":"3227","providerTheaterId":"","name":"Reading Cinemas Cal Oaks 17","address":"California Oaks Shopping Plaza","city":"Murrieta","state":"CA","zip":"92562","distance":24.28422085938,"lon":"-117.202514","lat":"33.563777","theaterChainName":"Reading International, Inc","ticketType":"STANDARD"},{"id":"863","tribuneTheaterId":"5190","providerTheaterId":"","name":"Cinema City Stadium Theatres","address":"5635 E. La Palma Ave.","city":"Anaheim","state":"CA","zip":"92807","distance":23.736334691045,"lon":"-117.7918","lat":"33.861026","theaterChainName":"Independent Chains","ticketType":"STANDARD"},{"id":"4117","tribuneTheaterId":"4845","providerTheaterId":"","name":"Century Huntington Beach and XD","address":"7777 Edinger Ave.","city":"Huntington Beach","state":"CA","zip":"92647","distance":24.835367364864,"lon":"-117.994441","lat":"33.731549","theaterChainName":"Cinemark","ticketType":"STANDARD"}]