[{"id":"1492","tribuneTheaterId":"7449","providerTheaterId":"","name":"Century Downtown 10","address":"555 E. Main St.","city":"Ventura","state":"CA","zip":"93001","distance":0.19088816948318,"lon":"-119.292195","lat":"34.280935","theaterChainName":"Cinemark","ticketType":"STANDARD"},{"id":"11","tribuneTheaterId":"8085","providerTheaterId":"","name":"Buenaventura 6","address":"1440 Eastman Ave.","city":"Ventura","state":"CA","zip":"93003","distance":3.8346450918192,"lon":"-119.229775","lat":"34.260054","theaterChainName":"Regency Theatres","ticketType":"STANDARD"},{"id":"5225","tribuneTheaterId":"10649","providerTheaterId":"","name":"Century RiverPark 16","address":"2766 Seaglass Way","city":"Oxnard","state":"CA","zip":"93030","distance":7.2283594260307,"lon":"-119.175573","lat":"34.239657","theaterChainName":"Cinemark","ticketType":"STANDARD"},{"id":"4102","tribuneTheaterId":"2352","providerTheaterId":"","name":"Plaza Cinemas 14","address":"255 West 5th Street","city":"Oxnard","state":"CA","zip":"93030","distance":8.5401162414609,"lon":"-119.179226","lat":"34.198302","theaterChainName":"SR Entertainment","ticketType":"STANDARD"},{"id":"4453","tribuneTheaterId":"9538","providerTheaterId":"","name":"Regency Santa Paula 7","address":"550 W. Main St.","city":"Santa Paula","state":"CA","zip":"93060","distance":12.960082426599,"lon":"-119.081604","lat":"34.346404","theaterChainName":"Regency Theatres","ticketType":"STANDARD"},{"id":"105","tribuneTheaterId":"9272","providerTheaterId":"","name":"Edwards Camarillo Stadium 12 & IMAX","address":"680 Ventura Blvd.","city":"Camarillo","state":"CA","zip":"93010","distance":13.780144201981,"lon":"-119.063184","lat":"34.218077","theaterChainName":"Edwards Theatres","ticketType":"STANDARD"},{"id":"1162","tribuneTheaterId":"8745","providerTheaterId":"","name":"Paseo Camarillo","address":"390 N. Lantana St.","city":"Camarillo","state":"CA","zip":"93010","distance":14.254765512738,"lon":"-119.053929","lat":"34.219588","theaterChainName":"Regency Theatres","ticketType":"STANDARD"},{"id":"114","tribuneTheaterId":"9196","providerTheaterId":"","name":"Roxy Stadium 11","address":"5001 Verdugo Way","city":"Camarillo","state":"CA","zip":"93012","distance":17.064947685128,"lon":"-119.0042","lat":"34.2156","theaterChainName":"SR Entertainment","ticketType":"STANDARD"},{"id":"1063","tribuneTheaterId":"2868","providerTheaterId":"","name":"Metro 4","address":"618 State St.","city":"Santa Barbara","state":"CA","zip":"93101","distance":24.993295648316,"lon":"-119.697225","lat":"34.418229","theaterChainName":"Metropolitan Theatres","ticketType":"STANDARD"},{"id":"4706","tribuneTheaterId":"9920","providerTheaterId":"","name":"Muvico Thousand Oaks 14","address":"166 W. Hillcrest Dr.","city":"Thousand Oaks","state":"CA","zip":"91360","distance":24.206094167437,"lon":"-118.885804","lat":"34.181946","theaterChainName":"Carmike Cinemas","ticketType":"STANDARD"},{"id":"163","tribuneTheaterId":"7555","providerTheaterId":"","name":"Janss Marketplace 9","address":"255 N. Moorpark Road","city":"Thousand Oaks","state":"CA","zip":"91360","distance":24.677284222878,"lon":"-118.876716","lat":"34.183469","theaterChainName":"Regency Theatres","ticketType":"STANDARD"}]