[{"id":"1062","tribuneTheaterId":"2931","providerTheaterId":"","name":"Fiesta 5","address":"916 State St.","city":"Santa Barbara","state":"CA","zip":"93101","distance":10.514678250696,"lon":"-119.701012","lat":"34.420948","theaterChainName":"Metropolitan Theatres","ticketType":"STANDARD"},{"id":"1061","tribuneTheaterId":"2449","providerTheaterId":"","name":"Arlington Theatre","address":"1317 State St.","city":"Santa Barbara","state":"CA","zip":"93101","distance":10.846738514874,"lon":"-119.7062","lat":"34.424702","theaterChainName":"Metropolitan Theatres","ticketType":"STANDARD"},{"id":"1066","tribuneTheaterId":"2450","providerTheaterId":"","name":"Riviera Theatre - Santa Barbara","address":"2044 Alameda Padre Serra","city":"Santa Barbara","state":"CA","zip":"93103","distance":11.085308059193,"lon":"-119.706729","lat":"34.439281","theaterChainName":"Metropolitan Theatres","ticketType":"STANDARD"},{"id":"1064","tribuneTheaterId":"2869","providerTheaterId":"","name":"Paseo Nuevo","address":"8 W. De La Guerra Place","city":"Santa Barbara","state":"CA","zip":"93101","distance":10.42486023465,"lon":"-119.699677","lat":"34.419448","theaterChainName":"Metropolitan Theatres","ticketType":"STANDARD"},{"id":"1063","tribuneTheaterId":"2868","providerTheaterId":"","name":"Metro 4","address":"618 State St.","city":"Santa Barbara","state":"CA","zip":"93101","distance":10.275194948778,"lon":"-119.697225","lat":"34.418229","theaterChainName":"Metropolitan Theatres","ticketType":"STANDARD"},{"id":"1065","tribuneTheaterId":"2678","providerTheaterId":"","name":"Plaza De Oro Twin","address":"371 S. Hitchcock Way","city":"Santa Barbara","state":"CA","zip":"93105","distance":13.198627420569,"lon":"-119.74597","lat":"34.434651","theaterChainName":"Metropolitan Theatres","ticketType":"STANDARD"},{"id":"1492","tribuneTheaterId":"7449","providerTheaterId":"","name":"Century Downtown 10","address":"555 E. Main St.","city":"Ventura","state":"CA","zip":"93001","distance":15.268343583135,"lon":"-119.292195","lat":"34.280935","theaterChainName":"Cinemark","ticketType":"STANDARD"},{"id":"11","tribuneTheaterId":"8085","providerTheaterId":"","name":"Buenaventura 6","address":"1440 Eastman Ave.","city":"Ventura","state":"CA","zip":"93003","distance":19.063702825483,"lon":"-119.229775","lat":"34.260054","theaterChainName":"Regency Theatres","ticketType":"STANDARD"},{"id":"5225","tribuneTheaterId":"10649","providerTheaterId":"","name":"Century RiverPark 16","address":"2766 Seaglass Way","city":"Oxnard","state":"CA","zip":"93030","distance":22.450040889493,"lon":"-119.175573","lat":"34.239657","theaterChainName":"Cinemark","ticketType":"STANDARD"},{"id":"4102","tribuneTheaterId":"2352","providerTheaterId":"","name":"Plaza Cinemas 14","address":"255 West 5th Street","city":"Oxnard","state":"CA","zip":"93030","distance":23.814171361312,"lon":"-119.179226","lat":"34.198302","theaterChainName":"SR Entertainment","ticketType":"STANDARD"}]