[{"id":"1492","tribuneTheaterId":"7449","providerTheaterId":"","name":"Century Downtown 10","address":"555 E. Main St.","city":"Ventura","state":"CA","zip":"93001","distance":8.3717930764504,"lon":"-119.292195","lat":"34.280935","theaterChainName":"Cinemark","ticketType":"STANDARD"},{"id":"11","tribuneTheaterId":"8085","providerTheaterId":"","name":"Buenaventura 6","address":"1440 Eastman Ave.","city":"Ventura","state":"CA","zip":"93003","distance":10.55601526007,"lon":"-119.229775","lat":"34.260054","theaterChainName":"Regency Theatres","ticketType":"STANDARD"},{"id":"5225","tribuneTheaterId":"10649","providerTheaterId":"","name":"Century RiverPark 16","address":"2766 Seaglass Way","city":"Oxnard","state":"CA","zip":"93030","distance":13.220535029031,"lon":"-119.175573","lat":"34.239657","theaterChainName":"Cinemark","ticketType":"STANDARD"},{"id":"4453","tribuneTheaterId":"9538","providerTheaterId":"","name":"Regency Santa Paula 7","address":"550 W. Main St.","city":"Santa Paula","state":"CA","zip":"93060","distance":12.935420990088,"lon":"-119.081604","lat":"34.346404","theaterChainName":"Regency Theatres","ticketType":"STANDARD"},{"id":"4102","tribuneTheaterId":"2352","providerTheaterId":"","name":"Plaza Cinemas 14","address":"255 West 5th Street","city":"Oxnard","state":"CA","zip":"93030","distance":15.626791608988,"lon":"-119.179226","lat":"34.198302","theaterChainName":"SR Entertainment","ticketType":"STANDARD"},{"id":"105","tribuneTheaterId":"9272","providerTheaterId":"","name":"Edwards Camarillo Stadium 12 & IMAX","address":"680 Ventura Blvd.","city":"Camarillo","state":"CA","zip":"93010","distance":18.476659869258,"lon":"-119.063184","lat":"34.218077","theaterChainName":"Edwards Theatres","ticketType":"STANDARD"},{"id":"1162","tribuneTheaterId":"8745","providerTheaterId":"","name":"Paseo Camarillo","address":"390 N. Lantana St.","city":"Camarillo","state":"CA","zip":"93010","distance":18.793317683527,"lon":"-119.053929","lat":"34.219588","theaterChainName":"Regency Theatres","ticketType":"STANDARD"},{"id":"114","tribuneTheaterId":"9196","providerTheaterId":"","name":"Roxy Stadium 11","address":"5001 Verdugo Way","city":"Camarillo","state":"CA","zip":"93012","distance":21.151995576896,"lon":"-119.0042","lat":"34.2156","theaterChainName":"SR Entertainment","ticketType":"STANDARD"},{"id":"1066","tribuneTheaterId":"2450","providerTheaterId":"","name":"Riviera Theatre - Santa Barbara","address":"2044 Alameda Padre Serra","city":"Santa Barbara","state":"CA","zip":"93103","distance":23.426446392599,"lon":"-119.706729","lat":"34.439281","theaterChainName":"Metropolitan Theatres","ticketType":"STANDARD"},{"id":"1061","tribuneTheaterId":"2449","providerTheaterId":"","name":"Arlington Theatre","address":"1317 State St.","city":"Santa Barbara","state":"CA","zip":"93101","distance":23.309114222401,"lon":"-119.7062","lat":"34.424702","theaterChainName":"Metropolitan Theatres","ticketType":"STANDARD"},{"id":"1064","tribuneTheaterId":"2869","providerTheaterId":"","name":"Paseo Nuevo","address":"8 W. De La Guerra Place","city":"Santa Barbara","state":"CA","zip":"93101","distance":22.916911922235,"lon":"-119.699677","lat":"34.419448","theaterChainName":"Metropolitan Theatres","ticketType":"STANDARD"},{"id":"1063","tribuneTheaterId":"2868","providerTheaterId":"","name":"Metro 4","address":"618 State St.","city":"Santa Barbara","state":"CA","zip":"93101","distance":22.773199858099,"lon":"-119.697225","lat":"34.418229","theaterChainName":"Metropolitan Theatres","ticketType":"STANDARD"},{"id":"1062","tribuneTheaterId":"2931","providerTheaterId":"","name":"Fiesta 5","address":"916 State St.","city":"Santa Barbara","state":"CA","zip":"93101","distance":22.998366337226,"lon":"-119.701012","lat":"34.420948","theaterChainName":"Metropolitan Theatres","ticketType":"STANDARD"}]