[{"id":"4862","tribuneTheaterId":"10159","providerTheaterId":"","name":"Simi Valley 10 Cinemas","address":"1457 E. Los Angeles Avenue","city":"Simi Valley","state":"CA","zip":"93065","distance":6.0839656971015,"lon":"-118.77072","lat":"34.273284","theaterChainName":"Tristone Cinemas","ticketType":"STANDARD"},{"id":"5776","tribuneTheaterId":"11216","providerTheaterId":"","name":"Studio Movie Grill Simi Valley","address":"1555 Simi Town Center Way","city":"Simi Valley","state":"CA","zip":"93065","distance":6.0706851101467,"lon":"-118.7709","lat":"34.2828","theaterChainName":"Studio Movie Grill","ticketType":"SELECT_SEATING"},{"id":"163","tribuneTheaterId":"7555","providerTheaterId":"","name":"Janss Marketplace 9","address":"255 N. Moorpark Road","city":"Thousand Oaks","state":"CA","zip":"91360","distance":6.5591330052294,"lon":"-118.876716","lat":"34.183469","theaterChainName":"Regency Theatres","ticketType":"STANDARD"},{"id":"4706","tribuneTheaterId":"9920","providerTheaterId":"","name":"Muvico Thousand Oaks 14","address":"166 W. Hillcrest Dr.","city":"Thousand Oaks","state":"CA","zip":"91360","distance":6.6828481431928,"lon":"-118.885804","lat":"34.181946","theaterChainName":"Carmike Cinemas","ticketType":"STANDARD"},{"id":"2661","tribuneTheaterId":"8660","providerTheaterId":"","name":"Regal Simi Valley Civic Center Stadium 16 & IMAX","address":"2751 Tapo Canyon Road","city":"Simi Valley","state":"CA","zip":"93063","distance":9.0323629163094,"lon":"-118.719066","lat":"34.284591","theaterChainName":"Regal Cinemas","ticketType":"STANDARD"},{"id":"114","tribuneTheaterId":"9196","providerTheaterId":"","name":"Roxy Stadium 11","address":"5001 Verdugo Way","city":"Camarillo","state":"CA","zip":"93012","distance":8.4571256578807,"lon":"-119.0042","lat":"34.2156","theaterChainName":"SR Entertainment","ticketType":"STANDARD"},{"id":"2987","tribuneTheaterId":"5822","providerTheaterId":"","name":"Westlake Village Twin","address":"4711 Lakeview Canyon Road","city":"Westlake Village","state":"CA","zip":"91361","distance":9.5796623910495,"lon":"-118.819015","lat":"34.148338","theaterChainName":"Regency Theatres","ticketType":"STANDARD"},{"id":"1162","tribuneTheaterId":"8745","providerTheaterId":"","name":"Paseo Camarillo","address":"390 N. Lantana St.","city":"Camarillo","state":"CA","zip":"93010","distance":10.885993743307,"lon":"-119.053929","lat":"34.219588","theaterChainName":"Regency Theatres","ticketType":"STANDARD"},{"id":"12","tribuneTheaterId":"7407","providerTheaterId":"","name":"Regency Agoura Hills Stadium 8","address":"29045 Agoura Rd.","city":"Agoura Hills","state":"CA","zip":"91301","distance":11.52327726338,"lon":"-118.757105","lat":"34.144355","theaterChainName":"Regency Theatres","ticketType":"STANDARD"},{"id":"105","tribuneTheaterId":"9272","providerTheaterId":"","name":"Edwards Camarillo Stadium 12 & IMAX","address":"680 Ventura Blvd.","city":"Camarillo","state":"CA","zip":"93010","distance":11.415864765409,"lon":"-119.063184","lat":"34.218077","theaterChainName":"Edwards Theatres","ticketType":"STANDARD"},{"id":"4453","tribuneTheaterId":"9538","providerTheaterId":"","name":"Regency Santa Paula 7","address":"550 W. Main St.","city":"Santa Paula","state":"CA","zip":"93060","distance":12.581235496868,"lon":"-119.081604","lat":"34.346404","theaterChainName":"Regency Theatres","ticketType":"STANDARD"},{"id":"2008","tribuneTheaterId":"5807","providerTheaterId":"","name":"Edwards Calabasas Stadium 6","address":"4767 Commons Way","city":"Calabasas","state":"CA","zip":"91302","distance":15.790640938549,"lon":"-118.645829","lat":"34.153273","theaterChainName":"Edwards Theatres","ticketType":"STANDARD"},{"id":"5309","tribuneTheaterId":"10746","providerTheaterId":"445","name":"AMC Fallbrook 7","address":"6731 Fallbrook Ave.","city":"West Hills","state":"CA","zip":"91307","distance":15.555877188521,"lon":"-118.625488","lat":"34.192268","theaterChainName":"AMC Theatres","ticketType":"STANDARD"},{"id":"197","tribuneTheaterId":"9176","providerTheaterId":"202","name":"AMC Promenade 16","address":"21801 Oxnard St.","city":"Woodland Hills","state":"CA","zip":"91367","distance":17.047366473856,"lon":"-118.603283","lat":"34.180302","theaterChainName":"AMC Theatres","ticketType":"STANDARD"},{"id":"691","tribuneTheaterId":"9007","providerTheaterId":"","name":"Pacific Winnetka 21","address":"9201 Winnetka Ave.","city":"Chatsworth","state":"CA","zip":"91311","distance":17.520939790467,"lon":"-118.574152","lat":"34.238273","theaterChainName":"Pacific Theaters","ticketType":"STANDARD"},{"id":"1599","tribuneTheaterId":"7608","providerTheaterId":"","name":"Pacific Northridge Fashion Center 10","address":"9400 N. Shirley Ave.","city":"Northridge","state":"CA","zip":"91324","distance":18.437305376197,"lon":"-118.557562","lat":"34.240196","theaterChainName":"Pacific Theaters","ticketType":"STANDARD"},{"id":"4102","tribuneTheaterId":"2352","providerTheaterId":"","name":"Plaza Cinemas 14","address":"255 West 5th Street","city":"Oxnard","state":"CA","zip":"93030","distance":18.123014371324,"lon":"-119.179226","lat":"34.198302","theaterChainName":"SR Entertainment","ticketType":"STANDARD"},{"id":"5225","tribuneTheaterId":"10649","providerTheaterId":"","name":"Century RiverPark 16","address":"2766 Seaglass Way","city":"Oxnard","state":"CA","zip":"93030","distance":17.253424073194,"lon":"-119.175573","lat":"34.239657","theaterChainName":"Cinemark","ticketType":"STANDARD"},{"id":"104","tribuneTheaterId":"8892","providerTheaterId":"","name":"Edwards Valencia Stadium 12","address":"24435 Town Center Drive","city":"Santa Clarita","state":"CA","zip":"91355","distance":20.434002445324,"lon":"-118.561707","lat":"34.418613","theaterChainName":"Edwards Theatres","ticketType":"STANDARD"},{"id":"11","tribuneTheaterId":"8085","providerTheaterId":"","name":"Buenaventura 6","address":"1440 Eastman Ave.","city":"Ventura","state":"CA","zip":"93003","distance":20.177152126153,"lon":"-119.229775","lat":"34.260054","theaterChainName":"Regency Theatres","ticketType":"STANDARD"},{"id":"302","tribuneTheaterId":"6244","providerTheaterId":"","name":"Hollywood Theatres Malibu Cinemas","address":"3822 Crosscreek Road","city":"Malibu","state":"CA","zip":"90265","distance":20.019999833346,"lon":"-118.685148","lat":"34.036064","theaterChainName":"Regal Cinemas","ticketType":"STANDARD"},{"id":"4854","tribuneTheaterId":"10148","providerTheaterId":"","name":"Regency Granada Hills","address":"16830 Devonshire St.","city":"Granada Hills","state":"CA","zip":"91344","distance":21.63643028815,"lon":"-118.499082","lat":"34.256773","theaterChainName":"Regency Theatres","ticketType":"STANDARD"},{"id":"304","tribuneTheaterId":"7926","providerTheaterId":"","name":"Laemmle Town Center 5","address":"17200 Ventura Blvd.","city":"Encino","state":"CA","zip":"91316","distance":22.62311403188,"lon":"-118.507912","lat":"34.160017","theaterChainName":"Laemmle Theatres","ticketType":"STANDARD"},{"id":"1492","tribuneTheaterId":"7449","providerTheaterId":"","name":"Century Downtown 10","address":"555 E. Main St.","city":"Ventura","state":"CA","zip":"93001","distance":23.699098856924,"lon":"-119.292195","lat":"34.280935","theaterChainName":"Cinemark","ticketType":"STANDARD"},{"id":"5054","tribuneTheaterId":"10434","providerTheaterId":"","name":"Regency Van Nuys Plant 16","address":"7876 Van Nuys Blvd.","city":"Van Nuys","state":"CA","zip":"91402","distance":24.866590872766,"lon":"-118.4487","lat":"34.2142","theaterChainName":"Regency Theatres","ticketType":"STANDARD"}]