[{"id":"4102","tribuneTheaterId":"2352","providerTheaterId":"","name":"Plaza Cinemas 14","address":"255 West 5th Street","city":"Oxnard","state":"CA","zip":"93030","distance":7.0007485317669,"lon":"-119.179226","lat":"34.198302","theaterChainName":"SR Entertainment","ticketType":"STANDARD"},{"id":"1162","tribuneTheaterId":"8745","providerTheaterId":"","name":"Paseo Camarillo","address":"390 N. Lantana St.","city":"Camarillo","state":"CA","zip":"93010","distance":8.0624690028711,"lon":"-119.053929","lat":"34.219588","theaterChainName":"Regency Theatres","ticketType":"STANDARD"},{"id":"105","tribuneTheaterId":"9272","providerTheaterId":"","name":"Edwards Camarillo Stadium 12 & IMAX","address":"680 Ventura Blvd.","city":"Camarillo","state":"CA","zip":"93010","distance":7.7604929805807,"lon":"-119.063184","lat":"34.218077","theaterChainName":"Edwards Theatres","ticketType":"STANDARD"},{"id":"5225","tribuneTheaterId":"10649","providerTheaterId":"","name":"Century RiverPark 16","address":"2766 Seaglass Way","city":"Oxnard","state":"CA","zip":"93030","distance":9.441372157183,"lon":"-119.175573","lat":"34.239657","theaterChainName":"Cinemark","ticketType":"STANDARD"},{"id":"114","tribuneTheaterId":"9196","providerTheaterId":"","name":"Roxy Stadium 11","address":"5001 Verdugo Way","city":"Camarillo","state":"CA","zip":"93012","distance":9.3875547940911,"lon":"-119.0042","lat":"34.2156","theaterChainName":"SR Entertainment","ticketType":"STANDARD"},{"id":"11","tribuneTheaterId":"8085","providerTheaterId":"","name":"Buenaventura 6","address":"1440 Eastman Ave.","city":"Ventura","state":"CA","zip":"93003","distance":12.152292391238,"lon":"-119.229775","lat":"34.260054","theaterChainName":"Regency Theatres","ticketType":"STANDARD"},{"id":"4706","tribuneTheaterId":"9920","providerTheaterId":"","name":"Muvico Thousand Oaks 14","address":"166 W. Hillcrest Dr.","city":"Thousand Oaks","state":"CA","zip":"91360","distance":13.795460723385,"lon":"-118.885804","lat":"34.181946","theaterChainName":"Carmike Cinemas","ticketType":"STANDARD"},{"id":"163","tribuneTheaterId":"7555","providerTheaterId":"","name":"Janss Marketplace 9","address":"255 N. Moorpark Road","city":"Thousand Oaks","state":"CA","zip":"91360","distance":14.319772034624,"lon":"-118.876716","lat":"34.183469","theaterChainName":"Regency Theatres","ticketType":"STANDARD"},{"id":"1492","tribuneTheaterId":"7449","providerTheaterId":"","name":"Century Downtown 10","address":"555 E. Main St.","city":"Ventura","state":"CA","zip":"93001","distance":15.477914818223,"lon":"-119.292195","lat":"34.280935","theaterChainName":"Cinemark","ticketType":"STANDARD"},{"id":"2987","tribuneTheaterId":"5822","providerTheaterId":"","name":"Westlake Village Twin","address":"4711 Lakeview Canyon Road","city":"Westlake Village","state":"CA","zip":"91361","distance":16.952183607048,"lon":"-118.819015","lat":"34.148338","theaterChainName":"Regency Theatres","ticketType":"STANDARD"},{"id":"4453","tribuneTheaterId":"9538","providerTheaterId":"","name":"Regency Santa Paula 7","address":"550 W. Main St.","city":"Santa Paula","state":"CA","zip":"93060","distance":16.194851423136,"lon":"-119.081604","lat":"34.346404","theaterChainName":"Regency Theatres","ticketType":"STANDARD"},{"id":"12","tribuneTheaterId":"7407","providerTheaterId":"","name":"Regency Agoura Hills Stadium 8","address":"29045 Agoura Rd.","city":"Agoura Hills","state":"CA","zip":"91301","distance":20.432938325245,"lon":"-118.757105","lat":"34.144355","theaterChainName":"Regency Theatres","ticketType":"STANDARD"},{"id":"5776","tribuneTheaterId":"11216","providerTheaterId":"","name":"Studio Movie Grill Simi Valley","address":"1555 Simi Town Center Way","city":"Simi Valley","state":"CA","zip":"93065","distance":22.75642489145,"lon":"-118.7709","lat":"34.2828","theaterChainName":"Studio Movie Grill","ticketType":"SELECT_SEATING"},{"id":"4862","tribuneTheaterId":"10159","providerTheaterId":"","name":"Simi Valley 10 Cinemas","address":"1457 E. Los Angeles Avenue","city":"Simi Valley","state":"CA","zip":"93065","distance":22.435257251392,"lon":"-118.77072","lat":"34.273284","theaterChainName":"Tristone Cinemas","ticketType":"STANDARD"}]