[{"id":"2939","tribuneTheaterId":"3014","providerTheaterId":"","name":"Camino Real","address":"7040 Market Place Drive","city":"Goleta","state":"CA","zip":"93117","distance":0.60597790711848,"lon":"-119.871665","lat":"34.428047","theaterChainName":"Metropolitan Theatres","ticketType":"STANDARD"},{"id":"1455","tribuneTheaterId":"2709","providerTheaterId":"","name":"Fairview Twin","address":"251 North Fairview","city":"Goleta","state":"CA","zip":"93117","distance":1.9454579322983,"lon":"-119.831209","lat":"34.443053","theaterChainName":"Metropolitan Theatres","ticketType":"STANDARD"},{"id":"1065","tribuneTheaterId":"2678","providerTheaterId":"","name":"Plaza De Oro Twin","address":"371 S. Hitchcock Way","city":"Santa Barbara","state":"CA","zip":"93105","distance":6.5759848132098,"lon":"-119.74597","lat":"34.434651","theaterChainName":"Metropolitan Theatres","ticketType":"STANDARD"},{"id":"1063","tribuneTheaterId":"2868","providerTheaterId":"","name":"Metro 4","address":"618 State St.","city":"Santa Barbara","state":"CA","zip":"93101","distance":9.378477556423,"lon":"-119.697225","lat":"34.418229","theaterChainName":"Metropolitan Theatres","ticketType":"STANDARD"},{"id":"1066","tribuneTheaterId":"2450","providerTheaterId":"","name":"Riviera Theatre - Santa Barbara","address":"2044 Alameda Padre Serra","city":"Santa Barbara","state":"CA","zip":"93103","distance":8.8281133269122,"lon":"-119.706729","lat":"34.439281","theaterChainName":"Metropolitan Theatres","ticketType":"STANDARD"},{"id":"1064","tribuneTheaterId":"2869","providerTheaterId":"","name":"Paseo Nuevo","address":"8 W. De La Guerra Place","city":"Santa Barbara","state":"CA","zip":"93101","distance":9.2323805650214,"lon":"-119.699677","lat":"34.419448","theaterChainName":"Metropolitan Theatres","ticketType":"STANDARD"},{"id":"1062","tribuneTheaterId":"2931","providerTheaterId":"","name":"Fiesta 5","address":"916 State St.","city":"Santa Barbara","state":"CA","zip":"93101","distance":9.1490790513358,"lon":"-119.701012","lat":"34.420948","theaterChainName":"Metropolitan Theatres","ticketType":"STANDARD"},{"id":"1061","tribuneTheaterId":"2449","providerTheaterId":"","name":"Arlington Theatre","address":"1317 State St.","city":"Santa Barbara","state":"CA","zip":"93101","distance":8.8401326366671,"lon":"-119.7062","lat":"34.424702","theaterChainName":"Metropolitan Theatres","ticketType":"STANDARD"},{"id":"2090","tribuneTheaterId":"1838","providerTheaterId":"","name":"Parks Plaza","address":"515 McMurray Rd","city":"Buellton","state":"CA","zip":"93427","distance":22.594347957001,"lon":"-120.188646","lat":"34.614405","theaterChainName":"Independent Chains","ticketType":"STANDARD"}]