[{"id":"2231","tribuneTheaterId":"6713","providerTheaterId":"","name":"Regal Visalia Stadium 10","address":"120 S. Bridge St.","city":"Visalia","state":"CA","zip":"93291","distance":7.8425878371011,"lon":"-119.2889","lat":"36.329","theaterChainName":"Regal Cinemas","ticketType":"STANDARD"},{"id":"270","tribuneTheaterId":"8310","providerTheaterId":"","name":"Sequoia Mall 12","address":"3355 S. Mooney Blvd.","city":"Visalia","state":"CA","zip":"93277","distance":7.1971546613594,"lon":"-119.316931","lat":"36.300506","theaterChainName":"Regal Cinemas","ticketType":"STANDARD"},{"id":"3957","tribuneTheaterId":"7778","providerTheaterId":"","name":"Galaxy Tulare 10","address":"1575 Retherford Street","city":"Tulare","state":"CA","zip":"93274","distance":10.233181761869,"lon":"-119.335513","lat":"36.228023","theaterChainName":"Galaxy Theatres","ticketType":"STANDARD"},{"id":"2338","tribuneTheaterId":"2894","providerTheaterId":"","name":"Metro 4 Cinemas","address":"123 E. 7th Street","city":"Hanford","state":"CA","zip":"93230","distance":12.374111622354,"lon":"-119.644486","lat":"36.326677","theaterChainName":"SR Entertainment","ticketType":"STANDARD"},{"id":"1354","tribuneTheaterId":"5211","providerTheaterId":"","name":"Movies 8 Hanford Mall","address":"1669 W. Lacey Blvd.","city":"Hanford","state":"CA","zip":"93230","distance":13.796998137064,"lon":"-119.670416","lat":"36.3268","theaterChainName":"Cinemark","ticketType":"STANDARD"},{"id":"4967","tribuneTheaterId":"10327","providerTheaterId":"","name":"Selma Cinema","address":"2705  CINEMA  WAY","city":"Selma","state":"CA","zip":"93662","distance":18.567760849486,"lon":"-119.624607","lat":"36.57296","theaterChainName":"Independent Chains","ticketType":"STANDARD"},{"id":"4052","tribuneTheaterId":"2965","providerTheaterId":"","name":"Lemoore Stadium Cinemas","address":"400 Follett Street","city":"Lemoore","state":"CA","zip":"93245","distance":20.278385409849,"lon":"-119.783429","lat":"36.302944","theaterChainName":"Independent Chains","ticketType":"STANDARD"}]