[{"id":"3957","tribuneTheaterId":"7778","providerTheaterId":"","name":"Galaxy Tulare 10","address":"1575 Retherford Street","city":"Tulare","state":"CA","zip":"93274","distance":1.5503009201585,"lon":"-119.335513","lat":"36.228023","theaterChainName":"Galaxy Theatres","ticketType":"STANDARD"},{"id":"270","tribuneTheaterId":"8310","providerTheaterId":"","name":"Sequoia Mall 12","address":"3355 S. Mooney Blvd.","city":"Visalia","state":"CA","zip":"93277","distance":6.6317677170333,"lon":"-119.316931","lat":"36.300506","theaterChainName":"Regal Cinemas","ticketType":"STANDARD"},{"id":"2231","tribuneTheaterId":"6713","providerTheaterId":"","name":"Regal Visalia Stadium 10","address":"120 S. Bridge St.","city":"Visalia","state":"CA","zip":"93291","distance":8.9902875691167,"lon":"-119.2889","lat":"36.329","theaterChainName":"Regal Cinemas","ticketType":"STANDARD"},{"id":"2338","tribuneTheaterId":"2894","providerTheaterId":"","name":"Metro 4 Cinemas","address":"123 E. 7th Street","city":"Hanford","state":"CA","zip":"93230","distance":18.484106448787,"lon":"-119.644486","lat":"36.326677","theaterChainName":"SR Entertainment","ticketType":"STANDARD"},{"id":"1354","tribuneTheaterId":"5211","providerTheaterId":"","name":"Movies 8 Hanford Mall","address":"1669 W. Lacey Blvd.","city":"Hanford","state":"CA","zip":"93230","distance":19.791838212608,"lon":"-119.670416","lat":"36.3268","theaterChainName":"Cinemark","ticketType":"STANDARD"},{"id":"1761","tribuneTheaterId":"5994","providerTheaterId":"","name":"Galaxy Porterville 9","address":"631 North Indiana","city":"Porterville","state":"CA","zip":"93257","distance":19.511473319661,"lon":"-119.0365","lat":"36.07827","theaterChainName":"Galaxy Theatres","ticketType":"STANDARD"}]