[{"id":"2292","tribuneTheaterId":"7294","providerTheaterId":"","name":"Bakersfield Valley Plaza 16","address":"2000 Wible Road","city":"Bakersfield","state":"CA","zip":"93304","distance":8.1021928116871,"lon":"-119.0389","lat":"35.3374","theaterChainName":"Reading International, Inc","ticketType":"STANDARD"},{"id":"4787","tribuneTheaterId":"10037","providerTheaterId":"","name":"Maya Bakersfield 16 Cinemas","address":"1000 California Ave.","city":"Bakersfield","state":"CA","zip":"93304","distance":7.9990190820753,"lon":"-119.013305","lat":"35.369399","theaterChainName":"Independent Chains","ticketType":"STANDARD"},{"id":"90","tribuneTheaterId":"1899","providerTheaterId":"","name":"AMC Bakersfield 6","address":"4200 California Ave.","city":"Bakersfield","state":"CA","zip":"93309","distance":9.5855772843533,"lon":"-119.048307","lat":"35.369345","theaterChainName":"AMC Theatres","ticketType":"STANDARD"},{"id":"552","tribuneTheaterId":"5814","providerTheaterId":"","name":"Edwards Bakersfield Stadium 14","address":"9000 G. Ming Ave.","city":"Bakersfield","state":"CA","zip":"93311","distance":11.675893486378,"lon":"-119.103878","lat":"35.342112","theaterChainName":"Edwards Theatres","ticketType":"STANDARD"}]