[{"id":"5026","tribuneTheaterId":"10400","providerTheaterId":"","name":"Atascadero VIP Theatre","address":"6917 El Camino Real","city":"Atascadero","state":"CA","zip":"93422","distance":0.82413400766286,"lon":"-120.66546","lat":"35.487251","theaterChainName":"Galaxy Theatres","ticketType":"STANDARD"},{"id":"5018","tribuneTheaterId":"10391","providerTheaterId":"","name":"Galaxy Atascadero","address":"6917 El Camino Real","city":"Atascadero","state":"CA","zip":"93422","distance":0.8148027063678,"lon":"-120.665513","lat":"35.48711","theaterChainName":"Galaxy Theatres","ticketType":"STANDARD"},{"id":"1881","tribuneTheaterId":"2183","providerTheaterId":"","name":"Park Cinemas Paso Robles","address":"1100 Pine Street","city":"Paso Robles","state":"CA","zip":"93446","distance":10.478607073862,"lon":"-120.688596","lat":"35.625711","theaterChainName":"Independent Chains","ticketType":"STANDARD"},{"id":"3207","tribuneTheaterId":"1252","providerTheaterId":"","name":"Bay Theatre - Morro Bay","address":"464 Morro Bay Blvd.","city":"Morro Bay","state":"CA","zip":"93442","distance":12.853620435646,"lon":"-120.848066","lat":"35.365584","theaterChainName":"Independent Chains","ticketType":"STANDARD"},{"id":"3424","tribuneTheaterId":"1742","providerTheaterId":"","name":"The Movie Experience - Fremont","address":"1035 Monterey St.","city":"San Luis Obispo","state":"CA","zip":"93401","distance":13.378187366078,"lon":"-120.660391","lat":"35.281795","theaterChainName":"The Movie Experience","ticketType":"STANDARD"},{"id":"411","tribuneTheaterId":"7486","providerTheaterId":"","name":"Downtown Centre Cinema","address":"888 Marsh Street","city":"San Luis Obispo","state":"CA","zip":"93401","distance":13.513825447443,"lon":"-120.661761","lat":"35.279819","theaterChainName":"The Movie Experience","ticketType":"STANDARD"},{"id":"10","tribuneTheaterId":"8996","providerTheaterId":"","name":"Regal Arroyo Grande Stadium 10","address":"1160 W. Branch St.","city":"Arroyo Grande","state":"CA","zip":"93420","distance":24.379246873726,"lon":"-120.596631","lat":"35.126839","theaterChainName":"Regal Cinemas","ticketType":"STANDARD"}]