[{"id":"3207","tribuneTheaterId":"1252","providerTheaterId":"","name":"Bay Theatre - Morro Bay","address":"464 Morro Bay Blvd.","city":"Morro Bay","state":"CA","zip":"93442","distance":18.721163979746,"lon":"-120.848066","lat":"35.365584","theaterChainName":"Independent Chains","ticketType":"STANDARD"},{"id":"1881","tribuneTheaterId":"2183","providerTheaterId":"","name":"Park Cinemas Paso Robles","address":"1100 Pine Street","city":"Paso Robles","state":"CA","zip":"93446","distance":22.723543877544,"lon":"-120.688596","lat":"35.625711","theaterChainName":"Independent Chains","ticketType":"STANDARD"},{"id":"5026","tribuneTheaterId":"10400","providerTheaterId":"","name":"Atascadero VIP Theatre","address":"6917 El Camino Real","city":"Atascadero","state":"CA","zip":"93422","distance":24.019178269742,"lon":"-120.66546","lat":"35.487251","theaterChainName":"Galaxy Theatres","ticketType":"STANDARD"},{"id":"5018","tribuneTheaterId":"10391","providerTheaterId":"","name":"Galaxy Atascadero","address":"6917 El Camino Real","city":"Atascadero","state":"CA","zip":"93422","distance":24.01822357997,"lon":"-120.665513","lat":"35.48711","theaterChainName":"Galaxy Theatres","ticketType":"STANDARD"}]