[{"id":"5411","tribuneTheaterId":"10848","providerTheaterId":"","name":"Santa Maria Town Center Stadium 14 + RPX","address":"100 Town Center E.","city":"Santa Maria","state":"CA","zip":"93454","distance":9.3758300805107,"lon":"-120.4334","lat":"34.9529","theaterChainName":"Edwards Theatres","ticketType":"STANDARD"},{"id":"97","tribuneTheaterId":"8669","providerTheaterId":"","name":"Edwards Santa Maria","address":"1521 S Bradley Rd","city":"Santa Maria","state":"CA","zip":"93454","distance":8.9275747752165,"lon":"-120.419683","lat":"34.933824","theaterChainName":"Edwards Theatres","ticketType":"STANDARD"},{"id":"1629","tribuneTheaterId":"1667","providerTheaterId":"","name":"Movies Of Lompoc","address":"220 W Barton","city":"Lompoc","state":"CA","zip":"93436","distance":13.7283224964,"lon":"-120.460614","lat":"34.656741","theaterChainName":"Independent Chains","ticketType":"STANDARD"},{"id":"10","tribuneTheaterId":"8996","providerTheaterId":"","name":"Regal Arroyo Grande Stadium 10","address":"1160 W. Branch St.","city":"Arroyo Grande","state":"CA","zip":"93420","distance":19.728831344993,"lon":"-120.596631","lat":"35.126839","theaterChainName":"Regal Cinemas","ticketType":"STANDARD"}]