[{"id":"2090","tribuneTheaterId":"1838","providerTheaterId":"","name":"Parks Plaza","address":"515 McMurray Rd","city":"Buellton","state":"CA","zip":"93427","distance":5.5842748918628,"lon":"-120.188646","lat":"34.614405","theaterChainName":"Independent Chains","ticketType":"STANDARD"},{"id":"1629","tribuneTheaterId":"1667","providerTheaterId":"","name":"Movies Of Lompoc","address":"220 W Barton","city":"Lompoc","state":"CA","zip":"93436","distance":19.661955108422,"lon":"-120.460614","lat":"34.656741","theaterChainName":"Independent Chains","ticketType":"STANDARD"},{"id":"2939","tribuneTheaterId":"3014","providerTheaterId":"","name":"Camino Real","address":"7040 Market Place Drive","city":"Goleta","state":"CA","zip":"93117","distance":21.587413582187,"lon":"-119.871665","lat":"34.428047","theaterChainName":"Metropolitan Theatres","ticketType":"STANDARD"},{"id":"1455","tribuneTheaterId":"2709","providerTheaterId":"","name":"Fairview Twin","address":"251 North Fairview","city":"Goleta","state":"CA","zip":"93117","distance":22.399385983839,"lon":"-119.831209","lat":"34.443053","theaterChainName":"Metropolitan Theatres","ticketType":"STANDARD"}]