[{"id":"10","tribuneTheaterId":"8996","providerTheaterId":"","name":"Regal Arroyo Grande Stadium 10","address":"1160 W. Branch St.","city":"Arroyo Grande","state":"CA","zip":"93420","distance":1.8390269108153,"lon":"-120.596631","lat":"35.126839","theaterChainName":"Regal Cinemas","ticketType":"STANDARD"},{"id":"3424","tribuneTheaterId":"1742","providerTheaterId":"","name":"The Movie Experience - Fremont","address":"1035 Monterey St.","city":"San Luis Obispo","state":"CA","zip":"93401","distance":12.776724905244,"lon":"-120.660391","lat":"35.281795","theaterChainName":"The Movie Experience","ticketType":"STANDARD"},{"id":"411","tribuneTheaterId":"7486","providerTheaterId":"","name":"Downtown Centre Cinema","address":"888 Marsh Street","city":"San Luis Obispo","state":"CA","zip":"93401","distance":12.66227705145,"lon":"-120.661761","lat":"35.279819","theaterChainName":"The Movie Experience","ticketType":"STANDARD"},{"id":"5411","tribuneTheaterId":"10848","providerTheaterId":"","name":"Santa Maria Town Center Stadium 14 + RPX","address":"100 Town Center E.","city":"Santa Maria","state":"CA","zip":"93454","distance":14.267911543931,"lon":"-120.4334","lat":"34.9529","theaterChainName":"Edwards Theatres","ticketType":"STANDARD"},{"id":"97","tribuneTheaterId":"8669","providerTheaterId":"","name":"Edwards Santa Maria","address":"1521 S Bradley Rd","city":"Santa Maria","state":"CA","zip":"93454","distance":15.761048477187,"lon":"-120.419683","lat":"34.933824","theaterChainName":"Edwards Theatres","ticketType":"STANDARD"},{"id":"3207","tribuneTheaterId":"1252","providerTheaterId":"","name":"Bay Theatre - Morro Bay","address":"464 Morro Bay Blvd.","city":"Morro Bay","state":"CA","zip":"93442","distance":22.704194427658,"lon":"-120.848066","lat":"35.365584","theaterChainName":"Independent Chains","ticketType":"STANDARD"}]