[{"id":"411","tribuneTheaterId":"7486","providerTheaterId":"","name":"Downtown Centre Cinema","address":"888 Marsh Street","city":"San Luis Obispo","state":"CA","zip":"93401","distance":23.313376527228,"lon":"-120.661761","lat":"35.279819","theaterChainName":"The Movie Experience","ticketType":"STANDARD"},{"id":"3424","tribuneTheaterId":"1742","providerTheaterId":"","name":"The Movie Experience - Fremont","address":"1035 Monterey St.","city":"San Luis Obispo","state":"CA","zip":"93401","distance":23.206484248935,"lon":"-120.660391","lat":"35.281795","theaterChainName":"The Movie Experience","ticketType":"STANDARD"},{"id":"5026","tribuneTheaterId":"10400","providerTheaterId":"","name":"Atascadero VIP Theatre","address":"6917 El Camino Real","city":"Atascadero","state":"CA","zip":"93422","distance":24.52445748438,"lon":"-120.66546","lat":"35.487251","theaterChainName":"Galaxy Theatres","ticketType":"STANDARD"},{"id":"10","tribuneTheaterId":"8996","providerTheaterId":"","name":"Regal Arroyo Grande Stadium 10","address":"1160 W. Branch St.","city":"Arroyo Grande","state":"CA","zip":"93420","distance":24.853183609667,"lon":"-120.596631","lat":"35.126839","theaterChainName":"Regal Cinemas","ticketType":"STANDARD"},{"id":"5018","tribuneTheaterId":"10391","providerTheaterId":"","name":"Galaxy Atascadero","address":"6917 El Camino Real","city":"Atascadero","state":"CA","zip":"93422","distance":24.523722242433,"lon":"-120.665513","lat":"35.48711","theaterChainName":"Galaxy Theatres","ticketType":"STANDARD"}]