[{"id":"2090","tribuneTheaterId":"1838","providerTheaterId":"","name":"Parks Plaza","address":"515 McMurray Rd","city":"Buellton","state":"CA","zip":"93427","distance":6.7051539719108,"lon":"-120.188646","lat":"34.614405","theaterChainName":"Independent Chains","ticketType":"STANDARD"},{"id":"2939","tribuneTheaterId":"3014","providerTheaterId":"","name":"Camino Real","address":"7040 Market Place Drive","city":"Goleta","state":"CA","zip":"93117","distance":17.676126561613,"lon":"-119.871665","lat":"34.428047","theaterChainName":"Metropolitan Theatres","ticketType":"STANDARD"},{"id":"1455","tribuneTheaterId":"2709","providerTheaterId":"","name":"Fairview Twin","address":"251 North Fairview","city":"Goleta","state":"CA","zip":"93117","distance":18.521760138598,"lon":"-119.831209","lat":"34.443053","theaterChainName":"Metropolitan Theatres","ticketType":"STANDARD"},{"id":"1629","tribuneTheaterId":"1667","providerTheaterId":"","name":"Movies Of Lompoc","address":"220 W Barton","city":"Lompoc","state":"CA","zip":"93436","distance":22.246073336307,"lon":"-120.460614","lat":"34.656741","theaterChainName":"Independent Chains","ticketType":"STANDARD"},{"id":"1065","tribuneTheaterId":"2678","providerTheaterId":"","name":"Plaza De Oro Twin","address":"371 S. Hitchcock Way","city":"Santa Barbara","state":"CA","zip":"93105","distance":22.673428824326,"lon":"-119.74597","lat":"34.434651","theaterChainName":"Metropolitan Theatres","ticketType":"STANDARD"},{"id":"1061","tribuneTheaterId":"2449","providerTheaterId":"","name":"Arlington Theatre","address":"1317 State St.","city":"Santa Barbara","state":"CA","zip":"93101","distance":24.931133563087,"lon":"-119.7062","lat":"34.424702","theaterChainName":"Metropolitan Theatres","ticketType":"STANDARD"},{"id":"1066","tribuneTheaterId":"2450","providerTheaterId":"","name":"Riviera Theatre - Santa Barbara","address":"2044 Alameda Padre Serra","city":"Santa Barbara","state":"CA","zip":"93103","distance":24.362027596915,"lon":"-119.706729","lat":"34.439281","theaterChainName":"Metropolitan Theatres","ticketType":"STANDARD"}]