[{"id":"4286","tribuneTheaterId":"4176","providerTheaterId":"","name":"Cinemark Antelope Valley Mall","address":"1475 W. Ave. P","city":"Palmdale","state":"CA","zip":"93551","distance":8.896239454439,"lon":"-118.155684","lat":"34.607923","theaterChainName":"Cinemark","ticketType":"STANDARD"},{"id":"640","tribuneTheaterId":"8455","providerTheaterId":"","name":"Cinemark Movies 12 Lancaster","address":"44790 Valley Central Way","city":"Lancaster","state":"CA","zip":"93534","distance":14.750289921327,"lon":"-118.171174","lat":"34.696011","theaterChainName":"Cinemark","ticketType":"STANDARD"},{"id":"2499","tribuneTheaterId":"5215","providerTheaterId":"","name":"Cinemark 22 & IMAX Lancaster","address":"2600 W. Ave. I","city":"Lancaster","state":"CA","zip":"93536","distance":15.170152928741,"lon":"-118.177689","lat":"34.702548","theaterChainName":"Cinemark","ticketType":"STANDARD"},{"id":"1603","tribuneTheaterId":"5809","providerTheaterId":"","name":"Edwards Canyon Country Stadium 10","address":"18800 Soledad Canyon Rd.","city":"Canyon Country","state":"CA","zip":"91351","distance":15.937798915084,"lon":"-118.462851","lat":"34.414585","theaterChainName":"Edwards Theatres","ticketType":"STANDARD"},{"id":"5342","tribuneTheaterId":"10779","providerTheaterId":"","name":"BLVD Cinemas","address":"742 W. Lancaster Blvd","city":"Lancaster","state":"CA","zip":"93534","distance":15.084498321938,"lon":"-118.1434","lat":"34.6975","theaterChainName":"Independent Chains","ticketType":"STANDARD"},{"id":"161","tribuneTheaterId":"9228","providerTheaterId":"","name":"United Artists La Canada 8","address":"1919 Verdugo Blvd.","city":"Flintridge","state":"CA","zip":"91011","distance":19.183011263587,"lon":"-118.216925","lat":"34.206404","theaterChainName":"United Artists","ticketType":"STANDARD"},{"id":"3636","tribuneTheaterId":"8983","providerTheaterId":"218","name":"AMC Burbank 16","address":"125 E. Palm Ave.","city":"Burbank","state":"CA","zip":"91502","distance":21.873637971643,"lon":"-118.311837","lat":"34.181742","theaterChainName":"AMC Theatres","ticketType":"STANDARD"},{"id":"20","tribuneTheaterId":"9275","providerTheaterId":"209","name":"AMC Theatres Burbank Town Center 8","address":"201 E. Magnolia Blvd. #345","city":"Burbank","state":"CA","zip":"91501","distance":21.756477544028,"lon":"-118.312151","lat":"34.183604","theaterChainName":"AMC Theatres","ticketType":"STANDARD"},{"id":"164","tribuneTheaterId":"9262","providerTheaterId":"442","name":"AMC Theatres Burbank Town Center 6","address":"770 N. First St.","city":"Burbank","state":"CA","zip":"91501","distance":21.731242285177,"lon":"-118.315325","lat":"34.18484","theaterChainName":"AMC Theatres","ticketType":"STANDARD"},{"id":"104","tribuneTheaterId":"8892","providerTheaterId":"","name":"Edwards Valencia Stadium 12","address":"24435 Town Center Drive","city":"Santa Clarita","state":"CA","zip":"91355","distance":21.31858404988,"lon":"-118.561707","lat":"34.418613","theaterChainName":"Edwards Theatres","ticketType":"STANDARD"},{"id":"2270","tribuneTheaterId":"5824","providerTheaterId":"","name":"Laemmle Playhouse 7","address":"673 E. Colorado Blvd.","city":"Pasadena","state":"CA","zip":"91101","distance":23.562486310456,"lon":"-118.136445","lat":"34.14603","theaterChainName":"Laemmle Theatres","ticketType":"STANDARD"},{"id":"5141","tribuneTheaterId":"10547","providerTheaterId":"","name":"Laemmle Noho 7","address":"5240 Lankershim Blvd.","city":"North Hollywood","state":"CA","zip":"91601","distance":24.18645440889,"lon":"-118.375053","lat":"34.166249","theaterChainName":"Laemmle Theatres","ticketType":"STANDARD"},{"id":"246","tribuneTheaterId":"8667","providerTheaterId":"","name":"Century 8","address":"12827 Victory Blvd.","city":"North Hollywood","state":"CA","zip":"91606","distance":23.92915636178,"lon":"-118.412752","lat":"34.187053","theaterChainName":"Cinemark","ticketType":"STANDARD"},{"id":"4485","tribuneTheaterId":"9585","providerTheaterId":"","name":"Pacific Theatres Glendale 18","address":"322 Americana Way","city":"Glendale","state":"CA","zip":"91210","distance":23.758786264772,"lon":"-118.257316","lat":"34.143397","theaterChainName":"Pacific Theaters","ticketType":"STANDARD"},{"id":"5054","tribuneTheaterId":"10434","providerTheaterId":"","name":"Regency Van Nuys Plant 16","address":"7876 Van Nuys Blvd.","city":"Van Nuys","state":"CA","zip":"91402","distance":23.540919788167,"lon":"-118.4487","lat":"34.2142","theaterChainName":"Regency Theatres","ticketType":"STANDARD"},{"id":"4854","tribuneTheaterId":"10148","providerTheaterId":"","name":"Regency Granada Hills","address":"16830 Devonshire St.","city":"Granada Hills","state":"CA","zip":"91344","distance":23.331587240209,"lon":"-118.499082","lat":"34.256773","theaterChainName":"Regency Theatres","ticketType":"STANDARD"}]