[{"id":"4286","tribuneTheaterId":"4176","providerTheaterId":"","name":"Cinemark Antelope Valley Mall","address":"1475 W. Ave. P","city":"Palmdale","state":"CA","zip":"93551","distance":13.345524953368,"lon":"-118.155684","lat":"34.607923","theaterChainName":"Cinemark","ticketType":"STANDARD"},{"id":"640","tribuneTheaterId":"8455","providerTheaterId":"","name":"Cinemark Movies 12 Lancaster","address":"44790 Valley Central Way","city":"Lancaster","state":"CA","zip":"93534","distance":18.283053221228,"lon":"-118.171174","lat":"34.696011","theaterChainName":"Cinemark","ticketType":"STANDARD"},{"id":"5342","tribuneTheaterId":"10779","providerTheaterId":"","name":"BLVD Cinemas","address":"742 W. Lancaster Blvd","city":"Lancaster","state":"CA","zip":"93534","distance":17.427214437178,"lon":"-118.1434","lat":"34.6975","theaterChainName":"Independent Chains","ticketType":"STANDARD"},{"id":"2499","tribuneTheaterId":"5215","providerTheaterId":"","name":"Cinemark 22 & IMAX Lancaster","address":"2600 W. Ave. I","city":"Lancaster","state":"CA","zip":"93536","distance":18.866929871556,"lon":"-118.177689","lat":"34.702548","theaterChainName":"Cinemark","ticketType":"STANDARD"},{"id":"161","tribuneTheaterId":"9228","providerTheaterId":"","name":"United Artists La Canada 8","address":"1919 Verdugo Blvd.","city":"Flintridge","state":"CA","zip":"91011","distance":24.055010510165,"lon":"-118.216925","lat":"34.206404","theaterChainName":"United Artists","ticketType":"STANDARD"},{"id":"3110","tribuneTheaterId":"7772","providerTheaterId":"","name":"Krikorian Monrovia Cinema 12","address":"410 S. Myrtle Ave.","city":"Monrovia","state":"CA","zip":"91016","distance":23.650501616595,"lon":"-118.000651","lat":"34.147691","theaterChainName":"Krikorian Theatres","ticketType":"STANDARD"},{"id":"3894","tribuneTheaterId":"4246","providerTheaterId":"206","name":"AMC Santa Anita 16","address":"400 S. Baldwin Ave. Ste. 940-U","city":"Arcadia","state":"CA","zip":"91007","distance":24.848401801982,"lon":"-118.048718","lat":"34.13527","theaterChainName":"AMC Theatres","ticketType":"STANDARD"}]