[{"id":"841","tribuneTheaterId":"8670","providerTheaterId":"","name":"Edwards Fresno Stadium 21 & IMAX","address":"7750 North Blackstone Ave.","city":"Fresno","state":"CA","zip":"93720","distance":8.8002760478849,"lon":"-119.787734","lat":"36.849322","theaterChainName":"Edwards Theatres","ticketType":"STANDARD"},{"id":"199","tribuneTheaterId":"8514","providerTheaterId":"","name":"United Artists Broadway Faire 10","address":"3351 W. Shaw Ave.","city":"Fresno","state":"CA","zip":"93711","distance":10.212584622619,"lon":"-119.852691","lat":"36.806687","theaterChainName":"United Artists","ticketType":"STANDARD"},{"id":"1630","tribuneTheaterId":"2989","providerTheaterId":"","name":"Madera 6 Cinema","address":"1140 N Gateway Drive","city":"Madera","state":"CA","zip":"93637","distance":10.946081105228,"lon":"-120.076759","lat":"36.97589","theaterChainName":"Independent Chains","ticketType":"STANDARD"},{"id":"3047","tribuneTheaterId":"5654","providerTheaterId":"","name":"Manchester Stadium","address":"2055 E. Shields Ave.","city":"Fresno","state":"CA","zip":"93726","distance":12.917319516461,"lon":"-119.786232","lat":"36.781767","theaterChainName":"Regal Cinemas","ticketType":"STANDARD"},{"id":"5726","tribuneTheaterId":"11168","providerTheaterId":"","name":"Maya Fresno 16 Cinemas","address":"3090 E. Campus Pointe Dr.","city":"Fresno","state":"CA","zip":"93710","distance":12.595135327238,"lon":"-119.734464","lat":"36.812917","theaterChainName":"Maya Cinemas","ticketType":"STANDARD"},{"id":"89","tribuneTheaterId":"7020","providerTheaterId":"","name":"UA Clovis Towne Center 8","address":"2301 Villa Avenue","city":"Clovis","state":"CA","zip":"93612","distance":13.775309997694,"lon":"-119.712187","lat":"36.805825","theaterChainName":"United Artists","ticketType":"STANDARD"},{"id":"4303","tribuneTheaterId":"2396","providerTheaterId":"","name":"Sierra Vista Cinemas 16","address":"1300 Shaw Avenue","city":"Clovis","state":"CA","zip":"93612","distance":14.47516204607,"lon":"-119.692311","lat":"36.807173","theaterChainName":"SR Entertainment","ticketType":"STANDARD"}]