[{"id":"4967","tribuneTheaterId":"10327","providerTheaterId":"","name":"Selma Cinema","address":"2705  CINEMA  WAY","city":"Selma","state":"CA","zip":"93662","distance":17.260373630198,"lon":"-119.624607","lat":"36.57296","theaterChainName":"Independent Chains","ticketType":"STANDARD"},{"id":"2231","tribuneTheaterId":"6713","providerTheaterId":"","name":"Regal Visalia Stadium 10","address":"120 S. Bridge St.","city":"Visalia","state":"CA","zip":"93291","distance":20.560778587712,"lon":"-119.2889","lat":"36.329","theaterChainName":"Regal Cinemas","ticketType":"STANDARD"},{"id":"270","tribuneTheaterId":"8310","providerTheaterId":"","name":"Sequoia Mall 12","address":"3355 S. Mooney Blvd.","city":"Visalia","state":"CA","zip":"93277","distance":22.455736209559,"lon":"-119.316931","lat":"36.300506","theaterChainName":"Regal Cinemas","ticketType":"STANDARD"},{"id":"4303","tribuneTheaterId":"2396","providerTheaterId":"","name":"Sierra Vista Cinemas 16","address":"1300 Shaw Avenue","city":"Clovis","state":"CA","zip":"93612","distance":24.121753403113,"lon":"-119.692311","lat":"36.807173","theaterChainName":"SR Entertainment","ticketType":"STANDARD"}]