[{"id":"4967","tribuneTheaterId":"10327","providerTheaterId":"","name":"Selma Cinema","address":"2705  CINEMA  WAY","city":"Selma","state":"CA","zip":"93662","distance":5.4778762194281,"lon":"-119.624607","lat":"36.57296","theaterChainName":"Independent Chains","ticketType":"STANDARD"},{"id":"89","tribuneTheaterId":"7020","providerTheaterId":"","name":"UA Clovis Towne Center 8","address":"2301 Villa Avenue","city":"Clovis","state":"CA","zip":"93612","distance":16.617276399976,"lon":"-119.712187","lat":"36.805825","theaterChainName":"United Artists","ticketType":"STANDARD"},{"id":"4303","tribuneTheaterId":"2396","providerTheaterId":"","name":"Sierra Vista Cinemas 16","address":"1300 Shaw Avenue","city":"Clovis","state":"CA","zip":"93612","distance":16.079916526057,"lon":"-119.692311","lat":"36.807173","theaterChainName":"SR Entertainment","ticketType":"STANDARD"},{"id":"3047","tribuneTheaterId":"5654","providerTheaterId":"","name":"Manchester Stadium","address":"2055 E. Shields Ave.","city":"Fresno","state":"CA","zip":"93726","distance":18.172480017578,"lon":"-119.786232","lat":"36.781767","theaterChainName":"Regal Cinemas","ticketType":"STANDARD"},{"id":"5726","tribuneTheaterId":"11168","providerTheaterId":"","name":"Maya Fresno 16 Cinemas","address":"3090 E. Campus Pointe Dr.","city":"Fresno","state":"CA","zip":"93710","distance":17.7483817773,"lon":"-119.734464","lat":"36.812917","theaterChainName":"Maya Cinemas","ticketType":"STANDARD"},{"id":"1354","tribuneTheaterId":"5211","providerTheaterId":"","name":"Movies 8 Hanford Mall","address":"1669 W. Lacey Blvd.","city":"Hanford","state":"CA","zip":"93230","distance":20.933948853718,"lon":"-119.670416","lat":"36.3268","theaterChainName":"Cinemark","ticketType":"STANDARD"},{"id":"2338","tribuneTheaterId":"2894","providerTheaterId":"","name":"Metro 4 Cinemas","address":"123 E. 7th Street","city":"Hanford","state":"CA","zip":"93230","distance":20.478237448449,"lon":"-119.644486","lat":"36.326677","theaterChainName":"SR Entertainment","ticketType":"STANDARD"},{"id":"199","tribuneTheaterId":"8514","providerTheaterId":"","name":"United Artists Broadway Faire 10","address":"3351 W. Shaw Ave.","city":"Fresno","state":"CA","zip":"93711","distance":22.111703621205,"lon":"-119.852691","lat":"36.806687","theaterChainName":"United Artists","ticketType":"STANDARD"},{"id":"841","tribuneTheaterId":"8670","providerTheaterId":"","name":"Edwards Fresno Stadium 21 & IMAX","address":"7750 North Blackstone Ave.","city":"Fresno","state":"CA","zip":"93720","distance":21.558120334484,"lon":"-119.787734","lat":"36.849322","theaterChainName":"Edwards Theatres","ticketType":"STANDARD"},{"id":"270","tribuneTheaterId":"8310","providerTheaterId":"","name":"Sequoia Mall 12","address":"3355 S. Mooney Blvd.","city":"Visalia","state":"CA","zip":"93277","distance":24.665989235804,"lon":"-119.316931","lat":"36.300506","theaterChainName":"Regal Cinemas","ticketType":"STANDARD"},{"id":"2231","tribuneTheaterId":"6713","providerTheaterId":"","name":"Regal Visalia Stadium 10","address":"120 S. Bridge St.","city":"Visalia","state":"CA","zip":"93291","distance":23.844328988815,"lon":"-119.2889","lat":"36.329","theaterChainName":"Regal Cinemas","ticketType":"STANDARD"}]