[{"id":"2231","tribuneTheaterId":"6713","providerTheaterId":"","name":"Regal Visalia Stadium 10","address":"120 S. Bridge St.","city":"Visalia","state":"CA","zip":"93291","distance":15.02651498291,"lon":"-119.2889","lat":"36.329","theaterChainName":"Regal Cinemas","ticketType":"STANDARD"},{"id":"270","tribuneTheaterId":"8310","providerTheaterId":"","name":"Sequoia Mall 12","address":"3355 S. Mooney Blvd.","city":"Visalia","state":"CA","zip":"93277","distance":17.103439997555,"lon":"-119.316931","lat":"36.300506","theaterChainName":"Regal Cinemas","ticketType":"STANDARD"},{"id":"4967","tribuneTheaterId":"10327","providerTheaterId":"","name":"Selma Cinema","address":"2705  CINEMA  WAY","city":"Selma","state":"CA","zip":"93662","distance":19.130063649643,"lon":"-119.624607","lat":"36.57296","theaterChainName":"Independent Chains","ticketType":"STANDARD"},{"id":"3957","tribuneTheaterId":"7778","providerTheaterId":"","name":"Galaxy Tulare 10","address":"1575 Retherford Street","city":"Tulare","state":"CA","zip":"93274","distance":22.201923685797,"lon":"-119.335513","lat":"36.228023","theaterChainName":"Galaxy Theatres","ticketType":"STANDARD"}]