[{"id":"4052","tribuneTheaterId":"2965","providerTheaterId":"","name":"Lemoore Stadium Cinemas","address":"400 Follett Street","city":"Lemoore","state":"CA","zip":"93245","distance":10.037126818507,"lon":"-119.783429","lat":"36.302944","theaterChainName":"Independent Chains","ticketType":"STANDARD"},{"id":"1354","tribuneTheaterId":"5211","providerTheaterId":"","name":"Movies 8 Hanford Mall","address":"1669 W. Lacey Blvd.","city":"Hanford","state":"CA","zip":"93230","distance":13.270291241409,"lon":"-119.670416","lat":"36.3268","theaterChainName":"Cinemark","ticketType":"STANDARD"},{"id":"2338","tribuneTheaterId":"2894","providerTheaterId":"","name":"Metro 4 Cinemas","address":"123 E. 7th Street","city":"Hanford","state":"CA","zip":"93230","distance":14.513880011165,"lon":"-119.644486","lat":"36.326677","theaterChainName":"SR Entertainment","ticketType":"STANDARD"},{"id":"4967","tribuneTheaterId":"10327","providerTheaterId":"","name":"Selma Cinema","address":"2705  CINEMA  WAY","city":"Selma","state":"CA","zip":"93662","distance":16.942396801087,"lon":"-119.624607","lat":"36.57296","theaterChainName":"Independent Chains","ticketType":"STANDARD"},{"id":"3047","tribuneTheaterId":"5654","providerTheaterId":"","name":"Manchester Stadium","address":"2055 E. Shields Ave.","city":"Fresno","state":"CA","zip":"93726","distance":24.799824468747,"lon":"-119.786232","lat":"36.781767","theaterChainName":"Regal Cinemas","ticketType":"STANDARD"}]