[{"id":"4103","tribuneTheaterId":"3217","providerTheaterId":"","name":"Maya Salinas 14 Cinemas","address":"153 Main Street","city":"Salinas","state":"CA","zip":"93901","distance":13.58814165218,"lon":"-121.655109","lat":"36.676387","theaterChainName":"Independent Chains","ticketType":"STANDARD"},{"id":"254","tribuneTheaterId":"9134","providerTheaterId":"","name":"Century 14 Northridge Mall","address":"350 Northridge Mall","city":"Salinas","state":"CA","zip":"93906","distance":15.160350331892,"lon":"-121.660431","lat":"36.715671","theaterChainName":"Cinemark","ticketType":"STANDARD"},{"id":"1425","tribuneTheaterId":"3185","providerTheaterId":"","name":"Premiere Cinemas 10","address":"581-A Mc Cray Street","city":"Hollister","state":"CA","zip":"95023","distance":17.716572406961,"lon":"-121.396372","lat":"36.84982","theaterChainName":"Independent Chains","ticketType":"STANDARD"},{"id":"5751","tribuneTheaterId":"11193","providerTheaterId":"","name":"Century Marina","address":"100 Tenth Street","city":"Marina","state":"CA","zip":"93933","distance":21.654709389227,"lon":"-121.812776","lat":"36.664651","theaterChainName":"Cinemark","ticketType":"STANDARD"}]