[{"id":"3920","tribuneTheaterId":"4847","providerTheaterId":"","name":"Century Cinemas at Del Monte Center","address":"1700 Del Monte Center","city":"Monterey","state":"CA","zip":"93940","distance":2.715935096137,"lon":"-121.893789","lat":"36.583874","theaterChainName":"Cinemark","ticketType":"STANDARD"},{"id":"1927","tribuneTheaterId":"5466","providerTheaterId":"","name":"Lighthouse Cinema","address":"525 Lighthouse Ave.","city":"Pacific Grove","state":"CA","zip":"93950","distance":2.4912166185246,"lon":"-121.916316","lat":"36.620279","theaterChainName":"SR Entertainment","ticketType":"STANDARD"},{"id":"2954","tribuneTheaterId":"3129","providerTheaterId":"","name":"New Osio Cinemas","address":"350 Alvarado St.","city":"Monterey","state":"CA","zip":"93940","distance":2.7105543277222,"lon":"-121.894658","lat":"36.600412","theaterChainName":"Independent Chains","ticketType":"STANDARD"},{"id":"5751","tribuneTheaterId":"11193","providerTheaterId":"","name":"Century Marina","address":"100 Tenth Street","city":"Marina","state":"CA","zip":"93933","distance":8.8005697385825,"lon":"-121.812776","lat":"36.664651","theaterChainName":"Cinemark","ticketType":"STANDARD"},{"id":"254","tribuneTheaterId":"9134","providerTheaterId":"","name":"Century 14 Northridge Mall","address":"350 Northridge Mall","city":"Salinas","state":"CA","zip":"93906","distance":17.836930729827,"lon":"-121.660431","lat":"36.715671","theaterChainName":"Cinemark","ticketType":"STANDARD"},{"id":"4103","tribuneTheaterId":"3217","providerTheaterId":"","name":"Maya Salinas 14 Cinemas","address":"153 Main Street","city":"Salinas","state":"CA","zip":"93901","distance":16.972762692477,"lon":"-121.655109","lat":"36.676387","theaterChainName":"Independent Chains","ticketType":"STANDARD"}]