[{"id":"4866","tribuneTheaterId":"10164","providerTheaterId":"","name":"Bluelight Cinemas 5","address":"21275 Stevens Creek Blvd.","city":"Cupertino","state":"CA","zip":"95014","distance":13.249397108667,"lon":"-122.049006","lat":"37.323724","theaterChainName":"Independent Chains","ticketType":"STANDARD"},{"id":"3398","tribuneTheaterId":"7917","providerTheaterId":"","name":"CineArts at Palo Alto Square","address":"3000 El Camino Real, Bldg. #6","city":"Palo Alto","state":"CA","zip":"94306","distance":12.866491669151,"lon":"-122.141517","lat":"37.420581","theaterChainName":"Cinemark","ticketType":"STANDARD"},{"id":"261","tribuneTheaterId":"8431","providerTheaterId":"","name":"Century Cinemas 16","address":"1500 N. Shoreline Blvd.","city":"Mountain View","state":"CA","zip":"94043","distance":14.837537498778,"lon":"-122.080507","lat":"37.41497","theaterChainName":"Cinemark","ticketType":"STANDARD"},{"id":"4227","tribuneTheaterId":"5803","providerTheaterId":"","name":"Century 20 Downtown Redwood City","address":"825 Middlefield Rd.","city":"Redwood City","state":"CA","zip":"94063","distance":15.125369324568,"lon":"-122.228602","lat":"37.485762","theaterChainName":"Cinemark","ticketType":"STANDARD"},{"id":"549","tribuneTheaterId":"8762","providerTheaterId":"433","name":"AMC Saratoga 14","address":"700 El Paseo De Saratoga","city":"San Jose","state":"CA","zip":"95130","distance":16.032472255374,"lon":"-121.989949","lat":"37.288734","theaterChainName":"AMC Theatres","ticketType":"STANDARD"},{"id":"4335","tribuneTheaterId":"9311","providerTheaterId":"424","name":"AMC Cupertino Square 16","address":"10123 N. Wolfe Road","city":"Cupertino","state":"CA","zip":"95014","distance":15.099429041179,"lon":"-122.014849","lat":"37.325879","theaterChainName":"AMC Theatres","ticketType":"STANDARD"},{"id":"776","tribuneTheaterId":"6585","providerTheaterId":"","name":"CineLux Plaza Theatre","address":"2501 S. Winchester Blvd.","city":"Campbell","state":"CA","zip":"95008","distance":18.137403026375,"lon":"-121.950956","lat":"37.278577","theaterChainName":"Cinelux Theatres","ticketType":"STANDARD"},{"id":"3865","tribuneTheaterId":"6723","providerTheaterId":"","name":"CineArts at Santana Row","address":"3088 Olsen Drive","city":"San Jose","state":"CA","zip":"95128","distance":18.571759473295,"lon":"-121.948307","lat":"37.319044","theaterChainName":"Cinemark","ticketType":"STANDARD"},{"id":"506","tribuneTheaterId":"8822","providerTheaterId":"447","name":"AMC Mercado 20","address":"3111 Mission College Blvd.","city":"Santa Clara","state":"CA","zip":"95054","distance":18.282575370234,"lon":"-121.982971","lat":"37.388997","theaterChainName":"AMC Theatres","ticketType":"STANDARD"},{"id":"780","tribuneTheaterId":"6057","providerTheaterId":"","name":"Towne 3","address":"1433 The Alameda","city":"San Jose","state":"CA","zip":"95126","distance":20.585047982135,"lon":"-121.914467","lat":"37.333212","theaterChainName":"Independent Chains","ticketType":"STANDARD"},{"id":"3596","tribuneTheaterId":"9106","providerTheaterId":"","name":"Century 12 Downtown San Mateo","address":"320 East 2nd Ave.","city":"San Mateo","state":"CA","zip":"94401","distance":20.538249319894,"lon":"-122.322502","lat":"37.566194","theaterChainName":"Cinemark","ticketType":"STANDARD"},{"id":"1424","tribuneTheaterId":"2986","providerTheaterId":"","name":"CineLux Scotts Valley Cinema 10 Cafe and Lounge","address":"226 Mount Hermon Road","city":"Scotts Valley","state":"CA","zip":"95066","distance":20.761896102751,"lon":"-122.027594","lat":"37.048076","theaterChainName":"Cinelux Theatres","ticketType":"STANDARD"},{"id":"779","tribuneTheaterId":"6520","providerTheaterId":"","name":"Camera 3","address":"288 S. Second St.","city":"San Jose","state":"CA","zip":"95113","distance":22.105552130104,"lon":"-121.886028","lat":"37.332438","theaterChainName":"Independent Chains","ticketType":"STANDARD"},{"id":"775","tribuneTheaterId":"6120","providerTheaterId":"","name":"Cinelux Almaden Cinema","address":"2306 Almaden Road","city":"San Jose","state":"CA","zip":"95125","distance":22.04724905661,"lon":"-121.8805","lat":"37.2914","theaterChainName":"Cinelux Theatres","ticketType":"STANDARD"},{"id":"3652","tribuneTheaterId":"9205","providerTheaterId":"","name":"Century 20 Oakridge","address":"925 Blossom Hill Road","city":"San Jose","state":"CA","zip":"95123","distance":23.056699215813,"lon":"-121.8622","lat":"37.2504","theaterChainName":"Cinemark","ticketType":"STANDARD"},{"id":"5834","tribuneTheaterId":"11244","providerTheaterId":"456","name":"AMC NewPark 12","address":"400 Newpark Mall","city":"Newark","state":"CA","zip":"94560","distance":23.440304358227,"lon":"-122.0012","lat":"37.5273","theaterChainName":"AMC Theatres","ticketType":"STANDARD"},{"id":"3098","tribuneTheaterId":"8220","providerTheaterId":"","name":"Century 20 Great Mall","address":"1010 Great Mall Drive","city":"Milpitas","state":"CA","zip":"95035","distance":23.299744208601,"lon":"-121.899033","lat":"37.417942","theaterChainName":"Cinemark","ticketType":"STANDARD"},{"id":"2395","tribuneTheaterId":"2897","providerTheaterId":"","name":"Nickelodeon 4 Theatres","address":"210 Lincoln Street","city":"Santa Cruz","state":"CA","zip":"95060","distance":24.887932136738,"lon":"-122.027528","lat":"36.972473","theaterChainName":"Independent Chains","ticketType":"STANDARD"},{"id":"2396","tribuneTheaterId":"6251","providerTheaterId":"","name":"Del Mar Theatre","address":"1124 Pacific Ave.","city":"Santa Cruz","state":"CA","zip":"95060","distance":24.956375452244,"lon":"-122.025281","lat":"36.972493","theaterChainName":"Landmark Theatres","ticketType":"STANDARD"},{"id":"1812","tribuneTheaterId":"5649","providerTheaterId":"","name":"Santa Cruz Cinema 9","address":"1405 Pacific Avenue","city":"Santa Cruz","state":"CA","zip":"95060","distance":24.779299304672,"lon":"-122.026619","lat":"36.974866","theaterChainName":"Regal Cinemas","ticketType":"STANDARD"},{"id":"2230","tribuneTheaterId":"5643","providerTheaterId":"","name":"Riverfront Twin","address":"155 S River St","city":"Santa Cruz","state":"CA","zip":"95060","distance":24.81271331812,"lon":"-122.02417","lat":"36.975623","theaterChainName":"Regal Cinemas","ticketType":"STANDARD"}]