[{"id":"3596","tribuneTheaterId":"9106","providerTheaterId":"","name":"Century 12 Downtown San Mateo","address":"320 East 2nd Ave.","city":"San Mateo","state":"CA","zip":"94401","distance":2.2244351678048,"lon":"-122.322502","lat":"37.566194","theaterChainName":"Cinemark","ticketType":"STANDARD"},{"id":"4227","tribuneTheaterId":"5803","providerTheaterId":"","name":"Century 20 Downtown Redwood City","address":"825 Middlefield Rd.","city":"Redwood City","state":"CA","zip":"94063","distance":5.386294664497,"lon":"-122.228602","lat":"37.485762","theaterChainName":"Cinemark","ticketType":"STANDARD"},{"id":"4478","tribuneTheaterId":"9573","providerTheaterId":"","name":"Century at Tanforan","address":"1188 El Camino Real Ave.","city":"San Bruno","state":"CA","zip":"94066","distance":9.3756896122886,"lon":"-122.417902","lat":"37.637761","theaterChainName":"Cinemark","ticketType":"STANDARD"},{"id":"3398","tribuneTheaterId":"7917","providerTheaterId":"","name":"CineArts at Palo Alto Square","address":"3000 El Camino Real, Bldg. #6","city":"Palo Alto","state":"CA","zip":"94306","distance":11.951155319407,"lon":"-122.141517","lat":"37.420581","theaterChainName":"Cinemark","ticketType":"STANDARD"},{"id":"2465","tribuneTheaterId":"9186","providerTheaterId":"","name":"Century 25 Union City at Union Landing","address":"32100 Union Landing","city":"Union City","state":"CA","zip":"94587","distance":13.369330380844,"lon":"-122.067619","lat":"37.599282","theaterChainName":"Cinemark","ticketType":"STANDARD"},{"id":"4579","tribuneTheaterId":"9725","providerTheaterId":"","name":"Century at Hayward","address":"1069 B Street","city":"Hayward","state":"CA","zip":"94541","distance":15.126125660188,"lon":"-122.081223","lat":"37.67345","theaterChainName":"Cinemark","ticketType":"STANDARD"},{"id":"3162","tribuneTheaterId":"8666","providerTheaterId":"","name":"Century 16 Bayfair Mall","address":"15555 E. 14th St.","city":"San Leandro","state":"CA","zip":"94578","distance":14.670414607282,"lon":"-122.123326","lat":"37.699325","theaterChainName":"Cinemark","ticketType":"STANDARD"},{"id":"261","tribuneTheaterId":"8431","providerTheaterId":"","name":"Century Cinemas 16","address":"1500 N. Shoreline Blvd.","city":"Mountain View","state":"CA","zip":"94043","distance":14.785654757285,"lon":"-122.080507","lat":"37.41497","theaterChainName":"Cinemark","ticketType":"STANDARD"},{"id":"3528","tribuneTheaterId":"5802","providerTheaterId":"","name":"Century 20 Daly City","address":"1901 Junipero Serra Blvd.","city":"Daly City","state":"CA","zip":"94015","distance":14.602185277101,"lon":"-122.470537","lat":"37.701907","theaterChainName":"Cinemark","ticketType":"STANDARD"},{"id":"733","tribuneTheaterId":"7749","providerTheaterId":"","name":"United Artists Stonestown","address":"501 Buckingham Way","city":"San Francisco","state":"CA","zip":"94132","distance":16.397156808228,"lon":"-122.478822","lat":"37.729819","theaterChainName":"United Artists","ticketType":"STANDARD"},{"id":"4514","tribuneTheaterId":"9623","providerTheaterId":"","name":"Alameda Theatre & Cineplex","address":"2317 Central Ave.","city":"Alameda","state":"CA","zip":"94501","distance":15.853842624463,"lon":"-122.243415","lat":"37.764571","theaterChainName":"Independent Chains","ticketType":"STANDARD"},{"id":"788","tribuneTheaterId":"6574","providerTheaterId":"","name":"Cinelux Chabot Cinema","address":"2853 Castro Valley Blvd.","city":"Castro Valley","state":"CA","zip":"94546","distance":16.003202775549,"lon":"-122.083222","lat":"37.695116","theaterChainName":"Cinelux Theatres","ticketType":"STANDARD"},{"id":"262","tribuneTheaterId":"6645","providerTheaterId":"","name":"Cin\u00e9Arts  Empire","address":"85 West Portal Ave.","city":"San Francisco","state":"CA","zip":"94127","distance":16.580413381874,"lon":"-122.466595","lat":"37.739853","theaterChainName":"Cinemark","ticketType":"STANDARD"},{"id":"5834","tribuneTheaterId":"11244","providerTheaterId":"456","name":"AMC NewPark 12","address":"400 Newpark Mall","city":"Newark","state":"CA","zip":"94560","distance":16.382248819103,"lon":"-122.0012","lat":"37.5273","theaterChainName":"AMC Theatres","ticketType":"STANDARD"},{"id":"5742","tribuneTheaterId":"11184","providerTheaterId":"","name":"Alamo Drafthouse New Mission","address":"2550 Mission Street","city":"San Francisco","state":"CA","zip":"94110","distance":16.180749244395,"lon":"-122.4185","lat":"37.754","theaterChainName":"Alamo Drafthouse","ticketType":"STANDARD"},{"id":"4261","tribuneTheaterId":"5801","providerTheaterId":"","name":"San Francisco Centre","address":"835 Market St.","city":"San Francisco","state":"CA","zip":"94103","distance":17.926188356173,"lon":"-122.406846","lat":"37.78472","theaterChainName":"Cinemark","ticketType":"STANDARD"},{"id":"739","tribuneTheaterId":"7142","providerTheaterId":"","name":"Regal Jack London","address":"100 Washington St.","city":"Oakland","state":"CA","zip":"94607","distance":17.772516104458,"lon":"-122.27762","lat":"37.796125","theaterChainName":"Regal Cinemas","ticketType":"STANDARD"},{"id":"2497","tribuneTheaterId":"7641","providerTheaterId":"2325","name":"AMC Metreon 16","address":"101 Fourth St","city":"San Francisco","state":"CA","zip":"94103","distance":17.866601583846,"lon":"-122.404132","lat":"37.784542","theaterChainName":"AMC Theatres","ticketType":"STANDARD"},{"id":"736","tribuneTheaterId":"4048","providerTheaterId":"","name":"Roxie Film Center","address":"3117 16th at Valencia","city":"San Francisco","state":"CA","zip":"94103","distance":16.944443577084,"lon":"-122.422408","lat":"37.76471","theaterChainName":"Independent Chains","ticketType":"STANDARD"},{"id":"738","tribuneTheaterId":"6113","providerTheaterId":"","name":"Renaissance Grand Lake Theatre","address":"3200 Grand Ave.","city":"Oakland","state":"CA","zip":"94610","distance":19.007707275817,"lon":"-122.247734","lat":"37.811498","theaterChainName":"Independent Chains","ticketType":"STANDARD"},{"id":"865","tribuneTheaterId":"7967","providerTheaterId":"434","name":"AMC Van Ness 14","address":"1000 Van Ness Ave.","city":"San Francisco","state":"CA","zip":"94109","distance":18.216711241775,"lon":"-122.421041","lat":"37.785064","theaterChainName":"AMC Theatres","ticketType":"STANDARD"},{"id":"735","tribuneTheaterId":"6035","providerTheaterId":"","name":"4-Star Theatre","address":"2200 Clement St.","city":"San Francisco","state":"CA","zip":"94121","distance":19.542125283054,"lon":"-122.48293","lat":"37.782357","theaterChainName":"Independent Chains","ticketType":"STANDARD"},{"id":"737","tribuneTheaterId":"4058","providerTheaterId":"","name":"Balboa Twin","address":"3630 Balboa St.","city":"San Francisco","state":"CA","zip":"94121","distance":19.597442072553,"lon":"-122.497948","lat":"37.77581","theaterChainName":"Independent Chains","ticketType":"STANDARD"},{"id":"506","tribuneTheaterId":"8822","providerTheaterId":"447","name":"AMC Mercado 20","address":"3111 Mission College Blvd.","city":"Santa Clara","state":"CA","zip":"95054","distance":20.249406981035,"lon":"-121.982971","lat":"37.388997","theaterChainName":"AMC Theatres","ticketType":"STANDARD"},{"id":"4866","tribuneTheaterId":"10164","providerTheaterId":"","name":"Bluelight Cinemas 5","address":"21275 Stevens Creek Blvd.","city":"Cupertino","state":"CA","zip":"95014","distance":20.288032751804,"lon":"-122.049006","lat":"37.323724","theaterChainName":"Independent Chains","ticketType":"STANDARD"},{"id":"259","tribuneTheaterId":"6254","providerTheaterId":"","name":"Presidio Theatre","address":"2340 Chestnut St.","city":"San Francisco","state":"CA","zip":"94123","distance":19.61831026624,"lon":"-122.441897","lat":"37.800212","theaterChainName":"Independent Chains","ticketType":"STANDARD"},{"id":"4506","tribuneTheaterId":"9612","providerTheaterId":"","name":"Marina Theatre","address":"2149 Chestnut St.","city":"San Francisco","state":"CA","zip":"94123","distance":19.561100426781,"lon":"-122.438622","lat":"37.800417","theaterChainName":"Independent Chains","ticketType":"STANDARD"},{"id":"3582","tribuneTheaterId":"8820","providerTheaterId":"215","name":"AMC Bay Street 16","address":"5614 Bay St.","city":"Emeryville","state":"CA","zip":"94608","distance":20.297397378087,"lon":"-122.292116","lat":"37.833205","theaterChainName":"AMC Theatres","ticketType":"STANDARD"},{"id":"4335","tribuneTheaterId":"9311","providerTheaterId":"424","name":"AMC Cupertino Square 16","address":"10123 N. Wolfe Road","city":"Cupertino","state":"CA","zip":"95014","distance":21.500349302924,"lon":"-122.014849","lat":"37.325879","theaterChainName":"AMC Theatres","ticketType":"STANDARD"},{"id":"5759","tribuneTheaterId":"11201","providerTheaterId":"","name":"UC Berkeley Art Museum and Pacific Film Archive","address":"2155 Center St.","city":"Berkeley","state":"CA","zip":"94704","distance":22.963833577906,"lon":"-122.266422","lat":"37.870809","theaterChainName":"Independent Chains","ticketType":"STANDARD"},{"id":"3098","tribuneTheaterId":"8220","providerTheaterId":"","name":"Century 20 Great Mall","address":"1010 Great Mall Drive","city":"Milpitas","state":"CA","zip":"95035","distance":23.524803610536,"lon":"-121.899033","lat":"37.417942","theaterChainName":"Cinemark","ticketType":"STANDARD"},{"id":"2652","tribuneTheaterId":"2560","providerTheaterId":"","name":"Pacific Film Archive Theater","address":"2575 Bancroft Way","city":"Berkeley","state":"CA","zip":"94704","distance":22.963833577906,"lon":"-122.266422","lat":"37.870809","theaterChainName":"Independent Chains","ticketType":"STANDARD"},{"id":"727","tribuneTheaterId":"7585","providerTheaterId":"","name":"United Artists Berkeley 7","address":"2274 Shattuck Ave.","city":"Berkeley","state":"CA","zip":"94704","distance":22.735365558795,"lon":"-122.268251","lat":"37.867605","theaterChainName":"United Artists","ticketType":"STANDARD"},{"id":"821","tribuneTheaterId":"3975","providerTheaterId":"","name":"New Rheem Theatre","address":"350 Park St.","city":"Moraga","state":"CA","zip":"94556","distance":24.111696371968,"lon":"-122.126885","lat":"37.860536","theaterChainName":"Independent Chains","ticketType":"STANDARD"},{"id":"8","tribuneTheaterId":"8733","providerTheaterId":"","name":"Regal Crow Canyon","address":"2525 San Ramon Valley Blvd.","city":"San Ramon","state":"CA","zip":"94583","distance":23.977285446707,"lon":"-121.97511","lat":"37.772634","theaterChainName":"Regal Cinemas","ticketType":"STANDARD"},{"id":"3865","tribuneTheaterId":"6723","providerTheaterId":"","name":"CineArts at Santana Row","address":"3088 Olsen Drive","city":"San Jose","state":"CA","zip":"95128","distance":24.575238156318,"lon":"-121.948307","lat":"37.319044","theaterChainName":"Cinemark","ticketType":"STANDARD"},{"id":"549","tribuneTheaterId":"8762","providerTheaterId":"433","name":"AMC Saratoga 14","address":"700 El Paseo De Saratoga","city":"San Jose","state":"CA","zip":"95130","distance":24.276277809036,"lon":"-121.989949","lat":"37.288734","theaterChainName":"AMC Theatres","ticketType":"STANDARD"},{"id":"730","tribuneTheaterId":"6396","providerTheaterId":"","name":"Orinda Theatre","address":"4 Orinda Theatre Square","city":"Orinda","state":"CA","zip":"94563","distance":24.307026562111,"lon":"-122.182103","lat":"37.878754","theaterChainName":"Independent Chains","ticketType":"STANDARD"},{"id":"1098","tribuneTheaterId":"5977","providerTheaterId":"","name":"Tiburon Playhouse 3 Theatre","address":"40 Main St.","city":"Tiburon","state":"CA","zip":"94920","distance":24.602360160154,"lon":"-122.456737","lat":"37.873226","theaterChainName":"CinemaWest","ticketType":"STANDARD"},{"id":"3435","tribuneTheaterId":"7919","providerTheaterId":"","name":"Cin\u00e9Arts at Marin","address":"101 Caledonia St.","city":"Sausalito","state":"CA","zip":"94965","distance":24.27397727778,"lon":"-122.485716","lat":"37.858542","theaterChainName":"Cinemark","ticketType":"STANDARD"}]