[{"id":"2645","tribuneTheaterId":"446","providerTheaterId":"","name":"Cameo Cinema","address":"1340 Main St","city":"Saint Helena","state":"CA","zip":"94574","distance":5.1145049030464,"lon":"-122.469438","lat":"38.504856","theaterChainName":"Independent Chains","ticketType":"STANDARD"},{"id":"4973","tribuneTheaterId":"10333","providerTheaterId":"","name":"Summerfield Cinema","address":"551 Summerfield Road","city":"Santa Rosa","state":"CA","zip":"95403","distance":14.790383276752,"lon":"-122.67128","lat":"38.453531","theaterChainName":"SR Entertainment","ticketType":"STANDARD"},{"id":"3084","tribuneTheaterId":"3212","providerTheaterId":"","name":"Roxy Stadium 14","address":"85 Santa Rosa Ave","city":"Santa Rosa","state":"CA","zip":"95404","distance":17.238936294287,"lon":"-122.713037","lat":"38.438552","theaterChainName":"SR Entertainment","ticketType":"STANDARD"},{"id":"3368","tribuneTheaterId":"3019","providerTheaterId":"","name":"3rd Street Cinema","address":"620 3rd St.","city":"Santa Rosa","state":"CA","zip":"95404","distance":17.154098586113,"lon":"-122.712304","lat":"38.439905","theaterChainName":"SR Entertainment","ticketType":"STANDARD"},{"id":"1418","tribuneTheaterId":"2881","providerTheaterId":"","name":"Sonoma Cinemas","address":"200 Siesta Way","city":"Boyes Hot Springs","state":"CA","zip":"95416","distance":18.577626588432,"lon":"-122.477212","lat":"38.309018","theaterChainName":"CinemaWest","ticketType":"STANDARD"},{"id":"1422","tribuneTheaterId":"3184","providerTheaterId":"","name":"Airport Stadium 12","address":"409 Aviation Way","city":"Santa Rosa","state":"CA","zip":"95403","distance":18.534081213945,"lon":"-122.780671","lat":"38.512588","theaterChainName":"SR Entertainment","ticketType":"STANDARD"},{"id":"1416","tribuneTheaterId":"2492","providerTheaterId":"","name":"Sebastiani Theatre","address":"476 First St. E.","city":"Sonoma","state":"CA","zip":"95476","distance":19.671274651021,"lon":"-122.456526","lat":"38.292278","theaterChainName":"Independent Chains","ticketType":"STANDARD"},{"id":"5226","tribuneTheaterId":"10650","providerTheaterId":"","name":"Century Napa Valley","address":"195 Gasser Dr.","city":"Napa","state":"CA","zip":"94559","distance":22.275955003287,"lon":"-122.278503","lat":"38.283001","theaterChainName":"Cinemark","ticketType":"STANDARD"},{"id":"1600","tribuneTheaterId":"8746","providerTheaterId":"","name":"Rohnert Park 16","address":"555 Rohnert Park Expressway W.","city":"Rohnert Park","state":"CA","zip":"94928","distance":21.739114177712,"lon":"-122.722208","lat":"38.347132","theaterChainName":"Reading International, Inc","ticketType":"STANDARD"},{"id":"1417","tribuneTheaterId":"3120","providerTheaterId":"","name":"Rialto Cinemas Sebastopol","address":"6868 McKinley St.","city":"Sebastopol","state":"CA","zip":"95472","distance":23.530670127897,"lon":"-122.822491","lat":"38.403904","theaterChainName":"Independent Chains","ticketType":"STANDARD"}]