[{"id":"5210","tribuneTheaterId":"10634","providerTheaterId":"","name":"Maya Century Mall 16","address":"4085 Century Blvd.","city":"Pittsburg","state":"CA","zip":"94565","distance":9.8205865354042,"lon":"-121.844557","lat":"38.008265","theaterChainName":"Independent Chains","ticketType":"STANDARD"},{"id":"2388","tribuneTheaterId":"7143","providerTheaterId":"418","name":"AMC Deer Valley 16","address":"4204 Lone Tree Way","city":"Antioch","state":"CA","zip":"94531","distance":13.104257152547,"lon":"-121.785185","lat":"37.96654","theaterChainName":"AMC Theatres","ticketType":"STANDARD"},{"id":"2487","tribuneTheaterId":"4854","providerTheaterId":"","name":"Edwards Fairfield Stadium 16 + IMAX","address":"1549 Gateway Blvd.","city":"Fairfield","state":"CA","zip":"94533","distance":13.826317579798,"lon":"-122.056872","lat":"38.260593","theaterChainName":"Edwards Theatres","ticketType":"STANDARD"},{"id":"1734","tribuneTheaterId":"3226","providerTheaterId":"","name":"Brenden Vacaville 16","address":"531 Davis Street","city":"Vacaville","state":"CA","zip":"95688","distance":15.952100102817,"lon":"-121.984883","lat":"38.353172","theaterChainName":"Brenden Theatres","ticketType":"STANDARD"},{"id":"819","tribuneTheaterId":"6282","providerTheaterId":"","name":"Brenden Concord 14","address":"1985 Willow Pass Road","city":"Concord","state":"CA","zip":"94520","distance":15.933502426074,"lon":"-122.036232","lat":"37.976202","theaterChainName":"Brenden Theatres","ticketType":"STANDARD"},{"id":"5289","tribuneTheaterId":"10723","providerTheaterId":"469","name":"AMC Brentwood 14","address":"2525 Sand Creek Rd.","city":"Brentwood","state":"CA","zip":"94513","distance":15.372249859275,"lon":"-121.7401","lat":"37.9436","theaterChainName":"AMC Theatres","ticketType":"STANDARD"},{"id":"1427","tribuneTheaterId":"2707","providerTheaterId":"","name":"CineLux Delta Cinema Saver","address":"641 1st St.","city":"Brentwood","state":"CA","zip":"94513","distance":17.155086237532,"lon":"-121.694463","lat":"37.931947","theaterChainName":"Cinelux Theatres","ticketType":"STANDARD"},{"id":"9","tribuneTheaterId":"7311","providerTheaterId":"","name":"Contra Costa Stadium Cinemas","address":"555 Center Ave.","city":"Martinez","state":"CA","zip":"94553","distance":18.438770262673,"lon":"-122.11882","lat":"37.99383","theaterChainName":"CinemaWest","ticketType":"STANDARD"},{"id":"3408","tribuneTheaterId":"7598","providerTheaterId":"","name":"Century 16 Downtown Pleasant Hill","address":"125 Crescent Drive","city":"Pleasant Hill","state":"CA","zip":"94523","distance":18.494812961297,"lon":"-122.06192","lat":"37.944773","theaterChainName":"Cinemark","ticketType":"STANDARD"},{"id":"3167","tribuneTheaterId":"9216","providerTheaterId":"","name":"Century 14 Vallejo","address":"109 Plaza Drive","city":"Vallejo","state":"CA","zip":"94591","distance":20.390734136997,"lon":"-122.218748","lat":"38.131317","theaterChainName":"Cinemark","ticketType":"STANDARD"},{"id":"3646","tribuneTheaterId":"4846","providerTheaterId":"","name":"Century 14 Downtown Walnut Creek","address":"1201 Locust St.","city":"Walnut Creek","state":"CA","zip":"94596","distance":21.159954845083,"lon":"-122.061614","lat":"37.896463","theaterChainName":"Cinemark","ticketType":"STANDARD"},{"id":"729","tribuneTheaterId":"8690","providerTheaterId":"","name":"Century Blackhawk Plaza","address":"4175 Blackhawk Plaza Circle","city":"Danville","state":"CA","zip":"94526","distance":24.581054384496,"lon":"-121.917697","lat":"37.79937","theaterChainName":"Cinemark","ticketType":"STANDARD"}]