[{"id":"1427","tribuneTheaterId":"2707","providerTheaterId":"","name":"CineLux Delta Cinema Saver","address":"641 1st St.","city":"Brentwood","state":"CA","zip":"94513","distance":7.1259372866651,"lon":"-121.694463","lat":"37.931947","theaterChainName":"Cinelux Theatres","ticketType":"STANDARD"},{"id":"5289","tribuneTheaterId":"10723","providerTheaterId":"469","name":"AMC Brentwood 14","address":"2525 Sand Creek Rd.","city":"Brentwood","state":"CA","zip":"94513","distance":7.8190070240488,"lon":"-121.7401","lat":"37.9436","theaterChainName":"AMC Theatres","ticketType":"STANDARD"},{"id":"2388","tribuneTheaterId":"7143","providerTheaterId":"418","name":"AMC Deer Valley 16","address":"4204 Lone Tree Way","city":"Antioch","state":"CA","zip":"94531","distance":8.8078461295946,"lon":"-121.785185","lat":"37.96654","theaterChainName":"AMC Theatres","ticketType":"STANDARD"},{"id":"5210","tribuneTheaterId":"10634","providerTheaterId":"","name":"Maya Century Mall 16","address":"4085 Century Blvd.","city":"Pittsburg","state":"CA","zip":"94565","distance":11.071347484964,"lon":"-121.844557","lat":"38.008265","theaterChainName":"Independent Chains","ticketType":"STANDARD"},{"id":"1261","tribuneTheaterId":"5645","providerTheaterId":"","name":"Holiday Cinemas 8","address":"6262 West Ln.","city":"Stockton","state":"CA","zip":"95210","distance":19.001099978152,"lon":"-121.293904","lat":"38.012116","theaterChainName":"Regal Cinemas","ticketType":"STANDARD"},{"id":"3691","tribuneTheaterId":"4653","providerTheaterId":"","name":"City Centre Stadium 16 & IMAX","address":"222 N. El Dorado St.","city":"Stockton","state":"CA","zip":"95202","distance":19.836306529902,"lon":"-121.289752","lat":"37.954927","theaterChainName":"Regal Cinemas","ticketType":"STANDARD"},{"id":"1092","tribuneTheaterId":"7325","providerTheaterId":"","name":"Cinemark Movies 14 Tracy","address":"3300 N. Naglee Rd.","city":"Tracy","state":"CA","zip":"95376","distance":20.923139583647,"lon":"-121.458889","lat":"37.760691","theaterChainName":"Cinemark","ticketType":"STANDARD"},{"id":"729","tribuneTheaterId":"8690","providerTheaterId":"","name":"Century Blackhawk Plaza","address":"4175 Blackhawk Plaza Circle","city":"Danville","state":"CA","zip":"94526","distance":21.714684987714,"lon":"-121.917697","lat":"37.79937","theaterChainName":"Cinemark","ticketType":"STANDARD"},{"id":"3350","tribuneTheaterId":"3198","providerTheaterId":"","name":"Lodi Stadium 12 Cinemas","address":"109 N. School Street","city":"Lodi","state":"CA","zip":"95240","distance":21.420134036331,"lon":"-121.273805","lat":"38.135627","theaterChainName":"SR Entertainment","ticketType":"STANDARD"},{"id":"819","tribuneTheaterId":"6282","providerTheaterId":"","name":"Brenden Concord 14","address":"1985 Willow Pass Road","city":"Concord","state":"CA","zip":"94520","distance":21.717786988624,"lon":"-122.036232","lat":"37.976202","theaterChainName":"Brenden Theatres","ticketType":"STANDARD"},{"id":"3408","tribuneTheaterId":"7598","providerTheaterId":"","name":"Century 16 Downtown Pleasant Hill","address":"125 Crescent Drive","city":"Pleasant Hill","state":"CA","zip":"94523","distance":23.529617142471,"lon":"-122.06192","lat":"37.944773","theaterChainName":"Cinemark","ticketType":"STANDARD"},{"id":"3646","tribuneTheaterId":"4846","providerTheaterId":"","name":"Century 14 Downtown Walnut Creek","address":"1201 Locust St.","city":"Walnut Creek","state":"CA","zip":"94596","distance":24.537909424241,"lon":"-122.061614","lat":"37.896463","theaterChainName":"Cinemark","ticketType":"STANDARD"},{"id":"4300","tribuneTheaterId":"2276","providerTheaterId":"","name":"Livermore Cinemas","address":"2490 First Street","city":"Livermore","state":"CA","zip":"94550","distance":24.663330725528,"lon":"-121.7668","lat":"37.6834","theaterChainName":"CinemaWest","ticketType":"STANDARD"}]