[{"id":"5834","tribuneTheaterId":"11244","providerTheaterId":"456","name":"AMC NewPark 12","address":"400 Newpark Mall","city":"Newark","state":"CA","zip":"94560","distance":1.6615147065297,"lon":"-122.0012","lat":"37.5273","theaterChainName":"AMC Theatres","ticketType":"STANDARD"},{"id":"2465","tribuneTheaterId":"9186","providerTheaterId":"","name":"Century 25 Union City at Union Landing","address":"32100 Union Landing","city":"Union City","state":"CA","zip":"94587","distance":7.0903897562662,"lon":"-122.067619","lat":"37.599282","theaterChainName":"Cinemark","ticketType":"STANDARD"},{"id":"3098","tribuneTheaterId":"8220","providerTheaterId":"","name":"Century 20 Great Mall","address":"1010 Great Mall Drive","city":"Milpitas","state":"CA","zip":"95035","distance":8.7443812500299,"lon":"-121.899033","lat":"37.417942","theaterChainName":"Cinemark","ticketType":"STANDARD"},{"id":"261","tribuneTheaterId":"8431","providerTheaterId":"","name":"Century Cinemas 16","address":"1500 N. Shoreline Blvd.","city":"Mountain View","state":"CA","zip":"94043","distance":9.9987915848956,"lon":"-122.080507","lat":"37.41497","theaterChainName":"Cinemark","ticketType":"STANDARD"},{"id":"506","tribuneTheaterId":"8822","providerTheaterId":"447","name":"AMC Mercado 20","address":"3111 Mission College Blvd.","city":"Santa Clara","state":"CA","zip":"95054","distance":9.8188835285008,"lon":"-121.982971","lat":"37.388997","theaterChainName":"AMC Theatres","ticketType":"STANDARD"},{"id":"4579","tribuneTheaterId":"9725","providerTheaterId":"","name":"Century at Hayward","address":"1069 B Street","city":"Hayward","state":"CA","zip":"94541","distance":11.550614919488,"lon":"-122.081223","lat":"37.67345","theaterChainName":"Cinemark","ticketType":"STANDARD"},{"id":"3398","tribuneTheaterId":"7917","providerTheaterId":"","name":"CineArts at Palo Alto Square","address":"3000 El Camino Real, Bldg. #6","city":"Palo Alto","state":"CA","zip":"94306","distance":12.050381155883,"lon":"-122.141517","lat":"37.420581","theaterChainName":"Cinemark","ticketType":"STANDARD"},{"id":"788","tribuneTheaterId":"6574","providerTheaterId":"","name":"Cinelux Chabot Cinema","address":"2853 Castro Valley Blvd.","city":"Castro Valley","state":"CA","zip":"94546","distance":12.902929152835,"lon":"-122.083222","lat":"37.695116","theaterChainName":"Cinelux Theatres","ticketType":"STANDARD"},{"id":"1491","tribuneTheaterId":"2819","providerTheaterId":"","name":"Vine Cinema & Alehouse","address":"1722 First St.","city":"Livermore","state":"CA","zip":"94550","distance":14.897135546422,"lon":"-121.774644","lat":"37.679928","theaterChainName":"Independent Chains","ticketType":"STANDARD"},{"id":"779","tribuneTheaterId":"6520","providerTheaterId":"","name":"Camera 3","address":"288 S. Second St.","city":"San Jose","state":"CA","zip":"95113","distance":14.480238150297,"lon":"-121.886028","lat":"37.332438","theaterChainName":"Independent Chains","ticketType":"STANDARD"},{"id":"780","tribuneTheaterId":"6057","providerTheaterId":"","name":"Towne 3","address":"1433 The Alameda","city":"San Jose","state":"CA","zip":"95126","distance":14.002357242712,"lon":"-121.914467","lat":"37.333212","theaterChainName":"Independent Chains","ticketType":"STANDARD"},{"id":"3865","tribuneTheaterId":"6723","providerTheaterId":"","name":"CineArts at Santana Row","address":"3088 Olsen Drive","city":"San Jose","state":"CA","zip":"95128","distance":14.684746122619,"lon":"-121.948307","lat":"37.319044","theaterChainName":"Cinemark","ticketType":"STANDARD"},{"id":"4335","tribuneTheaterId":"9311","providerTheaterId":"424","name":"AMC Cupertino Square 16","address":"10123 N. Wolfe Road","city":"Cupertino","state":"CA","zip":"95014","distance":14.359790419247,"lon":"-122.014849","lat":"37.325879","theaterChainName":"AMC Theatres","ticketType":"STANDARD"},{"id":"4300","tribuneTheaterId":"2276","providerTheaterId":"","name":"Livermore Cinemas","address":"2490 First Street","city":"Livermore","state":"CA","zip":"94550","distance":15.373463426835,"lon":"-121.7668","lat":"37.6834","theaterChainName":"CinemaWest","ticketType":"STANDARD"},{"id":"4866","tribuneTheaterId":"10164","providerTheaterId":"","name":"Bluelight Cinemas 5","address":"21275 Stevens Creek Blvd.","city":"Cupertino","state":"CA","zip":"95014","distance":14.930898360738,"lon":"-122.049006","lat":"37.323724","theaterChainName":"Independent Chains","ticketType":"STANDARD"},{"id":"4227","tribuneTheaterId":"5803","providerTheaterId":"","name":"Century 20 Downtown Redwood City","address":"825 Middlefield Rd.","city":"Redwood City","state":"CA","zip":"94063","distance":14.447137717247,"lon":"-122.228602","lat":"37.485762","theaterChainName":"Cinemark","ticketType":"STANDARD"},{"id":"3162","tribuneTheaterId":"8666","providerTheaterId":"","name":"Century 16 Bayfair Mall","address":"15555 E. 14th St.","city":"San Leandro","state":"CA","zip":"94578","distance":14.314445672409,"lon":"-122.123326","lat":"37.699325","theaterChainName":"Cinemark","ticketType":"STANDARD"},{"id":"4133","tribuneTheaterId":"5275","providerTheaterId":"219","name":"AMC Eastridge 15","address":"2190 Eastrdige Loop","city":"San Jose","state":"CA","zip":"95122","distance":16.679676858356,"lon":"-121.814368","lat":"37.323999","theaterChainName":"AMC Theatres","ticketType":"STANDARD"},{"id":"8","tribuneTheaterId":"8733","providerTheaterId":"","name":"Regal Crow Canyon","address":"2525 San Ramon Valley Blvd.","city":"San Ramon","state":"CA","zip":"94583","distance":16.710478726106,"lon":"-121.97511","lat":"37.772634","theaterChainName":"Regal Cinemas","ticketType":"STANDARD"},{"id":"775","tribuneTheaterId":"6120","providerTheaterId":"","name":"Cinelux Almaden Cinema","address":"2306 Almaden Road","city":"San Jose","state":"CA","zip":"95125","distance":17.273670334293,"lon":"-121.8805","lat":"37.2914","theaterChainName":"Cinelux Theatres","ticketType":"STANDARD"},{"id":"776","tribuneTheaterId":"6585","providerTheaterId":"","name":"CineLux Plaza Theatre","address":"2501 S. Winchester Blvd.","city":"Campbell","state":"CA","zip":"95008","distance":17.462304469432,"lon":"-121.950956","lat":"37.278577","theaterChainName":"Cinelux Theatres","ticketType":"STANDARD"},{"id":"549","tribuneTheaterId":"8762","providerTheaterId":"433","name":"AMC Saratoga 14","address":"700 El Paseo De Saratoga","city":"San Jose","state":"CA","zip":"95130","distance":16.756762018685,"lon":"-121.989949","lat":"37.288734","theaterChainName":"AMC Theatres","ticketType":"STANDARD"},{"id":"729","tribuneTheaterId":"8690","providerTheaterId":"","name":"Century Blackhawk Plaza","address":"4175 Blackhawk Plaza Circle","city":"Danville","state":"CA","zip":"94526","distance":18.785704408294,"lon":"-121.917697","lat":"37.79937","theaterChainName":"Cinemark","ticketType":"STANDARD"},{"id":"3652","tribuneTheaterId":"9205","providerTheaterId":"","name":"Century 20 Oakridge","address":"925 Blossom Hill Road","city":"San Jose","state":"CA","zip":"95123","distance":20.276740085527,"lon":"-121.8622","lat":"37.2504","theaterChainName":"Cinemark","ticketType":"STANDARD"},{"id":"3596","tribuneTheaterId":"9106","providerTheaterId":"","name":"Century 12 Downtown San Mateo","address":"320 East 2nd Ave.","city":"San Mateo","state":"CA","zip":"94401","distance":19.398994191124,"lon":"-122.322502","lat":"37.566194","theaterChainName":"Cinemark","ticketType":"STANDARD"},{"id":"4514","tribuneTheaterId":"9623","providerTheaterId":"","name":"Alameda Theatre & Cineplex","address":"2317 Central Ave.","city":"Alameda","state":"CA","zip":"94501","distance":21.969489420503,"lon":"-122.243415","lat":"37.764571","theaterChainName":"Independent Chains","ticketType":"STANDARD"},{"id":"739","tribuneTheaterId":"7142","providerTheaterId":"","name":"Regal Jack London","address":"100 Washington St.","city":"Oakland","state":"CA","zip":"94607","distance":24.838571696441,"lon":"-122.27762","lat":"37.796125","theaterChainName":"Regal Cinemas","ticketType":"STANDARD"},{"id":"738","tribuneTheaterId":"6113","providerTheaterId":"","name":"Renaissance Grand Lake Theatre","address":"3200 Grand Ave.","city":"Oakland","state":"CA","zip":"94610","distance":24.593902071513,"lon":"-122.247734","lat":"37.811498","theaterChainName":"Independent Chains","ticketType":"STANDARD"},{"id":"821","tribuneTheaterId":"3975","providerTheaterId":"","name":"New Rheem Theatre","address":"350 Park St.","city":"Moraga","state":"CA","zip":"94556","distance":24.320567574264,"lon":"-122.126885","lat":"37.860536","theaterChainName":"Independent Chains","ticketType":"STANDARD"}]