[{"id":"2487","tribuneTheaterId":"4854","providerTheaterId":"","name":"Edwards Fairfield Stadium 16 + IMAX","address":"1549 Gateway Blvd.","city":"Fairfield","state":"CA","zip":"94533","distance":1.2334342007557,"lon":"-122.056872","lat":"38.260593","theaterChainName":"Edwards Theatres","ticketType":"STANDARD"},{"id":"1734","tribuneTheaterId":"3226","providerTheaterId":"","name":"Brenden Vacaville 16","address":"531 Davis Street","city":"Vacaville","state":"CA","zip":"95688","distance":6.5541678059416,"lon":"-121.984883","lat":"38.353172","theaterChainName":"Brenden Theatres","ticketType":"STANDARD"},{"id":"5226","tribuneTheaterId":"10650","providerTheaterId":"","name":"Century Napa Valley","address":"195 Gasser Dr.","city":"Napa","state":"CA","zip":"94559","distance":13.215724734366,"lon":"-122.278503","lat":"38.283001","theaterChainName":"Cinemark","ticketType":"STANDARD"},{"id":"3167","tribuneTheaterId":"9216","providerTheaterId":"","name":"Century 14 Vallejo","address":"109 Plaza Drive","city":"Vallejo","state":"CA","zip":"94591","distance":13.667578583077,"lon":"-122.218748","lat":"38.131317","theaterChainName":"Cinemark","ticketType":"STANDARD"},{"id":"9","tribuneTheaterId":"7311","providerTheaterId":"","name":"Contra Costa Stadium Cinemas","address":"555 Center Ave.","city":"Martinez","state":"CA","zip":"94553","distance":19.414034692483,"lon":"-122.11882","lat":"37.99383","theaterChainName":"CinemaWest","ticketType":"STANDARD"},{"id":"5210","tribuneTheaterId":"10634","providerTheaterId":"","name":"Maya Century Mall 16","address":"4085 Century Blvd.","city":"Pittsburg","state":"CA","zip":"94565","distance":20.681578518511,"lon":"-121.844557","lat":"38.008265","theaterChainName":"Independent Chains","ticketType":"STANDARD"},{"id":"819","tribuneTheaterId":"6282","providerTheaterId":"","name":"Brenden Concord 14","address":"1985 Willow Pass Road","city":"Concord","state":"CA","zip":"94520","distance":20.099124389497,"lon":"-122.036232","lat":"37.976202","theaterChainName":"Brenden Theatres","ticketType":"STANDARD"},{"id":"3408","tribuneTheaterId":"7598","providerTheaterId":"","name":"Century 16 Downtown Pleasant Hill","address":"125 Crescent Drive","city":"Pleasant Hill","state":"CA","zip":"94523","distance":22.316212810879,"lon":"-122.06192","lat":"37.944773","theaterChainName":"Cinemark","ticketType":"STANDARD"},{"id":"1416","tribuneTheaterId":"2492","providerTheaterId":"","name":"Sebastiani Theatre","address":"476 First St. E.","city":"Sonoma","state":"CA","zip":"95476","distance":22.890925729813,"lon":"-122.456526","lat":"38.292278","theaterChainName":"Independent Chains","ticketType":"STANDARD"},{"id":"4186","tribuneTheaterId":"1057","providerTheaterId":"","name":"Varsity Theatre - Davis","address":"616 2nd St.","city":"Davis","state":"CA","zip":"95616","distance":24.877009149762,"lon":"-121.7408","lat":"38.5432","theaterChainName":"Independent Chains","ticketType":"STANDARD"},{"id":"850","tribuneTheaterId":"6633","providerTheaterId":"","name":"Regal Davis Holiday 6","address":"101 F St.","city":"Davis","state":"CA","zip":"95616","distance":24.85046248307,"lon":"-121.740028","lat":"38.542189","theaterChainName":"Regal Cinemas","ticketType":"STANDARD"},{"id":"1418","tribuneTheaterId":"2881","providerTheaterId":"","name":"Sonoma Cinemas","address":"200 Siesta Way","city":"Boyes Hot Springs","state":"CA","zip":"95416","distance":24.118457638364,"lon":"-122.477212","lat":"38.309018","theaterChainName":"CinemaWest","ticketType":"STANDARD"},{"id":"2388","tribuneTheaterId":"7143","providerTheaterId":"418","name":"AMC Deer Valley 16","address":"4204 Lone Tree Way","city":"Antioch","state":"CA","zip":"94531","distance":24.833438281903,"lon":"-121.785185","lat":"37.96654","theaterChainName":"AMC Theatres","ticketType":"STANDARD"}]