[{"id":"2487","tribuneTheaterId":"4854","providerTheaterId":"","name":"Edwards Fairfield Stadium 16 + IMAX","address":"1549 Gateway Blvd.","city":"Fairfield","state":"CA","zip":"94533","distance":6.0725172649909,"lon":"-122.056872","lat":"38.260593","theaterChainName":"Edwards Theatres","ticketType":"STANDARD"},{"id":"1734","tribuneTheaterId":"3226","providerTheaterId":"","name":"Brenden Vacaville 16","address":"531 Davis Street","city":"Vacaville","state":"CA","zip":"95688","distance":5.8371632624903,"lon":"-121.984883","lat":"38.353172","theaterChainName":"Brenden Theatres","ticketType":"STANDARD"},{"id":"5226","tribuneTheaterId":"10650","providerTheaterId":"","name":"Century Napa Valley","address":"195 Gasser Dr.","city":"Napa","state":"CA","zip":"94559","distance":18.028290210281,"lon":"-122.278503","lat":"38.283001","theaterChainName":"Cinemark","ticketType":"STANDARD"},{"id":"3167","tribuneTheaterId":"9216","providerTheaterId":"","name":"Century 14 Vallejo","address":"109 Plaza Drive","city":"Vallejo","state":"CA","zip":"94591","distance":17.78820615727,"lon":"-122.218748","lat":"38.131317","theaterChainName":"Cinemark","ticketType":"STANDARD"},{"id":"5210","tribuneTheaterId":"10634","providerTheaterId":"","name":"Maya Century Mall 16","address":"4085 Century Blvd.","city":"Pittsburg","state":"CA","zip":"94565","distance":19.19473237531,"lon":"-121.844557","lat":"38.008265","theaterChainName":"Independent Chains","ticketType":"STANDARD"},{"id":"850","tribuneTheaterId":"6633","providerTheaterId":"","name":"Regal Davis Holiday 6","address":"101 F St.","city":"Davis","state":"CA","zip":"95616","distance":21.617529866361,"lon":"-121.740028","lat":"38.542189","theaterChainName":"Regal Cinemas","ticketType":"STANDARD"},{"id":"851","tribuneTheaterId":"6632","providerTheaterId":"","name":"Regal Davis Stadium 5","address":"420 G St.","city":"Davis","state":"CA","zip":"95616","distance":21.893419356689,"lon":"-121.73962","lat":"38.546655","theaterChainName":"Regal Cinemas","ticketType":"STANDARD"},{"id":"819","tribuneTheaterId":"6282","providerTheaterId":"","name":"Brenden Concord 14","address":"1985 Willow Pass Road","city":"Concord","state":"CA","zip":"94520","distance":21.168659778612,"lon":"-122.036232","lat":"37.976202","theaterChainName":"Brenden Theatres","ticketType":"STANDARD"},{"id":"4186","tribuneTheaterId":"1057","providerTheaterId":"","name":"Varsity Theatre - Davis","address":"616 2nd St.","city":"Davis","state":"CA","zip":"95616","distance":21.655825720287,"lon":"-121.7408","lat":"38.5432","theaterChainName":"Independent Chains","ticketType":"STANDARD"},{"id":"9","tribuneTheaterId":"7311","providerTheaterId":"","name":"Contra Costa Stadium Cinemas","address":"555 Center Ave.","city":"Martinez","state":"CA","zip":"94553","distance":21.527576355653,"lon":"-122.11882","lat":"37.99383","theaterChainName":"CinemaWest","ticketType":"STANDARD"},{"id":"2388","tribuneTheaterId":"7143","providerTheaterId":"418","name":"AMC Deer Valley 16","address":"4204 Lone Tree Way","city":"Antioch","state":"CA","zip":"94531","distance":22.996973936176,"lon":"-121.785185","lat":"37.96654","theaterChainName":"AMC Theatres","ticketType":"STANDARD"},{"id":"3408","tribuneTheaterId":"7598","providerTheaterId":"","name":"Century 16 Downtown Pleasant Hill","address":"125 Crescent Drive","city":"Pleasant Hill","state":"CA","zip":"94523","distance":23.619822683049,"lon":"-122.06192","lat":"37.944773","theaterChainName":"Cinemark","ticketType":"STANDARD"}]