[{"id":"1491","tribuneTheaterId":"2819","providerTheaterId":"","name":"Vine Cinema & Alehouse","address":"1722 First St.","city":"Livermore","state":"CA","zip":"94550","distance":0.67116283128643,"lon":"-121.774644","lat":"37.679928","theaterChainName":"Independent Chains","ticketType":"STANDARD"},{"id":"4300","tribuneTheaterId":"2276","providerTheaterId":"","name":"Livermore Cinemas","address":"2490 First Street","city":"Livermore","state":"CA","zip":"94550","distance":0.2096163473646,"lon":"-121.7668","lat":"37.6834","theaterChainName":"CinemaWest","ticketType":"STANDARD"},{"id":"729","tribuneTheaterId":"8690","providerTheaterId":"","name":"Century Blackhawk Plaza","address":"4175 Blackhawk Plaza Circle","city":"Danville","state":"CA","zip":"94526","distance":11.665733907283,"lon":"-121.917697","lat":"37.79937","theaterChainName":"Cinemark","ticketType":"STANDARD"},{"id":"8","tribuneTheaterId":"8733","providerTheaterId":"","name":"Regal Crow Canyon","address":"2525 San Ramon Valley Blvd.","city":"San Ramon","state":"CA","zip":"94583","distance":13.142046411857,"lon":"-121.97511","lat":"37.772634","theaterChainName":"Regal Cinemas","ticketType":"STANDARD"},{"id":"5834","tribuneTheaterId":"11244","providerTheaterId":"456","name":"AMC NewPark 12","address":"400 Newpark Mall","city":"Newark","state":"CA","zip":"94560","distance":16.903729569036,"lon":"-122.0012","lat":"37.5273","theaterChainName":"AMC Theatres","ticketType":"STANDARD"},{"id":"1427","tribuneTheaterId":"2707","providerTheaterId":"","name":"CineLux Delta Cinema Saver","address":"641 1st St.","city":"Brentwood","state":"CA","zip":"94513","distance":17.602764816977,"lon":"-121.694463","lat":"37.931947","theaterChainName":"Cinelux Theatres","ticketType":"STANDARD"},{"id":"5289","tribuneTheaterId":"10723","providerTheaterId":"469","name":"AMC Brentwood 14","address":"2525 Sand Creek Rd.","city":"Brentwood","state":"CA","zip":"94513","distance":18.049050444773,"lon":"-121.7401","lat":"37.9436","theaterChainName":"AMC Theatres","ticketType":"STANDARD"},{"id":"1092","tribuneTheaterId":"7325","providerTheaterId":"","name":"Cinemark Movies 14 Tracy","address":"3300 N. Naglee Rd.","city":"Tracy","state":"CA","zip":"95376","distance":17.465656457656,"lon":"-121.458889","lat":"37.760691","theaterChainName":"Cinemark","ticketType":"STANDARD"},{"id":"788","tribuneTheaterId":"6574","providerTheaterId":"","name":"Cinelux Chabot Cinema","address":"2853 Castro Valley Blvd.","city":"Castro Valley","state":"CA","zip":"94546","distance":17.528551893128,"lon":"-122.083222","lat":"37.695116","theaterChainName":"Cinelux Theatres","ticketType":"STANDARD"},{"id":"4579","tribuneTheaterId":"9725","providerTheaterId":"","name":"Century at Hayward","address":"1069 B Street","city":"Hayward","state":"CA","zip":"94541","distance":17.414299337441,"lon":"-122.081223","lat":"37.67345","theaterChainName":"Cinemark","ticketType":"STANDARD"},{"id":"2465","tribuneTheaterId":"9186","providerTheaterId":"","name":"Century 25 Union City at Union Landing","address":"32100 Union Landing","city":"Union City","state":"CA","zip":"94587","distance":17.641445033553,"lon":"-122.067619","lat":"37.599282","theaterChainName":"Cinemark","ticketType":"STANDARD"},{"id":"2388","tribuneTheaterId":"7143","providerTheaterId":"418","name":"AMC Deer Valley 16","address":"4204 Lone Tree Way","city":"Antioch","state":"CA","zip":"94531","distance":19.62809401382,"lon":"-121.785185","lat":"37.96654","theaterChainName":"AMC Theatres","ticketType":"STANDARD"},{"id":"3162","tribuneTheaterId":"8666","providerTheaterId":"","name":"Century 16 Bayfair Mall","address":"15555 E. 14th St.","city":"San Leandro","state":"CA","zip":"94578","distance":19.732989989758,"lon":"-122.123326","lat":"37.699325","theaterChainName":"Cinemark","ticketType":"STANDARD"},{"id":"3098","tribuneTheaterId":"8220","providerTheaterId":"","name":"Century 20 Great Mall","address":"1010 Great Mall Drive","city":"Milpitas","state":"CA","zip":"95035","distance":19.77169098473,"lon":"-121.899033","lat":"37.417942","theaterChainName":"Cinemark","ticketType":"STANDARD"},{"id":"5210","tribuneTheaterId":"10634","providerTheaterId":"","name":"Maya Century Mall 16","address":"4085 Century Blvd.","city":"Pittsburg","state":"CA","zip":"94565","distance":22.909927961375,"lon":"-121.844557","lat":"38.008265","theaterChainName":"Independent Chains","ticketType":"STANDARD"},{"id":"3646","tribuneTheaterId":"4846","providerTheaterId":"","name":"Century 14 Downtown Walnut Creek","address":"1201 Locust St.","city":"Walnut Creek","state":"CA","zip":"94596","distance":21.985869113498,"lon":"-122.061614","lat":"37.896463","theaterChainName":"Cinemark","ticketType":"STANDARD"},{"id":"821","tribuneTheaterId":"3975","providerTheaterId":"","name":"New Rheem Theatre","address":"350 Park St.","city":"Moraga","state":"CA","zip":"94556","distance":23.354443368781,"lon":"-122.126885","lat":"37.860536","theaterChainName":"Independent Chains","ticketType":"STANDARD"},{"id":"506","tribuneTheaterId":"8822","providerTheaterId":"447","name":"AMC Mercado 20","address":"3111 Mission College Blvd.","city":"Santa Clara","state":"CA","zip":"95054","distance":23.619764079559,"lon":"-121.982971","lat":"37.388997","theaterChainName":"AMC Theatres","ticketType":"STANDARD"},{"id":"3408","tribuneTheaterId":"7598","providerTheaterId":"","name":"Century 16 Downtown Pleasant Hill","address":"125 Crescent Drive","city":"Pleasant Hill","state":"CA","zip":"94523","distance":24.358795071149,"lon":"-122.06192","lat":"37.944773","theaterChainName":"Cinemark","ticketType":"STANDARD"},{"id":"4133","tribuneTheaterId":"5275","providerTheaterId":"219","name":"AMC Eastridge 15","address":"2190 Eastrdige Loop","city":"San Jose","state":"CA","zip":"95122","distance":24.963856070666,"lon":"-121.814368","lat":"37.323999","theaterChainName":"AMC Theatres","ticketType":"STANDARD"}]