[{"id":"8","tribuneTheaterId":"8733","providerTheaterId":"","name":"Regal Crow Canyon","address":"2525 San Ramon Valley Blvd.","city":"San Ramon","state":"CA","zip":"94583","distance":4.8186800621961,"lon":"-121.97511","lat":"37.772634","theaterChainName":"Regal Cinemas","ticketType":"STANDARD"},{"id":"729","tribuneTheaterId":"8690","providerTheaterId":"","name":"Century Blackhawk Plaza","address":"4175 Blackhawk Plaza Circle","city":"Danville","state":"CA","zip":"94526","distance":5.7251207843054,"lon":"-121.917697","lat":"37.79937","theaterChainName":"Cinemark","ticketType":"STANDARD"},{"id":"788","tribuneTheaterId":"6574","providerTheaterId":"","name":"Cinelux Chabot Cinema","address":"2853 Castro Valley Blvd.","city":"Castro Valley","state":"CA","zip":"94546","distance":8.904821694806,"lon":"-122.083222","lat":"37.695116","theaterChainName":"Cinelux Theatres","ticketType":"STANDARD"},{"id":"1491","tribuneTheaterId":"2819","providerTheaterId":"","name":"Vine Cinema & Alehouse","address":"1722 First St.","city":"Livermore","state":"CA","zip":"94550","distance":8.4762543698577,"lon":"-121.774644","lat":"37.679928","theaterChainName":"Independent Chains","ticketType":"STANDARD"},{"id":"4300","tribuneTheaterId":"2276","providerTheaterId":"","name":"Livermore Cinemas","address":"2490 First Street","city":"Livermore","state":"CA","zip":"94550","distance":8.8208028605412,"lon":"-121.7668","lat":"37.6834","theaterChainName":"CinemaWest","ticketType":"STANDARD"},{"id":"4579","tribuneTheaterId":"9725","providerTheaterId":"","name":"Century at Hayward","address":"1069 B Street","city":"Hayward","state":"CA","zip":"94541","distance":9.1703888538306,"lon":"-122.081223","lat":"37.67345","theaterChainName":"Cinemark","ticketType":"STANDARD"},{"id":"2465","tribuneTheaterId":"9186","providerTheaterId":"","name":"Century 25 Union City at Union Landing","address":"32100 Union Landing","city":"Union City","state":"CA","zip":"94587","distance":11.341463698646,"lon":"-122.067619","lat":"37.599282","theaterChainName":"Cinemark","ticketType":"STANDARD"},{"id":"3162","tribuneTheaterId":"8666","providerTheaterId":"","name":"Century 16 Bayfair Mall","address":"15555 E. 14th St.","city":"San Leandro","state":"CA","zip":"94578","distance":11.03688778697,"lon":"-122.123326","lat":"37.699325","theaterChainName":"Cinemark","ticketType":"STANDARD"},{"id":"3646","tribuneTheaterId":"4846","providerTheaterId":"","name":"Century 14 Downtown Walnut Creek","address":"1201 Locust St.","city":"Walnut Creek","state":"CA","zip":"94596","distance":14.561146551731,"lon":"-122.061614","lat":"37.896463","theaterChainName":"Cinemark","ticketType":"STANDARD"},{"id":"5834","tribuneTheaterId":"11244","providerTheaterId":"456","name":"AMC NewPark 12","address":"400 Newpark Mall","city":"Newark","state":"CA","zip":"94560","distance":13.768518100151,"lon":"-122.0012","lat":"37.5273","theaterChainName":"AMC Theatres","ticketType":"STANDARD"},{"id":"821","tribuneTheaterId":"3975","providerTheaterId":"","name":"New Rheem Theatre","address":"350 Park St.","city":"Moraga","state":"CA","zip":"94556","distance":14.944128577148,"lon":"-122.126885","lat":"37.860536","theaterChainName":"Independent Chains","ticketType":"STANDARD"},{"id":"730","tribuneTheaterId":"6396","providerTheaterId":"","name":"Orinda Theatre","address":"4 Orinda Theatre Square","city":"Orinda","state":"CA","zip":"94563","distance":18.062445054018,"lon":"-122.182103","lat":"37.878754","theaterChainName":"Independent Chains","ticketType":"STANDARD"},{"id":"4514","tribuneTheaterId":"9623","providerTheaterId":"","name":"Alameda Theatre & Cineplex","address":"2317 Central Ave.","city":"Alameda","state":"CA","zip":"94501","distance":17.839388502805,"lon":"-122.243415","lat":"37.764571","theaterChainName":"Independent Chains","ticketType":"STANDARD"},{"id":"3408","tribuneTheaterId":"7598","providerTheaterId":"","name":"Century 16 Downtown Pleasant Hill","address":"125 Crescent Drive","city":"Pleasant Hill","state":"CA","zip":"94523","distance":17.502763489265,"lon":"-122.06192","lat":"37.944773","theaterChainName":"Cinemark","ticketType":"STANDARD"},{"id":"738","tribuneTheaterId":"6113","providerTheaterId":"","name":"Renaissance Grand Lake Theatre","address":"3200 Grand Ave.","city":"Oakland","state":"CA","zip":"94610","distance":18.930882101067,"lon":"-122.247734","lat":"37.811498","theaterChainName":"Independent Chains","ticketType":"STANDARD"},{"id":"5289","tribuneTheaterId":"10723","providerTheaterId":"469","name":"AMC Brentwood 14","address":"2525 Sand Creek Rd.","city":"Brentwood","state":"CA","zip":"94513","distance":18.579105092328,"lon":"-121.7401","lat":"37.9436","theaterChainName":"AMC Theatres","ticketType":"STANDARD"},{"id":"819","tribuneTheaterId":"6282","providerTheaterId":"","name":"Brenden Concord 14","address":"1985 Willow Pass Road","city":"Concord","state":"CA","zip":"94520","distance":18.97799653165,"lon":"-122.036232","lat":"37.976202","theaterChainName":"Brenden Theatres","ticketType":"STANDARD"},{"id":"2388","tribuneTheaterId":"7143","providerTheaterId":"418","name":"AMC Deer Valley 16","address":"4204 Lone Tree Way","city":"Antioch","state":"CA","zip":"94531","distance":18.8266392935,"lon":"-121.785185","lat":"37.96654","theaterChainName":"AMC Theatres","ticketType":"STANDARD"},{"id":"1427","tribuneTheaterId":"2707","providerTheaterId":"","name":"CineLux Delta Cinema Saver","address":"641 1st St.","city":"Brentwood","state":"CA","zip":"94513","distance":19.401297430499,"lon":"-121.694463","lat":"37.931947","theaterChainName":"Cinelux Theatres","ticketType":"STANDARD"},{"id":"739","tribuneTheaterId":"7142","providerTheaterId":"","name":"Regal Jack London","address":"100 Washington St.","city":"Oakland","state":"CA","zip":"94607","distance":20.156897101138,"lon":"-122.27762","lat":"37.796125","theaterChainName":"Regal Cinemas","ticketType":"STANDARD"},{"id":"5210","tribuneTheaterId":"10634","providerTheaterId":"","name":"Maya Century Mall 16","address":"4085 Century Blvd.","city":"Pittsburg","state":"CA","zip":"94565","distance":20.596842514575,"lon":"-121.844557","lat":"38.008265","theaterChainName":"Independent Chains","ticketType":"STANDARD"},{"id":"9","tribuneTheaterId":"7311","providerTheaterId":"","name":"Contra Costa Stadium Cinemas","address":"555 Center Ave.","city":"Martinez","state":"CA","zip":"94553","distance":21.942872769839,"lon":"-122.11882","lat":"37.99383","theaterChainName":"CinemaWest","ticketType":"STANDARD"},{"id":"2652","tribuneTheaterId":"2560","providerTheaterId":"","name":"Pacific Film Archive Theater","address":"2575 Bancroft Way","city":"Berkeley","state":"CA","zip":"94704","distance":21.585308587069,"lon":"-122.266422","lat":"37.870809","theaterChainName":"Independent Chains","ticketType":"STANDARD"},{"id":"3098","tribuneTheaterId":"8220","providerTheaterId":"","name":"Century 20 Great Mall","address":"1010 Great Mall Drive","city":"Milpitas","state":"CA","zip":"95035","distance":20.675591595932,"lon":"-121.899033","lat":"37.417942","theaterChainName":"Cinemark","ticketType":"STANDARD"},{"id":"3582","tribuneTheaterId":"8820","providerTheaterId":"215","name":"AMC Bay Street 16","address":"5614 Bay St.","city":"Emeryville","state":"CA","zip":"94608","distance":21.729136378501,"lon":"-122.292116","lat":"37.833205","theaterChainName":"AMC Theatres","ticketType":"STANDARD"},{"id":"261","tribuneTheaterId":"8431","providerTheaterId":"","name":"Century Cinemas 16","address":"1500 N. Shoreline Blvd.","city":"Mountain View","state":"CA","zip":"94043","distance":22.563695532308,"lon":"-122.080507","lat":"37.41497","theaterChainName":"Cinemark","ticketType":"STANDARD"},{"id":"727","tribuneTheaterId":"7585","providerTheaterId":"","name":"United Artists Berkeley 7","address":"2274 Shattuck Ave.","city":"Berkeley","state":"CA","zip":"94704","distance":21.564597049198,"lon":"-122.268251","lat":"37.867605","theaterChainName":"United Artists","ticketType":"STANDARD"},{"id":"5759","tribuneTheaterId":"11201","providerTheaterId":"","name":"UC Berkeley Art Museum and Pacific Film Archive","address":"2155 Center St.","city":"Berkeley","state":"CA","zip":"94704","distance":21.585308587069,"lon":"-122.266422","lat":"37.870809","theaterChainName":"Independent Chains","ticketType":"STANDARD"},{"id":"4227","tribuneTheaterId":"5803","providerTheaterId":"","name":"Century 20 Downtown Redwood City","address":"825 Middlefield Rd.","city":"Redwood City","state":"CA","zip":"94063","distance":23.129469022136,"lon":"-122.228602","lat":"37.485762","theaterChainName":"Cinemark","ticketType":"STANDARD"},{"id":"506","tribuneTheaterId":"8822","providerTheaterId":"447","name":"AMC Mercado 20","address":"3111 Mission College Blvd.","city":"Santa Clara","state":"CA","zip":"95054","distance":22.875460672056,"lon":"-121.982971","lat":"37.388997","theaterChainName":"AMC Theatres","ticketType":"STANDARD"},{"id":"3398","tribuneTheaterId":"7917","providerTheaterId":"","name":"CineArts at Palo Alto Square","address":"3000 El Camino Real, Bldg. #6","city":"Palo Alto","state":"CA","zip":"94306","distance":23.707748377415,"lon":"-122.141517","lat":"37.420581","theaterChainName":"Cinemark","ticketType":"STANDARD"},{"id":"3596","tribuneTheaterId":"9106","providerTheaterId":"","name":"Century 12 Downtown San Mateo","address":"320 East 2nd Ave.","city":"San Mateo","state":"CA","zip":"94401","distance":24.221748195152,"lon":"-122.322502","lat":"37.566194","theaterChainName":"Cinemark","ticketType":"STANDARD"},{"id":"4280","tribuneTheaterId":"1450","providerTheaterId":"","name":"Rialto Cinemas Cerrito","address":"10070 San Pablo Ave.","city":"El Cerrito","state":"CA","zip":"94530","distance":24.38459221038,"lon":"-122.302784","lat":"37.901896","theaterChainName":"Independent Chains","ticketType":"STANDARD"}]