[{"id":"2645","tribuneTheaterId":"446","providerTheaterId":"","name":"Cameo Cinema","address":"1340 Main St","city":"Saint Helena","state":"CA","zip":"94574","distance":10.06491872682,"lon":"-122.469438","lat":"38.504856","theaterChainName":"Independent Chains","ticketType":"STANDARD"},{"id":"4973","tribuneTheaterId":"10333","providerTheaterId":"","name":"Summerfield Cinema","address":"551 Summerfield Road","city":"Santa Rosa","state":"CA","zip":"95403","distance":18.222564530543,"lon":"-122.67128","lat":"38.453531","theaterChainName":"SR Entertainment","ticketType":"STANDARD"},{"id":"1422","tribuneTheaterId":"3184","providerTheaterId":"","name":"Airport Stadium 12","address":"409 Aviation Way","city":"Santa Rosa","state":"CA","zip":"95403","distance":20.429023685791,"lon":"-122.780671","lat":"38.512588","theaterChainName":"SR Entertainment","ticketType":"STANDARD"},{"id":"3084","tribuneTheaterId":"3212","providerTheaterId":"","name":"Roxy Stadium 14","address":"85 Santa Rosa Ave","city":"Santa Rosa","state":"CA","zip":"95404","distance":20.527239210865,"lon":"-122.713037","lat":"38.438552","theaterChainName":"SR Entertainment","ticketType":"STANDARD"},{"id":"3368","tribuneTheaterId":"3019","providerTheaterId":"","name":"3rd Street Cinema","address":"620 3rd St.","city":"Santa Rosa","state":"CA","zip":"95404","distance":20.432945253047,"lon":"-122.712304","lat":"38.439905","theaterChainName":"SR Entertainment","ticketType":"STANDARD"},{"id":"1418","tribuneTheaterId":"2881","providerTheaterId":"","name":"Sonoma Cinemas","address":"200 Siesta Way","city":"Boyes Hot Springs","state":"CA","zip":"95416","distance":23.574481541679,"lon":"-122.477212","lat":"38.309018","theaterChainName":"CinemaWest","ticketType":"STANDARD"},{"id":"5725","tribuneTheaterId":"11167","providerTheaterId":"","name":"Clearlake Stadium Cinema","address":"3380 Washington Street","city":"Clearlake","state":"CA","zip":"95422","distance":23.868625399299,"lon":"-122.630177","lat":"38.96328","theaterChainName":"Independent Chains","ticketType":"STANDARD"},{"id":"1416","tribuneTheaterId":"2492","providerTheaterId":"","name":"Sebastiani Theatre","address":"476 First St. E.","city":"Sonoma","state":"CA","zip":"95476","distance":24.67530277647,"lon":"-122.456526","lat":"38.292278","theaterChainName":"Independent Chains","ticketType":"STANDARD"}]