[{"id":"5210","tribuneTheaterId":"10634","providerTheaterId":"","name":"Maya Century Mall 16","address":"4085 Century Blvd.","city":"Pittsburg","state":"CA","zip":"94565","distance":13.258110166388,"lon":"-121.844557","lat":"38.008265","theaterChainName":"Independent Chains","ticketType":"STANDARD"},{"id":"2388","tribuneTheaterId":"7143","providerTheaterId":"418","name":"AMC Deer Valley 16","address":"4204 Lone Tree Way","city":"Antioch","state":"CA","zip":"94531","distance":14.361215478627,"lon":"-121.785185","lat":"37.96654","theaterChainName":"AMC Theatres","ticketType":"STANDARD"},{"id":"1427","tribuneTheaterId":"2707","providerTheaterId":"","name":"CineLux Delta Cinema Saver","address":"641 1st St.","city":"Brentwood","state":"CA","zip":"94513","distance":16.017288275538,"lon":"-121.694463","lat":"37.931947","theaterChainName":"Cinelux Theatres","ticketType":"STANDARD"},{"id":"5289","tribuneTheaterId":"10723","providerTheaterId":"469","name":"AMC Brentwood 14","address":"2525 Sand Creek Rd.","city":"Brentwood","state":"CA","zip":"94513","distance":15.351014222383,"lon":"-121.7401","lat":"37.9436","theaterChainName":"AMC Theatres","ticketType":"STANDARD"},{"id":"2487","tribuneTheaterId":"4854","providerTheaterId":"","name":"Edwards Fairfield Stadium 16 + IMAX","address":"1549 Gateway Blvd.","city":"Fairfield","state":"CA","zip":"94533","distance":20.415966070316,"lon":"-122.056872","lat":"38.260593","theaterChainName":"Edwards Theatres","ticketType":"STANDARD"},{"id":"1734","tribuneTheaterId":"3226","providerTheaterId":"","name":"Brenden Vacaville 16","address":"531 Davis Street","city":"Vacaville","state":"CA","zip":"95688","distance":20.188906895107,"lon":"-121.984883","lat":"38.353172","theaterChainName":"Brenden Theatres","ticketType":"STANDARD"},{"id":"3350","tribuneTheaterId":"3198","providerTheaterId":"","name":"Lodi Stadium 12 Cinemas","address":"109 N. School Street","city":"Lodi","state":"CA","zip":"95240","distance":23.324993964183,"lon":"-121.273805","lat":"38.135627","theaterChainName":"SR Entertainment","ticketType":"STANDARD"},{"id":"819","tribuneTheaterId":"6282","providerTheaterId":"","name":"Brenden Concord 14","address":"1985 Willow Pass Road","city":"Concord","state":"CA","zip":"94520","distance":22.341496557009,"lon":"-122.036232","lat":"37.976202","theaterChainName":"Brenden Theatres","ticketType":"STANDARD"},{"id":"15","tribuneTheaterId":"8736","providerTheaterId":"","name":"United Artists Laguna Village 12","address":"8755 Center Parkway","city":"Sacramento","state":"CA","zip":"95823","distance":24.356821154473,"lon":"-121.421403","lat":"38.439237","theaterChainName":"United Artists","ticketType":"STANDARD"},{"id":"251","tribuneTheaterId":"8221","providerTheaterId":"","name":"Century Laguna 16","address":"9349 Big Horn Blvd.","city":"Elk Grove","state":"CA","zip":"95758","distance":23.85395344453,"lon":"-121.404532","lat":"38.418315","theaterChainName":"Cinemark","ticketType":"STANDARD"},{"id":"1261","tribuneTheaterId":"5645","providerTheaterId":"","name":"Holiday Cinemas 8","address":"6262 West Ln.","city":"Stockton","state":"CA","zip":"95210","distance":24.52018947546,"lon":"-121.293904","lat":"38.012116","theaterChainName":"Regal Cinemas","ticketType":"STANDARD"},{"id":"3408","tribuneTheaterId":"7598","providerTheaterId":"","name":"Century 16 Downtown Pleasant Hill","address":"125 Crescent Drive","city":"Pleasant Hill","state":"CA","zip":"94523","distance":24.760966112652,"lon":"-122.06192","lat":"37.944773","theaterChainName":"Cinemark","ticketType":"STANDARD"}]