[{"id":"3167","tribuneTheaterId":"9216","providerTheaterId":"","name":"Century 14 Vallejo","address":"109 Plaza Drive","city":"Vallejo","state":"CA","zip":"94591","distance":3.8305523259482,"lon":"-122.218748","lat":"38.131317","theaterChainName":"Cinemark","ticketType":"STANDARD"},{"id":"5226","tribuneTheaterId":"10650","providerTheaterId":"","name":"Century Napa Valley","address":"195 Gasser Dr.","city":"Napa","state":"CA","zip":"94559","distance":8.6235280978071,"lon":"-122.278503","lat":"38.283001","theaterChainName":"Cinemark","ticketType":"STANDARD"},{"id":"3407","tribuneTheaterId":"8743","providerTheaterId":"","name":"Century 16 Hilltop","address":"3200 Klose Way","city":"Richmond","state":"CA","zip":"94806","distance":12.364624670227,"lon":"-122.319589","lat":"37.981924","theaterChainName":"Cinemark","ticketType":"STANDARD"},{"id":"9","tribuneTheaterId":"7311","providerTheaterId":"","name":"Contra Costa Stadium Cinemas","address":"555 Center Ave.","city":"Martinez","state":"CA","zip":"94553","distance":14.360100037344,"lon":"-122.11882","lat":"37.99383","theaterChainName":"CinemaWest","ticketType":"STANDARD"},{"id":"1418","tribuneTheaterId":"2881","providerTheaterId":"","name":"Sonoma Cinemas","address":"200 Siesta Way","city":"Boyes Hot Springs","state":"CA","zip":"95416","distance":14.922478009206,"lon":"-122.477212","lat":"38.309018","theaterChainName":"CinemaWest","ticketType":"STANDARD"},{"id":"2487","tribuneTheaterId":"4854","providerTheaterId":"","name":"Edwards Fairfield Stadium 16 + IMAX","address":"1549 Gateway Blvd.","city":"Fairfield","state":"CA","zip":"94533","distance":14.047046887568,"lon":"-122.056872","lat":"38.260593","theaterChainName":"Edwards Theatres","ticketType":"STANDARD"},{"id":"1416","tribuneTheaterId":"2492","providerTheaterId":"","name":"Sebastiani Theatre","address":"476 First St. E.","city":"Sonoma","state":"CA","zip":"95476","distance":13.312054040586,"lon":"-122.456526","lat":"38.292278","theaterChainName":"Independent Chains","ticketType":"STANDARD"},{"id":"3437","tribuneTheaterId":"7030","providerTheaterId":"","name":"Century Rowland Plaza","address":"44 Rowland Way","city":"Novato","state":"CA","zip":"94945","distance":15.643337959642,"lon":"-122.556712","lat":"38.094833","theaterChainName":"Cinemark","ticketType":"STANDARD"},{"id":"3436","tribuneTheaterId":"7920","providerTheaterId":"","name":"Century Regency 6","address":"280 Smith Ranch Road","city":"San Rafael","state":"CA","zip":"94903","distance":16.739510145035,"lon":"-122.532105","lat":"38.018735","theaterChainName":"Cinemark","ticketType":"STANDARD"},{"id":"2302","tribuneTheaterId":"5176","providerTheaterId":"","name":"Rafael Film Center","address":"1118 Fourth St.","city":"San Rafael","state":"CA","zip":"94901","distance":18.575617559169,"lon":"-122.528603","lat":"37.973554","theaterChainName":"Independent Chains","ticketType":"STANDARD"},{"id":"819","tribuneTheaterId":"6282","providerTheaterId":"","name":"Brenden Concord 14","address":"1985 Willow Pass Road","city":"Concord","state":"CA","zip":"94520","distance":18.290258269999,"lon":"-122.036232","lat":"37.976202","theaterChainName":"Brenden Theatres","ticketType":"STANDARD"},{"id":"3438","tribuneTheaterId":"7921","providerTheaterId":"","name":"Century Northgate 15","address":"7000 Northgate Drive","city":"San Rafael","state":"CA","zip":"94903","distance":17.832877549865,"lon":"-122.544293","lat":"38.005008","theaterChainName":"Cinemark","ticketType":"STANDARD"},{"id":"4280","tribuneTheaterId":"1450","providerTheaterId":"","name":"Rialto Cinemas Cerrito","address":"10070 San Pablo Ave.","city":"El Cerrito","state":"CA","zip":"94530","distance":17.750742161581,"lon":"-122.302784","lat":"37.901896","theaterChainName":"Independent Chains","ticketType":"STANDARD"},{"id":"774","tribuneTheaterId":"8742","providerTheaterId":"","name":"Century Larkspur Landing","address":"500 Larkspur Landing Circle","city":"Larkspur","state":"CA","zip":"94939","distance":19.260602131071,"lon":"-122.512118","lat":"37.947451","theaterChainName":"Cinemark","ticketType":"STANDARD"},{"id":"3408","tribuneTheaterId":"7598","providerTheaterId":"","name":"Century 16 Downtown Pleasant Hill","address":"125 Crescent Drive","city":"Pleasant Hill","state":"CA","zip":"94523","distance":18.940891579306,"lon":"-122.06192","lat":"37.944773","theaterChainName":"Cinemark","ticketType":"STANDARD"},{"id":"5759","tribuneTheaterId":"11201","providerTheaterId":"","name":"UC Berkeley Art Museum and Pacific Film Archive","address":"2155 Center St.","city":"Berkeley","state":"CA","zip":"94704","distance":19.871366523445,"lon":"-122.266422","lat":"37.870809","theaterChainName":"Independent Chains","ticketType":"STANDARD"},{"id":"727","tribuneTheaterId":"7585","providerTheaterId":"","name":"United Artists Berkeley 7","address":"2274 Shattuck Ave.","city":"Berkeley","state":"CA","zip":"94704","distance":20.089057365179,"lon":"-122.268251","lat":"37.867605","theaterChainName":"United Artists","ticketType":"STANDARD"},{"id":"2652","tribuneTheaterId":"2560","providerTheaterId":"","name":"Pacific Film Archive Theater","address":"2575 Bancroft Way","city":"Berkeley","state":"CA","zip":"94704","distance":19.871366523445,"lon":"-122.266422","lat":"37.870809","theaterChainName":"Independent Chains","ticketType":"STANDARD"},{"id":"3433","tribuneTheaterId":"7918","providerTheaterId":"","name":"Century Cinema Corte Madera","address":"41 Tamal Vista Blvd.","city":"Corte Madera","state":"CA","zip":"94925","distance":20.233903439744,"lon":"-122.517206","lat":"37.932408","theaterChainName":"Cinemark","ticketType":"STANDARD"},{"id":"732","tribuneTheaterId":"2420","providerTheaterId":"","name":"Lark Theater","address":"549 Magnolia Ave.","city":"Larkspur","state":"CA","zip":"94939","distance":20.629087606615,"lon":"-122.535079","lat":"37.937023","theaterChainName":"Independent Chains","ticketType":"STANDARD"},{"id":"730","tribuneTheaterId":"6396","providerTheaterId":"","name":"Orinda Theatre","address":"4 Orinda Theatre Square","city":"Orinda","state":"CA","zip":"94563","distance":20.035499584585,"lon":"-122.182103","lat":"37.878754","theaterChainName":"Independent Chains","ticketType":"STANDARD"},{"id":"1419","tribuneTheaterId":"2292","providerTheaterId":"","name":"Boulevard Cinemas 14","address":"200 C Street","city":"Petaluma","state":"CA","zip":"94954","distance":20.098181819578,"lon":"-122.637977","lat":"38.233309","theaterChainName":"CinemaWest","ticketType":"STANDARD"},{"id":"731","tribuneTheaterId":"5978","providerTheaterId":"","name":"Fairfax 6 Theatre","address":"9 Broadway","city":"Fairfax","state":"CA","zip":"94930","distance":20.482186565945,"lon":"-122.587634","lat":"37.986794","theaterChainName":"CinemaWest","ticketType":"STANDARD"},{"id":"1734","tribuneTheaterId":"3226","providerTheaterId":"","name":"Brenden Vacaville 16","address":"531 Davis Street","city":"Vacaville","state":"CA","zip":"95688","distance":20.941544511217,"lon":"-121.984883","lat":"38.353172","theaterChainName":"Brenden Theatres","ticketType":"STANDARD"},{"id":"1098","tribuneTheaterId":"5977","providerTheaterId":"","name":"Tiburon Playhouse 3 Theatre","address":"40 Main St.","city":"Tiburon","state":"CA","zip":"94920","distance":21.904909577687,"lon":"-122.456737","lat":"37.873226","theaterChainName":"CinemaWest","ticketType":"STANDARD"},{"id":"3582","tribuneTheaterId":"8820","providerTheaterId":"215","name":"AMC Bay Street 16","address":"5614 Bay St.","city":"Emeryville","state":"CA","zip":"94608","distance":22.464037599962,"lon":"-122.292116","lat":"37.833205","theaterChainName":"AMC Theatres","ticketType":"STANDARD"},{"id":"3434","tribuneTheaterId":"8219","providerTheaterId":"","name":"CineArts  Sequoia","address":"25 Throckmorton Ave.","city":"Mill Valley","state":"CA","zip":"94941","distance":22.651110655177,"lon":"-122.546844","lat":"37.906346","theaterChainName":"Cinemark","ticketType":"STANDARD"},{"id":"821","tribuneTheaterId":"3975","providerTheaterId":"","name":"New Rheem Theatre","address":"350 Park St.","city":"Moraga","state":"CA","zip":"94556","distance":22.199724218191,"lon":"-122.126885","lat":"37.860536","theaterChainName":"Independent Chains","ticketType":"STANDARD"},{"id":"3646","tribuneTheaterId":"4846","providerTheaterId":"","name":"Century 14 Downtown Walnut Creek","address":"1201 Locust St.","city":"Walnut Creek","state":"CA","zip":"94596","distance":21.652530537538,"lon":"-122.061614","lat":"37.896463","theaterChainName":"Cinemark","ticketType":"STANDARD"},{"id":"3435","tribuneTheaterId":"7919","providerTheaterId":"","name":"Cin\u00e9Arts at Marin","address":"101 Caledonia St.","city":"Sausalito","state":"CA","zip":"94965","distance":23.528796666509,"lon":"-122.485716","lat":"37.858542","theaterChainName":"Cinemark","ticketType":"STANDARD"},{"id":"738","tribuneTheaterId":"6113","providerTheaterId":"","name":"Renaissance Grand Lake Theatre","address":"3200 Grand Ave.","city":"Oakland","state":"CA","zip":"94610","distance":24.020746756359,"lon":"-122.247734","lat":"37.811498","theaterChainName":"Independent Chains","ticketType":"STANDARD"}]