[{"id":"1416","tribuneTheaterId":"2492","providerTheaterId":"","name":"Sebastiani Theatre","address":"476 First St. E.","city":"Sonoma","state":"CA","zip":"95476","distance":9.1630148150124,"lon":"-122.456526","lat":"38.292278","theaterChainName":"Independent Chains","ticketType":"STANDARD"},{"id":"1418","tribuneTheaterId":"2881","providerTheaterId":"","name":"Sonoma Cinemas","address":"200 Siesta Way","city":"Boyes Hot Springs","state":"CA","zip":"95416","distance":8.9834218212271,"lon":"-122.477212","lat":"38.309018","theaterChainName":"CinemaWest","ticketType":"STANDARD"},{"id":"5226","tribuneTheaterId":"10650","providerTheaterId":"","name":"Century Napa Valley","address":"195 Gasser Dr.","city":"Napa","state":"CA","zip":"94559","distance":9.3293977661801,"lon":"-122.278503","lat":"38.283001","theaterChainName":"Cinemark","ticketType":"STANDARD"},{"id":"2645","tribuneTheaterId":"446","providerTheaterId":"","name":"Cameo Cinema","address":"1340 Main St","city":"Saint Helena","state":"CA","zip":"94574","distance":9.243988989347,"lon":"-122.469438","lat":"38.504856","theaterChainName":"Independent Chains","ticketType":"STANDARD"},{"id":"4973","tribuneTheaterId":"10333","providerTheaterId":"","name":"Summerfield Cinema","address":"551 Summerfield Road","city":"Santa Rosa","state":"CA","zip":"95403","distance":17.184211844944,"lon":"-122.67128","lat":"38.453531","theaterChainName":"SR Entertainment","ticketType":"STANDARD"},{"id":"2487","tribuneTheaterId":"4854","providerTheaterId":"","name":"Edwards Fairfield Stadium 16 + IMAX","address":"1549 Gateway Blvd.","city":"Fairfield","state":"CA","zip":"94533","distance":19.138185711554,"lon":"-122.056872","lat":"38.260593","theaterChainName":"Edwards Theatres","ticketType":"STANDARD"},{"id":"1419","tribuneTheaterId":"2292","providerTheaterId":"","name":"Boulevard Cinemas 14","address":"200 C Street","city":"Petaluma","state":"CA","zip":"94954","distance":18.999372033026,"lon":"-122.637977","lat":"38.233309","theaterChainName":"CinemaWest","ticketType":"STANDARD"},{"id":"3084","tribuneTheaterId":"3212","providerTheaterId":"","name":"Roxy Stadium 14","address":"85 Santa Rosa Ave","city":"Santa Rosa","state":"CA","zip":"95404","distance":19.237779605037,"lon":"-122.713037","lat":"38.438552","theaterChainName":"SR Entertainment","ticketType":"STANDARD"},{"id":"3368","tribuneTheaterId":"3019","providerTheaterId":"","name":"3rd Street Cinema","address":"620 3rd St.","city":"Santa Rosa","state":"CA","zip":"95404","distance":19.210930829522,"lon":"-122.712304","lat":"38.439905","theaterChainName":"SR Entertainment","ticketType":"STANDARD"},{"id":"1600","tribuneTheaterId":"8746","providerTheaterId":"","name":"Rohnert Park 16","address":"555 Rohnert Park Expressway W.","city":"Rohnert Park","state":"CA","zip":"94928","distance":19.934885961176,"lon":"-122.722208","lat":"38.347132","theaterChainName":"Reading International, Inc","ticketType":"STANDARD"},{"id":"1734","tribuneTheaterId":"3226","providerTheaterId":"","name":"Brenden Vacaville 16","address":"531 Davis Street","city":"Vacaville","state":"CA","zip":"95688","distance":20.634592958034,"lon":"-121.984883","lat":"38.353172","theaterChainName":"Brenden Theatres","ticketType":"STANDARD"},{"id":"3167","tribuneTheaterId":"9216","providerTheaterId":"","name":"Century 14 Vallejo","address":"109 Plaza Drive","city":"Vallejo","state":"CA","zip":"94591","distance":20.202189415265,"lon":"-122.218748","lat":"38.131317","theaterChainName":"Cinemark","ticketType":"STANDARD"},{"id":"3437","tribuneTheaterId":"7030","providerTheaterId":"","name":"Century Rowland Plaza","address":"44 Rowland Way","city":"Novato","state":"CA","zip":"94945","distance":23.711965080531,"lon":"-122.556712","lat":"38.094833","theaterChainName":"Cinemark","ticketType":"STANDARD"},{"id":"1422","tribuneTheaterId":"3184","providerTheaterId":"","name":"Airport Stadium 12","address":"409 Aviation Way","city":"Santa Rosa","state":"CA","zip":"95403","distance":23.9765694234,"lon":"-122.780671","lat":"38.512588","theaterChainName":"SR Entertainment","ticketType":"STANDARD"},{"id":"1417","tribuneTheaterId":"3120","providerTheaterId":"","name":"Rialto Cinemas Sebastopol","address":"6868 McKinley St.","city":"Sebastopol","state":"CA","zip":"95472","distance":24.999159112067,"lon":"-122.822491","lat":"38.403904","theaterChainName":"Independent Chains","ticketType":"STANDARD"}]