[{"id":"727","tribuneTheaterId":"7585","providerTheaterId":"","name":"United Artists Berkeley 7","address":"2274 Shattuck Ave.","city":"Berkeley","state":"CA","zip":"94704","distance":0.36752677304234,"lon":"-122.268251","lat":"37.867605","theaterChainName":"United Artists","ticketType":"STANDARD"},{"id":"5759","tribuneTheaterId":"11201","providerTheaterId":"","name":"UC Berkeley Art Museum and Pacific Film Archive","address":"2155 Center St.","city":"Berkeley","state":"CA","zip":"94704","distance":0.34674725993861,"lon":"-122.266422","lat":"37.870809","theaterChainName":"Independent Chains","ticketType":"STANDARD"},{"id":"2652","tribuneTheaterId":"2560","providerTheaterId":"","name":"Pacific Film Archive Theater","address":"2575 Bancroft Way","city":"Berkeley","state":"CA","zip":"94704","distance":0.34674725993861,"lon":"-122.266422","lat":"37.870809","theaterChainName":"Independent Chains","ticketType":"STANDARD"},{"id":"4280","tribuneTheaterId":"1450","providerTheaterId":"","name":"Rialto Cinemas Cerrito","address":"10070 San Pablo Ave.","city":"El Cerrito","state":"CA","zip":"94530","distance":2.6594921320601,"lon":"-122.302784","lat":"37.901896","theaterChainName":"Independent Chains","ticketType":"STANDARD"},{"id":"3582","tribuneTheaterId":"8820","providerTheaterId":"215","name":"AMC Bay Street 16","address":"5614 Bay St.","city":"Emeryville","state":"CA","zip":"94608","distance":2.8564947810622,"lon":"-122.292116","lat":"37.833205","theaterChainName":"AMC Theatres","ticketType":"STANDARD"},{"id":"730","tribuneTheaterId":"6396","providerTheaterId":"","name":"Orinda Theatre","address":"4 Orinda Theatre Square","city":"Orinda","state":"CA","zip":"94563","distance":4.965714780733,"lon":"-122.182103","lat":"37.878754","theaterChainName":"Independent Chains","ticketType":"STANDARD"},{"id":"739","tribuneTheaterId":"7142","providerTheaterId":"","name":"Regal Jack London","address":"100 Washington St.","city":"Oakland","state":"CA","zip":"94607","distance":5.2217237409442,"lon":"-122.27762","lat":"37.796125","theaterChainName":"Regal Cinemas","ticketType":"STANDARD"},{"id":"738","tribuneTheaterId":"6113","providerTheaterId":"","name":"Renaissance Grand Lake Theatre","address":"3200 Grand Ave.","city":"Oakland","state":"CA","zip":"94610","distance":4.3703725191388,"lon":"-122.247734","lat":"37.811498","theaterChainName":"Independent Chains","ticketType":"STANDARD"},{"id":"4514","tribuneTheaterId":"9623","providerTheaterId":"","name":"Alameda Theatre & Cineplex","address":"2317 Central Ave.","city":"Alameda","state":"CA","zip":"94501","distance":7.5657606352584,"lon":"-122.243415","lat":"37.764571","theaterChainName":"Independent Chains","ticketType":"STANDARD"},{"id":"3407","tribuneTheaterId":"8743","providerTheaterId":"","name":"Century 16 Hilltop","address":"3200 Klose Way","city":"Richmond","state":"CA","zip":"94806","distance":8.0396050880792,"lon":"-122.319589","lat":"37.981924","theaterChainName":"Cinemark","ticketType":"STANDARD"},{"id":"821","tribuneTheaterId":"3975","providerTheaterId":"","name":"New Rheem Theatre","address":"350 Park St.","city":"Moraga","state":"CA","zip":"94556","distance":7.9902114317428,"lon":"-122.126885","lat":"37.860536","theaterChainName":"Independent Chains","ticketType":"STANDARD"},{"id":"1098","tribuneTheaterId":"5977","providerTheaterId":"","name":"Tiburon Playhouse 3 Theatre","address":"40 Main St.","city":"Tiburon","state":"CA","zip":"94920","distance":10.038162380931,"lon":"-122.456737","lat":"37.873226","theaterChainName":"CinemaWest","ticketType":"STANDARD"},{"id":"2497","tribuneTheaterId":"7641","providerTheaterId":"2325","name":"AMC Metreon 16","address":"101 Fourth St","city":"San Francisco","state":"CA","zip":"94103","distance":9.361073000666,"lon":"-122.404132","lat":"37.784542","theaterChainName":"AMC Theatres","ticketType":"STANDARD"},{"id":"865","tribuneTheaterId":"7967","providerTheaterId":"434","name":"AMC Van Ness 14","address":"1000 Van Ness Ave.","city":"San Francisco","state":"CA","zip":"94109","distance":10.064091564712,"lon":"-122.421041","lat":"37.785064","theaterChainName":"AMC Theatres","ticketType":"STANDARD"},{"id":"4261","tribuneTheaterId":"5801","providerTheaterId":"","name":"San Francisco Centre","address":"835 Market St.","city":"San Francisco","state":"CA","zip":"94103","distance":9.4672296343037,"lon":"-122.406846","lat":"37.78472","theaterChainName":"Cinemark","ticketType":"STANDARD"},{"id":"259","tribuneTheaterId":"6254","providerTheaterId":"","name":"Presidio Theatre","address":"2340 Chestnut St.","city":"San Francisco","state":"CA","zip":"94123","distance":10.467662391067,"lon":"-122.441897","lat":"37.800212","theaterChainName":"Independent Chains","ticketType":"STANDARD"},{"id":"4506","tribuneTheaterId":"9612","providerTheaterId":"","name":"Marina Theatre","address":"2149 Chestnut St.","city":"San Francisco","state":"CA","zip":"94123","distance":10.30360069197,"lon":"-122.438622","lat":"37.800417","theaterChainName":"Independent Chains","ticketType":"STANDARD"},{"id":"3646","tribuneTheaterId":"4846","providerTheaterId":"","name":"Century 14 Downtown Walnut Creek","address":"1201 Locust St.","city":"Walnut Creek","state":"CA","zip":"94596","distance":11.638471151437,"lon":"-122.061614","lat":"37.896463","theaterChainName":"Cinemark","ticketType":"STANDARD"},{"id":"3435","tribuneTheaterId":"7919","providerTheaterId":"","name":"Cin\u00e9Arts at Marin","address":"101 Caledonia St.","city":"Sausalito","state":"CA","zip":"94965","distance":11.654205441693,"lon":"-122.485716","lat":"37.858542","theaterChainName":"Cinemark","ticketType":"STANDARD"},{"id":"736","tribuneTheaterId":"4048","providerTheaterId":"","name":"Roxie Film Center","address":"3117 16th at Valencia","city":"San Francisco","state":"CA","zip":"94103","distance":11.014196399562,"lon":"-122.422408","lat":"37.76471","theaterChainName":"Independent Chains","ticketType":"STANDARD"},{"id":"3408","tribuneTheaterId":"7598","providerTheaterId":"","name":"Century 16 Downtown Pleasant Hill","address":"125 Crescent Drive","city":"Pleasant Hill","state":"CA","zip":"94523","distance":12.553608433046,"lon":"-122.06192","lat":"37.944773","theaterChainName":"Cinemark","ticketType":"STANDARD"},{"id":"9","tribuneTheaterId":"7311","providerTheaterId":"","name":"Contra Costa Stadium Cinemas","address":"555 Center Ave.","city":"Martinez","state":"CA","zip":"94553","distance":11.901488427388,"lon":"-122.11882","lat":"37.99383","theaterChainName":"CinemaWest","ticketType":"STANDARD"},{"id":"5742","tribuneTheaterId":"11184","providerTheaterId":"","name":"Alamo Drafthouse New Mission","address":"2550 Mission Street","city":"San Francisco","state":"CA","zip":"94110","distance":11.373614807739,"lon":"-122.4185","lat":"37.754","theaterChainName":"Alamo Drafthouse","ticketType":"STANDARD"},{"id":"774","tribuneTheaterId":"8742","providerTheaterId":"","name":"Century Larkspur Landing","address":"500 Larkspur Landing Circle","city":"Larkspur","state":"CA","zip":"94939","distance":14.064386030243,"lon":"-122.512118","lat":"37.947451","theaterChainName":"Cinemark","ticketType":"STANDARD"},{"id":"819","tribuneTheaterId":"6282","providerTheaterId":"","name":"Brenden Concord 14","address":"1985 Willow Pass Road","city":"Concord","state":"CA","zip":"94520","distance":14.776263923997,"lon":"-122.036232","lat":"37.976202","theaterChainName":"Brenden Theatres","ticketType":"STANDARD"},{"id":"262","tribuneTheaterId":"6645","providerTheaterId":"","name":"Cin\u00e9Arts  Empire","address":"85 West Portal Ave.","city":"San Francisco","state":"CA","zip":"94127","distance":13.960611277157,"lon":"-122.466595","lat":"37.739853","theaterChainName":"Cinemark","ticketType":"STANDARD"},{"id":"737","tribuneTheaterId":"4058","providerTheaterId":"","name":"Balboa Twin","address":"3630 Balboa St.","city":"San Francisco","state":"CA","zip":"94121","distance":13.961725960963,"lon":"-122.497948","lat":"37.77581","theaterChainName":"Independent Chains","ticketType":"STANDARD"},{"id":"735","tribuneTheaterId":"6035","providerTheaterId":"","name":"4-Star Theatre","address":"2200 Clement St.","city":"San Francisco","state":"CA","zip":"94121","distance":13.025156602195,"lon":"-122.48293","lat":"37.782357","theaterChainName":"Independent Chains","ticketType":"STANDARD"},{"id":"3433","tribuneTheaterId":"7918","providerTheaterId":"","name":"Century Cinema Corte Madera","address":"41 Tamal Vista Blvd.","city":"Corte Madera","state":"CA","zip":"94925","distance":13.976633304846,"lon":"-122.517206","lat":"37.932408","theaterChainName":"Cinemark","ticketType":"STANDARD"},{"id":"788","tribuneTheaterId":"6574","providerTheaterId":"","name":"Cinelux Chabot Cinema","address":"2853 Castro Valley Blvd.","city":"Castro Valley","state":"CA","zip":"94546","distance":15.992050841719,"lon":"-122.083222","lat":"37.695116","theaterChainName":"Cinelux Theatres","ticketType":"STANDARD"},{"id":"3434","tribuneTheaterId":"8219","providerTheaterId":"","name":"CineArts  Sequoia","address":"25 Throckmorton Ave.","city":"Mill Valley","state":"CA","zip":"94941","distance":15.140227479153,"lon":"-122.546844","lat":"37.906346","theaterChainName":"Cinemark","ticketType":"STANDARD"},{"id":"733","tribuneTheaterId":"7749","providerTheaterId":"","name":"United Artists Stonestown","address":"501 Buckingham Way","city":"San Francisco","state":"CA","zip":"94132","distance":14.91957639189,"lon":"-122.478822","lat":"37.729819","theaterChainName":"United Artists","ticketType":"STANDARD"},{"id":"732","tribuneTheaterId":"2420","providerTheaterId":"","name":"Lark Theater","address":"549 Magnolia Ave.","city":"Larkspur","state":"CA","zip":"94939","distance":15.001410125534,"lon":"-122.535079","lat":"37.937023","theaterChainName":"Independent Chains","ticketType":"STANDARD"},{"id":"3162","tribuneTheaterId":"8666","providerTheaterId":"","name":"Century 16 Bayfair Mall","address":"15555 E. 14th St.","city":"San Leandro","state":"CA","zip":"94578","distance":14.429566874199,"lon":"-122.123326","lat":"37.699325","theaterChainName":"Cinemark","ticketType":"STANDARD"},{"id":"2302","tribuneTheaterId":"5176","providerTheaterId":"","name":"Rafael Film Center","address":"1118 Fourth St.","city":"San Rafael","state":"CA","zip":"94901","distance":15.625608681495,"lon":"-122.528603","lat":"37.973554","theaterChainName":"Independent Chains","ticketType":"STANDARD"},{"id":"3528","tribuneTheaterId":"5802","providerTheaterId":"","name":"Century 20 Daly City","address":"1901 Junipero Serra Blvd.","city":"Daly City","state":"CA","zip":"94015","distance":15.942589731421,"lon":"-122.470537","lat":"37.701907","theaterChainName":"Cinemark","ticketType":"STANDARD"},{"id":"3167","tribuneTheaterId":"9216","providerTheaterId":"","name":"Century 14 Vallejo","address":"109 Plaza Drive","city":"Vallejo","state":"CA","zip":"94591","distance":18.183533242083,"lon":"-122.218748","lat":"38.131317","theaterChainName":"Cinemark","ticketType":"STANDARD"},{"id":"4478","tribuneTheaterId":"9573","providerTheaterId":"","name":"Century at Tanforan","address":"1188 El Camino Real Ave.","city":"San Bruno","state":"CA","zip":"94066","distance":17.998802121331,"lon":"-122.417902","lat":"37.637761","theaterChainName":"Cinemark","ticketType":"STANDARD"},{"id":"8","tribuneTheaterId":"8733","providerTheaterId":"","name":"Regal Crow Canyon","address":"2525 San Ramon Valley Blvd.","city":"San Ramon","state":"CA","zip":"94583","distance":17.622576703556,"lon":"-121.97511","lat":"37.772634","theaterChainName":"Regal Cinemas","ticketType":"STANDARD"},{"id":"3436","tribuneTheaterId":"7920","providerTheaterId":"","name":"Century Regency 6","address":"280 Smith Ranch Road","city":"San Rafael","state":"CA","zip":"94903","distance":17.410434868081,"lon":"-122.532105","lat":"38.018735","theaterChainName":"Cinemark","ticketType":"STANDARD"},{"id":"3438","tribuneTheaterId":"7921","providerTheaterId":"","name":"Century Northgate 15","address":"7000 Northgate Drive","city":"San Rafael","state":"CA","zip":"94903","distance":17.435410253222,"lon":"-122.544293","lat":"38.005008","theaterChainName":"Cinemark","ticketType":"STANDARD"},{"id":"4579","tribuneTheaterId":"9725","providerTheaterId":"","name":"Century at Hayward","address":"1069 B Street","city":"Hayward","state":"CA","zip":"94541","distance":17.227803919612,"lon":"-122.081223","lat":"37.67345","theaterChainName":"Cinemark","ticketType":"STANDARD"},{"id":"731","tribuneTheaterId":"5978","providerTheaterId":"","name":"Fairfax 6 Theatre","address":"9 Broadway","city":"Fairfax","state":"CA","zip":"94930","distance":18.91913687544,"lon":"-122.587634","lat":"37.986794","theaterChainName":"CinemaWest","ticketType":"STANDARD"},{"id":"729","tribuneTheaterId":"8690","providerTheaterId":"","name":"Century Blackhawk Plaza","address":"4175 Blackhawk Plaza Circle","city":"Danville","state":"CA","zip":"94526","distance":20.004371232842,"lon":"-121.917697","lat":"37.79937","theaterChainName":"Cinemark","ticketType":"STANDARD"},{"id":"2465","tribuneTheaterId":"9186","providerTheaterId":"","name":"Century 25 Union City at Union Landing","address":"32100 Union Landing","city":"Union City","state":"CA","zip":"94587","distance":21.899597983222,"lon":"-122.067619","lat":"37.599282","theaterChainName":"Cinemark","ticketType":"STANDARD"},{"id":"3437","tribuneTheaterId":"7030","providerTheaterId":"","name":"Century Rowland Plaza","address":"44 Rowland Way","city":"Novato","state":"CA","zip":"94945","distance":21.843117184503,"lon":"-122.556712","lat":"38.094833","theaterChainName":"Cinemark","ticketType":"STANDARD"},{"id":"3596","tribuneTheaterId":"9106","providerTheaterId":"","name":"Century 12 Downtown San Mateo","address":"320 East 2nd Ave.","city":"San Mateo","state":"CA","zip":"94401","distance":21.2763330635,"lon":"-122.322502","lat":"37.566194","theaterChainName":"Cinemark","ticketType":"STANDARD"}]