[{"id":"3437","tribuneTheaterId":"7030","providerTheaterId":"","name":"Century Rowland Plaza","address":"44 Rowland Way","city":"Novato","state":"CA","zip":"94945","distance":1.45369881936,"lon":"-122.556712","lat":"38.094833","theaterChainName":"Cinemark","ticketType":"STANDARD"},{"id":"3438","tribuneTheaterId":"7921","providerTheaterId":"","name":"Century Northgate 15","address":"7000 Northgate Drive","city":"San Rafael","state":"CA","zip":"94903","distance":4.830443060115,"lon":"-122.544293","lat":"38.005008","theaterChainName":"Cinemark","ticketType":"STANDARD"},{"id":"3436","tribuneTheaterId":"7920","providerTheaterId":"","name":"Century Regency 6","address":"280 Smith Ranch Road","city":"San Rafael","state":"CA","zip":"94903","distance":4.0906614507834,"lon":"-122.532105","lat":"38.018735","theaterChainName":"Cinemark","ticketType":"STANDARD"},{"id":"2302","tribuneTheaterId":"5176","providerTheaterId":"","name":"Rafael Film Center","address":"1118 Fourth St.","city":"San Rafael","state":"CA","zip":"94901","distance":7.132989855008,"lon":"-122.528603","lat":"37.973554","theaterChainName":"Independent Chains","ticketType":"STANDARD"},{"id":"731","tribuneTheaterId":"5978","providerTheaterId":"","name":"Fairfax 6 Theatre","address":"9 Broadway","city":"Fairfax","state":"CA","zip":"94930","distance":6.2115031694512,"lon":"-122.587634","lat":"37.986794","theaterChainName":"CinemaWest","ticketType":"STANDARD"},{"id":"3433","tribuneTheaterId":"7918","providerTheaterId":"","name":"Century Cinema Corte Madera","address":"41 Tamal Vista Blvd.","city":"Corte Madera","state":"CA","zip":"94925","distance":10.042422659141,"lon":"-122.517206","lat":"37.932408","theaterChainName":"Cinemark","ticketType":"STANDARD"},{"id":"774","tribuneTheaterId":"8742","providerTheaterId":"","name":"Century Larkspur Landing","address":"500 Larkspur Landing Circle","city":"Larkspur","state":"CA","zip":"94939","distance":9.108047928233,"lon":"-122.512118","lat":"37.947451","theaterChainName":"Cinemark","ticketType":"STANDARD"},{"id":"732","tribuneTheaterId":"2420","providerTheaterId":"","name":"Lark Theater","address":"549 Magnolia Ave.","city":"Larkspur","state":"CA","zip":"94939","distance":9.5495251200757,"lon":"-122.535079","lat":"37.937023","theaterChainName":"Independent Chains","ticketType":"STANDARD"},{"id":"1419","tribuneTheaterId":"2292","providerTheaterId":"","name":"Boulevard Cinemas 14","address":"200 C Street","city":"Petaluma","state":"CA","zip":"94954","distance":11.81256602667,"lon":"-122.637977","lat":"38.233309","theaterChainName":"CinemaWest","ticketType":"STANDARD"},{"id":"3434","tribuneTheaterId":"8219","providerTheaterId":"","name":"CineArts  Sequoia","address":"25 Throckmorton Ave.","city":"Mill Valley","state":"CA","zip":"94941","distance":11.597031575496,"lon":"-122.546844","lat":"37.906346","theaterChainName":"Cinemark","ticketType":"STANDARD"},{"id":"1098","tribuneTheaterId":"5977","providerTheaterId":"","name":"Tiburon Playhouse 3 Theatre","address":"40 Main St.","city":"Tiburon","state":"CA","zip":"94920","distance":14.950278777791,"lon":"-122.456737","lat":"37.873226","theaterChainName":"CinemaWest","ticketType":"STANDARD"},{"id":"3407","tribuneTheaterId":"8743","providerTheaterId":"","name":"Century 16 Hilltop","address":"3200 Klose Way","city":"Richmond","state":"CA","zip":"94806","distance":14.516730668943,"lon":"-122.319589","lat":"37.981924","theaterChainName":"Cinemark","ticketType":"STANDARD"},{"id":"1416","tribuneTheaterId":"2492","providerTheaterId":"","name":"Sebastiani Theatre","address":"476 First St. E.","city":"Sonoma","state":"CA","zip":"95476","distance":16.089656237991,"lon":"-122.456526","lat":"38.292278","theaterChainName":"Independent Chains","ticketType":"STANDARD"},{"id":"3435","tribuneTheaterId":"7919","providerTheaterId":"","name":"Cin\u00e9Arts at Marin","address":"101 Caledonia St.","city":"Sausalito","state":"CA","zip":"94965","distance":15.411611625694,"lon":"-122.485716","lat":"37.858542","theaterChainName":"Cinemark","ticketType":"STANDARD"},{"id":"1418","tribuneTheaterId":"2881","providerTheaterId":"","name":"Sonoma Cinemas","address":"200 Siesta Way","city":"Boyes Hot Springs","state":"CA","zip":"95416","distance":16.847016790543,"lon":"-122.477212","lat":"38.309018","theaterChainName":"CinemaWest","ticketType":"STANDARD"},{"id":"3167","tribuneTheaterId":"9216","providerTheaterId":"","name":"Century 14 Vallejo","address":"109 Plaza Drive","city":"Vallejo","state":"CA","zip":"94591","distance":18.941338721653,"lon":"-122.218748","lat":"38.131317","theaterChainName":"Cinemark","ticketType":"STANDARD"},{"id":"4280","tribuneTheaterId":"1450","providerTheaterId":"","name":"Rialto Cinemas Cerrito","address":"10070 San Pablo Ave.","city":"El Cerrito","state":"CA","zip":"94530","distance":18.344257170408,"lon":"-122.302784","lat":"37.901896","theaterChainName":"Independent Chains","ticketType":"STANDARD"},{"id":"735","tribuneTheaterId":"6035","providerTheaterId":"","name":"4-Star Theatre","address":"2200 Clement St.","city":"San Francisco","state":"CA","zip":"94121","distance":20.570270616306,"lon":"-122.48293","lat":"37.782357","theaterChainName":"Independent Chains","ticketType":"STANDARD"},{"id":"4506","tribuneTheaterId":"9612","providerTheaterId":"","name":"Marina Theatre","address":"2149 Chestnut St.","city":"San Francisco","state":"CA","zip":"94123","distance":20.009232055485,"lon":"-122.438622","lat":"37.800417","theaterChainName":"Independent Chains","ticketType":"STANDARD"},{"id":"1600","tribuneTheaterId":"8746","providerTheaterId":"","name":"Rohnert Park 16","address":"555 Rohnert Park Expressway W.","city":"Rohnert Park","state":"CA","zip":"94928","distance":20.845177756402,"lon":"-122.722208","lat":"38.347132","theaterChainName":"Reading International, Inc","ticketType":"STANDARD"},{"id":"737","tribuneTheaterId":"4058","providerTheaterId":"","name":"Balboa Twin","address":"3630 Balboa St.","city":"San Francisco","state":"CA","zip":"94121","distance":20.866566592584,"lon":"-122.497948","lat":"37.77581","theaterChainName":"Independent Chains","ticketType":"STANDARD"},{"id":"259","tribuneTheaterId":"6254","providerTheaterId":"","name":"Presidio Theatre","address":"2340 Chestnut St.","city":"San Francisco","state":"CA","zip":"94123","distance":19.964661066248,"lon":"-122.441897","lat":"37.800212","theaterChainName":"Independent Chains","ticketType":"STANDARD"},{"id":"865","tribuneTheaterId":"7967","providerTheaterId":"434","name":"AMC Van Ness 14","address":"1000 Van Ness Ave.","city":"San Francisco","state":"CA","zip":"94109","distance":21.333635914315,"lon":"-122.421041","lat":"37.785064","theaterChainName":"AMC Theatres","ticketType":"STANDARD"},{"id":"4261","tribuneTheaterId":"5801","providerTheaterId":"","name":"San Francisco Centre","address":"835 Market St.","city":"San Francisco","state":"CA","zip":"94103","distance":21.641130522932,"lon":"-122.406846","lat":"37.78472","theaterChainName":"Cinemark","ticketType":"STANDARD"},{"id":"2497","tribuneTheaterId":"7641","providerTheaterId":"2325","name":"AMC Metreon 16","address":"101 Fourth St","city":"San Francisco","state":"CA","zip":"94103","distance":21.709712470923,"lon":"-122.404132","lat":"37.784542","theaterChainName":"AMC Theatres","ticketType":"STANDARD"},{"id":"727","tribuneTheaterId":"7585","providerTheaterId":"","name":"United Artists Berkeley 7","address":"2274 Shattuck Ave.","city":"Berkeley","state":"CA","zip":"94704","distance":21.322517852705,"lon":"-122.268251","lat":"37.867605","theaterChainName":"United Artists","ticketType":"STANDARD"},{"id":"2652","tribuneTheaterId":"2560","providerTheaterId":"","name":"Pacific Film Archive Theater","address":"2575 Bancroft Way","city":"Berkeley","state":"CA","zip":"94704","distance":21.249623070131,"lon":"-122.266422","lat":"37.870809","theaterChainName":"Independent Chains","ticketType":"STANDARD"},{"id":"5759","tribuneTheaterId":"11201","providerTheaterId":"","name":"UC Berkeley Art Museum and Pacific Film Archive","address":"2155 Center St.","city":"Berkeley","state":"CA","zip":"94704","distance":21.249623070131,"lon":"-122.266422","lat":"37.870809","theaterChainName":"Independent Chains","ticketType":"STANDARD"},{"id":"5226","tribuneTheaterId":"10650","providerTheaterId":"","name":"Century Napa Valley","address":"195 Gasser Dr.","city":"Napa","state":"CA","zip":"94559","distance":21.011654384467,"lon":"-122.278503","lat":"38.283001","theaterChainName":"Cinemark","ticketType":"STANDARD"},{"id":"736","tribuneTheaterId":"4048","providerTheaterId":"","name":"Roxie Film Center","address":"3117 16th at Valencia","city":"San Francisco","state":"CA","zip":"94103","distance":22.630294521308,"lon":"-122.422408","lat":"37.76471","theaterChainName":"Independent Chains","ticketType":"STANDARD"},{"id":"3582","tribuneTheaterId":"8820","providerTheaterId":"215","name":"AMC Bay Street 16","address":"5614 Bay St.","city":"Emeryville","state":"CA","zip":"94608","distance":22.104669760057,"lon":"-122.292116","lat":"37.833205","theaterChainName":"AMC Theatres","ticketType":"STANDARD"},{"id":"5742","tribuneTheaterId":"11184","providerTheaterId":"","name":"Alamo Drafthouse New Mission","address":"2550 Mission Street","city":"San Francisco","state":"CA","zip":"94110","distance":23.39934813097,"lon":"-122.4185","lat":"37.754","theaterChainName":"Alamo Drafthouse","ticketType":"STANDARD"},{"id":"262","tribuneTheaterId":"6645","providerTheaterId":"","name":"Cin\u00e9Arts  Empire","address":"85 West Portal Ave.","city":"San Francisco","state":"CA","zip":"94127","distance":23.628406883773,"lon":"-122.466595","lat":"37.739853","theaterChainName":"Cinemark","ticketType":"STANDARD"},{"id":"733","tribuneTheaterId":"7749","providerTheaterId":"","name":"United Artists Stonestown","address":"501 Buckingham Way","city":"San Francisco","state":"CA","zip":"94132","distance":24.176167280388,"lon":"-122.478822","lat":"37.729819","theaterChainName":"United Artists","ticketType":"STANDARD"},{"id":"738","tribuneTheaterId":"6113","providerTheaterId":"","name":"Renaissance Grand Lake Theatre","address":"3200 Grand Ave.","city":"Oakland","state":"CA","zip":"94610","distance":24.841532468133,"lon":"-122.247734","lat":"37.811498","theaterChainName":"Independent Chains","ticketType":"STANDARD"},{"id":"730","tribuneTheaterId":"6396","providerTheaterId":"","name":"Orinda Theatre","address":"4 Orinda Theatre Square","city":"Orinda","state":"CA","zip":"94563","distance":24.577637879231,"lon":"-122.182103","lat":"37.878754","theaterChainName":"Independent Chains","ticketType":"STANDARD"},{"id":"9","tribuneTheaterId":"7311","providerTheaterId":"","name":"Contra Costa Stadium Cinemas","address":"555 Center Ave.","city":"Martinez","state":"CA","zip":"94553","distance":24.606798890849,"lon":"-122.11882","lat":"37.99383","theaterChainName":"CinemaWest","ticketType":"STANDARD"},{"id":"739","tribuneTheaterId":"7142","providerTheaterId":"","name":"Regal Jack London","address":"100 Washington St.","city":"Oakland","state":"CA","zip":"94607","distance":24.579186568931,"lon":"-122.27762","lat":"37.796125","theaterChainName":"Regal Cinemas","ticketType":"STANDARD"}]