[{"id":"731","tribuneTheaterId":"5978","providerTheaterId":"","name":"Fairfax 6 Theatre","address":"9 Broadway","city":"Fairfax","state":"CA","zip":"94930","distance":10.750210260811,"lon":"-122.587634","lat":"37.986794","theaterChainName":"CinemaWest","ticketType":"STANDARD"},{"id":"3438","tribuneTheaterId":"7921","providerTheaterId":"","name":"Century Northgate 15","address":"7000 Northgate Drive","city":"San Rafael","state":"CA","zip":"94903","distance":12.612491431731,"lon":"-122.544293","lat":"38.005008","theaterChainName":"Cinemark","ticketType":"STANDARD"},{"id":"3437","tribuneTheaterId":"7030","providerTheaterId":"","name":"Century Rowland Plaza","address":"44 Rowland Way","city":"Novato","state":"CA","zip":"94945","distance":12.063543345683,"lon":"-122.556712","lat":"38.094833","theaterChainName":"Cinemark","ticketType":"STANDARD"},{"id":"3436","tribuneTheaterId":"7920","providerTheaterId":"","name":"Century Regency 6","address":"280 Smith Ranch Road","city":"San Rafael","state":"CA","zip":"94903","distance":13.084715548614,"lon":"-122.532105","lat":"38.018735","theaterChainName":"Cinemark","ticketType":"STANDARD"},{"id":"1419","tribuneTheaterId":"2292","providerTheaterId":"","name":"Boulevard Cinemas 14","address":"200 C Street","city":"Petaluma","state":"CA","zip":"94954","distance":14.752448568698,"lon":"-122.637977","lat":"38.233309","theaterChainName":"CinemaWest","ticketType":"STANDARD"},{"id":"732","tribuneTheaterId":"2420","providerTheaterId":"","name":"Lark Theater","address":"549 Magnolia Ave.","city":"Larkspur","state":"CA","zip":"94939","distance":14.863404037103,"lon":"-122.535079","lat":"37.937023","theaterChainName":"Independent Chains","ticketType":"STANDARD"},{"id":"2302","tribuneTheaterId":"5176","providerTheaterId":"","name":"Rafael Film Center","address":"1118 Fourth St.","city":"San Rafael","state":"CA","zip":"94901","distance":14.074578467434,"lon":"-122.528603","lat":"37.973554","theaterChainName":"Independent Chains","ticketType":"STANDARD"},{"id":"3433","tribuneTheaterId":"7918","providerTheaterId":"","name":"Century Cinema Corte Madera","address":"41 Tamal Vista Blvd.","city":"Corte Madera","state":"CA","zip":"94925","distance":15.865136632733,"lon":"-122.517206","lat":"37.932408","theaterChainName":"Cinemark","ticketType":"STANDARD"},{"id":"774","tribuneTheaterId":"8742","providerTheaterId":"","name":"Century Larkspur Landing","address":"500 Larkspur Landing Circle","city":"Larkspur","state":"CA","zip":"94939","distance":15.621417088548,"lon":"-122.512118","lat":"37.947451","theaterChainName":"Cinemark","ticketType":"STANDARD"},{"id":"3434","tribuneTheaterId":"8219","providerTheaterId":"","name":"CineArts  Sequoia","address":"25 Throckmorton Ave.","city":"Mill Valley","state":"CA","zip":"94941","distance":15.544341549983,"lon":"-122.546844","lat":"37.906346","theaterChainName":"Cinemark","ticketType":"STANDARD"},{"id":"1600","tribuneTheaterId":"8746","providerTheaterId":"","name":"Rohnert Park 16","address":"555 Rohnert Park Expressway W.","city":"Rohnert Park","state":"CA","zip":"94928","distance":20.91875232941,"lon":"-122.722208","lat":"38.347132","theaterChainName":"Reading International, Inc","ticketType":"STANDARD"},{"id":"1098","tribuneTheaterId":"5977","providerTheaterId":"","name":"Tiburon Playhouse 3 Theatre","address":"40 Main St.","city":"Tiburon","state":"CA","zip":"94920","distance":20.849449173426,"lon":"-122.456737","lat":"37.873226","theaterChainName":"CinemaWest","ticketType":"STANDARD"},{"id":"3435","tribuneTheaterId":"7919","providerTheaterId":"","name":"Cin\u00e9Arts at Marin","address":"101 Caledonia St.","city":"Sausalito","state":"CA","zip":"94965","distance":20.216988118179,"lon":"-122.485716","lat":"37.858542","theaterChainName":"Cinemark","ticketType":"STANDARD"},{"id":"737","tribuneTheaterId":"4058","providerTheaterId":"","name":"Balboa Twin","address":"3630 Balboa St.","city":"San Francisco","state":"CA","zip":"94121","distance":23.876428823522,"lon":"-122.497948","lat":"37.77581","theaterChainName":"Independent Chains","ticketType":"STANDARD"},{"id":"735","tribuneTheaterId":"6035","providerTheaterId":"","name":"4-Star Theatre","address":"2200 Clement St.","city":"San Francisco","state":"CA","zip":"94121","distance":24.047379848646,"lon":"-122.48293","lat":"37.782357","theaterChainName":"Independent Chains","ticketType":"STANDARD"},{"id":"1417","tribuneTheaterId":"3120","providerTheaterId":"","name":"Rialto Cinemas Sebastopol","address":"6868 McKinley St.","city":"Sebastopol","state":"CA","zip":"95472","distance":24.844935304346,"lon":"-122.822491","lat":"38.403904","theaterChainName":"Independent Chains","ticketType":"STANDARD"},{"id":"1418","tribuneTheaterId":"2881","providerTheaterId":"","name":"Sonoma Cinemas","address":"200 Siesta Way","city":"Boyes Hot Springs","state":"CA","zip":"95416","distance":24.108276570804,"lon":"-122.477212","lat":"38.309018","theaterChainName":"CinemaWest","ticketType":"STANDARD"},{"id":"1416","tribuneTheaterId":"2492","providerTheaterId":"","name":"Sebastiani Theatre","address":"476 First St. E.","city":"Sonoma","state":"CA","zip":"95476","distance":24.034793026223,"lon":"-122.456526","lat":"38.292278","theaterChainName":"Independent Chains","ticketType":"STANDARD"},{"id":"259","tribuneTheaterId":"6254","providerTheaterId":"","name":"Presidio Theatre","address":"2340 Chestnut St.","city":"San Francisco","state":"CA","zip":"94123","distance":24.690786491538,"lon":"-122.441897","lat":"37.800212","theaterChainName":"Independent Chains","ticketType":"STANDARD"},{"id":"4506","tribuneTheaterId":"9612","providerTheaterId":"","name":"Marina Theatre","address":"2149 Chestnut St.","city":"San Francisco","state":"CA","zip":"94123","distance":24.810595707152,"lon":"-122.438622","lat":"37.800417","theaterChainName":"Independent Chains","ticketType":"STANDARD"},{"id":"3407","tribuneTheaterId":"8743","providerTheaterId":"","name":"Century 16 Hilltop","address":"3200 Klose Way","city":"Richmond","state":"CA","zip":"94806","distance":24.918167414017,"lon":"-122.319589","lat":"37.981924","theaterChainName":"Cinemark","ticketType":"STANDARD"}]