[{"id":"3435","tribuneTheaterId":"7919","providerTheaterId":"","name":"Cin\u00e9Arts at Marin","address":"101 Caledonia St.","city":"Sausalito","state":"CA","zip":"94965","distance":0.04473696714662,"lon":"-122.485716","lat":"37.858542","theaterChainName":"Cinemark","ticketType":"STANDARD"},{"id":"1098","tribuneTheaterId":"5977","providerTheaterId":"","name":"Tiburon Playhouse 3 Theatre","address":"40 Main St.","city":"Tiburon","state":"CA","zip":"94920","distance":1.8384529109331,"lon":"-122.456737","lat":"37.873226","theaterChainName":"CinemaWest","ticketType":"STANDARD"},{"id":"259","tribuneTheaterId":"6254","providerTheaterId":"","name":"Presidio Theatre","address":"2340 Chestnut St.","city":"San Francisco","state":"CA","zip":"94123","distance":4.7079901870165,"lon":"-122.441897","lat":"37.800212","theaterChainName":"Independent Chains","ticketType":"STANDARD"},{"id":"3433","tribuneTheaterId":"7918","providerTheaterId":"","name":"Century Cinema Corte Madera","address":"41 Tamal Vista Blvd.","city":"Corte Madera","state":"CA","zip":"94925","distance":5.3555077602185,"lon":"-122.517206","lat":"37.932408","theaterChainName":"Cinemark","ticketType":"STANDARD"},{"id":"3434","tribuneTheaterId":"8219","providerTheaterId":"","name":"CineArts  Sequoia","address":"25 Throckmorton Ave.","city":"Mill Valley","state":"CA","zip":"94941","distance":4.6819031856716,"lon":"-122.546844","lat":"37.906346","theaterChainName":"Cinemark","ticketType":"STANDARD"},{"id":"735","tribuneTheaterId":"6035","providerTheaterId":"","name":"4-Star Theatre","address":"2200 Clement St.","city":"San Francisco","state":"CA","zip":"94121","distance":5.3040048721141,"lon":"-122.48293","lat":"37.782357","theaterChainName":"Independent Chains","ticketType":"STANDARD"},{"id":"4506","tribuneTheaterId":"9612","providerTheaterId":"","name":"Marina Theatre","address":"2149 Chestnut St.","city":"San Francisco","state":"CA","zip":"94123","distance":4.7883916628425,"lon":"-122.438622","lat":"37.800417","theaterChainName":"Independent Chains","ticketType":"STANDARD"},{"id":"4261","tribuneTheaterId":"5801","providerTheaterId":"","name":"San Francisco Centre","address":"835 Market St.","city":"San Francisco","state":"CA","zip":"94103","distance":6.6892040176266,"lon":"-122.406846","lat":"37.78472","theaterChainName":"Cinemark","ticketType":"STANDARD"},{"id":"732","tribuneTheaterId":"2420","providerTheaterId":"","name":"Lark Theater","address":"549 Magnolia Ave.","city":"Larkspur","state":"CA","zip":"94939","distance":6.0293472033389,"lon":"-122.535079","lat":"37.937023","theaterChainName":"Independent Chains","ticketType":"STANDARD"},{"id":"737","tribuneTheaterId":"4058","providerTheaterId":"","name":"Balboa Twin","address":"3630 Balboa St.","city":"San Francisco","state":"CA","zip":"94121","distance":5.7960404824164,"lon":"-122.497948","lat":"37.77581","theaterChainName":"Independent Chains","ticketType":"STANDARD"},{"id":"774","tribuneTheaterId":"8742","providerTheaterId":"","name":"Century Larkspur Landing","address":"500 Larkspur Landing Circle","city":"Larkspur","state":"CA","zip":"94939","distance":6.2771084230969,"lon":"-122.512118","lat":"37.947451","theaterChainName":"Cinemark","ticketType":"STANDARD"},{"id":"865","tribuneTheaterId":"7967","providerTheaterId":"434","name":"AMC Van Ness 14","address":"1000 Van Ness Ave.","city":"San Francisco","state":"CA","zip":"94109","distance":6.2021943615188,"lon":"-122.421041","lat":"37.785064","theaterChainName":"AMC Theatres","ticketType":"STANDARD"},{"id":"5742","tribuneTheaterId":"11184","providerTheaterId":"","name":"Alamo Drafthouse New Mission","address":"2550 Mission Street","city":"San Francisco","state":"CA","zip":"94110","distance":8.1258807665292,"lon":"-122.4185","lat":"37.754","theaterChainName":"Alamo Drafthouse","ticketType":"STANDARD"},{"id":"262","tribuneTheaterId":"6645","providerTheaterId":"","name":"Cin\u00e9Arts  Empire","address":"85 West Portal Ave.","city":"San Francisco","state":"CA","zip":"94127","distance":8.3022133768459,"lon":"-122.466595","lat":"37.739853","theaterChainName":"Cinemark","ticketType":"STANDARD"},{"id":"736","tribuneTheaterId":"4048","providerTheaterId":"","name":"Roxie Film Center","address":"3117 16th at Valencia","city":"San Francisco","state":"CA","zip":"94103","distance":7.3700924852395,"lon":"-122.422408","lat":"37.76471","theaterChainName":"Independent Chains","ticketType":"STANDARD"},{"id":"2497","tribuneTheaterId":"7641","providerTheaterId":"2325","name":"AMC Metreon 16","address":"101 Fourth St","city":"San Francisco","state":"CA","zip":"94103","distance":6.7942996551115,"lon":"-122.404132","lat":"37.784542","theaterChainName":"AMC Theatres","ticketType":"STANDARD"},{"id":"2302","tribuneTheaterId":"5176","providerTheaterId":"","name":"Rafael Film Center","address":"1118 Fourth St.","city":"San Rafael","state":"CA","zip":"94901","distance":8.2527511751392,"lon":"-122.528603","lat":"37.973554","theaterChainName":"Independent Chains","ticketType":"STANDARD"},{"id":"733","tribuneTheaterId":"7749","providerTheaterId":"","name":"United Artists Stonestown","address":"501 Buckingham Way","city":"San Francisco","state":"CA","zip":"94132","distance":8.9394508588487,"lon":"-122.478822","lat":"37.729819","theaterChainName":"United Artists","ticketType":"STANDARD"},{"id":"3436","tribuneTheaterId":"7920","providerTheaterId":"","name":"Century Regency 6","address":"280 Smith Ranch Road","city":"San Rafael","state":"CA","zip":"94903","distance":11.320751662069,"lon":"-122.532105","lat":"38.018735","theaterChainName":"Cinemark","ticketType":"STANDARD"},{"id":"3438","tribuneTheaterId":"7921","providerTheaterId":"","name":"Century Northgate 15","address":"7000 Northgate Drive","city":"San Rafael","state":"CA","zip":"94903","distance":10.581475563829,"lon":"-122.544293","lat":"38.005008","theaterChainName":"Cinemark","ticketType":"STANDARD"},{"id":"731","tribuneTheaterId":"5978","providerTheaterId":"","name":"Fairfax 6 Theatre","address":"9 Broadway","city":"Fairfax","state":"CA","zip":"94930","distance":10.43795307493,"lon":"-122.587634","lat":"37.986794","theaterChainName":"CinemaWest","ticketType":"STANDARD"},{"id":"3582","tribuneTheaterId":"8820","providerTheaterId":"215","name":"AMC Bay Street 16","address":"5614 Bay St.","city":"Emeryville","state":"CA","zip":"94608","distance":10.690948461459,"lon":"-122.292116","lat":"37.833205","theaterChainName":"AMC Theatres","ticketType":"STANDARD"},{"id":"4280","tribuneTheaterId":"1450","providerTheaterId":"","name":"Rialto Cinemas Cerrito","address":"10070 San Pablo Ave.","city":"El Cerrito","state":"CA","zip":"94530","distance":10.383409832462,"lon":"-122.302784","lat":"37.901896","theaterChainName":"Independent Chains","ticketType":"STANDARD"},{"id":"3407","tribuneTheaterId":"8743","providerTheaterId":"","name":"Century 16 Hilltop","address":"3200 Klose Way","city":"Richmond","state":"CA","zip":"94806","distance":12.393407978042,"lon":"-122.319589","lat":"37.981924","theaterChainName":"Cinemark","ticketType":"STANDARD"},{"id":"727","tribuneTheaterId":"7585","providerTheaterId":"","name":"United Artists Berkeley 7","address":"2274 Shattuck Ave.","city":"Berkeley","state":"CA","zip":"94704","distance":11.854065428768,"lon":"-122.268251","lat":"37.867605","theaterChainName":"United Artists","ticketType":"STANDARD"},{"id":"3528","tribuneTheaterId":"5802","providerTheaterId":"","name":"Century 20 Daly City","address":"1901 Junipero Serra Blvd.","city":"Daly City","state":"CA","zip":"94015","distance":10.890863364562,"lon":"-122.470537","lat":"37.701907","theaterChainName":"Cinemark","ticketType":"STANDARD"},{"id":"739","tribuneTheaterId":"7142","providerTheaterId":"","name":"Regal Jack London","address":"100 Washington St.","city":"Oakland","state":"CA","zip":"94607","distance":12.140443817692,"lon":"-122.27762","lat":"37.796125","theaterChainName":"Regal Cinemas","ticketType":"STANDARD"},{"id":"2652","tribuneTheaterId":"2560","providerTheaterId":"","name":"Pacific Film Archive Theater","address":"2575 Bancroft Way","city":"Berkeley","state":"CA","zip":"94704","distance":11.966377795591,"lon":"-122.266422","lat":"37.870809","theaterChainName":"Independent Chains","ticketType":"STANDARD"},{"id":"5759","tribuneTheaterId":"11201","providerTheaterId":"","name":"UC Berkeley Art Museum and Pacific Film Archive","address":"2155 Center St.","city":"Berkeley","state":"CA","zip":"94704","distance":11.966377795591,"lon":"-122.266422","lat":"37.870809","theaterChainName":"Independent Chains","ticketType":"STANDARD"},{"id":"738","tribuneTheaterId":"6113","providerTheaterId":"","name":"Renaissance Grand Lake Theatre","address":"3200 Grand Ave.","city":"Oakland","state":"CA","zip":"94610","distance":13.374288977843,"lon":"-122.247734","lat":"37.811498","theaterChainName":"Independent Chains","ticketType":"STANDARD"},{"id":"4514","tribuneTheaterId":"9623","providerTheaterId":"","name":"Alameda Theatre & Cineplex","address":"2317 Central Ave.","city":"Alameda","state":"CA","zip":"94501","distance":14.730552115512,"lon":"-122.243415","lat":"37.764571","theaterChainName":"Independent Chains","ticketType":"STANDARD"},{"id":"3437","tribuneTheaterId":"7030","providerTheaterId":"","name":"Century Rowland Plaza","address":"44 Rowland Way","city":"Novato","state":"CA","zip":"94945","distance":16.74550305546,"lon":"-122.556712","lat":"38.094833","theaterChainName":"Cinemark","ticketType":"STANDARD"},{"id":"730","tribuneTheaterId":"6396","providerTheaterId":"","name":"Orinda Theatre","address":"4 Orinda Theatre Square","city":"Orinda","state":"CA","zip":"94563","distance":16.593058923019,"lon":"-122.182103","lat":"37.878754","theaterChainName":"Independent Chains","ticketType":"STANDARD"},{"id":"4478","tribuneTheaterId":"9573","providerTheaterId":"","name":"Century at Tanforan","address":"1188 El Camino Real Ave.","city":"San Bruno","state":"CA","zip":"94066","distance":15.730070741296,"lon":"-122.417902","lat":"37.637761","theaterChainName":"Cinemark","ticketType":"STANDARD"},{"id":"821","tribuneTheaterId":"3975","providerTheaterId":"","name":"New Rheem Theatre","address":"350 Park St.","city":"Moraga","state":"CA","zip":"94556","distance":19.551841711177,"lon":"-122.126885","lat":"37.860536","theaterChainName":"Independent Chains","ticketType":"STANDARD"},{"id":"9","tribuneTheaterId":"7311","providerTheaterId":"","name":"Contra Costa Stadium Cinemas","address":"555 Center Ave.","city":"Martinez","state":"CA","zip":"94553","distance":22.036206569476,"lon":"-122.11882","lat":"37.99383","theaterChainName":"CinemaWest","ticketType":"STANDARD"},{"id":"3596","tribuneTheaterId":"9106","providerTheaterId":"","name":"Century 12 Downtown San Mateo","address":"320 East 2nd Ave.","city":"San Mateo","state":"CA","zip":"94401","distance":22.107705551886,"lon":"-122.322502","lat":"37.566194","theaterChainName":"Cinemark","ticketType":"STANDARD"},{"id":"3646","tribuneTheaterId":"4846","providerTheaterId":"","name":"Century 14 Downtown Walnut Creek","address":"1201 Locust St.","city":"Walnut Creek","state":"CA","zip":"94596","distance":23.250253111998,"lon":"-122.061614","lat":"37.896463","theaterChainName":"Cinemark","ticketType":"STANDARD"},{"id":"3162","tribuneTheaterId":"8666","providerTheaterId":"","name":"Century 16 Bayfair Mall","address":"15555 E. 14th St.","city":"San Leandro","state":"CA","zip":"94578","distance":22.64097456257,"lon":"-122.123326","lat":"37.699325","theaterChainName":"Cinemark","ticketType":"STANDARD"},{"id":"3167","tribuneTheaterId":"9216","providerTheaterId":"","name":"Century 14 Vallejo","address":"109 Plaza Drive","city":"Vallejo","state":"CA","zip":"94591","distance":23.757132191059,"lon":"-122.218748","lat":"38.131317","theaterChainName":"Cinemark","ticketType":"STANDARD"},{"id":"3408","tribuneTheaterId":"7598","providerTheaterId":"","name":"Century 16 Downtown Pleasant Hill","address":"125 Crescent Drive","city":"Pleasant Hill","state":"CA","zip":"94523","distance":23.829157517733,"lon":"-122.06192","lat":"37.944773","theaterChainName":"Cinemark","ticketType":"STANDARD"},{"id":"788","tribuneTheaterId":"6574","providerTheaterId":"","name":"Cinelux Chabot Cinema","address":"2853 Castro Valley Blvd.","city":"Castro Valley","state":"CA","zip":"94546","distance":24.708827552337,"lon":"-122.083222","lat":"37.695116","theaterChainName":"Cinelux Theatres","ticketType":"STANDARD"}]