[{"id":"1423","tribuneTheaterId":"2706","providerTheaterId":"","name":"Aptos Twin","address":"122 Rancho Del Mar Center","city":"Aptos","state":"CA","zip":"95003","distance":0.93837325881496,"lon":"-121.906847","lat":"36.976944","theaterChainName":"Independent Chains","ticketType":"STANDARD"},{"id":"1430","tribuneTheaterId":"2818","providerTheaterId":"","name":"Cinelux 41st Avenue Cinema","address":"1475 41st Avenue","city":"Capitola","state":"CA","zip":"95010","distance":4.2267880668437,"lon":"-121.966369","lat":"36.973402","theaterChainName":"Cinelux Theatres","ticketType":"STANDARD"},{"id":"2396","tribuneTheaterId":"6251","providerTheaterId":"","name":"Del Mar Theatre","address":"1124 Pacific Ave.","city":"Santa Cruz","state":"CA","zip":"95060","distance":7.4727702678241,"lon":"-122.025281","lat":"36.972493","theaterChainName":"Landmark Theatres","ticketType":"STANDARD"},{"id":"2230","tribuneTheaterId":"5643","providerTheaterId":"","name":"Riverfront Twin","address":"155 S River St","city":"Santa Cruz","state":"CA","zip":"95060","distance":7.4000477010522,"lon":"-122.02417","lat":"36.975623","theaterChainName":"Regal Cinemas","ticketType":"STANDARD"},{"id":"1812","tribuneTheaterId":"5649","providerTheaterId":"","name":"Santa Cruz Cinema 9","address":"1405 Pacific Avenue","city":"Santa Cruz","state":"CA","zip":"95060","distance":7.5373018157863,"lon":"-122.026619","lat":"36.974866","theaterChainName":"Regal Cinemas","ticketType":"STANDARD"},{"id":"2395","tribuneTheaterId":"2897","providerTheaterId":"","name":"Nickelodeon 4 Theatres","address":"210 Lincoln Street","city":"Santa Cruz","state":"CA","zip":"95060","distance":7.5966200089649,"lon":"-122.027528","lat":"36.972473","theaterChainName":"Independent Chains","ticketType":"STANDARD"},{"id":"1424","tribuneTheaterId":"2986","providerTheaterId":"","name":"CineLux Scotts Valley Cinema 10 Cafe and Lounge","address":"226 Mount Hermon Road","city":"Scotts Valley","state":"CA","zip":"95066","distance":8.9317751497849,"lon":"-122.027594","lat":"37.048076","theaterChainName":"Cinelux Theatres","ticketType":"STANDARD"},{"id":"1426","tribuneTheaterId":"2987","providerTheaterId":"","name":"CineLux Tennant Station Stadium 11","address":"750 Tennant Station Way","city":"Morgan Hill","state":"CA","zip":"95037","distance":17.162086464227,"lon":"-121.6311","lat":"37.1173","theaterChainName":"Cinelux Theatres","ticketType":"STANDARD"},{"id":"2985","tribuneTheaterId":"3061","providerTheaterId":"","name":"Platinum 7 Theatre","address":"6851 Monterey Rd.","city":"Gilroy","state":"CA","zip":"95020","distance":17.92741136951,"lon":"-121.566205","lat":"36.998413","theaterChainName":"Independent Chains","ticketType":"STANDARD"},{"id":"3652","tribuneTheaterId":"9205","providerTheaterId":"","name":"Century 20 Oakridge","address":"925 Blossom Hill Road","city":"San Jose","state":"CA","zip":"95123","distance":18.767071864508,"lon":"-121.8622","lat":"37.2504","theaterChainName":"Cinemark","ticketType":"STANDARD"},{"id":"549","tribuneTheaterId":"8762","providerTheaterId":"433","name":"AMC Saratoga 14","address":"700 El Paseo De Saratoga","city":"San Jose","state":"CA","zip":"95130","distance":22.047775700341,"lon":"-121.989949","lat":"37.288734","theaterChainName":"AMC Theatres","ticketType":"STANDARD"},{"id":"775","tribuneTheaterId":"6120","providerTheaterId":"","name":"Cinelux Almaden Cinema","address":"2306 Almaden Road","city":"San Jose","state":"CA","zip":"95125","distance":21.543009027027,"lon":"-121.8805","lat":"37.2914","theaterChainName":"Cinelux Theatres","ticketType":"STANDARD"},{"id":"776","tribuneTheaterId":"6585","providerTheaterId":"","name":"CineLux Plaza Theatre","address":"2501 S. Winchester Blvd.","city":"Campbell","state":"CA","zip":"95008","distance":20.919852310315,"lon":"-121.950956","lat":"37.278577","theaterChainName":"Cinelux Theatres","ticketType":"STANDARD"},{"id":"254","tribuneTheaterId":"9134","providerTheaterId":"","name":"Century 14 Northridge Mall","address":"350 Northridge Mall","city":"Salinas","state":"CA","zip":"93906","distance":22.23031352309,"lon":"-121.660431","lat":"36.715671","theaterChainName":"Cinemark","ticketType":"STANDARD"},{"id":"5751","tribuneTheaterId":"11193","providerTheaterId":"","name":"Century Marina","address":"100 Tenth Street","city":"Marina","state":"CA","zip":"93933","distance":22.184987248891,"lon":"-121.812776","lat":"36.664651","theaterChainName":"Cinemark","ticketType":"STANDARD"},{"id":"4133","tribuneTheaterId":"5275","providerTheaterId":"219","name":"AMC Eastridge 15","address":"2190 Eastrdige Loop","city":"San Jose","state":"CA","zip":"95122","distance":24.152520562063,"lon":"-121.814368","lat":"37.323999","theaterChainName":"AMC Theatres","ticketType":"STANDARD"},{"id":"3865","tribuneTheaterId":"6723","providerTheaterId":"","name":"CineArts at Santana Row","address":"3088 Olsen Drive","city":"San Jose","state":"CA","zip":"95128","distance":23.663766403209,"lon":"-121.948307","lat":"37.319044","theaterChainName":"Cinemark","ticketType":"STANDARD"},{"id":"779","tribuneTheaterId":"6520","providerTheaterId":"","name":"Camera 3","address":"288 S. Second St.","city":"San Jose","state":"CA","zip":"95113","distance":24.372916205382,"lon":"-121.886028","lat":"37.332438","theaterChainName":"Independent Chains","ticketType":"STANDARD"},{"id":"4335","tribuneTheaterId":"9311","providerTheaterId":"424","name":"AMC Cupertino Square 16","address":"10123 N. Wolfe Road","city":"Cupertino","state":"CA","zip":"95014","distance":24.884141266684,"lon":"-122.014849","lat":"37.325879","theaterChainName":"AMC Theatres","ticketType":"STANDARD"},{"id":"1927","tribuneTheaterId":"5466","providerTheaterId":"","name":"Lighthouse Cinema","address":"525 Lighthouse Ave.","city":"Pacific Grove","state":"CA","zip":"93950","distance":24.87558101899,"lon":"-121.916316","lat":"36.620279","theaterChainName":"SR Entertainment","ticketType":"STANDARD"},{"id":"4103","tribuneTheaterId":"3217","providerTheaterId":"","name":"Maya Salinas 14 Cinemas","address":"153 Main Street","city":"Salinas","state":"CA","zip":"93901","distance":24.662405482801,"lon":"-121.655109","lat":"36.676387","theaterChainName":"Independent Chains","ticketType":"STANDARD"},{"id":"780","tribuneTheaterId":"6057","providerTheaterId":"","name":"Towne 3","address":"1433 The Alameda","city":"San Jose","state":"CA","zip":"95126","distance":24.461838348448,"lon":"-121.914467","lat":"37.333212","theaterChainName":"Independent Chains","ticketType":"STANDARD"}]