[{"id":"1424","tribuneTheaterId":"2986","providerTheaterId":"","name":"CineLux Scotts Valley Cinema 10 Cafe and Lounge","address":"226 Mount Hermon Road","city":"Scotts Valley","state":"CA","zip":"95066","distance":2.2639392774269,"lon":"-122.027594","lat":"37.048076","theaterChainName":"Cinelux Theatres","ticketType":"STANDARD"},{"id":"1812","tribuneTheaterId":"5649","providerTheaterId":"","name":"Santa Cruz Cinema 9","address":"1405 Pacific Avenue","city":"Santa Cruz","state":"CA","zip":"95060","distance":6.6022628213478,"lon":"-122.026619","lat":"36.974866","theaterChainName":"Regal Cinemas","ticketType":"STANDARD"},{"id":"2395","tribuneTheaterId":"2897","providerTheaterId":"","name":"Nickelodeon 4 Theatres","address":"210 Lincoln Street","city":"Santa Cruz","state":"CA","zip":"95060","distance":6.7462566587659,"lon":"-122.027528","lat":"36.972473","theaterChainName":"Independent Chains","ticketType":"STANDARD"},{"id":"2230","tribuneTheaterId":"5643","providerTheaterId":"","name":"Riverfront Twin","address":"155 S River St","city":"Santa Cruz","state":"CA","zip":"95060","distance":6.5935639976637,"lon":"-122.02417","lat":"36.975623","theaterChainName":"Regal Cinemas","ticketType":"STANDARD"},{"id":"2396","tribuneTheaterId":"6251","providerTheaterId":"","name":"Del Mar Theatre","address":"1124 Pacific Ave.","city":"Santa Cruz","state":"CA","zip":"95060","distance":6.7807208547582,"lon":"-122.025281","lat":"36.972493","theaterChainName":"Landmark Theatres","ticketType":"STANDARD"},{"id":"1430","tribuneTheaterId":"2818","providerTheaterId":"","name":"Cinelux 41st Avenue Cinema","address":"1475 41st Avenue","city":"Capitola","state":"CA","zip":"95010","distance":8.2961183987995,"lon":"-121.966369","lat":"36.973402","theaterChainName":"Cinelux Theatres","ticketType":"STANDARD"},{"id":"1423","tribuneTheaterId":"2706","providerTheaterId":"","name":"Aptos Twin","address":"122 Rancho Del Mar Center","city":"Aptos","state":"CA","zip":"95003","distance":10.540348804975,"lon":"-121.906847","lat":"36.976944","theaterChainName":"Independent Chains","ticketType":"STANDARD"},{"id":"549","tribuneTheaterId":"8762","providerTheaterId":"433","name":"AMC Saratoga 14","address":"700 El Paseo De Saratoga","city":"San Jose","state":"CA","zip":"95130","distance":15.876246774784,"lon":"-121.989949","lat":"37.288734","theaterChainName":"AMC Theatres","ticketType":"STANDARD"},{"id":"776","tribuneTheaterId":"6585","providerTheaterId":"","name":"CineLux Plaza Theatre","address":"2501 S. Winchester Blvd.","city":"Campbell","state":"CA","zip":"95008","distance":15.892194163987,"lon":"-121.950956","lat":"37.278577","theaterChainName":"Cinelux Theatres","ticketType":"STANDARD"},{"id":"4866","tribuneTheaterId":"10164","providerTheaterId":"","name":"Bluelight Cinemas 5","address":"21275 Stevens Creek Blvd.","city":"Cupertino","state":"CA","zip":"95014","distance":17.80711177782,"lon":"-122.049006","lat":"37.323724","theaterChainName":"Independent Chains","ticketType":"STANDARD"},{"id":"3652","tribuneTheaterId":"9205","providerTheaterId":"","name":"Century 20 Oakridge","address":"925 Blossom Hill Road","city":"San Jose","state":"CA","zip":"95123","distance":16.816020744648,"lon":"-121.8622","lat":"37.2504","theaterChainName":"Cinemark","ticketType":"STANDARD"},{"id":"3865","tribuneTheaterId":"6723","providerTheaterId":"","name":"CineArts at Santana Row","address":"3088 Olsen Drive","city":"San Jose","state":"CA","zip":"95128","distance":18.553052191347,"lon":"-121.948307","lat":"37.319044","theaterChainName":"Cinemark","ticketType":"STANDARD"},{"id":"775","tribuneTheaterId":"6120","providerTheaterId":"","name":"Cinelux Almaden Cinema","address":"2306 Almaden Road","city":"San Jose","state":"CA","zip":"95125","distance":18.485677035477,"lon":"-121.8805","lat":"37.2914","theaterChainName":"Cinelux Theatres","ticketType":"STANDARD"},{"id":"4335","tribuneTheaterId":"9311","providerTheaterId":"424","name":"AMC Cupertino Square 16","address":"10123 N. Wolfe Road","city":"Cupertino","state":"CA","zip":"95014","distance":18.127207617714,"lon":"-122.014849","lat":"37.325879","theaterChainName":"AMC Theatres","ticketType":"STANDARD"},{"id":"780","tribuneTheaterId":"6057","providerTheaterId":"","name":"Towne 3","address":"1433 The Alameda","city":"San Jose","state":"CA","zip":"95126","distance":20.152003614917,"lon":"-121.914467","lat":"37.333212","theaterChainName":"Independent Chains","ticketType":"STANDARD"},{"id":"779","tribuneTheaterId":"6520","providerTheaterId":"","name":"Camera 3","address":"288 S. Second St.","city":"San Jose","state":"CA","zip":"95113","distance":20.783774066962,"lon":"-121.886028","lat":"37.332438","theaterChainName":"Independent Chains","ticketType":"STANDARD"},{"id":"4133","tribuneTheaterId":"5275","providerTheaterId":"219","name":"AMC Eastridge 15","address":"2190 Eastrdige Loop","city":"San Jose","state":"CA","zip":"95122","distance":22.421649583159,"lon":"-121.814368","lat":"37.323999","theaterChainName":"AMC Theatres","ticketType":"STANDARD"},{"id":"506","tribuneTheaterId":"8822","providerTheaterId":"447","name":"AMC Mercado 20","address":"3111 Mission College Blvd.","city":"Santa Clara","state":"CA","zip":"95054","distance":22.720829374295,"lon":"-121.982971","lat":"37.388997","theaterChainName":"AMC Theatres","ticketType":"STANDARD"},{"id":"1426","tribuneTheaterId":"2987","providerTheaterId":"","name":"CineLux Tennant Station Stadium 11","address":"750 Tennant Station Way","city":"Morgan Hill","state":"CA","zip":"95037","distance":23.998588109405,"lon":"-121.6311","lat":"37.1173","theaterChainName":"Cinelux Theatres","ticketType":"STANDARD"},{"id":"3398","tribuneTheaterId":"7917","providerTheaterId":"","name":"CineArts at Palo Alto Square","address":"3000 El Camino Real, Bldg. #6","city":"Palo Alto","state":"CA","zip":"94306","distance":24.874844876738,"lon":"-122.141517","lat":"37.420581","theaterChainName":"Cinemark","ticketType":"STANDARD"},{"id":"261","tribuneTheaterId":"8431","providerTheaterId":"","name":"Century Cinemas 16","address":"1500 N. Shoreline Blvd.","city":"Mountain View","state":"CA","zip":"94043","distance":24.119630099297,"lon":"-122.080507","lat":"37.41497","theaterChainName":"Cinemark","ticketType":"STANDARD"}]