[{"id":"254","tribuneTheaterId":"9134","providerTheaterId":"","name":"Century 14 Northridge Mall","address":"350 Northridge Mall","city":"Salinas","state":"CA","zip":"93906","distance":6.4171714225175,"lon":"-121.660431","lat":"36.715671","theaterChainName":"Cinemark","ticketType":"STANDARD"},{"id":"4103","tribuneTheaterId":"3217","providerTheaterId":"","name":"Maya Salinas 14 Cinemas","address":"153 Main Street","city":"Salinas","state":"CA","zip":"93901","distance":8.4045554606938,"lon":"-121.655109","lat":"36.676387","theaterChainName":"Independent Chains","ticketType":"STANDARD"},{"id":"5751","tribuneTheaterId":"11193","providerTheaterId":"","name":"Century Marina","address":"100 Tenth Street","city":"Marina","state":"CA","zip":"93933","distance":7.6188176145798,"lon":"-121.812776","lat":"36.664651","theaterChainName":"Cinemark","ticketType":"STANDARD"},{"id":"2954","tribuneTheaterId":"3129","providerTheaterId":"","name":"New Osio Cinemas","address":"350 Alvarado St.","city":"Monterey","state":"CA","zip":"93940","distance":13.708330824488,"lon":"-121.894658","lat":"36.600412","theaterChainName":"Independent Chains","ticketType":"STANDARD"},{"id":"1927","tribuneTheaterId":"5466","providerTheaterId":"","name":"Lighthouse Cinema","address":"525 Lighthouse Ave.","city":"Pacific Grove","state":"CA","zip":"93950","distance":13.342607460891,"lon":"-121.916316","lat":"36.620279","theaterChainName":"SR Entertainment","ticketType":"STANDARD"},{"id":"3920","tribuneTheaterId":"4847","providerTheaterId":"","name":"Century Cinemas at Del Monte Center","address":"1700 Del Monte Center","city":"Monterey","state":"CA","zip":"93940","distance":14.650058262982,"lon":"-121.893789","lat":"36.583874","theaterChainName":"Cinemark","ticketType":"STANDARD"},{"id":"1423","tribuneTheaterId":"2706","providerTheaterId":"","name":"Aptos Twin","address":"122 Rancho Del Mar Center","city":"Aptos","state":"CA","zip":"95003","distance":16.748631351182,"lon":"-121.906847","lat":"36.976944","theaterChainName":"Independent Chains","ticketType":"STANDARD"},{"id":"2985","tribuneTheaterId":"3061","providerTheaterId":"","name":"Platinum 7 Theatre","address":"6851 Monterey Rd.","city":"Gilroy","state":"CA","zip":"95020","distance":19.252597285905,"lon":"-121.566205","lat":"36.998413","theaterChainName":"Independent Chains","ticketType":"STANDARD"},{"id":"1430","tribuneTheaterId":"2818","providerTheaterId":"","name":"Cinelux 41st Avenue Cinema","address":"1475 41st Avenue","city":"Capitola","state":"CA","zip":"95010","distance":18.395694901807,"lon":"-121.966369","lat":"36.973402","theaterChainName":"Cinelux Theatres","ticketType":"STANDARD"},{"id":"1812","tribuneTheaterId":"5649","providerTheaterId":"","name":"Santa Cruz Cinema 9","address":"1405 Pacific Avenue","city":"Santa Cruz","state":"CA","zip":"95060","distance":20.71507151953,"lon":"-122.026619","lat":"36.974866","theaterChainName":"Regal Cinemas","ticketType":"STANDARD"},{"id":"2395","tribuneTheaterId":"2897","providerTheaterId":"","name":"Nickelodeon 4 Theatres","address":"210 Lincoln Street","city":"Santa Cruz","state":"CA","zip":"95060","distance":20.636529275741,"lon":"-122.027528","lat":"36.972473","theaterChainName":"Independent Chains","ticketType":"STANDARD"},{"id":"2230","tribuneTheaterId":"5643","providerTheaterId":"","name":"Riverfront Twin","address":"155 S River St","city":"Santa Cruz","state":"CA","zip":"95060","distance":20.654887853756,"lon":"-122.02417","lat":"36.975623","theaterChainName":"Regal Cinemas","ticketType":"STANDARD"},{"id":"1425","tribuneTheaterId":"3185","providerTheaterId":"","name":"Premiere Cinemas 10","address":"581-A Mc Cray Street","city":"Hollister","state":"CA","zip":"95023","distance":20.830353069785,"lon":"-121.396372","lat":"36.84982","theaterChainName":"Independent Chains","ticketType":"STANDARD"},{"id":"2396","tribuneTheaterId":"6251","providerTheaterId":"","name":"Del Mar Theatre","address":"1124 Pacific Ave.","city":"Santa Cruz","state":"CA","zip":"95060","distance":20.548001766543,"lon":"-122.025281","lat":"36.972493","theaterChainName":"Landmark Theatres","ticketType":"STANDARD"},{"id":"1424","tribuneTheaterId":"2986","providerTheaterId":"","name":"CineLux Scotts Valley Cinema 10 Cafe and Lounge","address":"226 Mount Hermon Road","city":"Scotts Valley","state":"CA","zip":"95066","distance":24.540296677591,"lon":"-122.027594","lat":"37.048076","theaterChainName":"Cinelux Theatres","ticketType":"STANDARD"}]