[{"id":"1425","tribuneTheaterId":"3185","providerTheaterId":"","name":"Premiere Cinemas 10","address":"581-A Mc Cray Street","city":"Hollister","state":"CA","zip":"95023","distance":7.6465548437957,"lon":"-121.396372","lat":"36.84982","theaterChainName":"Independent Chains","ticketType":"STANDARD"},{"id":"254","tribuneTheaterId":"9134","providerTheaterId":"","name":"Century 14 Northridge Mall","address":"350 Northridge Mall","city":"Salinas","state":"CA","zip":"93906","distance":11.399536766822,"lon":"-121.660431","lat":"36.715671","theaterChainName":"Cinemark","ticketType":"STANDARD"},{"id":"2985","tribuneTheaterId":"3061","providerTheaterId":"","name":"Platinum 7 Theatre","address":"6851 Monterey Rd.","city":"Gilroy","state":"CA","zip":"95020","distance":10.6539915215,"lon":"-121.566205","lat":"36.998413","theaterChainName":"Independent Chains","ticketType":"STANDARD"},{"id":"4103","tribuneTheaterId":"3217","providerTheaterId":"","name":"Maya Salinas 14 Cinemas","address":"153 Main Street","city":"Salinas","state":"CA","zip":"93901","distance":13.502598465044,"lon":"-121.655109","lat":"36.676387","theaterChainName":"Independent Chains","ticketType":"STANDARD"},{"id":"1426","tribuneTheaterId":"2987","providerTheaterId":"","name":"CineLux Tennant Station Stadium 11","address":"750 Tennant Station Way","city":"Morgan Hill","state":"CA","zip":"95037","distance":19.467072046977,"lon":"-121.6311","lat":"37.1173","theaterChainName":"Cinelux Theatres","ticketType":"STANDARD"},{"id":"5751","tribuneTheaterId":"11193","providerTheaterId":"","name":"Century Marina","address":"100 Tenth Street","city":"Marina","state":"CA","zip":"93933","distance":19.865843032082,"lon":"-121.812776","lat":"36.664651","theaterChainName":"Cinemark","ticketType":"STANDARD"},{"id":"1423","tribuneTheaterId":"2706","providerTheaterId":"","name":"Aptos Twin","address":"122 Rancho Del Mar Center","city":"Aptos","state":"CA","zip":"95003","distance":22.458422443145,"lon":"-121.906847","lat":"36.976944","theaterChainName":"Independent Chains","ticketType":"STANDARD"}]