[{"id":"3691","tribuneTheaterId":"4653","providerTheaterId":"","name":"City Centre Stadium 16 & IMAX","address":"222 N. El Dorado St.","city":"Stockton","state":"CA","zip":"95202","distance":4.6663059646561,"lon":"-121.289752","lat":"37.954927","theaterChainName":"Regal Cinemas","ticketType":"STANDARD"},{"id":"1261","tribuneTheaterId":"5645","providerTheaterId":"","name":"Holiday Cinemas 8","address":"6262 West Ln.","city":"Stockton","state":"CA","zip":"95210","distance":6.2798785865422,"lon":"-121.293904","lat":"38.012116","theaterChainName":"Regal Cinemas","ticketType":"STANDARD"},{"id":"4580","tribuneTheaterId":"9726","providerTheaterId":"6555","name":"AMC Showplace Manteca 16","address":"SE Highway 120 ","city":"Manteca","state":"CA","zip":"95336","distance":12.103227455436,"lon":"-121.227157","lat":"37.780876","theaterChainName":"AMC Theatres","ticketType":"STANDARD"},{"id":"3350","tribuneTheaterId":"3198","providerTheaterId":"","name":"Lodi Stadium 12 Cinemas","address":"109 N. School Street","city":"Lodi","state":"CA","zip":"95240","distance":13.037116071983,"lon":"-121.273805","lat":"38.135627","theaterChainName":"SR Entertainment","ticketType":"STANDARD"},{"id":"1092","tribuneTheaterId":"7325","providerTheaterId":"","name":"Cinemark Movies 14 Tracy","address":"3300 N. Naglee Rd.","city":"Tracy","state":"CA","zip":"95376","distance":19.3290961982,"lon":"-121.458889","lat":"37.760691","theaterChainName":"Cinemark","ticketType":"STANDARD"},{"id":"3170","tribuneTheaterId":"4651","providerTheaterId":"","name":"Stadium 10 - Modesto","address":"3969 McHenry Ave.","city":"Modesto","state":"CA","zip":"95356","distance":21.221466667165,"lon":"-120.995503","lat":"37.695893","theaterChainName":"Regal Cinemas","ticketType":"STANDARD"},{"id":"3088","tribuneTheaterId":"5997","providerTheaterId":"","name":"Galaxy Riverbank 12","address":"2525 Patterson Road","city":"Riverbank","state":"CA","zip":"95367","distance":20.634147551725,"lon":"-120.951","lat":"37.7332","theaterChainName":"Galaxy Theatres","ticketType":"STANDARD"},{"id":"2477","tribuneTheaterId":"6082","providerTheaterId":"","name":"Brenden Theatres 18","address":"1021 10th Street","city":"Modesto","state":"CA","zip":"95354","distance":24.402337212078,"lon":"-121.001603","lat":"37.640246","theaterChainName":"Brenden Theatres","ticketType":"STANDARD"},{"id":"3160","tribuneTheaterId":"531","providerTheaterId":"","name":"The State Theatre","address":"1307 J Street","city":"Modesto","state":"CA","zip":"95354","distance":24.342859082185,"lon":"-120.997341","lat":"37.64295","theaterChainName":"Independent Chains","ticketType":"STANDARD"}]