[{"id":"3350","tribuneTheaterId":"3198","providerTheaterId":"","name":"Lodi Stadium 12 Cinemas","address":"109 N. School Street","city":"Lodi","state":"CA","zip":"95240","distance":3.7427686814175,"lon":"-121.273805","lat":"38.135627","theaterChainName":"SR Entertainment","ticketType":"STANDARD"},{"id":"1261","tribuneTheaterId":"5645","providerTheaterId":"","name":"Holiday Cinemas 8","address":"6262 West Ln.","city":"Stockton","state":"CA","zip":"95210","distance":9.951535040083,"lon":"-121.293904","lat":"38.012116","theaterChainName":"Regal Cinemas","ticketType":"STANDARD"},{"id":"3691","tribuneTheaterId":"4653","providerTheaterId":"","name":"City Centre Stadium 16 & IMAX","address":"222 N. El Dorado St.","city":"Stockton","state":"CA","zip":"95202","distance":13.463510510766,"lon":"-121.289752","lat":"37.954927","theaterChainName":"Regal Cinemas","ticketType":"STANDARD"},{"id":"251","tribuneTheaterId":"8221","providerTheaterId":"","name":"Century Laguna 16","address":"9349 Big Horn Blvd.","city":"Elk Grove","state":"CA","zip":"95758","distance":22.186473174496,"lon":"-121.404532","lat":"38.418315","theaterChainName":"Cinemark","ticketType":"STANDARD"},{"id":"15","tribuneTheaterId":"8736","providerTheaterId":"","name":"United Artists Laguna Village 12","address":"8755 Center Parkway","city":"Sacramento","state":"CA","zip":"95823","distance":23.894109600564,"lon":"-121.421403","lat":"38.439237","theaterChainName":"United Artists","ticketType":"STANDARD"},{"id":"4580","tribuneTheaterId":"9726","providerTheaterId":"6555","name":"AMC Showplace Manteca 16","address":"SE Highway 120 ","city":"Manteca","state":"CA","zip":"95336","distance":24.704381250457,"lon":"-121.227157","lat":"37.780876","theaterChainName":"AMC Theatres","ticketType":"STANDARD"}]