[{"id":"3195","tribuneTheaterId":"5135","providerTheaterId":"","name":"Regal Hollywood Merced 13","address":"403 W Main St","city":"Merced","state":"CA","zip":"95340","distance":7.4185496173494,"lon":"-120.481889","lat":"37.301113","theaterChainName":"Regal Cinemas","ticketType":"STANDARD"},{"id":"1691","tribuneTheaterId":"5707","providerTheaterId":"","name":"United Artists Regency Theatre","address":"635 Fairfield Drive","city":"Merced","state":"CA","zip":"95340","distance":7.0262961370245,"lon":"-120.47999","lat":"37.320501","theaterChainName":"United Artists","ticketType":"STANDARD"},{"id":"2077","tribuneTheaterId":"5652","providerTheaterId":"","name":"Turlock Stadium 14","address":"2323 W. Main St.","city":"Turlock","state":"CA","zip":"95380","distance":18.000069702227,"lon":"-120.875294","lat":"37.493938","theaterChainName":"Regal Cinemas","ticketType":"STANDARD"},{"id":"4520","tribuneTheaterId":"9629","providerTheaterId":"","name":"Premiere Cinemas","address":"245 North Mercey Springs Road","city":"Los Banos","state":"CA","zip":"93635","distance":23.416715531539,"lon":"-120.836145","lat":"37.065486","theaterChainName":"Independent Chains","ticketType":"STANDARD"}]