[{"id":"3160","tribuneTheaterId":"531","providerTheaterId":"","name":"The State Theatre","address":"1307 J Street","city":"Modesto","state":"CA","zip":"95354","distance":3.3423415377317,"lon":"-120.997341","lat":"37.64295","theaterChainName":"Independent Chains","ticketType":"STANDARD"},{"id":"2477","tribuneTheaterId":"6082","providerTheaterId":"","name":"Brenden Theatres 18","address":"1021 10th Street","city":"Modesto","state":"CA","zip":"95354","distance":3.6409287546013,"lon":"-121.001603","lat":"37.640246","theaterChainName":"Brenden Theatres","ticketType":"STANDARD"},{"id":"3170","tribuneTheaterId":"4651","providerTheaterId":"","name":"Stadium 10 - Modesto","address":"3969 McHenry Ave.","city":"Modesto","state":"CA","zip":"95356","distance":3.0796647435185,"lon":"-120.995503","lat":"37.695893","theaterChainName":"Regal Cinemas","ticketType":"STANDARD"},{"id":"3088","tribuneTheaterId":"5997","providerTheaterId":"","name":"Galaxy Riverbank 12","address":"2525 Patterson Road","city":"Riverbank","state":"CA","zip":"95367","distance":4.2519940974225,"lon":"-120.951","lat":"37.7332","theaterChainName":"Galaxy Theatres","ticketType":"STANDARD"},{"id":"2077","tribuneTheaterId":"5652","providerTheaterId":"","name":"Turlock Stadium 14","address":"2323 W. Main St.","city":"Turlock","state":"CA","zip":"95380","distance":12.914606214053,"lon":"-120.875294","lat":"37.493938","theaterChainName":"Regal Cinemas","ticketType":"STANDARD"},{"id":"4580","tribuneTheaterId":"9726","providerTheaterId":"6555","name":"AMC Showplace Manteca 16","address":"SE Highway 120 ","city":"Manteca","state":"CA","zip":"95336","distance":17.008872892918,"lon":"-121.227157","lat":"37.780876","theaterChainName":"AMC Theatres","ticketType":"STANDARD"}]