[{"id":"2077","tribuneTheaterId":"5652","providerTheaterId":"","name":"Turlock Stadium 14","address":"2323 W. Main St.","city":"Turlock","state":"CA","zip":"95380","distance":16.997142926177,"lon":"-120.875294","lat":"37.493938","theaterChainName":"Regal Cinemas","ticketType":"STANDARD"},{"id":"4520","tribuneTheaterId":"9629","providerTheaterId":"","name":"Premiere Cinemas","address":"245 North Mercey Springs Road","city":"Los Banos","state":"CA","zip":"93635","distance":21.578354154938,"lon":"-120.836145","lat":"37.065486","theaterChainName":"Independent Chains","ticketType":"STANDARD"},{"id":"3160","tribuneTheaterId":"531","providerTheaterId":"","name":"The State Theatre","address":"1307 J Street","city":"Modesto","state":"CA","zip":"95354","distance":23.472502958971,"lon":"-120.997341","lat":"37.64295","theaterChainName":"Independent Chains","ticketType":"STANDARD"},{"id":"2477","tribuneTheaterId":"6082","providerTheaterId":"","name":"Brenden Theatres 18","address":"1021 10th Street","city":"Modesto","state":"CA","zip":"95354","distance":23.244650895177,"lon":"-121.001603","lat":"37.640246","theaterChainName":"Brenden Theatres","ticketType":"STANDARD"}]