[{"id":"1092","tribuneTheaterId":"7325","providerTheaterId":"","name":"Cinemark Movies 14 Tracy","address":"3300 N. Naglee Rd.","city":"Tracy","state":"CA","zip":"95376","distance":7.4585718664365,"lon":"-121.458889","lat":"37.760691","theaterChainName":"Cinemark","ticketType":"STANDARD"},{"id":"1491","tribuneTheaterId":"2819","providerTheaterId":"","name":"Vine Cinema & Alehouse","address":"1722 First St.","city":"Livermore","state":"CA","zip":"94550","distance":15.350951943711,"lon":"-121.774644","lat":"37.679928","theaterChainName":"Independent Chains","ticketType":"STANDARD"},{"id":"4300","tribuneTheaterId":"2276","providerTheaterId":"","name":"Livermore Cinemas","address":"2490 First Street","city":"Livermore","state":"CA","zip":"94550","distance":14.951724476623,"lon":"-121.7668","lat":"37.6834","theaterChainName":"CinemaWest","ticketType":"STANDARD"},{"id":"4580","tribuneTheaterId":"9726","providerTheaterId":"6555","name":"AMC Showplace Manteca 16","address":"SE Highway 120 ","city":"Manteca","state":"CA","zip":"95336","distance":16.991366623588,"lon":"-121.227157","lat":"37.780876","theaterChainName":"AMC Theatres","ticketType":"STANDARD"},{"id":"1427","tribuneTheaterId":"2707","providerTheaterId":"","name":"CineLux Delta Cinema Saver","address":"641 1st St.","city":"Brentwood","state":"CA","zip":"94513","distance":21.901602441457,"lon":"-121.694463","lat":"37.931947","theaterChainName":"Cinelux Theatres","ticketType":"STANDARD"},{"id":"5289","tribuneTheaterId":"10723","providerTheaterId":"469","name":"AMC Brentwood 14","address":"2525 Sand Creek Rd.","city":"Brentwood","state":"CA","zip":"94513","distance":23.901215200803,"lon":"-121.7401","lat":"37.9436","theaterChainName":"AMC Theatres","ticketType":"STANDARD"},{"id":"3691","tribuneTheaterId":"4653","providerTheaterId":"","name":"City Centre Stadium 16 & IMAX","address":"222 N. El Dorado St.","city":"Stockton","state":"CA","zip":"95202","distance":23.467825306012,"lon":"-121.289752","lat":"37.954927","theaterChainName":"Regal Cinemas","ticketType":"STANDARD"}]