[{"id":"2077","tribuneTheaterId":"5652","providerTheaterId":"","name":"Turlock Stadium 14","address":"2323 W. Main St.","city":"Turlock","state":"CA","zip":"95380","distance":11.44463744321,"lon":"-120.875294","lat":"37.493938","theaterChainName":"Regal Cinemas","ticketType":"STANDARD"},{"id":"4520","tribuneTheaterId":"9629","providerTheaterId":"","name":"Premiere Cinemas","address":"245 North Mercey Springs Road","city":"Los Banos","state":"CA","zip":"93635","distance":18.293343885717,"lon":"-120.836145","lat":"37.065486","theaterChainName":"Independent Chains","ticketType":"STANDARD"},{"id":"1691","tribuneTheaterId":"5707","providerTheaterId":"","name":"United Artists Regency Theatre","address":"635 Fairfield Drive","city":"Merced","state":"CA","zip":"95340","distance":21.787021265212,"lon":"-120.47999","lat":"37.320501","theaterChainName":"United Artists","ticketType":"STANDARD"},{"id":"3195","tribuneTheaterId":"5135","providerTheaterId":"","name":"Regal Hollywood Merced 13","address":"403 W Main St","city":"Merced","state":"CA","zip":"95340","distance":21.760043323873,"lon":"-120.481889","lat":"37.301113","theaterChainName":"Regal Cinemas","ticketType":"STANDARD"},{"id":"2477","tribuneTheaterId":"6082","providerTheaterId":"","name":"Brenden Theatres 18","address":"1021 10th Street","city":"Modesto","state":"CA","zip":"95354","distance":22.620105437096,"lon":"-121.001603","lat":"37.640246","theaterChainName":"Brenden Theatres","ticketType":"STANDARD"},{"id":"3160","tribuneTheaterId":"531","providerTheaterId":"","name":"The State Theatre","address":"1307 J Street","city":"Modesto","state":"CA","zip":"95354","distance":22.728893010468,"lon":"-120.997341","lat":"37.64295","theaterChainName":"Independent Chains","ticketType":"STANDARD"}]