[{"id":"4239","tribuneTheaterId":"1896","providerTheaterId":"","name":"Raven Film Center","address":"415 Center St.","city":"Healdsburg","state":"CA","zip":"95448","distance":13.890474239256,"lon":"-122.9406381","lat":"38.6126521","theaterChainName":"SR Entertainment","ticketType":"STANDARD"},{"id":"2389","tribuneTheaterId":"399","providerTheaterId":"","name":"Rio Theatre - Monte Rio","address":"20396 Bohemian Highway","city":"Monte Rio","state":"CA","zip":"95462","distance":13.203798729579,"lon":"-123.01089","lat":"38.467556","theaterChainName":"Independent Chains","ticketType":"STANDARD"},{"id":"2958","tribuneTheaterId":"2909","providerTheaterId":"","name":"Clover Cinemas","address":"121 E. 1st Street","city":"Cloverdale","state":"CA","zip":"95425","distance":17.678388367471,"lon":"-123.016221","lat":"38.805505","theaterChainName":"Independent Chains","ticketType":"STANDARD"},{"id":"1422","tribuneTheaterId":"3184","providerTheaterId":"","name":"Airport Stadium 12","address":"409 Aviation Way","city":"Santa Rosa","state":"CA","zip":"95403","distance":23.125750790601,"lon":"-122.780671","lat":"38.512588","theaterChainName":"SR Entertainment","ticketType":"STANDARD"},{"id":"1417","tribuneTheaterId":"3120","providerTheaterId":"","name":"Rialto Cinemas Sebastopol","address":"6868 McKinley St.","city":"Sebastopol","state":"CA","zip":"95472","distance":24.032596100474,"lon":"-122.822491","lat":"38.403904","theaterChainName":"Independent Chains","ticketType":"STANDARD"}]