[{"id":"2958","tribuneTheaterId":"2909","providerTheaterId":"","name":"Clover Cinemas","address":"121 E. 1st Street","city":"Cloverdale","state":"CA","zip":"95425","distance":0.97991807104604,"lon":"-123.016221","lat":"38.805505","theaterChainName":"Independent Chains","ticketType":"STANDARD"},{"id":"4239","tribuneTheaterId":"1896","providerTheaterId":"","name":"Raven Film Center","address":"415 Center St.","city":"Healdsburg","state":"CA","zip":"95448","distance":12.977028995333,"lon":"-122.9406381","lat":"38.6126521","theaterChainName":"SR Entertainment","ticketType":"STANDARD"},{"id":"1781","tribuneTheaterId":"1823","providerTheaterId":"","name":"Lakeport Cinema 5","address":"52 Soda Bay Road","city":"Lakeport","state":"CA","zip":"95453","distance":16.234207806647,"lon":"-122.909095","lat":"39.015258","theaterChainName":"Independent Chains","ticketType":"STANDARD"},{"id":"5725","tribuneTheaterId":"11167","providerTheaterId":"","name":"Clearlake Stadium Cinema","address":"3380 Washington Street","city":"Clearlake","state":"CA","zip":"95422","distance":23.450832859202,"lon":"-122.630177","lat":"38.96328","theaterChainName":"Independent Chains","ticketType":"STANDARD"},{"id":"2389","tribuneTheaterId":"399","providerTheaterId":"","name":"Rio Theatre - Monte Rio","address":"20396 Bohemian Highway","city":"Monte Rio","state":"CA","zip":"95462","distance":22.493698923575,"lon":"-123.01089","lat":"38.467556","theaterChainName":"Independent Chains","ticketType":"STANDARD"},{"id":"1422","tribuneTheaterId":"3184","providerTheaterId":"","name":"Airport Stadium 12","address":"409 Aviation Way","city":"Santa Rosa","state":"CA","zip":"95403","distance":22.919616518928,"lon":"-122.780671","lat":"38.512588","theaterChainName":"SR Entertainment","ticketType":"STANDARD"}]