[{"id":"4239","tribuneTheaterId":"1896","providerTheaterId":"","name":"Raven Film Center","address":"415 Center St.","city":"Healdsburg","state":"CA","zip":"95448","distance":7.8622519657593,"lon":"-122.9406381","lat":"38.6126521","theaterChainName":"SR Entertainment","ticketType":"STANDARD"},{"id":"2958","tribuneTheaterId":"2909","providerTheaterId":"","name":"Clover Cinemas","address":"121 E. 1st Street","city":"Cloverdale","state":"CA","zip":"95425","distance":9.3993676920768,"lon":"-123.016221","lat":"38.805505","theaterChainName":"Independent Chains","ticketType":"STANDARD"},{"id":"1422","tribuneTheaterId":"3184","providerTheaterId":"","name":"Airport Stadium 12","address":"409 Aviation Way","city":"Santa Rosa","state":"CA","zip":"95403","distance":15.192665180957,"lon":"-122.780671","lat":"38.512588","theaterChainName":"SR Entertainment","ticketType":"STANDARD"},{"id":"2389","tribuneTheaterId":"399","providerTheaterId":"","name":"Rio Theatre - Monte Rio","address":"20396 Bohemian Highway","city":"Monte Rio","state":"CA","zip":"95462","distance":18.578449632724,"lon":"-123.01089","lat":"38.467556","theaterChainName":"Independent Chains","ticketType":"STANDARD"},{"id":"1781","tribuneTheaterId":"1823","providerTheaterId":"","name":"Lakeport Cinema 5","address":"52 Soda Bay Road","city":"Lakeport","state":"CA","zip":"95453","distance":20.633257609706,"lon":"-122.909095","lat":"39.015258","theaterChainName":"Independent Chains","ticketType":"STANDARD"},{"id":"1417","tribuneTheaterId":"3120","providerTheaterId":"","name":"Rialto Cinemas Sebastopol","address":"6868 McKinley St.","city":"Sebastopol","state":"CA","zip":"95472","distance":21.902188868597,"lon":"-122.822491","lat":"38.403904","theaterChainName":"Independent Chains","ticketType":"STANDARD"},{"id":"3368","tribuneTheaterId":"3019","providerTheaterId":"","name":"3rd Street Cinema","address":"620 3rd St.","city":"Santa Rosa","state":"CA","zip":"95404","distance":21.277848541566,"lon":"-122.712304","lat":"38.439905","theaterChainName":"SR Entertainment","ticketType":"STANDARD"},{"id":"3084","tribuneTheaterId":"3212","providerTheaterId":"","name":"Roxy Stadium 14","address":"85 Santa Rosa Ave","city":"Santa Rosa","state":"CA","zip":"95404","distance":21.345031673301,"lon":"-122.713037","lat":"38.438552","theaterChainName":"SR Entertainment","ticketType":"STANDARD"},{"id":"4973","tribuneTheaterId":"10333","providerTheaterId":"","name":"Summerfield Cinema","address":"551 Summerfield Road","city":"Santa Rosa","state":"CA","zip":"95403","distance":21.526397732633,"lon":"-122.67128","lat":"38.453531","theaterChainName":"SR Entertainment","ticketType":"STANDARD"},{"id":"5725","tribuneTheaterId":"11167","providerTheaterId":"","name":"Clearlake Stadium Cinema","address":"3380 Washington Street","city":"Clearlake","state":"CA","zip":"95422","distance":21.784393631283,"lon":"-122.630177","lat":"38.96328","theaterChainName":"Independent Chains","ticketType":"STANDARD"}]