[{"id":"1418","tribuneTheaterId":"2881","providerTheaterId":"","name":"Sonoma Cinemas","address":"200 Siesta Way","city":"Boyes Hot Springs","state":"CA","zip":"95416","distance":4.5701970328463,"lon":"-122.477212","lat":"38.309018","theaterChainName":"CinemaWest","ticketType":"STANDARD"},{"id":"1416","tribuneTheaterId":"2492","providerTheaterId":"","name":"Sebastiani Theatre","address":"476 First St. E.","city":"Sonoma","state":"CA","zip":"95476","distance":6.1460562196727,"lon":"-122.456526","lat":"38.292278","theaterChainName":"Independent Chains","ticketType":"STANDARD"},{"id":"2645","tribuneTheaterId":"446","providerTheaterId":"","name":"Cameo Cinema","address":"1340 Main St","city":"Saint Helena","state":"CA","zip":"94574","distance":9.9574378968422,"lon":"-122.469438","lat":"38.504856","theaterChainName":"Independent Chains","ticketType":"STANDARD"},{"id":"4973","tribuneTheaterId":"10333","providerTheaterId":"","name":"Summerfield Cinema","address":"551 Summerfield Road","city":"Santa Rosa","state":"CA","zip":"95403","distance":10.190515152139,"lon":"-122.67128","lat":"38.453531","theaterChainName":"SR Entertainment","ticketType":"STANDARD"},{"id":"3368","tribuneTheaterId":"3019","providerTheaterId":"","name":"3rd Street Cinema","address":"620 3rd St.","city":"Santa Rosa","state":"CA","zip":"95404","distance":11.61050916683,"lon":"-122.712304","lat":"38.439905","theaterChainName":"SR Entertainment","ticketType":"STANDARD"},{"id":"1600","tribuneTheaterId":"8746","providerTheaterId":"","name":"Rohnert Park 16","address":"555 Rohnert Park Expressway W.","city":"Rohnert Park","state":"CA","zip":"94928","distance":11.056159479005,"lon":"-122.722208","lat":"38.347132","theaterChainName":"Reading International, Inc","ticketType":"STANDARD"},{"id":"3084","tribuneTheaterId":"3212","providerTheaterId":"","name":"Roxy Stadium 14","address":"85 Santa Rosa Ave","city":"Santa Rosa","state":"CA","zip":"95404","distance":11.605705205323,"lon":"-122.713037","lat":"38.438552","theaterChainName":"SR Entertainment","ticketType":"STANDARD"},{"id":"1419","tribuneTheaterId":"2292","providerTheaterId":"","name":"Boulevard Cinemas 14","address":"200 C Street","city":"Petaluma","state":"CA","zip":"94954","distance":11.203000403012,"lon":"-122.637977","lat":"38.233309","theaterChainName":"CinemaWest","ticketType":"STANDARD"},{"id":"5226","tribuneTheaterId":"10650","providerTheaterId":"","name":"Century Napa Valley","address":"195 Gasser Dr.","city":"Napa","state":"CA","zip":"94559","distance":14.276945253722,"lon":"-122.278503","lat":"38.283001","theaterChainName":"Cinemark","ticketType":"STANDARD"},{"id":"1417","tribuneTheaterId":"3120","providerTheaterId":"","name":"Rialto Cinemas Sebastopol","address":"6868 McKinley St.","city":"Sebastopol","state":"CA","zip":"95472","distance":16.609878716672,"lon":"-122.822491","lat":"38.403904","theaterChainName":"Independent Chains","ticketType":"STANDARD"},{"id":"1422","tribuneTheaterId":"3184","providerTheaterId":"","name":"Airport Stadium 12","address":"409 Aviation Way","city":"Santa Rosa","state":"CA","zip":"95403","distance":17.375932884682,"lon":"-122.780671","lat":"38.512588","theaterChainName":"SR Entertainment","ticketType":"STANDARD"},{"id":"3437","tribuneTheaterId":"7030","providerTheaterId":"","name":"Century Rowland Plaza","address":"44 Rowland Way","city":"Novato","state":"CA","zip":"94945","distance":18.857524632935,"lon":"-122.556712","lat":"38.094833","theaterChainName":"Cinemark","ticketType":"STANDARD"},{"id":"3167","tribuneTheaterId":"9216","providerTheaterId":"","name":"Century 14 Vallejo","address":"109 Plaza Drive","city":"Vallejo","state":"CA","zip":"94591","distance":23.018796009593,"lon":"-122.218748","lat":"38.131317","theaterChainName":"Cinemark","ticketType":"STANDARD"},{"id":"3436","tribuneTheaterId":"7920","providerTheaterId":"","name":"Century Regency 6","address":"280 Smith Ranch Road","city":"San Rafael","state":"CA","zip":"94903","distance":24.017106151361,"lon":"-122.532105","lat":"38.018735","theaterChainName":"Cinemark","ticketType":"STANDARD"},{"id":"3438","tribuneTheaterId":"7921","providerTheaterId":"","name":"Century Northgate 15","address":"7000 Northgate Drive","city":"San Rafael","state":"CA","zip":"94903","distance":24.991952721103,"lon":"-122.544293","lat":"38.005008","theaterChainName":"Cinemark","ticketType":"STANDARD"}]