[{"id":"1781","tribuneTheaterId":"1823","providerTheaterId":"","name":"Lakeport Cinema 5","address":"52 Soda Bay Road","city":"Lakeport","state":"CA","zip":"95453","distance":10.172023645211,"lon":"-122.909095","lat":"39.015258","theaterChainName":"Independent Chains","ticketType":"STANDARD"},{"id":"2958","tribuneTheaterId":"2909","providerTheaterId":"","name":"Clover Cinemas","address":"121 E. 1st Street","city":"Cloverdale","state":"CA","zip":"95425","distance":9.6056129185612,"lon":"-123.016221","lat":"38.805505","theaterChainName":"Independent Chains","ticketType":"STANDARD"},{"id":"1814","tribuneTheaterId":"4649","providerTheaterId":"","name":"Regal Ukiah 6","address":"612 S. State St.","city":"Ukiah","state":"CA","zip":"95482","distance":16.091187454885,"lon":"-123.207228","lat":"39.14519","theaterChainName":"Regal Cinemas","ticketType":"STANDARD"},{"id":"4239","tribuneTheaterId":"1896","providerTheaterId":"","name":"Raven Film Center","address":"415 Center St.","city":"Healdsburg","state":"CA","zip":"95448","distance":23.539372958726,"lon":"-122.9406381","lat":"38.6126521","theaterChainName":"SR Entertainment","ticketType":"STANDARD"},{"id":"5725","tribuneTheaterId":"11167","providerTheaterId":"","name":"Clearlake Stadium Cinema","address":"3380 Washington Street","city":"Clearlake","state":"CA","zip":"95422","distance":23.713530149983,"lon":"-122.630177","lat":"38.96328","theaterChainName":"Independent Chains","ticketType":"STANDARD"}]