[{"id":"5725","tribuneTheaterId":"11167","providerTheaterId":"","name":"Clearlake Stadium Cinema","address":"3380 Washington Street","city":"Clearlake","state":"CA","zip":"95422","distance":12.036713391196,"lon":"-122.630177","lat":"38.96328","theaterChainName":"Independent Chains","ticketType":"STANDARD"},{"id":"2645","tribuneTheaterId":"446","providerTheaterId":"","name":"Cameo Cinema","address":"1340 Main St","city":"Saint Helena","state":"CA","zip":"94574","distance":20.996288017737,"lon":"-122.469438","lat":"38.504856","theaterChainName":"Independent Chains","ticketType":"STANDARD"},{"id":"1781","tribuneTheaterId":"1823","providerTheaterId":"","name":"Lakeport Cinema 5","address":"52 Soda Bay Road","city":"Lakeport","state":"CA","zip":"95453","distance":24.620328656057,"lon":"-122.909095","lat":"39.015258","theaterChainName":"Independent Chains","ticketType":"STANDARD"},{"id":"1422","tribuneTheaterId":"3184","providerTheaterId":"","name":"Airport Stadium 12","address":"409 Aviation Way","city":"Santa Rosa","state":"CA","zip":"95403","distance":23.914956639036,"lon":"-122.780671","lat":"38.512588","theaterChainName":"SR Entertainment","ticketType":"STANDARD"}]