[{"id":"1855","tribuneTheaterId":"5001","providerTheaterId":"","name":"Broadway Cinema 8","address":"1223 Broadway St.","city":"Eureka","state":"CA","zip":"95501","distance":2.6342398631082,"lon":"-124.174776","lat":"40.79548","theaterChainName":"Coming Attractions","ticketType":"STANDARD"},{"id":"2152","tribuneTheaterId":"4989","providerTheaterId":"","name":"Minor Theatre","address":"1001 H St.","city":"Arcata","state":"CA","zip":"95521","distance":8.5482746651819,"lon":"-124.08659","lat":"40.870009","theaterChainName":"Coming Attractions","ticketType":"STANDARD"},{"id":"5986","tribuneTheaterId":"11422","providerTheaterId":"","name":"Minor Theatre","address":"1001 H Street","city":"Arcata","state":"CA","zip":"95521","distance":8.5453124420225,"lon":"-124.086595","lat":"40.869963","theaterChainName":"Independent Chains","ticketType":"STANDARD"},{"id":"3481","tribuneTheaterId":"1967","providerTheaterId":"","name":"Fortuna Theatre","address":"1241 Main Street","city":"Fortuna","state":"CA","zip":"95540","distance":11.147974419058,"lon":"-124.153762","lat":"40.597908","theaterChainName":"CinemaWest","ticketType":"STANDARD"},{"id":"3690","tribuneTheaterId":"5002","providerTheaterId":"","name":"Mill Creek Cinema","address":"1575 Betty Ct.","city":"McKinleyville","state":"CA","zip":"95519","distance":12.392199793797,"lon":"-124.104277","lat":"40.933658","theaterChainName":"Coming Attractions","ticketType":"STANDARD"}]