[{"id":"1808","tribuneTheaterId":"5644","providerTheaterId":"","name":"Regal Jackson Cinemas","address":"201 Vukovich Way","city":"Jackson","state":"CA","zip":"95642","distance":6.1737225052876,"lon":"-120.765377","lat":"38.342305","theaterChainName":"Regal Cinemas","ticketType":"STANDARD"},{"id":"1811","tribuneTheaterId":"5648","providerTheaterId":"","name":"Regal Placerville Stadium 8","address":"337 Placerville Dr.","city":"Placerville","state":"CA","zip":"95667","distance":21.593902429163,"lon":"-120.834857","lat":"38.731795","theaterChainName":"Regal Cinemas","ticketType":"STANDARD"},{"id":"4001","tribuneTheaterId":"4652","providerTheaterId":"","name":"Regal El Dorado Hills Stadium 14 + IMAX","address":"2101 Vine Street","city":"El Dorado Hills","state":"CA","zip":"95762","distance":20.635620149779,"lon":"-121.062437","lat":"38.65204","theaterChainName":"Regal Cinemas","ticketType":"STANDARD"},{"id":"4863","tribuneTheaterId":"10161","providerTheaterId":"","name":"Palladio 16 Cinemas","address":"240 Palladio Parkway","city":"Folsom","state":"CA","zip":"95630","distance":22.542779017831,"lon":"-121.120188","lat":"38.648324","theaterChainName":"CinemaWest","ticketType":"STANDARD"}]