[{"id":"3350","tribuneTheaterId":"3198","providerTheaterId":"","name":"Lodi Stadium 12 Cinemas","address":"109 N. School Street","city":"Lodi","state":"CA","zip":"95240","distance":13.354155001514,"lon":"-121.273805","lat":"38.135627","theaterChainName":"SR Entertainment","ticketType":"STANDARD"},{"id":"251","tribuneTheaterId":"8221","providerTheaterId":"","name":"Century Laguna 16","address":"9349 Big Horn Blvd.","city":"Elk Grove","state":"CA","zip":"95758","distance":14.543853712846,"lon":"-121.404532","lat":"38.418315","theaterChainName":"Cinemark","ticketType":"STANDARD"},{"id":"15","tribuneTheaterId":"8736","providerTheaterId":"","name":"United Artists Laguna Village 12","address":"8755 Center Parkway","city":"Sacramento","state":"CA","zip":"95823","distance":16.08077541881,"lon":"-121.421403","lat":"38.439237","theaterChainName":"United Artists","ticketType":"STANDARD"},{"id":"1261","tribuneTheaterId":"5645","providerTheaterId":"","name":"Holiday Cinemas 8","address":"6262 West Ln.","city":"Stockton","state":"CA","zip":"95210","distance":21.731164827966,"lon":"-121.293904","lat":"38.012116","theaterChainName":"Regal Cinemas","ticketType":"STANDARD"},{"id":"1808","tribuneTheaterId":"5644","providerTheaterId":"","name":"Regal Jackson Cinemas","address":"201 Vukovich Way","city":"Jackson","state":"CA","zip":"95642","distance":22.18843258062,"lon":"-120.765377","lat":"38.342305","theaterChainName":"Regal Cinemas","ticketType":"STANDARD"},{"id":"4863","tribuneTheaterId":"10161","providerTheaterId":"","name":"Palladio 16 Cinemas","address":"240 Palladio Parkway","city":"Folsom","state":"CA","zip":"95630","distance":23.418841442333,"lon":"-121.120188","lat":"38.648324","theaterChainName":"CinemaWest","ticketType":"STANDARD"},{"id":"253","tribuneTheaterId":"8971","providerTheaterId":"","name":"Century Folsom","address":"261 Iron Point Road","city":"Folsom","state":"CA","zip":"95630","distance":22.796009504048,"lon":"-121.191071","lat":"38.641524","theaterChainName":"Cinemark","ticketType":"STANDARD"},{"id":"92","tribuneTheaterId":"7148","providerTheaterId":"","name":"United Artist Arden Fair 6","address":"1739 Arden Way","city":"Sacramento","state":"CA","zip":"95815","distance":24.042984187472,"lon":"-121.423827","lat":"38.599089","theaterChainName":"United Artists","ticketType":"STANDARD"},{"id":"6032","tribuneTheaterId":"11435","providerTheaterId":"","name":"Century Arden 14 and XD","address":"1590 Ethan Way","city":"Sacramento","state":"CA","zip":"95825","distance":23.645947723179,"lon":"-121.420069","lat":"38.594135","theaterChainName":"Cinemark","ticketType":"STANDARD"},{"id":"400","tribuneTheaterId":"6106","providerTheaterId":"","name":"Tower Theatre - Sacramento","address":"2508 Landpark Dr.","city":"Sacramento","state":"CA","zip":"95818","distance":24.459857036565,"lon":"-121.493329","lat":"38.561557","theaterChainName":"Reading International, Inc","ticketType":"STANDARD"},{"id":"4001","tribuneTheaterId":"4652","providerTheaterId":"","name":"Regal El Dorado Hills Stadium 14 + IMAX","address":"2101 Vine Street","city":"El Dorado Hills","state":"CA","zip":"95762","distance":24.248931058714,"lon":"-121.062437","lat":"38.65204","theaterChainName":"Regal Cinemas","ticketType":"STANDARD"}]