[{"id":"1811","tribuneTheaterId":"5648","providerTheaterId":"","name":"Regal Placerville Stadium 8","address":"337 Placerville Dr.","city":"Placerville","state":"CA","zip":"95667","distance":13.516328844339,"lon":"-120.834857","lat":"38.731795","theaterChainName":"Regal Cinemas","ticketType":"STANDARD"},{"id":"6120","tribuneTheaterId":"11535","providerTheaterId":"","name":"The Colfax Theatre","address":"49 S Main  St","city":"Colfax","state":"CA","zip":"95713","distance":16.290190479844,"lon":"-120.954006","lat":"39.099714","theaterChainName":"Independent Chains","ticketType":"STANDARD"},{"id":"3523","tribuneTheaterId":"5650","providerTheaterId":"","name":"Regal Auburn Stadium 10","address":"500 Nevada St.","city":"Auburn","state":"CA","zip":"95603","distance":17.154091282346,"lon":"-121.078928","lat":"38.913561","theaterChainName":"Regal Cinemas","ticketType":"STANDARD"},{"id":"1262","tribuneTheaterId":"2481","providerTheaterId":"","name":"The State Theatre","address":"985 Lincoln Way","city":"Auburn","state":"CA","zip":"95603","distance":16.819609124786,"lon":"-121.071667","lat":"38.898394","theaterChainName":"Independent Chains","ticketType":"STANDARD"},{"id":"1740","tribuneTheaterId":"274","providerTheaterId":"","name":"Acme Theatre","address":"312 E. Main St.","city":"Riverton","state":"WY","zip":"82501","distance":16.815498357213,"lon":"-121.071567","lat":"38.898181","theaterChainName":"Independent Chains","ticketType":"STANDARD"},{"id":"2520","tribuneTheaterId":"2543","providerTheaterId":"","name":"The Music Hall Historic Theatre","address":"28 Chestnut St.","city":"Portsmouth","state":"NH","zip":"03801","distance":16.815498357213,"lon":"-121.071567","lat":"38.898181","theaterChainName":"Independent Chains","ticketType":"STANDARD"},{"id":"4001","tribuneTheaterId":"4652","providerTheaterId":"","name":"Regal El Dorado Hills Stadium 14 + IMAX","address":"2101 Vine Street","city":"El Dorado Hills","state":"CA","zip":"95762","distance":24.585480815405,"lon":"-121.062437","lat":"38.65204","theaterChainName":"Regal Cinemas","ticketType":"STANDARD"}]