[{"id":"5597","tribuneTheaterId":"11051","providerTheaterId":"","name":"Studio Movie Grill Rocklin","address":"5140 Commons Drive","city":"Rocklin","state":"CA","zip":"95677","distance":7.6604266664739,"lon":"-121.206459","lat":"38.804881","theaterChainName":"Studio Movie Grill","ticketType":"SELECT_SEATING"},{"id":"4974","tribuneTheaterId":"10334","providerTheaterId":"","name":"Blue Oaks Century Theatres","address":"6692 Lonetree Blvd.","city":"Rocklin","state":"CA","zip":"95765","distance":6.6891931799849,"lon":"-121.293676","lat":"38.797412","theaterChainName":"Cinemark","ticketType":"STANDARD"},{"id":"861","tribuneTheaterId":"6818","providerTheaterId":"","name":"Century Roseville 14","address":"1555 Eureka Road","city":"Roseville","state":"CA","zip":"95661","distance":10.234254528588,"lon":"-121.247563","lat":"38.749959","theaterChainName":"Cinemark","ticketType":"STANDARD"},{"id":"346","tribuneTheaterId":"9103","providerTheaterId":"","name":"United Artists Olympus Pointe","address":"520 N. Sunrise Ave.","city":"Roseville","state":"CA","zip":"95661","distance":9.6621318147641,"lon":"-121.25627","lat":"38.75697","theaterChainName":"United Artists","ticketType":"STANDARD"},{"id":"1740","tribuneTheaterId":"274","providerTheaterId":"","name":"Acme Theatre","address":"312 E. Main St.","city":"Riverton","state":"WY","zip":"82501","distance":11.79230099266,"lon":"-121.071567","lat":"38.898181","theaterChainName":"Independent Chains","ticketType":"STANDARD"},{"id":"2520","tribuneTheaterId":"2543","providerTheaterId":"","name":"The Music Hall Historic Theatre","address":"28 Chestnut St.","city":"Portsmouth","state":"NH","zip":"03801","distance":11.79230099266,"lon":"-121.071567","lat":"38.898181","theaterChainName":"Independent Chains","ticketType":"STANDARD"},{"id":"3523","tribuneTheaterId":"5650","providerTheaterId":"","name":"Regal Auburn Stadium 10","address":"500 Nevada St.","city":"Auburn","state":"CA","zip":"95603","distance":11.470298604457,"lon":"-121.078928","lat":"38.913561","theaterChainName":"Regal Cinemas","ticketType":"STANDARD"},{"id":"1262","tribuneTheaterId":"2481","providerTheaterId":"","name":"The State Theatre","address":"985 Lincoln Way","city":"Auburn","state":"CA","zip":"95603","distance":11.787259982274,"lon":"-121.071667","lat":"38.898394","theaterChainName":"Independent Chains","ticketType":"STANDARD"},{"id":"93","tribuneTheaterId":"7274","providerTheaterId":"","name":"United Artists Sunrise Mall 4","address":"5926 Sunrise Mall","city":"Citrus Heights","state":"CA","zip":"95610","distance":15.316195296553,"lon":"-121.268656","lat":"38.673199","theaterChainName":"United Artists","ticketType":"STANDARD"},{"id":"3598","tribuneTheaterId":"4848","providerTheaterId":"","name":"Century 16 Greenback Lane","address":"6233 Garfield Ave.- At former site of Cinedome 9","city":"Sacramento","state":"CA","zip":"95841","distance":14.978284916044,"lon":"-121.335658","lat":"38.680255","theaterChainName":"Cinemark","ticketType":"STANDARD"},{"id":"253","tribuneTheaterId":"8971","providerTheaterId":"","name":"Century Folsom","address":"261 Iron Point Road","city":"Folsom","state":"CA","zip":"95630","distance":18.266181371484,"lon":"-121.191071","lat":"38.641524","theaterChainName":"Cinemark","ticketType":"STANDARD"},{"id":"4863","tribuneTheaterId":"10161","providerTheaterId":"","name":"Palladio 16 Cinemas","address":"240 Palladio Parkway","city":"Folsom","state":"CA","zip":"95630","distance":19.315096050061,"lon":"-121.120188","lat":"38.648324","theaterChainName":"CinemaWest","ticketType":"STANDARD"},{"id":"2581","tribuneTheaterId":"7422","providerTheaterId":"","name":"Regal Natomas Stadium 16","address":"3561 Truxel Road","city":"Sacramento","state":"CA","zip":"95834","distance":21.282796186321,"lon":"-121.503218","lat":"38.634489","theaterChainName":"Regal Cinemas","ticketType":"STANDARD"},{"id":"4001","tribuneTheaterId":"4652","providerTheaterId":"","name":"Regal El Dorado Hills Stadium 14 + IMAX","address":"2101 Vine Street","city":"El Dorado Hills","state":"CA","zip":"95762","distance":20.767017159221,"lon":"-121.062437","lat":"38.65204","theaterChainName":"Regal Cinemas","ticketType":"STANDARD"},{"id":"6032","tribuneTheaterId":"11435","providerTheaterId":"","name":"Century Arden 14 and XD","address":"1590 Ethan Way","city":"Sacramento","state":"CA","zip":"95825","distance":21.871521453886,"lon":"-121.420069","lat":"38.594135","theaterChainName":"Cinemark","ticketType":"STANDARD"},{"id":"92","tribuneTheaterId":"7148","providerTheaterId":"","name":"United Artist Arden Fair 6","address":"1739 Arden Way","city":"Sacramento","state":"CA","zip":"95815","distance":21.613574687911,"lon":"-121.423827","lat":"38.599089","theaterChainName":"United Artists","ticketType":"STANDARD"},{"id":"6120","tribuneTheaterId":"11535","providerTheaterId":"","name":"The Colfax Theatre","address":"49 S Main  St","city":"Colfax","state":"CA","zip":"95713","distance":22.993482166753,"lon":"-120.954006","lat":"39.099714","theaterChainName":"Independent Chains","ticketType":"STANDARD"},{"id":"4591","tribuneTheaterId":"9755","providerTheaterId":"","name":"Cinemark Yuba City","address":"1410 Whyler Rd.","city":"Yuba City","state":"CA","zip":"95993","distance":24.671826750946,"lon":"-121.636129","lat":"39.129801","theaterChainName":"Cinemark","ticketType":"STANDARD"},{"id":"809","tribuneTheaterId":"8810","providerTheaterId":"","name":"Crest Theatre","address":"1013 K. St.","city":"Sacramento","state":"CA","zip":"95814","distance":24.352508386058,"lon":"-121.493411","lat":"38.579161","theaterChainName":"Independent Chains","ticketType":"STANDARD"}]