[{"id":"1808","tribuneTheaterId":"5644","providerTheaterId":"","name":"Regal Jackson Cinemas","address":"201 Vukovich Way","city":"Jackson","state":"CA","zip":"95642","distance":12.091151322558,"lon":"-120.765377","lat":"38.342305","theaterChainName":"Regal Cinemas","ticketType":"STANDARD"},{"id":"4001","tribuneTheaterId":"4652","providerTheaterId":"","name":"Regal El Dorado Hills Stadium 14 + IMAX","address":"2101 Vine Street","city":"El Dorado Hills","state":"CA","zip":"95762","distance":14.764628768875,"lon":"-121.062437","lat":"38.65204","theaterChainName":"Regal Cinemas","ticketType":"STANDARD"},{"id":"1811","tribuneTheaterId":"5648","providerTheaterId":"","name":"Regal Placerville Stadium 8","address":"337 Placerville Dr.","city":"Placerville","state":"CA","zip":"95667","distance":16.789084247119,"lon":"-120.834857","lat":"38.731795","theaterChainName":"Regal Cinemas","ticketType":"STANDARD"},{"id":"4863","tribuneTheaterId":"10161","providerTheaterId":"","name":"Palladio 16 Cinemas","address":"240 Palladio Parkway","city":"Folsom","state":"CA","zip":"95630","distance":16.821322136754,"lon":"-121.120188","lat":"38.648324","theaterChainName":"CinemaWest","ticketType":"STANDARD"},{"id":"253","tribuneTheaterId":"8971","providerTheaterId":"","name":"Century Folsom","address":"261 Iron Point Road","city":"Folsom","state":"CA","zip":"95630","distance":19.653777215856,"lon":"-121.191071","lat":"38.641524","theaterChainName":"Cinemark","ticketType":"STANDARD"},{"id":"93","tribuneTheaterId":"7274","providerTheaterId":"","name":"United Artists Sunrise Mall 4","address":"5926 Sunrise Mall","city":"Citrus Heights","state":"CA","zip":"95610","distance":24.367747390177,"lon":"-121.268656","lat":"38.673199","theaterChainName":"United Artists","ticketType":"STANDARD"}]