[{"id":"4591","tribuneTheaterId":"9755","providerTheaterId":"","name":"Cinemark Yuba City","address":"1410 Whyler Rd.","city":"Yuba City","state":"CA","zip":"95993","distance":14.11247691209,"lon":"-121.636129","lat":"39.129801","theaterChainName":"Cinemark","ticketType":"STANDARD"},{"id":"4974","tribuneTheaterId":"10334","providerTheaterId":"","name":"Blue Oaks Century Theatres","address":"6692 Lonetree Blvd.","city":"Rocklin","state":"CA","zip":"95765","distance":15.324368193272,"lon":"-121.293676","lat":"38.797412","theaterChainName":"Cinemark","ticketType":"STANDARD"},{"id":"5597","tribuneTheaterId":"11051","providerTheaterId":"","name":"Studio Movie Grill Rocklin","address":"5140 Commons Drive","city":"Rocklin","state":"CA","zip":"95677","distance":18.375222662894,"lon":"-121.206459","lat":"38.804881","theaterChainName":"Studio Movie Grill","ticketType":"SELECT_SEATING"},{"id":"346","tribuneTheaterId":"9103","providerTheaterId":"","name":"United Artists Olympus Pointe","address":"520 N. Sunrise Ave.","city":"Roseville","state":"CA","zip":"95661","distance":18.761516990724,"lon":"-121.25627","lat":"38.75697","theaterChainName":"United Artists","ticketType":"STANDARD"},{"id":"861","tribuneTheaterId":"6818","providerTheaterId":"","name":"Century Roseville 14","address":"1555 Eureka Road","city":"Roseville","state":"CA","zip":"95661","distance":19.433571188933,"lon":"-121.247563","lat":"38.749959","theaterChainName":"Cinemark","ticketType":"STANDARD"},{"id":"3523","tribuneTheaterId":"5650","providerTheaterId":"","name":"Regal Auburn Stadium 10","address":"500 Nevada St.","city":"Auburn","state":"CA","zip":"95603","distance":21.724901190267,"lon":"-121.078928","lat":"38.913561","theaterChainName":"Regal Cinemas","ticketType":"STANDARD"},{"id":"3598","tribuneTheaterId":"4848","providerTheaterId":"","name":"Century 16 Greenback Lane","address":"6233 Garfield Ave.- At former site of Cinedome 9","city":"Sacramento","state":"CA","zip":"95841","distance":21.228609346346,"lon":"-121.335658","lat":"38.680255","theaterChainName":"Cinemark","ticketType":"STANDARD"},{"id":"1262","tribuneTheaterId":"2481","providerTheaterId":"","name":"The State Theatre","address":"985 Lincoln Way","city":"Auburn","state":"CA","zip":"95603","distance":22.310756506459,"lon":"-121.071667","lat":"38.898394","theaterChainName":"Independent Chains","ticketType":"STANDARD"},{"id":"2520","tribuneTheaterId":"2543","providerTheaterId":"","name":"The Music Hall Historic Theatre","address":"28 Chestnut St.","city":"Portsmouth","state":"NH","zip":"03801","distance":22.319171136612,"lon":"-121.071567","lat":"38.898181","theaterChainName":"Independent Chains","ticketType":"STANDARD"},{"id":"93","tribuneTheaterId":"7274","providerTheaterId":"","name":"United Artists Sunrise Mall 4","address":"5926 Sunrise Mall","city":"Citrus Heights","state":"CA","zip":"95610","distance":23.199721602742,"lon":"-121.268656","lat":"38.673199","theaterChainName":"United Artists","ticketType":"STANDARD"},{"id":"1740","tribuneTheaterId":"274","providerTheaterId":"","name":"Acme Theatre","address":"312 E. Main St.","city":"Riverton","state":"WY","zip":"82501","distance":22.319171136612,"lon":"-121.071567","lat":"38.898181","theaterChainName":"Independent Chains","ticketType":"STANDARD"},{"id":"2581","tribuneTheaterId":"7422","providerTheaterId":"","name":"Regal Natomas Stadium 16","address":"3561 Truxel Road","city":"Sacramento","state":"CA","zip":"95834","distance":23.016632065773,"lon":"-121.503218","lat":"38.634489","theaterChainName":"Regal Cinemas","ticketType":"STANDARD"}]