[{"id":"851","tribuneTheaterId":"6632","providerTheaterId":"","name":"Regal Davis Stadium 5","address":"420 G St.","city":"Davis","state":"CA","zip":"95616","distance":12.361218176665,"lon":"-121.73962","lat":"38.546655","theaterChainName":"Regal Cinemas","ticketType":"STANDARD"},{"id":"4186","tribuneTheaterId":"1057","providerTheaterId":"","name":"Varsity Theatre - Davis","address":"616 2nd St.","city":"Davis","state":"CA","zip":"95616","distance":12.280868316959,"lon":"-121.7408","lat":"38.5432","theaterChainName":"Independent Chains","ticketType":"STANDARD"},{"id":"850","tribuneTheaterId":"6633","providerTheaterId":"","name":"Regal Davis Holiday 6","address":"101 F St.","city":"Davis","state":"CA","zip":"95616","distance":12.318486267897,"lon":"-121.740028","lat":"38.542189","theaterChainName":"Regal Cinemas","ticketType":"STANDARD"},{"id":"1734","tribuneTheaterId":"3226","providerTheaterId":"","name":"Brenden Vacaville 16","address":"531 Davis Street","city":"Vacaville","state":"CA","zip":"95688","distance":12.404944528919,"lon":"-121.984883","lat":"38.353172","theaterChainName":"Brenden Theatres","ticketType":"STANDARD"},{"id":"6140","tribuneTheaterId":"11560","providerTheaterId":"","name":"State Theatre and Multiplex","address":"322 Main Street","city":"Woodland","state":"CA","zip":"95695","distance":14.346478417104,"lon":"-121.777315","lat":"38.67712","theaterChainName":"CinemaWest","ticketType":"STANDARD"},{"id":"1313","tribuneTheaterId":"4169","providerTheaterId":"","name":"Cinemark Movies 5 Woodland","address":"1579 A East Street","city":"Woodland","state":"CA","zip":"95776","distance":14.033914566827,"lon":"-121.765226","lat":"38.659631","theaterChainName":"Cinemark","ticketType":"STANDARD"},{"id":"2487","tribuneTheaterId":"4854","providerTheaterId":"","name":"Edwards Fairfield Stadium 16 + IMAX","address":"1549 Gateway Blvd.","city":"Fairfield","state":"CA","zip":"94533","distance":19.378853309427,"lon":"-122.056872","lat":"38.260593","theaterChainName":"Edwards Theatres","ticketType":"STANDARD"},{"id":"5226","tribuneTheaterId":"10650","providerTheaterId":"","name":"Century Napa Valley","address":"195 Gasser Dr.","city":"Napa","state":"CA","zip":"94559","distance":24.079183914371,"lon":"-122.278503","lat":"38.283001","theaterChainName":"Cinemark","ticketType":"STANDARD"}]