[{"id":"6140","tribuneTheaterId":"11560","providerTheaterId":"","name":"State Theatre and Multiplex","address":"322 Main Street","city":"Woodland","state":"CA","zip":"95695","distance":4.2546080040536,"lon":"-121.777315","lat":"38.67712","theaterChainName":"CinemaWest","ticketType":"STANDARD"},{"id":"1313","tribuneTheaterId":"4169","providerTheaterId":"","name":"Cinemark Movies 5 Woodland","address":"1579 A East Street","city":"Woodland","state":"CA","zip":"95776","distance":5.6208840064558,"lon":"-121.765226","lat":"38.659631","theaterChainName":"Cinemark","ticketType":"STANDARD"},{"id":"851","tribuneTheaterId":"6632","providerTheaterId":"","name":"Regal Davis Stadium 5","address":"420 G St.","city":"Davis","state":"CA","zip":"95616","distance":13.459488270818,"lon":"-121.73962","lat":"38.546655","theaterChainName":"Regal Cinemas","ticketType":"STANDARD"},{"id":"4186","tribuneTheaterId":"1057","providerTheaterId":"","name":"Varsity Theatre - Davis","address":"616 2nd St.","city":"Davis","state":"CA","zip":"95616","distance":13.67293083813,"lon":"-121.7408","lat":"38.5432","theaterChainName":"Independent Chains","ticketType":"STANDARD"},{"id":"850","tribuneTheaterId":"6633","providerTheaterId":"","name":"Regal Davis Holiday 6","address":"101 F St.","city":"Davis","state":"CA","zip":"95616","distance":13.751232339162,"lon":"-121.740028","lat":"38.542189","theaterChainName":"Regal Cinemas","ticketType":"STANDARD"},{"id":"2581","tribuneTheaterId":"7422","providerTheaterId":"","name":"Regal Natomas Stadium 16","address":"3561 Truxel Road","city":"Sacramento","state":"CA","zip":"95834","distance":17.756568441591,"lon":"-121.503218","lat":"38.634489","theaterChainName":"Regal Cinemas","ticketType":"STANDARD"},{"id":"809","tribuneTheaterId":"8810","providerTheaterId":"","name":"Crest Theatre","address":"1013 K. St.","city":"Sacramento","state":"CA","zip":"95814","distance":20.011124416614,"lon":"-121.493411","lat":"38.579161","theaterChainName":"Independent Chains","ticketType":"STANDARD"},{"id":"400","tribuneTheaterId":"6106","providerTheaterId":"","name":"Tower Theatre - Sacramento","address":"2508 Landpark Dr.","city":"Sacramento","state":"CA","zip":"95818","distance":20.69347152444,"lon":"-121.493329","lat":"38.561557","theaterChainName":"Reading International, Inc","ticketType":"STANDARD"},{"id":"6032","tribuneTheaterId":"11435","providerTheaterId":"","name":"Century Arden 14 and XD","address":"1590 Ethan Way","city":"Sacramento","state":"CA","zip":"95825","distance":22.992201130887,"lon":"-121.420069","lat":"38.594135","theaterChainName":"Cinemark","ticketType":"STANDARD"},{"id":"92","tribuneTheaterId":"7148","providerTheaterId":"","name":"United Artist Arden Fair 6","address":"1739 Arden Way","city":"Sacramento","state":"CA","zip":"95815","distance":22.664615083552,"lon":"-121.423827","lat":"38.599089","theaterChainName":"United Artists","ticketType":"STANDARD"}]