[{"id":"6140","tribuneTheaterId":"11560","providerTheaterId":"","name":"State Theatre and Multiplex","address":"322 Main Street","city":"Woodland","state":"CA","zip":"95695","distance":12.505047282131,"lon":"-121.777315","lat":"38.67712","theaterChainName":"CinemaWest","ticketType":"STANDARD"},{"id":"1313","tribuneTheaterId":"4169","providerTheaterId":"","name":"Cinemark Movies 5 Woodland","address":"1579 A East Street","city":"Woodland","state":"CA","zip":"95776","distance":13.862054724375,"lon":"-121.765226","lat":"38.659631","theaterChainName":"Cinemark","ticketType":"STANDARD"},{"id":"851","tribuneTheaterId":"6632","providerTheaterId":"","name":"Regal Davis Stadium 5","address":"420 G St.","city":"Davis","state":"CA","zip":"95616","distance":21.247208911216,"lon":"-121.73962","lat":"38.546655","theaterChainName":"Regal Cinemas","ticketType":"STANDARD"},{"id":"4186","tribuneTheaterId":"1057","providerTheaterId":"","name":"Varsity Theatre - Davis","address":"616 2nd St.","city":"Davis","state":"CA","zip":"95616","distance":21.431458039077,"lon":"-121.7408","lat":"38.5432","theaterChainName":"Independent Chains","ticketType":"STANDARD"},{"id":"850","tribuneTheaterId":"6633","providerTheaterId":"","name":"Regal Davis Holiday 6","address":"101 F St.","city":"Davis","state":"CA","zip":"95616","distance":21.512599483382,"lon":"-121.740028","lat":"38.542189","theaterChainName":"Regal Cinemas","ticketType":"STANDARD"}]