[{"id":"6120","tribuneTheaterId":"11535","providerTheaterId":"","name":"The Colfax Theatre","address":"49 S Main  St","city":"Colfax","state":"CA","zip":"95713","distance":4.3975398252698,"lon":"-120.954006","lat":"39.099714","theaterChainName":"Independent Chains","ticketType":"STANDARD"},{"id":"2520","tribuneTheaterId":"2543","providerTheaterId":"","name":"The Music Hall Historic Theatre","address":"28 Chestnut St.","city":"Portsmouth","state":"NH","zip":"03801","distance":11.030534471141,"lon":"-121.071567","lat":"38.898181","theaterChainName":"Independent Chains","ticketType":"STANDARD"},{"id":"1262","tribuneTheaterId":"2481","providerTheaterId":"","name":"The State Theatre","address":"985 Lincoln Way","city":"Auburn","state":"CA","zip":"95603","distance":11.020317149269,"lon":"-121.071667","lat":"38.898394","theaterChainName":"Independent Chains","ticketType":"STANDARD"},{"id":"1740","tribuneTheaterId":"274","providerTheaterId":"","name":"Acme Theatre","address":"312 E. Main St.","city":"Riverton","state":"WY","zip":"82501","distance":11.030534471141,"lon":"-121.071567","lat":"38.898181","theaterChainName":"Independent Chains","ticketType":"STANDARD"},{"id":"3523","tribuneTheaterId":"5650","providerTheaterId":"","name":"Regal Auburn Stadium 10","address":"500 Nevada St.","city":"Auburn","state":"CA","zip":"95603","distance":10.332117613853,"lon":"-121.078928","lat":"38.913561","theaterChainName":"Regal Cinemas","ticketType":"STANDARD"},{"id":"2337","tribuneTheaterId":"2893","providerTheaterId":"","name":"Sierra Cinemas","address":"840 E. Main Street","city":"Grass Valley","state":"CA","zip":"95945","distance":13.810595119818,"lon":"-121.0525","lat":"39.2272","theaterChainName":"Independent Chains","ticketType":"STANDARD"},{"id":"1685","tribuneTheaterId":"1472","providerTheaterId":"","name":"Del Oro 3","address":"165 Mill Street","city":"Grass Valley","state":"CA","zip":"95945","distance":13.365591039907,"lon":"-121.063131","lat":"39.217348","theaterChainName":"Independent Chains","ticketType":"STANDARD"},{"id":"3187","tribuneTheaterId":"1251","providerTheaterId":"","name":"Sutton Cinemas","address":"399 Sutton Way","city":"Grass Valley","state":"CA","zip":"95945","distance":13.872032184315,"lon":"-121.03568","lat":"39.231963","theaterChainName":"Independent Chains","ticketType":"STANDARD"},{"id":"2390","tribuneTheaterId":"400","providerTheaterId":"","name":"Magic Theatre Nevada City","address":"107 Argall Way","city":"Nevada City","state":"CA","zip":"95959","distance":15.122037344152,"lon":"-121.024101","lat":"39.252499","theaterChainName":"Independent Chains","ticketType":"STANDARD"},{"id":"2448","tribuneTheaterId":"422","providerTheaterId":"","name":"Nevada Theatre","address":"401 Broad Street","city":"Nevada City","state":"CA","zip":"95959","distance":15.78631321855,"lon":"-121.020002","lat":"39.262835","theaterChainName":"Independent Chains","ticketType":"STANDARD"},{"id":"5597","tribuneTheaterId":"11051","providerTheaterId":"","name":"Studio Movie Grill Rocklin","address":"5140 Commons Drive","city":"Rocklin","state":"CA","zip":"95677","distance":20.447933295993,"lon":"-121.206459","lat":"38.804881","theaterChainName":"Studio Movie Grill","ticketType":"SELECT_SEATING"},{"id":"1811","tribuneTheaterId":"5648","providerTheaterId":"","name":"Regal Placerville Stadium 8","address":"337 Placerville Dr.","city":"Placerville","state":"CA","zip":"95667","distance":22.360600986759,"lon":"-120.834857","lat":"38.731795","theaterChainName":"Regal Cinemas","ticketType":"STANDARD"},{"id":"346","tribuneTheaterId":"9103","providerTheaterId":"","name":"United Artists Olympus Pointe","address":"520 N. Sunrise Ave.","city":"Roseville","state":"CA","zip":"95661","distance":24.70847929132,"lon":"-121.25627","lat":"38.75697","theaterChainName":"United Artists","ticketType":"STANDARD"},{"id":"861","tribuneTheaterId":"6818","providerTheaterId":"","name":"Century Roseville 14","address":"1555 Eureka Road","city":"Roseville","state":"CA","zip":"95661","distance":24.807534178039,"lon":"-121.247563","lat":"38.749959","theaterChainName":"Cinemark","ticketType":"STANDARD"},{"id":"4974","tribuneTheaterId":"10334","providerTheaterId":"","name":"Blue Oaks Century Theatres","address":"6692 Lonetree Blvd.","city":"Rocklin","state":"CA","zip":"95765","distance":23.98992740798,"lon":"-121.293676","lat":"38.797412","theaterChainName":"Cinemark","ticketType":"STANDARD"}]