[{"id":"4591","tribuneTheaterId":"9755","providerTheaterId":"","name":"Cinemark Yuba City","address":"1410 Whyler Rd.","city":"Yuba City","state":"CA","zip":"95993","distance":7.1884544702743,"lon":"-121.636129","lat":"39.129801","theaterChainName":"Cinemark","ticketType":"STANDARD"},{"id":"1810","tribuneTheaterId":"1922","providerTheaterId":"","name":"Feather River Cinema","address":"2690 Feather River Blvd","city":"Oroville","state":"CA","zip":"95965","distance":22.685586787695,"lon":"-121.574356","lat":"39.490896","theaterChainName":"Independent Chains","ticketType":"STANDARD"},{"id":"2337","tribuneTheaterId":"2893","providerTheaterId":"","name":"Sierra Cinemas","address":"840 E. Main Street","city":"Grass Valley","state":"CA","zip":"95945","distance":24.882379218284,"lon":"-121.0525","lat":"39.2272","theaterChainName":"Independent Chains","ticketType":"STANDARD"},{"id":"1685","tribuneTheaterId":"1472","providerTheaterId":"","name":"Del Oro 3","address":"165 Mill Street","city":"Grass Valley","state":"CA","zip":"95945","distance":24.21470254004,"lon":"-121.063131","lat":"39.217348","theaterChainName":"Independent Chains","ticketType":"STANDARD"}]