[{"id":"2448","tribuneTheaterId":"422","providerTheaterId":"","name":"Nevada Theatre","address":"401 Broad Street","city":"Nevada City","state":"CA","zip":"95959","distance":20.466580332058,"lon":"-121.020002","lat":"39.262835","theaterChainName":"Independent Chains","ticketType":"STANDARD"},{"id":"2390","tribuneTheaterId":"400","providerTheaterId":"","name":"Magic Theatre Nevada City","address":"107 Argall Way","city":"Nevada City","state":"CA","zip":"95959","distance":21.212216473924,"lon":"-121.024101","lat":"39.252499","theaterChainName":"Independent Chains","ticketType":"STANDARD"},{"id":"3187","tribuneTheaterId":"1251","providerTheaterId":"","name":"Sutton Cinemas","address":"399 Sutton Way","city":"Grass Valley","state":"CA","zip":"95945","distance":22.758458519238,"lon":"-121.03568","lat":"39.231963","theaterChainName":"Independent Chains","ticketType":"STANDARD"},{"id":"2337","tribuneTheaterId":"2893","providerTheaterId":"","name":"Sierra Cinemas","address":"840 E. Main Street","city":"Grass Valley","state":"CA","zip":"95945","distance":23.396243222851,"lon":"-121.0525","lat":"39.2272","theaterChainName":"Independent Chains","ticketType":"STANDARD"},{"id":"1685","tribuneTheaterId":"1472","providerTheaterId":"","name":"Del Oro 3","address":"165 Mill Street","city":"Grass Valley","state":"CA","zip":"95945","distance":24.244375776349,"lon":"-121.063131","lat":"39.217348","theaterChainName":"Independent Chains","ticketType":"STANDARD"}]