[{"id":"1810","tribuneTheaterId":"1922","providerTheaterId":"","name":"Feather River Cinema","address":"2690 Feather River Blvd","city":"Oroville","state":"CA","zip":"95965","distance":14.036296613481,"lon":"-121.574356","lat":"39.490896","theaterChainName":"Independent Chains","ticketType":"STANDARD"},{"id":"2448","tribuneTheaterId":"422","providerTheaterId":"","name":"Nevada Theatre","address":"401 Broad Street","city":"Nevada City","state":"CA","zip":"95959","distance":19.8094474379,"lon":"-121.020002","lat":"39.262835","theaterChainName":"Independent Chains","ticketType":"STANDARD"},{"id":"2390","tribuneTheaterId":"400","providerTheaterId":"","name":"Magic Theatre Nevada City","address":"107 Argall Way","city":"Nevada City","state":"CA","zip":"95959","distance":20.048178088837,"lon":"-121.024101","lat":"39.252499","theaterChainName":"Independent Chains","ticketType":"STANDARD"},{"id":"3187","tribuneTheaterId":"1251","providerTheaterId":"","name":"Sutton Cinemas","address":"399 Sutton Way","city":"Grass Valley","state":"CA","zip":"95945","distance":20.455437982687,"lon":"-121.03568","lat":"39.231963","theaterChainName":"Independent Chains","ticketType":"STANDARD"},{"id":"2337","tribuneTheaterId":"2893","providerTheaterId":"","name":"Sierra Cinemas","address":"840 E. Main Street","city":"Grass Valley","state":"CA","zip":"95945","distance":20.008550570262,"lon":"-121.0525","lat":"39.2272","theaterChainName":"Independent Chains","ticketType":"STANDARD"},{"id":"1685","tribuneTheaterId":"1472","providerTheaterId":"","name":"Del Oro 3","address":"165 Mill Street","city":"Grass Valley","state":"CA","zip":"95945","distance":20.081222278018,"lon":"-121.063131","lat":"39.217348","theaterChainName":"Independent Chains","ticketType":"STANDARD"}]