[{"id":"1810","tribuneTheaterId":"1922","providerTheaterId":"","name":"Feather River Cinema","address":"2690 Feather River Blvd","city":"Oroville","state":"CA","zip":"95965","distance":9.2650031571533,"lon":"-121.574356","lat":"39.490896","theaterChainName":"Independent Chains","ticketType":"STANDARD"},{"id":"2683","tribuneTheaterId":"5214","providerTheaterId":"","name":"Cinemark 14 Chico","address":"801 East Ave #2","city":"Chico","state":"CA","zip":"95926","distance":18.987944422024,"lon":"-121.846577","lat":"39.76002","theaterChainName":"Cinemark","ticketType":"STANDARD"},{"id":"3074","tribuneTheaterId":"2043","providerTheaterId":"","name":"Paradise Cinema 7","address":"6701 Clark Rd.","city":"Paradise","state":"CA","zip":"95969","distance":21.264325781205,"lon":"-121.590839","lat":"39.778866","theaterChainName":"Independent Chains","ticketType":"STANDARD"},{"id":"2502","tribuneTheaterId":"6829","providerTheaterId":"","name":"Colusa Theatre","address":"513 Market St.","city":"Colusa","state":"CA","zip":"95932","distance":23.947329827849,"lon":"-122.008492","lat":"39.213841","theaterChainName":"Independent Chains","ticketType":"STANDARD"}]