[{"id":"192","tribuneTheaterId":"4863","providerTheaterId":"","name":"Mililani","address":"95-1249 Meheula Pky","city":"Mililani","state":"HI","zip":"96789","distance":12.883485857723,"lon":"-158.006616","lat":"21.454085","theaterChainName":"Reading International, Inc","ticketType":"STANDARD"},{"id":"1579","tribuneTheaterId":"4632","providerTheaterId":"","name":"Pearl Highlands 12","address":"1000 Kamehameha Highway 231","city":"Pearl City","state":"HI","zip":"96782","distance":17.315530255185,"lon":"-157.975738","lat":"21.396191","theaterChainName":"Regal Cinemas","ticketType":"STANDARD"},{"id":"194","tribuneTheaterId":"8601","providerTheaterId":"","name":"Pearlridge West","address":"98 - 1005 Moanalua Road","city":"Aiea","state":"HI","zip":"96701","distance":18.923646684768,"lon":"-157.940315","lat":"21.385004","theaterChainName":"Reading International, Inc","ticketType":"STANDARD"},{"id":"195","tribuneTheaterId":"4866","providerTheaterId":"","name":"Kapolei","address":"890 Kamokila Blvd","city":"Kapolei","state":"HI","zip":"96707","distance":20.575189894617,"lon":"-158.083456","lat":"21.333703","theaterChainName":"Reading International, Inc","ticketType":"STANDARD"},{"id":"2342","tribuneTheaterId":"8073","providerTheaterId":"","name":"Ko'Olau Stadium 10","address":"47-260 Hui Iwa Street","city":"Kaneohe","state":"HI","zip":"96744","distance":20.562377125911,"lon":"-157.827337","lat":"21.436497","theaterChainName":"Reading International, Inc","ticketType":"STANDARD"},{"id":"3199","tribuneTheaterId":"4631","providerTheaterId":"","name":"Windward Stadium 10","address":"46-056 Kamehameha Highway Bldg. G","city":"Kaneohe","state":"HI","zip":"96744","distance":22.331309860311,"lon":"-157.805863","lat":"21.420473","theaterChainName":"Regal Cinemas","ticketType":"STANDARD"}]