[{"id":"3199","tribuneTheaterId":"4631","providerTheaterId":"","name":"Windward Stadium 10","address":"46-056 Kamehameha Highway Bldg. G","city":"Kaneohe","state":"HI","zip":"96744","distance":4.0480376217914,"lon":"-157.805863","lat":"21.420473","theaterChainName":"Regal Cinemas","ticketType":"STANDARD"},{"id":"2342","tribuneTheaterId":"8073","providerTheaterId":"","name":"Ko'Olau Stadium 10","address":"47-260 Hui Iwa Street","city":"Kaneohe","state":"HI","zip":"96744","distance":5.7040787633577,"lon":"-157.827337","lat":"21.436497","theaterChainName":"Reading International, Inc","ticketType":"STANDARD"},{"id":"193","tribuneTheaterId":"4862","providerTheaterId":"","name":"Kahala 8","address":"4211 Waialae Ave","city":"Honolulu","state":"HI","zip":"96816","distance":9.3213685845501,"lon":"-157.786403","lat":"21.277075","theaterChainName":"Reading International, Inc","ticketType":"STANDARD"},{"id":"5961","tribuneTheaterId":"11392","providerTheaterId":"","name":"Consolidated Theatres Ward 16","address":"1044 Auahi Street","city":"Honolulu","state":"HI","zip":"96814","distance":10.412501320596,"lon":"-157.8533","lat":"21.2945","theaterChainName":"Reading International, Inc","ticketType":"STANDARD"},{"id":"2518","tribuneTheaterId":"4633","providerTheaterId":"","name":"Dole Cannery Stadium 18 & IMAX","address":"735 B Iwilei Rd.","city":"Honolulu","state":"HI","zip":"96817","distance":10.220060676813,"lon":"-157.870421","lat":"21.315788","theaterChainName":"Regal Cinemas","ticketType":"STANDARD"},{"id":"196","tribuneTheaterId":"8435","providerTheaterId":"","name":"Koko Marina","address":"7192 Kalanianaole Highway","city":"Honolulu","state":"HI","zip":"96825","distance":9.2461811956852,"lon":"-157.704653","lat":"21.277809","theaterChainName":"Reading International, Inc","ticketType":"STANDARD"},{"id":"194","tribuneTheaterId":"8601","providerTheaterId":"","name":"Pearlridge West","address":"98 - 1005 Moanalua Road","city":"Aiea","state":"HI","zip":"96701","distance":12.663572447479,"lon":"-157.940315","lat":"21.385004","theaterChainName":"Reading International, Inc","ticketType":"STANDARD"},{"id":"1579","tribuneTheaterId":"4632","providerTheaterId":"","name":"Pearl Highlands 12","address":"1000 Kamehameha Highway 231","city":"Pearl City","state":"HI","zip":"96782","distance":14.872459512878,"lon":"-157.975738","lat":"21.396191","theaterChainName":"Regal Cinemas","ticketType":"STANDARD"},{"id":"192","tribuneTheaterId":"4863","providerTheaterId":"","name":"Mililani","address":"95-1249 Meheula Pky","city":"Mililani","state":"HI","zip":"96789","distance":17.15968819916,"lon":"-158.006616","lat":"21.454085","theaterChainName":"Reading International, Inc","ticketType":"STANDARD"},{"id":"195","tribuneTheaterId":"4866","providerTheaterId":"","name":"Kapolei","address":"890 Kamokila Blvd","city":"Kapolei","state":"HI","zip":"96707","distance":22.359979400888,"lon":"-158.083456","lat":"21.333703","theaterChainName":"Reading International, Inc","ticketType":"STANDARD"}]