[{"id":"3504","tribuneTheaterId":"2126","providerTheaterId":"","name":"Sandy Cinemas","address":"16605 Champion Way","city":"Sandy","state":"OR","zip":"97055","distance":4.4070914555647,"lon":"-122.298116","lat":"45.403092","theaterChainName":"Independent Chains","ticketType":"STANDARD"},{"id":"1116","tribuneTheaterId":"245","providerTheaterId":"","name":"Mt. Hood Theatre","address":"401 E. Powell Blvd.","city":"Gresham","state":"OR","zip":"97030","distance":5.2580295798198,"lon":"-122.426874","lat":"45.498566","theaterChainName":"Independent Chains","ticketType":"STANDARD"},{"id":"818","tribuneTheaterId":"7560","providerTheaterId":"","name":"Regal Stark Street Stadium 10","address":"2929 N.E. Kane Dr.","city":"Gresham","state":"OR","zip":"97030","distance":6.1118021499889,"lon":"-122.39873","lat":"45.517249","theaterChainName":"Regal Cinemas","ticketType":"STANDARD"},{"id":"622","tribuneTheaterId":"7263","providerTheaterId":"","name":"Regal Division Street Stadium 13","address":"16603 SE Division St.","city":"Portland","state":"OR","zip":"97236","distance":7.553809693435,"lon":"-122.492607","lat":"45.505813","theaterChainName":"Regal Cinemas","ticketType":"STANDARD"},{"id":"2550","tribuneTheaterId":"435","providerTheaterId":"","name":"Edgefield Powerstation Theater","address":"2126 S.W. Halsey St.","city":"Troutdale","state":"OR","zip":"97060","distance":7.5010255973475,"lon":"-122.407315","lat":"45.536648","theaterChainName":"McMenamins","ticketType":"STANDARD"},{"id":"4372","tribuneTheaterId":"9412","providerTheaterId":"","name":"Century at Clackamas Town Center","address":"12000 SE 82nd Ave.","city":"Portland","state":"OR","zip":"97086","distance":9.3841501179193,"lon":"-122.574058","lat":"45.435645","theaterChainName":"Cinemark","ticketType":"STANDARD"},{"id":"1605","tribuneTheaterId":"8432","providerTheaterId":"","name":"Century Eastport 16","address":"4040 S.E. 82nd Ave.","city":"Portland","state":"OR","zip":"97266","distance":10.376683321896,"lon":"-122.57471","lat":"45.493248","theaterChainName":"Cinemark","ticketType":"STANDARD"},{"id":"4177","tribuneTheaterId":"2213","providerTheaterId":"","name":"Academy Theater","address":"7818 S.E. Stark St.","city":"Portland","state":"OR","zip":"97215","distance":11.578192088203,"lon":"-122.582964","lat":"45.518942","theaterChainName":"Independent Chains","ticketType":"STANDARD"},{"id":"1103","tribuneTheaterId":"2687","providerTheaterId":"","name":"Liberty Theater","address":"315 N.E. 4th Ave.","city":"Camas","state":"WA","zip":"98607","distance":10.8448542579,"lon":"-122.404816","lat":"45.585747","theaterChainName":"Independent Chains","ticketType":"STANDARD"},{"id":"1105","tribuneTheaterId":"238","providerTheaterId":"","name":"Bagdad Theater and Pub","address":"3702 S.E. Hawthorne Blvd.","city":"Portland","state":"OR","zip":"97214","distance":13.151680010522,"lon":"-122.625532","lat":"45.511877","theaterChainName":"McMenamins","ticketType":"STANDARD"},{"id":"2718","tribuneTheaterId":"6734","providerTheaterId":"","name":"Hollywood Theatre","address":"4122 NE Sandy Blvd.","city":"Portland","state":"OR","zip":"97212","distance":13.74419534497,"lon":"-122.620678","lat":"45.535816","theaterChainName":"Independent Chains","ticketType":"STANDARD"},{"id":"1118","tribuneTheaterId":"246","providerTheaterId":"","name":"Roseway Theatre","address":"7229 NE Sandy Blvd.","city":"Portland","state":"OR","zip":"97213","distance":12.991317769511,"lon":"-122.588402","lat":"45.548662","theaterChainName":"Independent Chains","ticketType":"STANDARD"},{"id":"269","tribuneTheaterId":"8500","providerTheaterId":"","name":"Regal Hilltop 9 Cinema","address":"325 Beavercreek Road","city":"Oregon City","state":"OR","zip":"97045","distance":12.233653515944,"lon":"-122.593195","lat":"45.334441","theaterChainName":"Regal Cinemas","ticketType":"STANDARD"},{"id":"1111","tribuneTheaterId":"1657","providerTheaterId":"","name":"Laurelhurst Theatre","address":"2735 E. Burnside St.","city":"Portland","state":"OR","zip":"97214","distance":14.01925344024,"lon":"-122.637491","lat":"45.523227","theaterChainName":"Independent Chains","ticketType":"STANDARD"},{"id":"1110","tribuneTheaterId":"1091","providerTheaterId":"","name":"Lake Twin Cinema","address":"106 N. State St.","city":"Lake Oswego","state":"OR","zip":"97034","distance":13.755693303143,"lon":"-122.663695","lat":"45.416122","theaterChainName":"Independent Chains","ticketType":"STANDARD"},{"id":"1597","tribuneTheaterId":"4620","providerTheaterId":"","name":"Regal Cascade Stadium 16 Cinemas","address":"1101 SE 160th Ave","city":"Vancouver","state":"WA","zip":"98683","distance":14.030614963379,"lon":"-122.506697","lat":"45.612575","theaterChainName":"Regal Cinemas","ticketType":"STANDARD"},{"id":"4101","tribuneTheaterId":"2166","providerTheaterId":"","name":"Cinetopia Mill Plain 8","address":"11700 S.E. 7th St.","city":"Vancouver","state":"WA","zip":"98683","distance":15.306652077766,"lon":"-122.550555","lat":"45.616559","theaterChainName":"Independent Chains","ticketType":"STANDARD"},{"id":"2566","tribuneTheaterId":"1196","providerTheaterId":"","name":"Kennedy School Theater","address":"5736 N.E. 33rd Ave.","city":"Portland","state":"OR","zip":"97211","distance":15.248430848888,"lon":"-122.630005","lat":"45.56449","theaterChainName":"McMenamins","ticketType":"STANDARD"},{"id":"3086","tribuneTheaterId":"4627","providerTheaterId":"","name":"Regal Fox Tower Stadium 10","address":"846 S.W. Park Ave.","city":"Portland","state":"OR","zip":"97205","distance":15.79186810334,"lon":"-122.681145","lat":"45.518313","theaterChainName":"Regal Cinemas","ticketType":"STANDARD"},{"id":"1107","tribuneTheaterId":"240","providerTheaterId":"","name":"Cinema 21","address":"616 N.W. 21st Ave.","city":"Portland","state":"OR","zip":"97209","distance":16.621049022265,"lon":"-122.6944","lat":"45.5271","theaterChainName":"Independent Chains","ticketType":"STANDARD"},{"id":"1114","tribuneTheaterId":"243","providerTheaterId":"","name":"Mission Theater and Pub","address":"1624 NW Glisan St.","city":"Portland","state":"OR","zip":"97209","distance":16.31901750192,"lon":"-122.688146","lat":"45.526198","theaterChainName":"McMenamins","ticketType":"STANDARD"},{"id":"3206","tribuneTheaterId":"545","providerTheaterId":"","name":"NW Film Center's Whitsell Auditorium","address":"1219 S.W. Park Ave.","city":"Portland","state":"OR","zip":"97205","distance":15.819254282937,"lon":"-122.682999","lat":"45.516201","theaterChainName":"Independent Chains","ticketType":"STANDARD"},{"id":"24","tribuneTheaterId":"8186","providerTheaterId":"","name":"807 Lloyd Center 10 and IMAX","address":"1510 N.E. Multnomah Blvd.","city":"Portland","state":"OR","zip":"97232","distance":14.913962716164,"lon":"-122.651668","lat":"45.532154","theaterChainName":"Regal Cinemas","ticketType":"STANDARD"},{"id":"4312","tribuneTheaterId":"3031","providerTheaterId":"","name":"Living Room Theaters","address":"341 S.W. Tenth Ave.","city":"Portland","state":"OR","zip":"97205","distance":15.911901128109,"lon":"-122.681382","lat":"45.522342","theaterChainName":"Independent Chains","ticketType":"STANDARD"},{"id":"25","tribuneTheaterId":"7729","providerTheaterId":"","name":"Regal Lloyd Mall 8 Cinema","address":"2320 Lloyd Center Mall","city":"Portland","state":"OR","zip":"97232","distance":15.022641526238,"lon":"-122.653449","lat":"45.533155","theaterChainName":"Regal Cinemas","ticketType":"STANDARD"},{"id":"3629","tribuneTheaterId":"4625","providerTheaterId":"","name":"Pioneer Place Stadium 6","address":"340 S.W. Morrison St.","city":"Portland","state":"OR","zip":"97204","distance":15.577807897264,"lon":"-122.676408","lat":"45.518211","theaterChainName":"Regal Cinemas","ticketType":"STANDARD"},{"id":"26","tribuneTheaterId":"8406","providerTheaterId":"","name":"Regal Tigard 11 Cinemas","address":"11626 S.W. Pacific Highway","city":"Tigard","state":"OR","zip":"97223","distance":18.048598818133,"lon":"-122.752819","lat":"45.436542","theaterChainName":"Regal Cinemas","ticketType":"STANDARD"},{"id":"27","tribuneTheaterId":"9032","providerTheaterId":"","name":"Regal Vancouver Plaza 10 Cinema","address":"7800 N.E. Fourth Plain Road","city":"Vancouver","state":"WA","zip":"98662","distance":18.299154501028,"lon":"-122.595438","lat":"45.647694","theaterChainName":"Regal Cinemas","ticketType":"STANDARD"},{"id":"4842","tribuneTheaterId":"10121","providerTheaterId":"","name":"Canby Cinema 8","address":"252 NE 2nd Ave.","city":"Canby","state":"OR","zip":"97013","distance":18.892336656523,"lon":"-122.690865","lat":"45.264633","theaterChainName":"Independent Chains","ticketType":"STANDARD"},{"id":"3999","tribuneTheaterId":"4629","providerTheaterId":"","name":"Regal Cinemas Bridgeport Village Stadium 18 & IMAX","address":"7329 SW Bridgeport Road","city":"Tigard","state":"OR","zip":"97224","distance":18.155895154973,"lon":"-122.752177","lat":"45.397321","theaterChainName":"Regal Cinemas","ticketType":"STANDARD"},{"id":"5186","tribuneTheaterId":"10601","providerTheaterId":"","name":"Cinetopia Vancouver Mall 23","address":"8700 NE Vancouver Mall Dr.","city":"Vancouver","state":"WA","zip":"98662","distance":18.594169771813,"lon":"-122.583738","lat":"45.65818","theaterChainName":"Independent Chains","ticketType":"STANDARD"},{"id":"5140","tribuneTheaterId":"10546","providerTheaterId":"","name":"Jubitz Cinema","address":"10350 North Vancouver Way","city":"Portland","state":"OR","zip":"97217","distance":18.136330893656,"lon":"-122.669701","lat":"45.596699","theaterChainName":"Independent Chains","ticketType":"STANDARD"},{"id":"305","tribuneTheaterId":"8501","providerTheaterId":"","name":"Regal Wilsonville Stadium 9 Cinema","address":"29300 SW Town Center Loop","city":"Wilsonville","state":"OR","zip":"97070","distance":20.487380228309,"lon":"-122.765651","lat":"45.308113","theaterChainName":"Regal Cinemas","ticketType":"STANDARD"},{"id":"1596","tribuneTheaterId":"4618","providerTheaterId":"","name":"Regal City Center Stadium 12","address":"801 C St.","city":"Vancouver","state":"WA","zip":"98660","distance":19.513222825167,"lon":"-122.668946","lat":"45.627143","theaterChainName":"Regal Cinemas","ticketType":"STANDARD"},{"id":"1303","tribuneTheaterId":"261","providerTheaterId":"","name":"Kiggins Theatre","address":"1011 Main St.","city":"Vancouver","state":"WA","zip":"98660","distance":19.702952640696,"lon":"-122.67154","lat":"45.629216","theaterChainName":"Independent Chains","ticketType":"STANDARD"},{"id":"3654","tribuneTheaterId":"2785","providerTheaterId":"","name":"St. Johns Pub and Theater","address":"8203 N. Ivanhoe St.","city":"Portland","state":"OR","zip":"97202","distance":21.287316797121,"lon":"-122.755646","lat":"45.59058","theaterChainName":"McMenamins","ticketType":"STANDARD"},{"id":"3909","tribuneTheaterId":"4849","providerTheaterId":"","name":"Century 16 Cedar Hills Crossing","address":"3200 S.W. Hocken Ave.","city":"Beaverton","state":"OR","zip":"97005","distance":21.428272453415,"lon":"-122.81215","lat":"45.497641","theaterChainName":"Cinemark","ticketType":"STANDARD"},{"id":"1119","tribuneTheaterId":"1093","providerTheaterId":"","name":"St. Johns Twin Cinemas and Pub","address":"8704 N. Lombard St.","city":"Saint Johns","state":"OR","zip":"97203","distance":21.282432244197,"lon":"-122.755519","lat":"45.59059","theaterChainName":"Independent Chains","ticketType":"STANDARD"},{"id":"2953","tribuneTheaterId":"4626","providerTheaterId":"","name":"Regal Sherwood Stadium 10","address":"15995 Tualatin-Sherwood Road","city":"Sherwood","state":"OR","zip":"97140","distance":22.664040553103,"lon":"-122.840163","lat":"45.370381","theaterChainName":"Regal Cinemas","ticketType":"STANDARD"},{"id":"1595","tribuneTheaterId":"4617","providerTheaterId":"","name":"Regal Cinema 99 Stadium 11","address":"9010 N.E. Highway 99","city":"Vancouver","state":"WA","zip":"98665","distance":22.469087310337,"lon":"-122.662418","lat":"45.688247","theaterChainName":"Regal Cinemas","ticketType":"STANDARD"},{"id":"4014","tribuneTheaterId":"2159","providerTheaterId":"","name":"Battle Ground Cinema","address":"1700 SW 9th Ave.","city":"Battle Ground","state":"WA","zip":"98604","distance":24.722395513601,"lon":"-122.5456","lat":"45.7684","theaterChainName":"Independent Chains","ticketType":"STANDARD"},{"id":"28","tribuneTheaterId":"8299","providerTheaterId":"","name":"Regal Evergreen Parkway Stadium 13","address":"2625 N.W. 188th Ave.","city":"Hillsboro","state":"OR","zip":"97124","distance":24.946869783827,"lon":"-122.871485","lat":"45.539092","theaterChainName":"Regal Cinemas","ticketType":"STANDARD"}]