[{"id":"4842","tribuneTheaterId":"10121","providerTheaterId":"","name":"Canby Cinema 8","address":"252 NE 2nd Ave.","city":"Canby","state":"OR","zip":"97013","distance":6.0417388948294,"lon":"-122.690865","lat":"45.264633","theaterChainName":"Independent Chains","ticketType":"STANDARD"},{"id":"305","tribuneTheaterId":"8501","providerTheaterId":"","name":"Regal Wilsonville Stadium 9 Cinema","address":"29300 SW Town Center Loop","city":"Wilsonville","state":"OR","zip":"97070","distance":5.8132090108166,"lon":"-122.765651","lat":"45.308113","theaterChainName":"Regal Cinemas","ticketType":"STANDARD"},{"id":"1106","tribuneTheaterId":"239","providerTheaterId":"","name":"Cameo Theatre","address":"304 E. First","city":"Newberg","state":"OR","zip":"97132","distance":9.7600881376328,"lon":"-122.976781","lat":"45.300151","theaterChainName":"Independent Chains","ticketType":"STANDARD"},{"id":"2953","tribuneTheaterId":"4626","providerTheaterId":"","name":"Regal Sherwood Stadium 10","address":"15995 Tualatin-Sherwood Road","city":"Sherwood","state":"OR","zip":"97140","distance":9.9669895665848,"lon":"-122.840163","lat":"45.370381","theaterChainName":"Regal Cinemas","ticketType":"STANDARD"},{"id":"269","tribuneTheaterId":"8500","providerTheaterId":"","name":"Regal Hilltop 9 Cinema","address":"325 Beavercreek Road","city":"Oregon City","state":"OR","zip":"97045","distance":12.594117975567,"lon":"-122.593195","lat":"45.334441","theaterChainName":"Regal Cinemas","ticketType":"STANDARD"},{"id":"3999","tribuneTheaterId":"4629","providerTheaterId":"","name":"Regal Cinemas Bridgeport Village Stadium 18 & IMAX","address":"7329 SW Bridgeport Road","city":"Tigard","state":"OR","zip":"97224","distance":11.938820259947,"lon":"-122.752177","lat":"45.397321","theaterChainName":"Regal Cinemas","ticketType":"STANDARD"},{"id":"2720","tribuneTheaterId":"6170","providerTheaterId":"","name":"Palace Theatre - Silverton","address":"200 N. Water St.","city":"Silverton","state":"OR","zip":"97381","distance":15.408620994929,"lon":"-122.783463","lat":"45.005855","theaterChainName":"Independent Chains","ticketType":"STANDARD"},{"id":"1110","tribuneTheaterId":"1091","providerTheaterId":"","name":"Lake Twin Cinema","address":"106 N. State St.","city":"Lake Oswego","state":"OR","zip":"97034","distance":14.650007822923,"lon":"-122.663695","lat":"45.416122","theaterChainName":"Independent Chains","ticketType":"STANDARD"},{"id":"26","tribuneTheaterId":"8406","providerTheaterId":"","name":"Regal Tigard 11 Cinemas","address":"11626 S.W. Pacific Highway","city":"Tigard","state":"OR","zip":"97223","distance":14.593673430756,"lon":"-122.752819","lat":"45.436542","theaterChainName":"Regal Cinemas","ticketType":"STANDARD"},{"id":"2051","tribuneTheaterId":"5003","providerTheaterId":"","name":"McMinnville 10","address":"2725 NE Tanger Drive","city":"McMinnville","state":"OR","zip":"97128","distance":17.663760445727,"lon":"-123.165083","lat":"45.20345","theaterChainName":"Coming Attractions","ticketType":"STANDARD"},{"id":"4372","tribuneTheaterId":"9412","providerTheaterId":"","name":"Century at Clackamas Town Center","address":"12000 SE 82nd Ave.","city":"Portland","state":"OR","zip":"97086","distance":18.156940067981,"lon":"-122.574058","lat":"45.435645","theaterChainName":"Cinemark","ticketType":"STANDARD"},{"id":"689","tribuneTheaterId":"7730","providerTheaterId":"","name":"Regal Movies On TV Stadium 16","address":"2929 S.W. 234th Ave.","city":"Hillsboro","state":"OR","zip":"97123","distance":19.452286063395,"lon":"-122.920028","lat":"45.497854","theaterChainName":"Regal Cinemas","ticketType":"STANDARD"},{"id":"3909","tribuneTheaterId":"4849","providerTheaterId":"","name":"Century 16 Cedar Hills Crossing","address":"3200 S.W. Hocken Ave.","city":"Beaverton","state":"OR","zip":"97005","distance":18.607060659059,"lon":"-122.81215","lat":"45.497641","theaterChainName":"Cinemark","ticketType":"STANDARD"},{"id":"1605","tribuneTheaterId":"8432","providerTheaterId":"","name":"Century Eastport 16","address":"4040 S.E. 82nd Ave.","city":"Portland","state":"OR","zip":"97266","distance":21.416415757726,"lon":"-122.57471","lat":"45.493248","theaterChainName":"Cinemark","ticketType":"STANDARD"},{"id":"4312","tribuneTheaterId":"3031","providerTheaterId":"","name":"Living Room Theaters","address":"341 S.W. Tenth Ave.","city":"Portland","state":"OR","zip":"97205","distance":21.162052933152,"lon":"-122.681382","lat":"45.522342","theaterChainName":"Independent Chains","ticketType":"STANDARD"},{"id":"3206","tribuneTheaterId":"545","providerTheaterId":"","name":"NW Film Center's Whitsell Auditorium","address":"1219 S.W. Park Ave.","city":"Portland","state":"OR","zip":"97205","distance":20.732930556452,"lon":"-122.682999","lat":"45.516201","theaterChainName":"Independent Chains","ticketType":"STANDARD"},{"id":"3086","tribuneTheaterId":"4627","providerTheaterId":"","name":"Regal Fox Tower Stadium 10","address":"846 S.W. Park Ave.","city":"Portland","state":"OR","zip":"97205","distance":20.898375517438,"lon":"-122.681145","lat":"45.518313","theaterChainName":"Regal Cinemas","ticketType":"STANDARD"},{"id":"4254","tribuneTheaterId":"7137","providerTheaterId":"","name":"Lancaster Mall Stadium 11","address":"831 Lancaster Dr. NE","city":"Salem","state":"OR","zip":"97301","distance":21.673670805147,"lon":"-122.985087","lat":"44.941984","theaterChainName":"Regal Cinemas","ticketType":"STANDARD"},{"id":"3629","tribuneTheaterId":"4625","providerTheaterId":"","name":"Pioneer Place Stadium 6","address":"340 S.W. Morrison St.","city":"Portland","state":"OR","zip":"97204","distance":20.958351762774,"lon":"-122.676408","lat":"45.518211","theaterChainName":"Regal Cinemas","ticketType":"STANDARD"},{"id":"2794","tribuneTheaterId":"2584","providerTheaterId":"","name":"Salem Cinema","address":"1127 Broadway NE","city":"Salem","state":"OR","zip":"97301","distance":22.163142618032,"lon":"-123.031906","lat":"44.950943","theaterChainName":"Independent Chains","ticketType":"STANDARD"},{"id":"1107","tribuneTheaterId":"240","providerTheaterId":"","name":"Cinema 21","address":"616 N.W. 21st Ave.","city":"Portland","state":"OR","zip":"97209","distance":21.311415694537,"lon":"-122.6944","lat":"45.5271","theaterChainName":"Independent Chains","ticketType":"STANDARD"},{"id":"28","tribuneTheaterId":"8299","providerTheaterId":"","name":"Regal Evergreen Parkway Stadium 13","address":"2625 N.W. 188th Ave.","city":"Hillsboro","state":"OR","zip":"97124","distance":21.715836028255,"lon":"-122.871485","lat":"45.539092","theaterChainName":"Regal Cinemas","ticketType":"STANDARD"},{"id":"1105","tribuneTheaterId":"238","providerTheaterId":"","name":"Bagdad Theater and Pub","address":"3702 S.E. Hawthorne Blvd.","city":"Portland","state":"OR","zip":"97214","distance":21.414590573114,"lon":"-122.625532","lat":"45.511877","theaterChainName":"McMenamins","ticketType":"STANDARD"},{"id":"1114","tribuneTheaterId":"243","providerTheaterId":"","name":"Mission Theater and Pub","address":"1624 NW Glisan St.","city":"Portland","state":"OR","zip":"97209","distance":21.329008551561,"lon":"-122.688146","lat":"45.526198","theaterChainName":"McMenamins","ticketType":"STANDARD"},{"id":"4820","tribuneTheaterId":"10083","providerTheaterId":"","name":"Cinebarre Salem 7","address":"501 Marion St. NE","city":"Salem","state":"OR","zip":"97301","distance":22.634781675845,"lon":"-123.034435","lat":"44.944099","theaterChainName":"Cinebarre","ticketType":"STANDARD"},{"id":"1111","tribuneTheaterId":"1657","providerTheaterId":"","name":"Laurelhurst Theatre","address":"2735 E. Burnside St.","city":"Portland","state":"OR","zip":"97214","distance":21.913273833136,"lon":"-122.637491","lat":"45.523227","theaterChainName":"Independent Chains","ticketType":"STANDARD"},{"id":"2182","tribuneTheaterId":"8187","providerTheaterId":"","name":"Regal Santiam Stadium 11","address":"365 Lancaster Dr S.E.","city":"Salem","state":"OR","zip":"97301","distance":22.857005385375,"lon":"-122.985538","lat":"44.923465","theaterChainName":"Regal Cinemas","ticketType":"STANDARD"},{"id":"2718","tribuneTheaterId":"6734","providerTheaterId":"","name":"Hollywood Theatre","address":"4122 NE Sandy Blvd.","city":"Portland","state":"OR","zip":"97212","distance":23.026394373829,"lon":"-122.620678","lat":"45.535816","theaterChainName":"Independent Chains","ticketType":"STANDARD"},{"id":"4177","tribuneTheaterId":"2213","providerTheaterId":"","name":"Academy Theater","address":"7818 S.E. Stark St.","city":"Portland","state":"OR","zip":"97215","distance":22.759133499385,"lon":"-122.582964","lat":"45.518942","theaterChainName":"Independent Chains","ticketType":"STANDARD"},{"id":"24","tribuneTheaterId":"8186","providerTheaterId":"","name":"807 Lloyd Center 10 and IMAX","address":"1510 N.E. Multnomah Blvd.","city":"Portland","state":"OR","zip":"97232","distance":22.249745391796,"lon":"-122.651668","lat":"45.532154","theaterChainName":"Regal Cinemas","ticketType":"STANDARD"},{"id":"316","tribuneTheaterId":"6475","providerTheaterId":"","name":"Cornelius 9 Cinemas","address":"200 N. 26th Ave.","city":"Cornelius","state":"OR","zip":"97113","distance":23.243363746745,"lon":"-123.038767","lat":"45.52157","theaterChainName":"Independent Chains","ticketType":"STANDARD"},{"id":"25","tribuneTheaterId":"7729","providerTheaterId":"","name":"Regal Lloyd Mall 8 Cinema","address":"2320 Lloyd Center Mall","city":"Portland","state":"OR","zip":"97232","distance":22.286507650423,"lon":"-122.653449","lat":"45.533155","theaterChainName":"Regal Cinemas","ticketType":"STANDARD"},{"id":"2566","tribuneTheaterId":"1196","providerTheaterId":"","name":"Kennedy School Theater","address":"5736 N.E. 33rd Ave.","city":"Portland","state":"OR","zip":"97211","distance":24.706707662371,"lon":"-122.630005","lat":"45.56449","theaterChainName":"McMenamins","ticketType":"STANDARD"},{"id":"1118","tribuneTheaterId":"246","providerTheaterId":"","name":"Roseway Theatre","address":"7229 NE Sandy Blvd.","city":"Portland","state":"OR","zip":"97213","distance":24.474275984223,"lon":"-122.588402","lat":"45.548662","theaterChainName":"Independent Chains","ticketType":"STANDARD"},{"id":"622","tribuneTheaterId":"7263","providerTheaterId":"","name":"Regal Division Street Stadium 13","address":"16603 SE Division St.","city":"Portland","state":"OR","zip":"97236","distance":24.407480260382,"lon":"-122.492607","lat":"45.505813","theaterChainName":"Regal Cinemas","ticketType":"STANDARD"},{"id":"5619","tribuneTheaterId":"11080","providerTheaterId":"","name":"Grand Lodge Theater","address":"3505 Pacific Avenue","city":"Forest Grove","state":"OR","zip":"97116","distance":24.457091627734,"lon":"-123.086162","lat":"45.521627","theaterChainName":"Independent Chains","ticketType":"STANDARD"}]