[{"id":"2550","tribuneTheaterId":"435","providerTheaterId":"","name":"Edgefield Powerstation Theater","address":"2126 S.W. Halsey St.","city":"Troutdale","state":"OR","zip":"97060","distance":15.155885059203,"lon":"-122.407315","lat":"45.536648","theaterChainName":"McMenamins","ticketType":"STANDARD"},{"id":"818","tribuneTheaterId":"7560","providerTheaterId":"","name":"Regal Stark Street Stadium 10","address":"2929 N.E. Kane Dr.","city":"Gresham","state":"OR","zip":"97030","distance":15.100396430545,"lon":"-122.39873","lat":"45.517249","theaterChainName":"Regal Cinemas","ticketType":"STANDARD"},{"id":"1103","tribuneTheaterId":"2687","providerTheaterId":"","name":"Liberty Theater","address":"315 N.E. 4th Ave.","city":"Camas","state":"WA","zip":"98607","distance":14.687560535811,"lon":"-122.404816","lat":"45.585747","theaterChainName":"Independent Chains","ticketType":"STANDARD"},{"id":"3504","tribuneTheaterId":"2126","providerTheaterId":"","name":"Sandy Cinemas","address":"16605 Champion Way","city":"Sandy","state":"OR","zip":"97055","distance":15.670700251289,"lon":"-122.298116","lat":"45.403092","theaterChainName":"Independent Chains","ticketType":"STANDARD"},{"id":"1116","tribuneTheaterId":"245","providerTheaterId":"","name":"Mt. Hood Theatre","address":"401 E. Powell Blvd.","city":"Gresham","state":"OR","zip":"97030","distance":16.809948934279,"lon":"-122.426874","lat":"45.498566","theaterChainName":"Independent Chains","ticketType":"STANDARD"},{"id":"1597","tribuneTheaterId":"4620","providerTheaterId":"","name":"Regal Cascade Stadium 16 Cinemas","address":"1101 SE 160th Ave","city":"Vancouver","state":"WA","zip":"98683","distance":19.714331486226,"lon":"-122.506697","lat":"45.612575","theaterChainName":"Regal Cinemas","ticketType":"STANDARD"},{"id":"622","tribuneTheaterId":"7263","providerTheaterId":"","name":"Regal Division Street Stadium 13","address":"16603 SE Division St.","city":"Portland","state":"OR","zip":"97236","distance":19.681308664706,"lon":"-122.492607","lat":"45.505813","theaterChainName":"Regal Cinemas","ticketType":"STANDARD"},{"id":"4101","tribuneTheaterId":"2166","providerTheaterId":"","name":"Cinetopia Mill Plain 8","address":"11700 S.E. 7th St.","city":"Vancouver","state":"WA","zip":"98683","distance":21.851004119017,"lon":"-122.550555","lat":"45.616559","theaterChainName":"Independent Chains","ticketType":"STANDARD"},{"id":"1605","tribuneTheaterId":"8432","providerTheaterId":"","name":"Century Eastport 16","address":"4040 S.E. 82nd Ave.","city":"Portland","state":"OR","zip":"97266","distance":23.744550150524,"lon":"-122.57471","lat":"45.493248","theaterChainName":"Cinemark","ticketType":"STANDARD"},{"id":"1118","tribuneTheaterId":"246","providerTheaterId":"","name":"Roseway Theatre","address":"7229 NE Sandy Blvd.","city":"Portland","state":"OR","zip":"97213","distance":23.690581533843,"lon":"-122.588402","lat":"45.548662","theaterChainName":"Independent Chains","ticketType":"STANDARD"},{"id":"4014","tribuneTheaterId":"2159","providerTheaterId":"","name":"Battle Ground Cinema","address":"1700 SW 9th Ave.","city":"Battle Ground","state":"WA","zip":"98604","distance":24.991612383264,"lon":"-122.5456","lat":"45.7684","theaterChainName":"Independent Chains","ticketType":"STANDARD"},{"id":"27","tribuneTheaterId":"9032","providerTheaterId":"","name":"Regal Vancouver Plaza 10 Cinema","address":"7800 N.E. Fourth Plain Road","city":"Vancouver","state":"WA","zip":"98662","distance":24.305293582975,"lon":"-122.595438","lat":"45.647694","theaterChainName":"Regal Cinemas","ticketType":"STANDARD"},{"id":"5186","tribuneTheaterId":"10601","providerTheaterId":"","name":"Cinetopia Vancouver Mall 23","address":"8700 NE Vancouver Mall Dr.","city":"Vancouver","state":"WA","zip":"98662","distance":23.894547145047,"lon":"-122.583738","lat":"45.65818","theaterChainName":"Independent Chains","ticketType":"STANDARD"},{"id":"4177","tribuneTheaterId":"2213","providerTheaterId":"","name":"Academy Theater","address":"7818 S.E. Stark St.","city":"Portland","state":"OR","zip":"97215","distance":23.730990236277,"lon":"-122.582964","lat":"45.518942","theaterChainName":"Independent Chains","ticketType":"STANDARD"}]