[{"id":"2376","tribuneTheaterId":"392","providerTheaterId":"","name":"Columbia Theatre St. Helens","address":"212 S. First Street","city":"Saint Helens","state":"OR","zip":"97051","distance":2.1074256679389,"lon":"-122.798111","lat":"45.863619","theaterChainName":"Independent Chains","ticketType":"STANDARD"},{"id":"4507","tribuneTheaterId":"9613","providerTheaterId":"","name":"Scappoose Cinema 7","address":"33520 SW Edward Lane","city":"Scappoose","state":"OR","zip":"97056","distance":10.954917235335,"lon":"-122.878776","lat":"45.740889","theaterChainName":"Independent Chains","ticketType":"STANDARD"},{"id":"1595","tribuneTheaterId":"4617","providerTheaterId":"","name":"Regal Cinema 99 Stadium 11","address":"9010 N.E. Highway 99","city":"Vancouver","state":"WA","zip":"98665","distance":15.850419628512,"lon":"-122.662418","lat":"45.688247","theaterChainName":"Regal Cinemas","ticketType":"STANDARD"},{"id":"4014","tribuneTheaterId":"2159","providerTheaterId":"","name":"Battle Ground Cinema","address":"1700 SW 9th Ave.","city":"Battle Ground","state":"WA","zip":"98604","distance":15.43558464107,"lon":"-122.5456","lat":"45.7684","theaterChainName":"Independent Chains","ticketType":"STANDARD"},{"id":"45","tribuneTheaterId":"7726","providerTheaterId":"","name":"Regal Triangle Quad Cinemas","address":"1228 Washington Way","city":"Longview","state":"WA","zip":"98632","distance":18.177175102434,"lon":"-122.933969","lat":"46.141621","theaterChainName":"Regal Cinemas","ticketType":"STANDARD"},{"id":"2375","tribuneTheaterId":"391","providerTheaterId":"","name":"Kelso Theatre Pub","address":"214 S. Pacific Ave.","city":"Kelso","state":"WA","zip":"98626","distance":18.002049924823,"lon":"-122.911606","lat":"46.143736","theaterChainName":"Independent Chains","ticketType":"STANDARD"},{"id":"5549","tribuneTheaterId":"10990","providerTheaterId":"","name":"Regal Three Rivers Mall 12 & RPX","address":"341 Three Rivers Dr.","city":"Kelso","state":"WA","zip":"98626","distance":17.629228464463,"lon":"-122.9015","lat":"46.14","theaterChainName":"Regal Cinemas","ticketType":"STANDARD"},{"id":"5186","tribuneTheaterId":"10601","providerTheaterId":"","name":"Cinetopia Vancouver Mall 23","address":"8700 NE Vancouver Mall Dr.","city":"Vancouver","state":"WA","zip":"98662","distance":19.578768802522,"lon":"-122.583738","lat":"45.65818","theaterChainName":"Independent Chains","ticketType":"STANDARD"},{"id":"27","tribuneTheaterId":"9032","providerTheaterId":"","name":"Regal Vancouver Plaza 10 Cinema","address":"7800 N.E. Fourth Plain Road","city":"Vancouver","state":"WA","zip":"98662","distance":19.880540341242,"lon":"-122.595438","lat":"45.647694","theaterChainName":"Regal Cinemas","ticketType":"STANDARD"},{"id":"1596","tribuneTheaterId":"4618","providerTheaterId":"","name":"Regal City Center Stadium 12","address":"801 C St.","city":"Vancouver","state":"WA","zip":"98660","distance":19.591698134137,"lon":"-122.668946","lat":"45.627143","theaterChainName":"Regal Cinemas","ticketType":"STANDARD"},{"id":"1303","tribuneTheaterId":"261","providerTheaterId":"","name":"Kiggins Theatre","address":"1011 Main St.","city":"Vancouver","state":"WA","zip":"98660","distance":19.413656987303,"lon":"-122.67154","lat":"45.629216","theaterChainName":"Independent Chains","ticketType":"STANDARD"},{"id":"1119","tribuneTheaterId":"1093","providerTheaterId":"","name":"St. Johns Twin Cinemas and Pub","address":"8704 N. Lombard St.","city":"Saint Johns","state":"OR","zip":"97203","distance":21.03824981136,"lon":"-122.755519","lat":"45.59059","theaterChainName":"Independent Chains","ticketType":"STANDARD"},{"id":"3654","tribuneTheaterId":"2785","providerTheaterId":"","name":"St. Johns Pub and Theater","address":"8203 N. Ivanhoe St.","city":"Portland","state":"OR","zip":"97202","distance":21.038140248278,"lon":"-122.755646","lat":"45.59058","theaterChainName":"McMenamins","ticketType":"STANDARD"},{"id":"5140","tribuneTheaterId":"10546","providerTheaterId":"","name":"Jubitz Cinema","address":"10350 North Vancouver Way","city":"Portland","state":"OR","zip":"97217","distance":21.561899882264,"lon":"-122.669701","lat":"45.596699","theaterChainName":"Independent Chains","ticketType":"STANDARD"},{"id":"4101","tribuneTheaterId":"2166","providerTheaterId":"","name":"Cinetopia Mill Plain 8","address":"11700 S.E. 7th St.","city":"Vancouver","state":"WA","zip":"98683","distance":22.860463756113,"lon":"-122.550555","lat":"45.616559","theaterChainName":"Independent Chains","ticketType":"STANDARD"},{"id":"2566","tribuneTheaterId":"1196","providerTheaterId":"","name":"Kennedy School Theater","address":"5736 N.E. 33rd Ave.","city":"Portland","state":"OR","zip":"97211","distance":24.307281331738,"lon":"-122.630005","lat":"45.56449","theaterChainName":"McMenamins","ticketType":"STANDARD"},{"id":"1597","tribuneTheaterId":"4620","providerTheaterId":"","name":"Regal Cascade Stadium 16 Cinemas","address":"1101 SE 160th Ave","city":"Vancouver","state":"WA","zip":"98683","distance":24.310428170407,"lon":"-122.506697","lat":"45.612575","theaterChainName":"Regal Cinemas","ticketType":"STANDARD"},{"id":"28","tribuneTheaterId":"8299","providerTheaterId":"","name":"Regal Evergreen Parkway Stadium 13","address":"2625 N.W. 188th Ave.","city":"Hillsboro","state":"OR","zip":"97124","distance":24.585047959564,"lon":"-122.871485","lat":"45.539092","theaterChainName":"Regal Cinemas","ticketType":"STANDARD"}]