[{"id":"269","tribuneTheaterId":"8500","providerTheaterId":"","name":"Regal Hilltop 9 Cinema","address":"325 Beavercreek Road","city":"Oregon City","state":"OR","zip":"97045","distance":8.8534662998037,"lon":"-122.593195","lat":"45.334441","theaterChainName":"Regal Cinemas","ticketType":"STANDARD"},{"id":"4842","tribuneTheaterId":"10121","providerTheaterId":"","name":"Canby Cinema 8","address":"252 NE 2nd Ave.","city":"Canby","state":"OR","zip":"97013","distance":8.3760343920009,"lon":"-122.690865","lat":"45.264633","theaterChainName":"Independent Chains","ticketType":"STANDARD"},{"id":"305","tribuneTheaterId":"8501","providerTheaterId":"","name":"Regal Wilsonville Stadium 9 Cinema","address":"29300 SW Town Center Loop","city":"Wilsonville","state":"OR","zip":"97070","distance":12.996449341177,"lon":"-122.765651","lat":"45.308113","theaterChainName":"Regal Cinemas","ticketType":"STANDARD"},{"id":"1110","tribuneTheaterId":"1091","providerTheaterId":"","name":"Lake Twin Cinema","address":"106 N. State St.","city":"Lake Oswego","state":"OR","zip":"97034","distance":15.362358005468,"lon":"-122.663695","lat":"45.416122","theaterChainName":"Independent Chains","ticketType":"STANDARD"},{"id":"4372","tribuneTheaterId":"9412","providerTheaterId":"","name":"Century at Clackamas Town Center","address":"12000 SE 82nd Ave.","city":"Portland","state":"OR","zip":"97086","distance":15.499256354106,"lon":"-122.574058","lat":"45.435645","theaterChainName":"Cinemark","ticketType":"STANDARD"},{"id":"3504","tribuneTheaterId":"2126","providerTheaterId":"","name":"Sandy Cinemas","address":"16605 Champion Way","city":"Sandy","state":"OR","zip":"97055","distance":17.467575647911,"lon":"-122.298116","lat":"45.403092","theaterChainName":"Independent Chains","ticketType":"STANDARD"},{"id":"3999","tribuneTheaterId":"4629","providerTheaterId":"","name":"Regal Cinemas Bridgeport Village Stadium 18 & IMAX","address":"7329 SW Bridgeport Road","city":"Tigard","state":"OR","zip":"97224","distance":16.536897853237,"lon":"-122.752177","lat":"45.397321","theaterChainName":"Regal Cinemas","ticketType":"STANDARD"},{"id":"2953","tribuneTheaterId":"4626","providerTheaterId":"","name":"Regal Sherwood Stadium 10","address":"15995 Tualatin-Sherwood Road","city":"Sherwood","state":"OR","zip":"97140","distance":18.387978851209,"lon":"-122.840163","lat":"45.370381","theaterChainName":"Regal Cinemas","ticketType":"STANDARD"},{"id":"2720","tribuneTheaterId":"6170","providerTheaterId":"","name":"Palace Theatre - Silverton","address":"200 N. Water St.","city":"Silverton","state":"OR","zip":"97381","distance":18.748767035728,"lon":"-122.783463","lat":"45.005855","theaterChainName":"Independent Chains","ticketType":"STANDARD"},{"id":"1605","tribuneTheaterId":"8432","providerTheaterId":"","name":"Century Eastport 16","address":"4040 S.E. 82nd Ave.","city":"Portland","state":"OR","zip":"97266","distance":19.458536465565,"lon":"-122.57471","lat":"45.493248","theaterChainName":"Cinemark","ticketType":"STANDARD"},{"id":"26","tribuneTheaterId":"8406","providerTheaterId":"","name":"Regal Tigard 11 Cinemas","address":"11626 S.W. Pacific Highway","city":"Tigard","state":"OR","zip":"97223","distance":18.719439020846,"lon":"-122.752819","lat":"45.436542","theaterChainName":"Regal Cinemas","ticketType":"STANDARD"},{"id":"1105","tribuneTheaterId":"238","providerTheaterId":"","name":"Bagdad Theater and Pub","address":"3702 S.E. Hawthorne Blvd.","city":"Portland","state":"OR","zip":"97214","distance":21.111895530008,"lon":"-122.625532","lat":"45.511877","theaterChainName":"McMenamins","ticketType":"STANDARD"},{"id":"4177","tribuneTheaterId":"2213","providerTheaterId":"","name":"Academy Theater","address":"7818 S.E. Stark St.","city":"Portland","state":"OR","zip":"97215","distance":21.26585284017,"lon":"-122.582964","lat":"45.518942","theaterChainName":"Independent Chains","ticketType":"STANDARD"},{"id":"622","tribuneTheaterId":"7263","providerTheaterId":"","name":"Regal Division Street Stadium 13","address":"16603 SE Division St.","city":"Portland","state":"OR","zip":"97236","distance":20.336325396175,"lon":"-122.492607","lat":"45.505813","theaterChainName":"Regal Cinemas","ticketType":"STANDARD"},{"id":"1116","tribuneTheaterId":"245","providerTheaterId":"","name":"Mt. Hood Theatre","address":"401 E. Powell Blvd.","city":"Gresham","state":"OR","zip":"97030","distance":20.418397147771,"lon":"-122.426874","lat":"45.498566","theaterChainName":"Independent Chains","ticketType":"STANDARD"},{"id":"818","tribuneTheaterId":"7560","providerTheaterId":"","name":"Regal Stark Street Stadium 10","address":"2929 N.E. Kane Dr.","city":"Gresham","state":"OR","zip":"97030","distance":22.039273935068,"lon":"-122.39873","lat":"45.517249","theaterChainName":"Regal Cinemas","ticketType":"STANDARD"},{"id":"2550","tribuneTheaterId":"435","providerTheaterId":"","name":"Edgefield Powerstation Theater","address":"2126 S.W. Halsey St.","city":"Troutdale","state":"OR","zip":"97060","distance":23.206055438957,"lon":"-122.407315","lat":"45.536648","theaterChainName":"McMenamins","ticketType":"STANDARD"},{"id":"1106","tribuneTheaterId":"239","providerTheaterId":"","name":"Cameo Theatre","address":"304 E. First","city":"Newberg","state":"OR","zip":"97132","distance":22.310017721738,"lon":"-122.976781","lat":"45.300151","theaterChainName":"Independent Chains","ticketType":"STANDARD"},{"id":"1118","tribuneTheaterId":"246","providerTheaterId":"","name":"Roseway Theatre","address":"7229 NE Sandy Blvd.","city":"Portland","state":"OR","zip":"97213","distance":23.335809614504,"lon":"-122.588402","lat":"45.548662","theaterChainName":"Independent Chains","ticketType":"STANDARD"},{"id":"2718","tribuneTheaterId":"6734","providerTheaterId":"","name":"Hollywood Theatre","address":"4122 NE Sandy Blvd.","city":"Portland","state":"OR","zip":"97212","distance":22.68787481392,"lon":"-122.620678","lat":"45.535816","theaterChainName":"Independent Chains","ticketType":"STANDARD"},{"id":"3086","tribuneTheaterId":"4627","providerTheaterId":"","name":"Regal Fox Tower Stadium 10","address":"846 S.W. Park Ave.","city":"Portland","state":"OR","zip":"97205","distance":22.254520317317,"lon":"-122.681145","lat":"45.518313","theaterChainName":"Regal Cinemas","ticketType":"STANDARD"},{"id":"3206","tribuneTheaterId":"545","providerTheaterId":"","name":"NW Film Center's Whitsell Auditorium","address":"1219 S.W. Park Ave.","city":"Portland","state":"OR","zip":"97205","distance":22.145304210768,"lon":"-122.682999","lat":"45.516201","theaterChainName":"Independent Chains","ticketType":"STANDARD"},{"id":"1114","tribuneTheaterId":"243","providerTheaterId":"","name":"Mission Theater and Pub","address":"1624 NW Glisan St.","city":"Portland","state":"OR","zip":"97209","distance":22.879516034756,"lon":"-122.688146","lat":"45.526198","theaterChainName":"McMenamins","ticketType":"STANDARD"},{"id":"1107","tribuneTheaterId":"240","providerTheaterId":"","name":"Cinema 21","address":"616 N.W. 21st Ave.","city":"Portland","state":"OR","zip":"97209","distance":23.038553507774,"lon":"-122.6944","lat":"45.5271","theaterChainName":"Independent Chains","ticketType":"STANDARD"},{"id":"4312","tribuneTheaterId":"3031","providerTheaterId":"","name":"Living Room Theaters","address":"341 S.W. Tenth Ave.","city":"Portland","state":"OR","zip":"97205","distance":22.522113380581,"lon":"-122.681382","lat":"45.522342","theaterChainName":"Independent Chains","ticketType":"STANDARD"},{"id":"3629","tribuneTheaterId":"4625","providerTheaterId":"","name":"Pioneer Place Stadium 6","address":"340 S.W. Morrison St.","city":"Portland","state":"OR","zip":"97204","distance":22.175637330795,"lon":"-122.676408","lat":"45.518211","theaterChainName":"Regal Cinemas","ticketType":"STANDARD"},{"id":"1111","tribuneTheaterId":"1657","providerTheaterId":"","name":"Laurelhurst Theatre","address":"2735 E. Burnside St.","city":"Portland","state":"OR","zip":"97214","distance":22.003298177042,"lon":"-122.637491","lat":"45.523227","theaterChainName":"Independent Chains","ticketType":"STANDARD"},{"id":"24","tribuneTheaterId":"8186","providerTheaterId":"","name":"807 Lloyd Center 10 and IMAX","address":"1510 N.E. Multnomah Blvd.","city":"Portland","state":"OR","zip":"97232","distance":22.765681947332,"lon":"-122.651668","lat":"45.532154","theaterChainName":"Regal Cinemas","ticketType":"STANDARD"},{"id":"3909","tribuneTheaterId":"4849","providerTheaterId":"","name":"Century 16 Cedar Hills Crossing","address":"3200 S.W. Hocken Ave.","city":"Beaverton","state":"OR","zip":"97005","distance":23.826923343139,"lon":"-122.81215","lat":"45.497641","theaterChainName":"Cinemark","ticketType":"STANDARD"},{"id":"25","tribuneTheaterId":"7729","providerTheaterId":"","name":"Regal Lloyd Mall 8 Cinema","address":"2320 Lloyd Center Mall","city":"Portland","state":"OR","zip":"97232","distance":22.854242389614,"lon":"-122.653449","lat":"45.533155","theaterChainName":"Regal Cinemas","ticketType":"STANDARD"},{"id":"2566","tribuneTheaterId":"1196","providerTheaterId":"","name":"Kennedy School Theater","address":"5736 N.E. 33rd Ave.","city":"Portland","state":"OR","zip":"97211","distance":24.718367625993,"lon":"-122.630005","lat":"45.56449","theaterChainName":"McMenamins","ticketType":"STANDARD"}]