[{"id":"4507","tribuneTheaterId":"9613","providerTheaterId":"","name":"Scappoose Cinema 7","address":"33520 SW Edward Lane","city":"Scappoose","state":"OR","zip":"97056","distance":17.298142500688,"lon":"-122.878776","lat":"45.740889","theaterChainName":"Independent Chains","ticketType":"STANDARD"},{"id":"2376","tribuneTheaterId":"392","providerTheaterId":"","name":"Columbia Theatre St. Helens","address":"212 S. First Street","city":"Saint Helens","state":"OR","zip":"97051","distance":19.183913173072,"lon":"-122.798111","lat":"45.863619","theaterChainName":"Independent Chains","ticketType":"STANDARD"},{"id":"5549","tribuneTheaterId":"10990","providerTheaterId":"","name":"Regal Three Rivers Mall 12 & RPX","address":"341 Three Rivers Dr.","city":"Kelso","state":"WA","zip":"98626","distance":24.130466782564,"lon":"-122.9015","lat":"46.14","theaterChainName":"Regal Cinemas","ticketType":"STANDARD"},{"id":"2375","tribuneTheaterId":"391","providerTheaterId":"","name":"Kelso Theatre Pub","address":"214 S. Pacific Ave.","city":"Kelso","state":"WA","zip":"98626","distance":24.060492961387,"lon":"-122.911606","lat":"46.143736","theaterChainName":"Independent Chains","ticketType":"STANDARD"},{"id":"2717","tribuneTheaterId":"1209","providerTheaterId":"","name":"Forest Theatre","address":"1911 Pacific Ave.","city":"Forest Grove","state":"OR","zip":"97116","distance":23.667792724995,"lon":"-123.113278","lat":"45.519745","theaterChainName":"Independent Chains","ticketType":"STANDARD"},{"id":"45","tribuneTheaterId":"7726","providerTheaterId":"","name":"Regal Triangle Quad Cinemas","address":"1228 Washington Way","city":"Longview","state":"WA","zip":"98632","distance":23.34372603785,"lon":"-122.933969","lat":"46.141621","theaterChainName":"Regal Cinemas","ticketType":"STANDARD"},{"id":"5619","tribuneTheaterId":"11080","providerTheaterId":"","name":"Grand Lodge Theater","address":"3505 Pacific Avenue","city":"Forest Grove","state":"OR","zip":"97116","distance":23.798465566357,"lon":"-123.086162","lat":"45.521627","theaterChainName":"Independent Chains","ticketType":"STANDARD"},{"id":"316","tribuneTheaterId":"6475","providerTheaterId":"","name":"Cornelius 9 Cinemas","address":"200 N. 26th Ave.","city":"Cornelius","state":"OR","zip":"97113","distance":24.417009616525,"lon":"-123.038767","lat":"45.52157","theaterChainName":"Independent Chains","ticketType":"STANDARD"}]