[{"id":"2051","tribuneTheaterId":"5003","providerTheaterId":"","name":"McMinnville 10","address":"2725 NE Tanger Drive","city":"McMinnville","state":"OR","zip":"97128","distance":6.0799059758005,"lon":"-123.165083","lat":"45.20345","theaterChainName":"Coming Attractions","ticketType":"STANDARD"},{"id":"4820","tribuneTheaterId":"10083","providerTheaterId":"","name":"Cinebarre Salem 7","address":"501 Marion St. NE","city":"Salem","state":"OR","zip":"97301","distance":13.685314687839,"lon":"-123.034435","lat":"44.944099","theaterChainName":"Cinebarre","ticketType":"STANDARD"},{"id":"2794","tribuneTheaterId":"2584","providerTheaterId":"","name":"Salem Cinema","address":"1127 Broadway NE","city":"Salem","state":"OR","zip":"97301","distance":13.341503475907,"lon":"-123.031906","lat":"44.950943","theaterChainName":"Independent Chains","ticketType":"STANDARD"},{"id":"2616","tribuneTheaterId":"2553","providerTheaterId":"","name":"Fox Theatre","address":"166 S.E. Mill St.","city":"Dallas","state":"OR","zip":"97338","distance":15.084517762317,"lon":"-123.315588","lat":"44.921526","theaterChainName":"Independent Chains","ticketType":"STANDARD"},{"id":"4254","tribuneTheaterId":"7137","providerTheaterId":"","name":"Lancaster Mall Stadium 11","address":"831 Lancaster Dr. NE","city":"Salem","state":"OR","zip":"97301","distance":15.150012482335,"lon":"-122.985087","lat":"44.941984","theaterChainName":"Regal Cinemas","ticketType":"STANDARD"},{"id":"3890","tribuneTheaterId":"1633","providerTheaterId":"","name":"Northern Lights Theatre Pub","address":"3893 Commercial St. SE","city":"Salem","state":"OR","zip":"97302","distance":16.291169342974,"lon":"-123.039935","lat":"44.89993","theaterChainName":"Independent Chains","ticketType":"STANDARD"},{"id":"1106","tribuneTheaterId":"239","providerTheaterId":"","name":"Cameo Theatre","address":"304 E. First","city":"Newberg","state":"OR","zip":"97132","distance":15.967431793367,"lon":"-122.976781","lat":"45.300151","theaterChainName":"Independent Chains","ticketType":"STANDARD"},{"id":"2182","tribuneTheaterId":"8187","providerTheaterId":"","name":"Regal Santiam Stadium 11","address":"365 Lancaster Dr S.E.","city":"Salem","state":"OR","zip":"97301","distance":16.170852718876,"lon":"-122.985538","lat":"44.923465","theaterChainName":"Regal Cinemas","ticketType":"STANDARD"},{"id":"4351","tribuneTheaterId":"9366","providerTheaterId":"","name":"Independence Cinema","address":"450 S. 2nd Street","city":"Independence","state":"OR","zip":"97351","distance":18.37550083127,"lon":"-123.186899","lat":"44.849895","theaterChainName":"Independent Chains","ticketType":"STANDARD"},{"id":"2720","tribuneTheaterId":"6170","providerTheaterId":"","name":"Palace Theatre - Silverton","address":"200 N. Water St.","city":"Silverton","state":"OR","zip":"97381","distance":20.533552236742,"lon":"-122.783463","lat":"45.005855","theaterChainName":"Independent Chains","ticketType":"STANDARD"},{"id":"305","tribuneTheaterId":"8501","providerTheaterId":"","name":"Regal Wilsonville Stadium 9 Cinema","address":"29300 SW Town Center Loop","city":"Wilsonville","state":"OR","zip":"97070","distance":23.928859652621,"lon":"-122.765651","lat":"45.308113","theaterChainName":"Regal Cinemas","ticketType":"STANDARD"},{"id":"2953","tribuneTheaterId":"4626","providerTheaterId":"","name":"Regal Sherwood Stadium 10","address":"15995 Tualatin-Sherwood Road","city":"Sherwood","state":"OR","zip":"97140","distance":23.959070718426,"lon":"-122.840163","lat":"45.370381","theaterChainName":"Regal Cinemas","ticketType":"STANDARD"}]