[{"id":"5619","tribuneTheaterId":"11080","providerTheaterId":"","name":"Grand Lodge Theater","address":"3505 Pacific Avenue","city":"Forest Grove","state":"OR","zip":"97116","distance":16.122959398875,"lon":"-123.086162","lat":"45.521627","theaterChainName":"Independent Chains","ticketType":"STANDARD"},{"id":"2717","tribuneTheaterId":"1209","providerTheaterId":"","name":"Forest Theatre","address":"1911 Pacific Ave.","city":"Forest Grove","state":"OR","zip":"97116","distance":15.789021856044,"lon":"-123.113278","lat":"45.519745","theaterChainName":"Independent Chains","ticketType":"STANDARD"},{"id":"4507","tribuneTheaterId":"9613","providerTheaterId":"","name":"Scappoose Cinema 7","address":"33520 SW Edward Lane","city":"Scappoose","state":"OR","zip":"97056","distance":16.19638803729,"lon":"-122.878776","lat":"45.740889","theaterChainName":"Independent Chains","ticketType":"STANDARD"},{"id":"316","tribuneTheaterId":"6475","providerTheaterId":"","name":"Cornelius 9 Cinemas","address":"200 N. 26th Ave.","city":"Cornelius","state":"OR","zip":"97113","distance":17.138633430529,"lon":"-123.038767","lat":"45.52157","theaterChainName":"Independent Chains","ticketType":"STANDARD"},{"id":"28","tribuneTheaterId":"8299","providerTheaterId":"","name":"Regal Evergreen Parkway Stadium 13","address":"2625 N.W. 188th Ave.","city":"Hillsboro","state":"OR","zip":"97124","distance":21.487938679207,"lon":"-122.871485","lat":"45.539092","theaterChainName":"Regal Cinemas","ticketType":"STANDARD"},{"id":"689","tribuneTheaterId":"7730","providerTheaterId":"","name":"Regal Movies On TV Stadium 16","address":"2929 S.W. 234th Ave.","city":"Hillsboro","state":"OR","zip":"97123","distance":21.810057771542,"lon":"-122.920028","lat":"45.497854","theaterChainName":"Regal Cinemas","ticketType":"STANDARD"},{"id":"2376","tribuneTheaterId":"392","providerTheaterId":"","name":"Columbia Theatre St. Helens","address":"212 S. First Street","city":"Saint Helens","state":"OR","zip":"97051","distance":21.88643733828,"lon":"-122.798111","lat":"45.863619","theaterChainName":"Independent Chains","ticketType":"STANDARD"},{"id":"1119","tribuneTheaterId":"1093","providerTheaterId":"","name":"St. Johns Twin Cinemas and Pub","address":"8704 N. Lombard St.","city":"Saint Johns","state":"OR","zip":"97203","distance":24.366690281905,"lon":"-122.755519","lat":"45.59059","theaterChainName":"Independent Chains","ticketType":"STANDARD"},{"id":"3654","tribuneTheaterId":"2785","providerTheaterId":"","name":"St. Johns Pub and Theater","address":"8203 N. Ivanhoe St.","city":"Portland","state":"OR","zip":"97202","distance":24.361400153055,"lon":"-122.755646","lat":"45.59058","theaterChainName":"McMenamins","ticketType":"STANDARD"}]