[{"id":"2051","tribuneTheaterId":"5003","providerTheaterId":"","name":"McMinnville 10","address":"2725 NE Tanger Drive","city":"McMinnville","state":"OR","zip":"97128","distance":1.9573097891497,"lon":"-123.165083","lat":"45.20345","theaterChainName":"Coming Attractions","ticketType":"STANDARD"},{"id":"1106","tribuneTheaterId":"239","providerTheaterId":"","name":"Cameo Theatre","address":"304 E. First","city":"Newberg","state":"OR","zip":"97132","distance":12.708938518278,"lon":"-122.976781","lat":"45.300151","theaterChainName":"Independent Chains","ticketType":"STANDARD"},{"id":"2794","tribuneTheaterId":"2584","providerTheaterId":"","name":"Salem Cinema","address":"1127 Broadway NE","city":"Salem","state":"OR","zip":"97301","distance":19.75793765906,"lon":"-123.031906","lat":"44.950943","theaterChainName":"Independent Chains","ticketType":"STANDARD"},{"id":"2953","tribuneTheaterId":"4626","providerTheaterId":"","name":"Regal Sherwood Stadium 10","address":"15995 Tualatin-Sherwood Road","city":"Sherwood","state":"OR","zip":"97140","distance":20.893701109443,"lon":"-122.840163","lat":"45.370381","theaterChainName":"Regal Cinemas","ticketType":"STANDARD"},{"id":"4820","tribuneTheaterId":"10083","providerTheaterId":"","name":"Cinebarre Salem 7","address":"501 Marion St. NE","city":"Salem","state":"OR","zip":"97301","distance":20.135940666099,"lon":"-123.034435","lat":"44.944099","theaterChainName":"Cinebarre","ticketType":"STANDARD"},{"id":"4254","tribuneTheaterId":"7137","providerTheaterId":"","name":"Lancaster Mall Stadium 11","address":"831 Lancaster Dr. NE","city":"Salem","state":"OR","zip":"97301","distance":21.367066456181,"lon":"-122.985087","lat":"44.941984","theaterChainName":"Regal Cinemas","ticketType":"STANDARD"},{"id":"2616","tribuneTheaterId":"2553","providerTheaterId":"","name":"Fox Theatre","address":"166 S.E. Mill St.","city":"Dallas","state":"OR","zip":"97338","distance":20.638266414796,"lon":"-123.315588","lat":"44.921526","theaterChainName":"Independent Chains","ticketType":"STANDARD"},{"id":"305","tribuneTheaterId":"8501","providerTheaterId":"","name":"Regal Wilsonville Stadium 9 Cinema","address":"29300 SW Town Center Loop","city":"Wilsonville","state":"OR","zip":"97070","distance":22.391113331164,"lon":"-122.765651","lat":"45.308113","theaterChainName":"Regal Cinemas","ticketType":"STANDARD"},{"id":"3890","tribuneTheaterId":"1633","providerTheaterId":"","name":"Northern Lights Theatre Pub","address":"3893 Commercial St. SE","city":"Salem","state":"OR","zip":"97302","distance":22.857187922613,"lon":"-123.039935","lat":"44.89993","theaterChainName":"Independent Chains","ticketType":"STANDARD"},{"id":"316","tribuneTheaterId":"6475","providerTheaterId":"","name":"Cornelius 9 Cinemas","address":"200 N. 26th Ave.","city":"Cornelius","state":"OR","zip":"97113","distance":22.997639784753,"lon":"-123.038767","lat":"45.52157","theaterChainName":"Independent Chains","ticketType":"STANDARD"},{"id":"2182","tribuneTheaterId":"8187","providerTheaterId":"","name":"Regal Santiam Stadium 11","address":"365 Lancaster Dr S.E.","city":"Salem","state":"OR","zip":"97301","distance":22.474242118698,"lon":"-122.985538","lat":"44.923465","theaterChainName":"Regal Cinemas","ticketType":"STANDARD"},{"id":"2717","tribuneTheaterId":"1209","providerTheaterId":"","name":"Forest Theatre","address":"1911 Pacific Ave.","city":"Forest Grove","state":"OR","zip":"97116","distance":21.872982593592,"lon":"-123.113278","lat":"45.519745","theaterChainName":"Independent Chains","ticketType":"STANDARD"},{"id":"5619","tribuneTheaterId":"11080","providerTheaterId":"","name":"Grand Lodge Theater","address":"3505 Pacific Avenue","city":"Forest Grove","state":"OR","zip":"97116","distance":22.302008923975,"lon":"-123.086162","lat":"45.521627","theaterChainName":"Independent Chains","ticketType":"STANDARD"},{"id":"4351","tribuneTheaterId":"9366","providerTheaterId":"","name":"Independence Cinema","address":"450 S. 2nd Street","city":"Independence","state":"OR","zip":"97351","distance":24.874632662139,"lon":"-123.186899","lat":"44.849895","theaterChainName":"Independent Chains","ticketType":"STANDARD"},{"id":"2720","tribuneTheaterId":"6170","providerTheaterId":"","name":"Palace Theatre - Silverton","address":"200 N. Water St.","city":"Silverton","state":"OR","zip":"97381","distance":24.889989094232,"lon":"-122.783463","lat":"45.005855","theaterChainName":"Independent Chains","ticketType":"STANDARD"},{"id":"689","tribuneTheaterId":"7730","providerTheaterId":"","name":"Regal Movies On TV Stadium 16","address":"2929 S.W. 234th Ave.","city":"Hillsboro","state":"OR","zip":"97123","distance":24.22591611067,"lon":"-122.920028","lat":"45.497854","theaterChainName":"Regal Cinemas","ticketType":"STANDARD"}]