[{"id":"4507","tribuneTheaterId":"9613","providerTheaterId":"","name":"Scappoose Cinema 7","address":"33520 SW Edward Lane","city":"Scappoose","state":"OR","zip":"97056","distance":8.76703430731,"lon":"-122.878776","lat":"45.740889","theaterChainName":"Independent Chains","ticketType":"STANDARD"},{"id":"316","tribuneTheaterId":"6475","providerTheaterId":"","name":"Cornelius 9 Cinemas","address":"200 N. 26th Ave.","city":"Cornelius","state":"OR","zip":"97113","distance":10.171869830946,"lon":"-123.038767","lat":"45.52157","theaterChainName":"Independent Chains","ticketType":"STANDARD"},{"id":"5619","tribuneTheaterId":"11080","providerTheaterId":"","name":"Grand Lodge Theater","address":"3505 Pacific Avenue","city":"Forest Grove","state":"OR","zip":"97116","distance":10.535685151398,"lon":"-123.086162","lat":"45.521627","theaterChainName":"Independent Chains","ticketType":"STANDARD"},{"id":"28","tribuneTheaterId":"8299","providerTheaterId":"","name":"Regal Evergreen Parkway Stadium 13","address":"2625 N.W. 188th Ave.","city":"Hillsboro","state":"OR","zip":"97124","distance":11.72103064816,"lon":"-122.871485","lat":"45.539092","theaterChainName":"Regal Cinemas","ticketType":"STANDARD"},{"id":"2717","tribuneTheaterId":"1209","providerTheaterId":"","name":"Forest Theatre","address":"1911 Pacific Ave.","city":"Forest Grove","state":"OR","zip":"97116","distance":11.078699993601,"lon":"-123.113278","lat":"45.519745","theaterChainName":"Independent Chains","ticketType":"STANDARD"},{"id":"689","tribuneTheaterId":"7730","providerTheaterId":"","name":"Regal Movies On TV Stadium 16","address":"2929 S.W. 234th Ave.","city":"Hillsboro","state":"OR","zip":"97123","distance":12.903084307901,"lon":"-122.920028","lat":"45.497854","theaterChainName":"Regal Cinemas","ticketType":"STANDARD"},{"id":"3654","tribuneTheaterId":"2785","providerTheaterId":"","name":"St. Johns Pub and Theater","address":"8203 N. Ivanhoe St.","city":"Portland","state":"OR","zip":"97202","distance":14.225006575826,"lon":"-122.755646","lat":"45.59058","theaterChainName":"McMenamins","ticketType":"STANDARD"},{"id":"1119","tribuneTheaterId":"1093","providerTheaterId":"","name":"St. Johns Twin Cinemas and Pub","address":"8704 N. Lombard St.","city":"Saint Johns","state":"OR","zip":"97203","distance":14.230422484689,"lon":"-122.755519","lat":"45.59059","theaterChainName":"Independent Chains","ticketType":"STANDARD"},{"id":"3909","tribuneTheaterId":"4849","providerTheaterId":"","name":"Century 16 Cedar Hills Crossing","address":"3200 S.W. Hocken Ave.","city":"Beaverton","state":"OR","zip":"97005","distance":15.766224868834,"lon":"-122.81215","lat":"45.497641","theaterChainName":"Cinemark","ticketType":"STANDARD"},{"id":"1596","tribuneTheaterId":"4618","providerTheaterId":"","name":"Regal City Center Stadium 12","address":"801 C St.","city":"Vancouver","state":"WA","zip":"98660","distance":17.582299814674,"lon":"-122.668946","lat":"45.627143","theaterChainName":"Regal Cinemas","ticketType":"STANDARD"},{"id":"1303","tribuneTheaterId":"261","providerTheaterId":"","name":"Kiggins Theatre","address":"1011 Main St.","city":"Vancouver","state":"WA","zip":"98660","distance":17.435452103421,"lon":"-122.67154","lat":"45.629216","theaterChainName":"Independent Chains","ticketType":"STANDARD"},{"id":"2376","tribuneTheaterId":"392","providerTheaterId":"","name":"Columbia Theatre St. Helens","address":"212 S. First Street","city":"Saint Helens","state":"OR","zip":"97051","distance":17.448292801432,"lon":"-122.798111","lat":"45.863619","theaterChainName":"Independent Chains","ticketType":"STANDARD"},{"id":"1595","tribuneTheaterId":"4617","providerTheaterId":"","name":"Regal Cinema 99 Stadium 11","address":"9010 N.E. Highway 99","city":"Vancouver","state":"WA","zip":"98665","distance":17.705193296937,"lon":"-122.662418","lat":"45.688247","theaterChainName":"Regal Cinemas","ticketType":"STANDARD"},{"id":"5140","tribuneTheaterId":"10546","providerTheaterId":"","name":"Jubitz Cinema","address":"10350 North Vancouver Way","city":"Portland","state":"OR","zip":"97217","distance":18.014193244641,"lon":"-122.669701","lat":"45.596699","theaterChainName":"Independent Chains","ticketType":"STANDARD"},{"id":"4312","tribuneTheaterId":"3031","providerTheaterId":"","name":"Living Room Theaters","address":"341 S.W. Tenth Ave.","city":"Portland","state":"OR","zip":"97205","distance":19.572876076608,"lon":"-122.681382","lat":"45.522342","theaterChainName":"Independent Chains","ticketType":"STANDARD"},{"id":"1114","tribuneTheaterId":"243","providerTheaterId":"","name":"Mission Theater and Pub","address":"1624 NW Glisan St.","city":"Portland","state":"OR","zip":"97209","distance":19.154875104394,"lon":"-122.688146","lat":"45.526198","theaterChainName":"McMenamins","ticketType":"STANDARD"},{"id":"1107","tribuneTheaterId":"240","providerTheaterId":"","name":"Cinema 21","address":"616 N.W. 21st Ave.","city":"Portland","state":"OR","zip":"97209","distance":18.863616951196,"lon":"-122.6944","lat":"45.5271","theaterChainName":"Independent Chains","ticketType":"STANDARD"},{"id":"3206","tribuneTheaterId":"545","providerTheaterId":"","name":"NW Film Center's Whitsell Auditorium","address":"1219 S.W. Park Ave.","city":"Portland","state":"OR","zip":"97205","distance":19.729894840925,"lon":"-122.682999","lat":"45.516201","theaterChainName":"Independent Chains","ticketType":"STANDARD"},{"id":"3086","tribuneTheaterId":"4627","providerTheaterId":"","name":"Regal Fox Tower Stadium 10","address":"846 S.W. Park Ave.","city":"Portland","state":"OR","zip":"97205","distance":19.728295432699,"lon":"-122.681145","lat":"45.518313","theaterChainName":"Regal Cinemas","ticketType":"STANDARD"},{"id":"25","tribuneTheaterId":"7729","providerTheaterId":"","name":"Regal Lloyd Mall 8 Cinema","address":"2320 Lloyd Center Mall","city":"Portland","state":"OR","zip":"97232","distance":20.386020052523,"lon":"-122.653449","lat":"45.533155","theaterChainName":"Regal Cinemas","ticketType":"STANDARD"},{"id":"3629","tribuneTheaterId":"4625","providerTheaterId":"","name":"Pioneer Place Stadium 6","address":"340 S.W. Morrison St.","city":"Portland","state":"OR","zip":"97204","distance":19.927078661079,"lon":"-122.676408","lat":"45.518211","theaterChainName":"Regal Cinemas","ticketType":"STANDARD"},{"id":"5186","tribuneTheaterId":"10601","providerTheaterId":"","name":"Cinetopia Vancouver Mall 23","address":"8700 NE Vancouver Mall Dr.","city":"Vancouver","state":"WA","zip":"98662","distance":21.469135374261,"lon":"-122.583738","lat":"45.65818","theaterChainName":"Independent Chains","ticketType":"STANDARD"},{"id":"27","tribuneTheaterId":"9032","providerTheaterId":"","name":"Regal Vancouver Plaza 10 Cinema","address":"7800 N.E. Fourth Plain Road","city":"Vancouver","state":"WA","zip":"98662","distance":20.943926469154,"lon":"-122.595438","lat":"45.647694","theaterChainName":"Regal Cinemas","ticketType":"STANDARD"},{"id":"1111","tribuneTheaterId":"1657","providerTheaterId":"","name":"Laurelhurst Theatre","address":"2735 E. Burnside St.","city":"Portland","state":"OR","zip":"97214","distance":21.389251387816,"lon":"-122.637491","lat":"45.523227","theaterChainName":"Independent Chains","ticketType":"STANDARD"},{"id":"26","tribuneTheaterId":"8406","providerTheaterId":"","name":"Regal Tigard 11 Cinemas","address":"11626 S.W. Pacific Highway","city":"Tigard","state":"OR","zip":"97223","distance":20.843938693938,"lon":"-122.752819","lat":"45.436542","theaterChainName":"Regal Cinemas","ticketType":"STANDARD"},{"id":"24","tribuneTheaterId":"8186","providerTheaterId":"","name":"807 Lloyd Center 10 and IMAX","address":"1510 N.E. Multnomah Blvd.","city":"Portland","state":"OR","zip":"97232","distance":20.49441301274,"lon":"-122.651668","lat":"45.532154","theaterChainName":"Regal Cinemas","ticketType":"STANDARD"},{"id":"2566","tribuneTheaterId":"1196","providerTheaterId":"","name":"Kennedy School Theater","address":"5736 N.E. 33rd Ave.","city":"Portland","state":"OR","zip":"97211","distance":20.539805366706,"lon":"-122.630005","lat":"45.56449","theaterChainName":"McMenamins","ticketType":"STANDARD"},{"id":"3999","tribuneTheaterId":"4629","providerTheaterId":"","name":"Regal Cinemas Bridgeport Village Stadium 18 & IMAX","address":"7329 SW Bridgeport Road","city":"Tigard","state":"OR","zip":"97224","distance":23.01445709538,"lon":"-122.752177","lat":"45.397321","theaterChainName":"Regal Cinemas","ticketType":"STANDARD"},{"id":"2953","tribuneTheaterId":"4626","providerTheaterId":"","name":"Regal Sherwood Stadium 10","address":"15995 Tualatin-Sherwood Road","city":"Sherwood","state":"OR","zip":"97140","distance":22.524240334765,"lon":"-122.840163","lat":"45.370381","theaterChainName":"Regal Cinemas","ticketType":"STANDARD"},{"id":"1105","tribuneTheaterId":"238","providerTheaterId":"","name":"Bagdad Theater and Pub","address":"3702 S.E. Hawthorne Blvd.","city":"Portland","state":"OR","zip":"97214","distance":22.273654959813,"lon":"-122.625532","lat":"45.511877","theaterChainName":"McMenamins","ticketType":"STANDARD"},{"id":"2718","tribuneTheaterId":"6734","providerTheaterId":"","name":"Hollywood Theatre","address":"4122 NE Sandy Blvd.","city":"Portland","state":"OR","zip":"97212","distance":21.726857790384,"lon":"-122.620678","lat":"45.535816","theaterChainName":"Independent Chains","ticketType":"STANDARD"},{"id":"1118","tribuneTheaterId":"246","providerTheaterId":"","name":"Roseway Theatre","address":"7229 NE Sandy Blvd.","city":"Portland","state":"OR","zip":"97213","distance":22.811083327611,"lon":"-122.588402","lat":"45.548662","theaterChainName":"Independent Chains","ticketType":"STANDARD"},{"id":"4101","tribuneTheaterId":"2166","providerTheaterId":"","name":"Cinetopia Mill Plain 8","address":"11700 S.E. 7th St.","city":"Vancouver","state":"WA","zip":"98683","distance":23.346496218847,"lon":"-122.550555","lat":"45.616559","theaterChainName":"Independent Chains","ticketType":"STANDARD"},{"id":"4014","tribuneTheaterId":"2159","providerTheaterId":"","name":"Battle Ground Cinema","address":"1700 SW 9th Ave.","city":"Battle Ground","state":"WA","zip":"98604","distance":24.275612450123,"lon":"-122.5456","lat":"45.7684","theaterChainName":"Independent Chains","ticketType":"STANDARD"},{"id":"1110","tribuneTheaterId":"1091","providerTheaterId":"","name":"Lake Twin Cinema","address":"106 N. State St.","city":"Lake Oswego","state":"OR","zip":"97034","distance":24.804704917125,"lon":"-122.663695","lat":"45.416122","theaterChainName":"Independent Chains","ticketType":"STANDARD"},{"id":"4177","tribuneTheaterId":"2213","providerTheaterId":"","name":"Academy Theater","address":"7818 S.E. Stark St.","city":"Portland","state":"OR","zip":"97215","distance":23.876387961821,"lon":"-122.582964","lat":"45.518942","theaterChainName":"Independent Chains","ticketType":"STANDARD"}]