[{"id":"2051","tribuneTheaterId":"5003","providerTheaterId":"","name":"McMinnville 10","address":"2725 NE Tanger Drive","city":"McMinnville","state":"OR","zip":"97128","distance":9.2801873955277,"lon":"-123.165083","lat":"45.20345","theaterChainName":"Coming Attractions","ticketType":"STANDARD"},{"id":"1106","tribuneTheaterId":"239","providerTheaterId":"","name":"Cameo Theatre","address":"304 E. First","city":"Newberg","state":"OR","zip":"97132","distance":11.279936449796,"lon":"-122.976781","lat":"45.300151","theaterChainName":"Independent Chains","ticketType":"STANDARD"},{"id":"5619","tribuneTheaterId":"11080","providerTheaterId":"","name":"Grand Lodge Theater","address":"3505 Pacific Avenue","city":"Forest Grove","state":"OR","zip":"97116","distance":14.096110366991,"lon":"-123.086162","lat":"45.521627","theaterChainName":"Independent Chains","ticketType":"STANDARD"},{"id":"2717","tribuneTheaterId":"1209","providerTheaterId":"","name":"Forest Theatre","address":"1911 Pacific Ave.","city":"Forest Grove","state":"OR","zip":"97116","distance":13.495123590565,"lon":"-123.113278","lat":"45.519745","theaterChainName":"Independent Chains","ticketType":"STANDARD"},{"id":"316","tribuneTheaterId":"6475","providerTheaterId":"","name":"Cornelius 9 Cinemas","address":"200 N. 26th Ave.","city":"Cornelius","state":"OR","zip":"97113","distance":15.167543315514,"lon":"-123.038767","lat":"45.52157","theaterChainName":"Independent Chains","ticketType":"STANDARD"},{"id":"2953","tribuneTheaterId":"4626","providerTheaterId":"","name":"Regal Sherwood Stadium 10","address":"15995 Tualatin-Sherwood Road","city":"Sherwood","state":"OR","zip":"97140","distance":17.815071405784,"lon":"-122.840163","lat":"45.370381","theaterChainName":"Regal Cinemas","ticketType":"STANDARD"},{"id":"689","tribuneTheaterId":"7730","providerTheaterId":"","name":"Regal Movies On TV Stadium 16","address":"2929 S.W. 234th Ave.","city":"Hillsboro","state":"OR","zip":"97123","distance":17.769662627174,"lon":"-122.920028","lat":"45.497854","theaterChainName":"Regal Cinemas","ticketType":"STANDARD"},{"id":"28","tribuneTheaterId":"8299","providerTheaterId":"","name":"Regal Evergreen Parkway Stadium 13","address":"2625 N.W. 188th Ave.","city":"Hillsboro","state":"OR","zip":"97124","distance":21.403549780704,"lon":"-122.871485","lat":"45.539092","theaterChainName":"Regal Cinemas","ticketType":"STANDARD"},{"id":"26","tribuneTheaterId":"8406","providerTheaterId":"","name":"Regal Tigard 11 Cinemas","address":"11626 S.W. Pacific Highway","city":"Tigard","state":"OR","zip":"97223","distance":22.972254626234,"lon":"-122.752819","lat":"45.436542","theaterChainName":"Regal Cinemas","ticketType":"STANDARD"},{"id":"3999","tribuneTheaterId":"4629","providerTheaterId":"","name":"Regal Cinemas Bridgeport Village Stadium 18 & IMAX","address":"7329 SW Bridgeport Road","city":"Tigard","state":"OR","zip":"97224","distance":22.332499468389,"lon":"-122.752177","lat":"45.397321","theaterChainName":"Regal Cinemas","ticketType":"STANDARD"},{"id":"305","tribuneTheaterId":"8501","providerTheaterId":"","name":"Regal Wilsonville Stadium 9 Cinema","address":"29300 SW Town Center Loop","city":"Wilsonville","state":"OR","zip":"97070","distance":21.357089283718,"lon":"-122.765651","lat":"45.308113","theaterChainName":"Regal Cinemas","ticketType":"STANDARD"},{"id":"3909","tribuneTheaterId":"4849","providerTheaterId":"","name":"Century 16 Cedar Hills Crossing","address":"3200 S.W. Hocken Ave.","city":"Beaverton","state":"OR","zip":"97005","distance":22.061753650352,"lon":"-122.81215","lat":"45.497641","theaterChainName":"Cinemark","ticketType":"STANDARD"}]