[{"id":"4156","tribuneTheaterId":"1053","providerTheaterId":"","name":"Pix Theatre","address":"321 SW 2nd Ave.","city":"Albany","state":"OR","zip":"97321","distance":1.6690397352248,"lon":"-123.107498","lat":"44.636299","theaterChainName":"Independent Chains","ticketType":"STANDARD"},{"id":"50","tribuneTheaterId":"7728","providerTheaterId":"","name":"Regal Albany 7 Cinemas","address":"1350 S.E. Waverly Dr.","city":"Albany","state":"OR","zip":"97321","distance":3.3159395782789,"lon":"-123.073804","lat":"44.629391","theaterChainName":"Regal Cinemas","ticketType":"STANDARD"},{"id":"3869","tribuneTheaterId":"4720","providerTheaterId":"","name":"Carmike 12 Corvallis","address":"750 NE Circle Blvd.","city":"Corvallis","state":"OR","zip":"97330","distance":7.1841697058202,"lon":"-123.2493","lat":"44.5888","theaterChainName":"Carmike Cinemas","ticketType":"STANDARD"},{"id":"51","tribuneTheaterId":"8405","providerTheaterId":"","name":"Regal Ninth Street 4 Cinemas","address":"1750 N.W. 9th St.","city":"Corvallis","state":"OR","zip":"97330","distance":7.7087037256579,"lon":"-123.258598","lat":"44.584967","theaterChainName":"Regal Cinemas","ticketType":"STANDARD"},{"id":"4006","tribuneTheaterId":"5083","providerTheaterId":"","name":"Darkside Cinema","address":"215 SW 4th Street","city":"Corvallis","state":"OR","zip":"97333","distance":8.8240997119826,"lon":"-123.2625","lat":"44.5634","theaterChainName":"Independent Chains","ticketType":"STANDARD"},{"id":"4351","tribuneTheaterId":"9366","providerTheaterId":"","name":"Independence Cinema","address":"450 S. 2nd Street","city":"Independence","state":"OR","zip":"97351","distance":13.923858740401,"lon":"-123.186899","lat":"44.849895","theaterChainName":"Independent Chains","ticketType":"STANDARD"},{"id":"3890","tribuneTheaterId":"1633","providerTheaterId":"","name":"Northern Lights Theatre Pub","address":"3893 Commercial St. SE","city":"Salem","state":"OR","zip":"97302","distance":17.731804206306,"lon":"-123.039935","lat":"44.89993","theaterChainName":"Independent Chains","ticketType":"STANDARD"},{"id":"2182","tribuneTheaterId":"8187","providerTheaterId":"","name":"Regal Santiam Stadium 11","address":"365 Lancaster Dr S.E.","city":"Salem","state":"OR","zip":"97301","distance":20.107320886922,"lon":"-122.985538","lat":"44.923465","theaterChainName":"Regal Cinemas","ticketType":"STANDARD"},{"id":"2906","tribuneTheaterId":"485","providerTheaterId":"","name":"Star Cinema - Stayton","address":"350 North 3rd Avenue","city":"Stayton","state":"OR","zip":"97383","distance":19.537670861215,"lon":"-122.792141","lat":"44.797625","theaterChainName":"Independent Chains","ticketType":"STANDARD"},{"id":"2794","tribuneTheaterId":"2584","providerTheaterId":"","name":"Salem Cinema","address":"1127 Broadway NE","city":"Salem","state":"OR","zip":"97301","distance":21.244686667075,"lon":"-123.031906","lat":"44.950943","theaterChainName":"Independent Chains","ticketType":"STANDARD"},{"id":"4254","tribuneTheaterId":"7137","providerTheaterId":"","name":"Lancaster Mall Stadium 11","address":"831 Lancaster Dr. NE","city":"Salem","state":"OR","zip":"97301","distance":21.313016430928,"lon":"-122.985087","lat":"44.941984","theaterChainName":"Regal Cinemas","ticketType":"STANDARD"},{"id":"2616","tribuneTheaterId":"2553","providerTheaterId":"","name":"Fox Theatre","address":"166 S.E. Mill St.","city":"Dallas","state":"OR","zip":"97338","distance":20.656732129177,"lon":"-123.315588","lat":"44.921526","theaterChainName":"Independent Chains","ticketType":"STANDARD"},{"id":"4820","tribuneTheaterId":"10083","providerTheaterId":"","name":"Cinebarre Salem 7","address":"501 Marion St. NE","city":"Salem","state":"OR","zip":"97301","distance":20.755998255766,"lon":"-123.034435","lat":"44.944099","theaterChainName":"Cinebarre","ticketType":"STANDARD"}]