[{"id":"51","tribuneTheaterId":"8405","providerTheaterId":"","name":"Regal Ninth Street 4 Cinemas","address":"1750 N.W. 9th St.","city":"Corvallis","state":"OR","zip":"97330","distance":0.76739011044364,"lon":"-123.258598","lat":"44.584967","theaterChainName":"Regal Cinemas","ticketType":"STANDARD"},{"id":"4006","tribuneTheaterId":"5083","providerTheaterId":"","name":"Darkside Cinema","address":"215 SW 4th Street","city":"Corvallis","state":"OR","zip":"97333","distance":1.9256339151375,"lon":"-123.2625","lat":"44.5634","theaterChainName":"Independent Chains","ticketType":"STANDARD"},{"id":"3869","tribuneTheaterId":"4720","providerTheaterId":"","name":"Carmike 12 Corvallis","address":"750 NE Circle Blvd.","city":"Corvallis","state":"OR","zip":"97330","distance":1.1322053069628,"lon":"-123.2493","lat":"44.5888","theaterChainName":"Carmike Cinemas","ticketType":"STANDARD"},{"id":"4156","tribuneTheaterId":"1053","providerTheaterId":"","name":"Pix Theatre","address":"321 SW 2nd Ave.","city":"Albany","state":"OR","zip":"97321","distance":8.6994860288576,"lon":"-123.107498","lat":"44.636299","theaterChainName":"Independent Chains","ticketType":"STANDARD"},{"id":"50","tribuneTheaterId":"7728","providerTheaterId":"","name":"Regal Albany 7 Cinemas","address":"1350 S.E. Waverly Dr.","city":"Albany","state":"OR","zip":"97321","distance":10.123703126802,"lon":"-123.073804","lat":"44.629391","theaterChainName":"Regal Cinemas","ticketType":"STANDARD"},{"id":"4351","tribuneTheaterId":"9366","providerTheaterId":"","name":"Independence Cinema","address":"450 S. 2nd Street","city":"Independence","state":"OR","zip":"97351","distance":18.411945602343,"lon":"-123.186899","lat":"44.849895","theaterChainName":"Independent Chains","ticketType":"STANDARD"},{"id":"2616","tribuneTheaterId":"2553","providerTheaterId":"","name":"Fox Theatre","address":"166 S.E. Mill St.","city":"Dallas","state":"OR","zip":"97338","distance":22.977413333885,"lon":"-123.315588","lat":"44.921526","theaterChainName":"Independent Chains","ticketType":"STANDARD"},{"id":"3890","tribuneTheaterId":"1633","providerTheaterId":"","name":"Northern Lights Theatre Pub","address":"3893 Commercial St. SE","city":"Salem","state":"OR","zip":"97302","distance":24.234124454938,"lon":"-123.039935","lat":"44.89993","theaterChainName":"Independent Chains","ticketType":"STANDARD"}]