[{"id":"4006","tribuneTheaterId":"5083","providerTheaterId":"","name":"Darkside Cinema","address":"215 SW 4th Street","city":"Corvallis","state":"OR","zip":"97333","distance":13.99241393058,"lon":"-123.2625","lat":"44.5634","theaterChainName":"Independent Chains","ticketType":"STANDARD"},{"id":"51","tribuneTheaterId":"8405","providerTheaterId":"","name":"Regal Ninth Street 4 Cinemas","address":"1750 N.W. 9th St.","city":"Corvallis","state":"OR","zip":"97330","distance":15.228631066823,"lon":"-123.258598","lat":"44.584967","theaterChainName":"Regal Cinemas","ticketType":"STANDARD"},{"id":"3869","tribuneTheaterId":"4720","providerTheaterId":"","name":"Carmike 12 Corvallis","address":"750 NE Circle Blvd.","city":"Corvallis","state":"OR","zip":"97330","distance":15.27845234647,"lon":"-123.2493","lat":"44.5888","theaterChainName":"Carmike Cinemas","ticketType":"STANDARD"},{"id":"50","tribuneTheaterId":"7728","providerTheaterId":"","name":"Regal Albany 7 Cinemas","address":"1350 S.E. Waverly Dr.","city":"Albany","state":"OR","zip":"97321","distance":16.991909822605,"lon":"-123.073804","lat":"44.629391","theaterChainName":"Regal Cinemas","ticketType":"STANDARD"},{"id":"4156","tribuneTheaterId":"1053","providerTheaterId":"","name":"Pix Theatre","address":"321 SW 2nd Ave.","city":"Albany","state":"OR","zip":"97321","distance":17.301915894918,"lon":"-123.107498","lat":"44.636299","theaterChainName":"Independent Chains","ticketType":"STANDARD"},{"id":"2615","tribuneTheaterId":"2552","providerTheaterId":"","name":"Rio Theatre - Sweet Home","address":"1439 Main St.","city":"Sweet Home","state":"OR","zip":"97386","distance":19.656165641811,"lon":"-122.727325","lat":"44.398127","theaterChainName":"Independent Chains","ticketType":"STANDARD"},{"id":"1339","tribuneTheaterId":"6754","providerTheaterId":"","name":"Cinemark Movies 12 Springfield","address":"2850 Gateway St.","city":"Springfield","state":"OR","zip":"97477","distance":21.985246584119,"lon":"-123.04415","lat":"44.073335","theaterChainName":"Cinemark","ticketType":"STANDARD"},{"id":"2453","tribuneTheaterId":"4202","providerTheaterId":"","name":"Cinemark 17-Springfield","address":"2900 Gateway","city":"Springfield","state":"OR","zip":"97477","distance":21.975715503334,"lon":"-123.044107","lat":"44.073481","theaterChainName":"Cinemark","ticketType":"STANDARD"},{"id":"4320","tribuneTheaterId":"9281","providerTheaterId":"","name":"Regal Valley River Center Stadium 15","address":"500 Valley River Center","city":"Eugene","state":"OR","zip":"97401","distance":22.080107075026,"lon":"-123.107343","lat":"44.066884","theaterChainName":"Regal Cinemas","ticketType":"STANDARD"},{"id":"5350","tribuneTheaterId":"10787","providerTheaterId":"","name":"Broadway Metro","address":"43 W. Broadway","city":"Eugene","state":"OR","zip":"97401","distance":23.289373716262,"lon":"-123.0933","lat":"44.0499","theaterChainName":"Independent Chains","ticketType":"STANDARD"},{"id":"2816","tribuneTheaterId":"1221","providerTheaterId":"","name":"Bijou Arts Cinemas","address":"492 E. 13th Ave","city":"Eugene","state":"OR","zip":"97401","distance":23.631030007806,"lon":"-123.085709","lat":"44.045351","theaterChainName":"Independent Chains","ticketType":"STANDARD"},{"id":"4882","tribuneTheaterId":"10190","providerTheaterId":"","name":"The David Minor Theater","address":"180 E 5th","city":"Eugene","state":"OR","zip":"97401","distance":23.001338711821,"lon":"-123.090206","lat":"44.054238","theaterChainName":"Independent Chains","ticketType":"STANDARD"}]