[{"id":"2052","tribuneTheaterId":"311","providerTheaterId":"","name":"Bijou Theatre","address":"1624 NE Highway 101","city":"Lincoln City","state":"OR","zip":"97367","distance":19.67930516051,"lon":"-124.011701","lat":"44.976662","theaterChainName":"Independent Chains","ticketType":"STANDARD"},{"id":"2616","tribuneTheaterId":"2553","providerTheaterId":"","name":"Fox Theatre","address":"166 S.E. Mill St.","city":"Dallas","state":"OR","zip":"97338","distance":18.806984664962,"lon":"-123.315588","lat":"44.921526","theaterChainName":"Independent Chains","ticketType":"STANDARD"},{"id":"2264","tribuneTheaterId":"8944","providerTheaterId":"","name":"Lincoln City Cinemas","address":"3755 Southeast High School Drive","city":"Lincoln City","state":"OR","zip":"97367","distance":21.095706093696,"lon":"-124.020377","lat":"44.93934","theaterChainName":"Coming Attractions","ticketType":"STANDARD"},{"id":"2051","tribuneTheaterId":"5003","providerTheaterId":"","name":"McMinnville 10","address":"2725 NE Tanger Drive","city":"McMinnville","state":"OR","zip":"97128","distance":24.493843325844,"lon":"-123.165083","lat":"45.20345","theaterChainName":"Coming Attractions","ticketType":"STANDARD"}]