[{"id":"2615","tribuneTheaterId":"2552","providerTheaterId":"","name":"Rio Theatre - Sweet Home","address":"1439 Main St.","city":"Sweet Home","state":"OR","zip":"97386","distance":11.970580484904,"lon":"-122.727325","lat":"44.398127","theaterChainName":"Independent Chains","ticketType":"STANDARD"},{"id":"50","tribuneTheaterId":"7728","providerTheaterId":"","name":"Regal Albany 7 Cinemas","address":"1350 S.E. Waverly Dr.","city":"Albany","state":"OR","zip":"97321","distance":11.604246928353,"lon":"-123.073804","lat":"44.629391","theaterChainName":"Regal Cinemas","ticketType":"STANDARD"},{"id":"4156","tribuneTheaterId":"1053","providerTheaterId":"","name":"Pix Theatre","address":"321 SW 2nd Ave.","city":"Albany","state":"OR","zip":"97321","distance":13.242297931557,"lon":"-123.107498","lat":"44.636299","theaterChainName":"Independent Chains","ticketType":"STANDARD"},{"id":"4006","tribuneTheaterId":"5083","providerTheaterId":"","name":"Darkside Cinema","address":"215 SW 4th Street","city":"Corvallis","state":"OR","zip":"97333","distance":18.859554575925,"lon":"-123.2625","lat":"44.5634","theaterChainName":"Independent Chains","ticketType":"STANDARD"},{"id":"3869","tribuneTheaterId":"4720","providerTheaterId":"","name":"Carmike 12 Corvallis","address":"750 NE Circle Blvd.","city":"Corvallis","state":"OR","zip":"97330","distance":18.504184412955,"lon":"-123.2493","lat":"44.5888","theaterChainName":"Carmike Cinemas","ticketType":"STANDARD"},{"id":"2906","tribuneTheaterId":"485","providerTheaterId":"","name":"Star Cinema - Stayton","address":"350 North 3rd Avenue","city":"Stayton","state":"OR","zip":"97383","distance":18.904684233519,"lon":"-122.792141","lat":"44.797625","theaterChainName":"Independent Chains","ticketType":"STANDARD"},{"id":"51","tribuneTheaterId":"8405","providerTheaterId":"","name":"Regal Ninth Street 4 Cinemas","address":"1750 N.W. 9th St.","city":"Corvallis","state":"OR","zip":"97330","distance":18.898759046736,"lon":"-123.258598","lat":"44.584967","theaterChainName":"Regal Cinemas","ticketType":"STANDARD"}]