[{"id":"4882","tribuneTheaterId":"10190","providerTheaterId":"","name":"The David Minor Theater","address":"180 E 5th","city":"Eugene","state":"OR","zip":"97401","distance":2.5148204663031,"lon":"-123.090206","lat":"44.054238","theaterChainName":"Independent Chains","ticketType":"STANDARD"},{"id":"5350","tribuneTheaterId":"10787","providerTheaterId":"","name":"Broadway Metro","address":"43 W. Broadway","city":"Eugene","state":"OR","zip":"97401","distance":2.1934235070615,"lon":"-123.0933","lat":"44.0499","theaterChainName":"Independent Chains","ticketType":"STANDARD"},{"id":"2816","tribuneTheaterId":"1221","providerTheaterId":"","name":"Bijou Arts Cinemas","address":"492 E. 13th Ave","city":"Eugene","state":"OR","zip":"97401","distance":1.9828797080438,"lon":"-123.085709","lat":"44.045351","theaterChainName":"Independent Chains","ticketType":"STANDARD"},{"id":"4320","tribuneTheaterId":"9281","providerTheaterId":"","name":"Regal Valley River Center Stadium 15","address":"500 Valley River Center","city":"Eugene","state":"OR","zip":"97401","distance":3.3639359606372,"lon":"-123.107343","lat":"44.066884","theaterChainName":"Regal Cinemas","ticketType":"STANDARD"},{"id":"2453","tribuneTheaterId":"4202","providerTheaterId":"","name":"Cinemark 17-Springfield","address":"2900 Gateway","city":"Springfield","state":"OR","zip":"97477","distance":4.6990561795365,"lon":"-123.044107","lat":"44.073481","theaterChainName":"Cinemark","ticketType":"STANDARD"},{"id":"1339","tribuneTheaterId":"6754","providerTheaterId":"","name":"Cinemark Movies 12 Springfield","address":"2850 Gateway St.","city":"Springfield","state":"OR","zip":"97477","distance":4.6896480574343,"lon":"-123.04415","lat":"44.073335","theaterChainName":"Cinemark","ticketType":"STANDARD"}]