[{"id":"4320","tribuneTheaterId":"9281","providerTheaterId":"","name":"Regal Valley River Center Stadium 15","address":"500 Valley River Center","city":"Eugene","state":"OR","zip":"97401","distance":18.058515052379,"lon":"-123.107343","lat":"44.066884","theaterChainName":"Regal Cinemas","ticketType":"STANDARD"},{"id":"2816","tribuneTheaterId":"1221","providerTheaterId":"","name":"Bijou Arts Cinemas","address":"492 E. 13th Ave","city":"Eugene","state":"OR","zip":"97401","distance":19.3580494156,"lon":"-123.085709","lat":"44.045351","theaterChainName":"Independent Chains","ticketType":"STANDARD"},{"id":"5350","tribuneTheaterId":"10787","providerTheaterId":"","name":"Broadway Metro","address":"43 W. Broadway","city":"Eugene","state":"OR","zip":"97401","distance":18.928609950723,"lon":"-123.0933","lat":"44.0499","theaterChainName":"Independent Chains","ticketType":"STANDARD"},{"id":"4882","tribuneTheaterId":"10190","providerTheaterId":"","name":"The David Minor Theater","address":"180 E 5th","city":"Eugene","state":"OR","zip":"97401","distance":19.027802317018,"lon":"-123.090206","lat":"44.054238","theaterChainName":"Independent Chains","ticketType":"STANDARD"},{"id":"1339","tribuneTheaterId":"6754","providerTheaterId":"","name":"Cinemark Movies 12 Springfield","address":"2850 Gateway St.","city":"Springfield","state":"OR","zip":"97477","distance":21.130886958222,"lon":"-123.04415","lat":"44.073335","theaterChainName":"Cinemark","ticketType":"STANDARD"},{"id":"2453","tribuneTheaterId":"4202","providerTheaterId":"","name":"Cinemark 17-Springfield","address":"2900 Gateway","city":"Springfield","state":"OR","zip":"97477","distance":21.132136814458,"lon":"-123.044107","lat":"44.073481","theaterChainName":"Cinemark","ticketType":"STANDARD"}]