[{"id":"1311","tribuneTheaterId":"4201","providerTheaterId":"","name":"Cinemark Movies 6 White City","address":"7501 Crater Lake Hwy","city":"White City","state":"OR","zip":"97503","distance":4.3518965025138,"lon":"-122.852125","lat":"42.425818","theaterChainName":"Cinemark","ticketType":"STANDARD"},{"id":"1381","tribuneTheaterId":"4200","providerTheaterId":"","name":"Cinemark Tinseltown Medford","address":"651 Medford Center","city":"Medford","state":"OR","zip":"97501","distance":4.8671137806821,"lon":"-122.866563","lat":"42.332698","theaterChainName":"Cinemark","ticketType":"STANDARD"},{"id":"2160","tribuneTheaterId":"4991","providerTheaterId":"","name":"Varsity Theatre - Ashland","address":"166 E. Main St.","city":"Ashland","state":"OR","zip":"97520","distance":17.125682067609,"lon":"-122.713187","lat":"42.196168","theaterChainName":"Coming Attractions","ticketType":"STANDARD"},{"id":"1790","tribuneTheaterId":"4996","providerTheaterId":"","name":"Ashland St Cinemas","address":"1644 Ashland Street","city":"Ashland","state":"OR","zip":"97520","distance":18.579411518846,"lon":"-122.687126","lat":"42.184798","theaterChainName":"Coming Attractions","ticketType":"STANDARD"},{"id":"2162","tribuneTheaterId":"4990","providerTheaterId":"","name":"Southgate Cinemas - Grants Pass","address":"1625 SW Ringuette St","city":"Grants Pass","state":"OR","zip":"97526","distance":21.38688445748,"lon":"-123.339401","lat":"42.420101","theaterChainName":"Coming Attractions","ticketType":"STANDARD"}]