[{"id":"3010","tribuneTheaterId":"4628","providerTheaterId":"","name":"Old Mill Stadium 16 & IMAX","address":"680 SW Powerhouse Dr.","city":"Bend","state":"OR","zip":"97702","distance":1.7154700197747,"lon":"-121.314179","lat":"44.044422","theaterChainName":"Regal Cinemas","ticketType":"STANDARD"},{"id":"3991","tribuneTheaterId":"1021","providerTheaterId":"","name":"St.Francis Theater","address":"700 N.W. Bond Street","city":"Bend","state":"OR","zip":"97701","distance":2.5043709707654,"lon":"-121.3148","lat":"44.0566","theaterChainName":"McMenamins","ticketType":"STANDARD"},{"id":"5209","tribuneTheaterId":"10633","providerTheaterId":"","name":"Tin Pan Theater","address":"869 NW Tin Pan Alley","city":"Bend","state":"OR","zip":"97701","distance":2.5410332434399,"lon":"-121.31332","lat":"44.0575","theaterChainName":"Independent Chains","ticketType":"STANDARD"},{"id":"1767","tribuneTheaterId":"1673","providerTheaterId":"","name":"Redmond Theatre","address":"1535 SW Odem Medo Way","city":"Redmond","state":"OR","zip":"97756","distance":16.075367625645,"lon":"-121.2545866","lat":"44.2528174","theaterChainName":"Independent Chains","ticketType":"STANDARD"},{"id":"4066","tribuneTheaterId":"4130","providerTheaterId":"","name":"Sisters Movie House","address":"720 Desperado Court","city":"Sisters","state":"OR","zip":"97759","distance":21.599604183163,"lon":"-121.534313","lat":"44.285175","theaterChainName":"Independent Chains","ticketType":"STANDARD"}]