[{"id":"5068","tribuneTheaterId":"10451","providerTheaterId":"","name":"Madras Cinema 5","address":"1101 SW U.S. Highway 97","city":"Madras","state":"OR","zip":"97741","distance":11.634597372891,"lon":"-121.128403","lat":"44.632301","theaterChainName":"Independent Chains","ticketType":"STANDARD"},{"id":"1767","tribuneTheaterId":"1673","providerTheaterId":"","name":"Redmond Theatre","address":"1535 SW Odem Medo Way","city":"Redmond","state":"OR","zip":"97756","distance":15.852551362368,"lon":"-121.2545866","lat":"44.2528174","theaterChainName":"Independent Chains","ticketType":"STANDARD"},{"id":"4066","tribuneTheaterId":"4130","providerTheaterId":"","name":"Sisters Movie House","address":"720 Desperado Court","city":"Sisters","state":"OR","zip":"97759","distance":20.096870955241,"lon":"-121.534313","lat":"44.285175","theaterChainName":"Independent Chains","ticketType":"STANDARD"},{"id":"4443","tribuneTheaterId":"9535","providerTheaterId":"","name":"Pine Theater","address":"216 North Main Street","city":"Prineville","state":"OR","zip":"97754","distance":22.806387450626,"lon":"-120.846697","lat":"44.30235","theaterChainName":"Independent Chains","ticketType":"STANDARD"}]