[{"id":"1767","tribuneTheaterId":"1673","providerTheaterId":"","name":"Redmond Theatre","address":"1535 SW Odem Medo Way","city":"Redmond","state":"OR","zip":"97756","distance":3.6141781079788,"lon":"-121.2545866","lat":"44.2528174","theaterChainName":"Independent Chains","ticketType":"STANDARD"},{"id":"4443","tribuneTheaterId":"9535","providerTheaterId":"","name":"Pine Theater","address":"216 North Main Street","city":"Prineville","state":"OR","zip":"97754","distance":17.051766983262,"lon":"-120.846697","lat":"44.30235","theaterChainName":"Independent Chains","ticketType":"STANDARD"},{"id":"3010","tribuneTheaterId":"4628","providerTheaterId":"","name":"Old Mill Stadium 16 & IMAX","address":"680 SW Powerhouse Dr.","city":"Bend","state":"OR","zip":"97702","distance":17.195814127289,"lon":"-121.314179","lat":"44.044422","theaterChainName":"Regal Cinemas","ticketType":"STANDARD"},{"id":"3991","tribuneTheaterId":"1021","providerTheaterId":"","name":"St.Francis Theater","address":"700 N.W. Bond Street","city":"Bend","state":"OR","zip":"97701","distance":16.42466355031,"lon":"-121.3148","lat":"44.0566","theaterChainName":"McMenamins","ticketType":"STANDARD"},{"id":"4066","tribuneTheaterId":"4130","providerTheaterId":"","name":"Sisters Movie House","address":"720 Desperado Court","city":"Sisters","state":"OR","zip":"97759","distance":17.061483577726,"lon":"-121.534313","lat":"44.285175","theaterChainName":"Independent Chains","ticketType":"STANDARD"},{"id":"5209","tribuneTheaterId":"10633","providerTheaterId":"","name":"Tin Pan Theater","address":"869 NW Tin Pan Alley","city":"Bend","state":"OR","zip":"97701","distance":16.339419353864,"lon":"-121.31332","lat":"44.0575","theaterChainName":"Independent Chains","ticketType":"STANDARD"},{"id":"5068","tribuneTheaterId":"10451","providerTheaterId":"","name":"Madras Cinema 5","address":"1101 SW U.S. Highway 97","city":"Madras","state":"OR","zip":"97741","distance":24.754331873616,"lon":"-121.128403","lat":"44.632301","theaterChainName":"Independent Chains","ticketType":"STANDARD"}]