[{"id":"4147","tribuneTheaterId":"2388","providerTheaterId":"","name":"Lincoln Square Cinemas","address":"700 Bellevue Way NE #310","city":"Bellevue","state":"WA","zip":"98004","distance":0.28307776313068,"lon":"-122.201274","lat":"47.61641","theaterChainName":"Cinemark","ticketType":"STANDARD"},{"id":"4809","tribuneTheaterId":"10068","providerTheaterId":"","name":"Central Cinema","address":"1411 21st Ave","city":"Seattle","state":"WA","zip":"98122","distance":4.5620831990725,"lon":"-122.305089","lat":"47.613225","theaterChainName":"Independent Chains","ticketType":"STANDARD"},{"id":"35","tribuneTheaterId":"7558","providerTheaterId":"","name":"Regal Crossroads 8 Cinema","address":"1200 156th Ave. N.E.","city":"Bellevue","state":"WA","zip":"98008","distance":3.659586987659,"lon":"-122.129047","lat":"47.620992","theaterChainName":"Regal Cinemas","ticketType":"STANDARD"},{"id":"60","tribuneTheaterId":"7956","providerTheaterId":"2434","name":"AMC Loews Factoria 8","address":"3505 Factoria Blvd SE","city":"Bellevue","state":"WA","zip":"98006","distance":3.0493473981451,"lon":"-122.170269","lat":"47.579064","theaterChainName":"AMC Theatres","ticketType":"STANDARD"},{"id":"5448","tribuneTheaterId":"10888","providerTheaterId":"","name":"Water Gardens Keolu 4","address":"1090 Keolu Drive","city":"Kailua","state":"HI","zip":"96734","distance":5.126273220416,"lon":"-122.31725","lat":"47.614428","theaterChainName":"Water Gardens Theatres","ticketType":"STANDARD"},{"id":"87","tribuneTheaterId":"8184","providerTheaterId":"","name":"Regal Meridian 16","address":"1501 7th Ave","city":"Seattle","state":"WA","zip":"98101","distance":5.8999897972874,"lon":"-122.333748","lat":"47.611753","theaterChainName":"Regal Cinemas","ticketType":"STANDARD"},{"id":"162","tribuneTheaterId":"7559","providerTheaterId":"","name":"Regal Bella Bottega Stadium 11","address":"8890 NE 161st Ave","city":"Redmond","state":"WA","zip":"98052","distance":5.982957807047,"lon":"-122.122668","lat":"47.680732","theaterChainName":"Regal Cinemas","ticketType":"STANDARD"},{"id":"3520","tribuneTheaterId":"645","providerTheaterId":"","name":"Big Picture Seattle","address":"2505 1st Ave.","city":"Seattle","state":"WA","zip":"98121","distance":6.6146773952585,"lon":"-122.349214","lat":"47.614771","theaterChainName":"Independent Chains","ticketType":"STANDARD"},{"id":"1459","tribuneTheaterId":"8106","providerTheaterId":"880","name":"AMC Pacific Place 11","address":"600 Pine St Suite 400","city":"Seattle","state":"WA","zip":"98101","distance":5.9677933065461,"lon":"-122.335268","lat":"47.612877","theaterChainName":"AMC Theatres","ticketType":"STANDARD"},{"id":"2711","tribuneTheaterId":"1208","providerTheaterId":"","name":"Northwest Film Forum","address":"1515 Twelfth Ave between Park and Pine","city":"Seattle","state":"WA","zip":"98122","distance":5.1261717283955,"lon":"-122.317248","lat":"47.614436","theaterChainName":"Independent Chains","ticketType":"STANDARD"},{"id":"5633","tribuneTheaterId":"11096","providerTheaterId":"","name":"Varsity Theatre","address":"4329 University Way Northeast","city":"Seattle","state":"WA","zip":"98105","distance":5.8419737072464,"lon":"-122.313261","lat":"47.660686","theaterChainName":"Far Away Entertainment","ticketType":"STANDARD"},{"id":"5269","tribuneTheaterId":"10702","providerTheaterId":"","name":"The Ark Lodge Cinemas","address":"4816 Rainier Ave. S.","city":"Seattle","state":"WA","zip":"98118","distance":5.3398522780933,"lon":"-122.2857","lat":"47.5592","theaterChainName":"Independent Chains","ticketType":"STANDARD"},{"id":"4718","tribuneTheaterId":"9933","providerTheaterId":"","name":"Regal Thornton Place Stadium 14 + Imax","address":"301 N.E. 103rd Street","city":"Seattle","state":"WA","zip":"98125","distance":8.1617242396676,"lon":"-122.32538","lat":"47.70278","theaterChainName":"Regal Cinemas","ticketType":"STANDARD"},{"id":"3092","tribuneTheaterId":"2850","providerTheaterId":"","name":"Majestic Bay Theatre","address":"2044 NW Market St.","city":"Seattle","state":"WA","zip":"98107","distance":9.0246494960338,"lon":"-122.384102","lat":"47.668926","theaterChainName":"Independent Chains","ticketType":"STANDARD"},{"id":"4558","tribuneTheaterId":"9696","providerTheaterId":"","name":"The Landing Stadium 14 & RPX","address":"900 North 10th Place","city":"Renton","state":"WA","zip":"98057","distance":8.0645762447756,"lon":"-122.203406","lat":"47.498808","theaterChainName":"Regal Cinemas","ticketType":"STANDARD"},{"id":"1084","tribuneTheaterId":"2683","providerTheaterId":"","name":"Admiral Twin Theatre","address":"2343 California Avenue S","city":"Seattle","state":"WA","zip":"98116","distance":8.652960731682,"lon":"-122.3864","lat":"47.5826","theaterChainName":"Far Away Entertainment","ticketType":"STANDARD"},{"id":"5404","tribuneTheaterId":"10842","providerTheaterId":"","name":"Cinebarre Issaquah 8","address":"1490 NW 11th Ave.","city":"Issaquah","state":"WA","zip":"98027","distance":8.5624738836856,"lon":"-122.054","lat":"47.5471","theaterChainName":"Cinebarre","ticketType":"STANDARD"},{"id":"61","tribuneTheaterId":"7955","providerTheaterId":"2438","name":"AMC Loews Oak Tree 6","address":"10006 Aurora Ave. N.","city":"Seattle","state":"WA","zip":"98133","distance":8.6835085135759,"lon":"-122.342656","lat":"47.701935","theaterChainName":"AMC Theatres","ticketType":"STANDARD"},{"id":"820","tribuneTheaterId":"7791","providerTheaterId":"2449","name":"AMC Loews Woodinville 12","address":"17640 Garden Way","city":"Woodinville","state":"WA","zip":"98072","distance":10.004729109507,"lon":"-122.154542","lat":"47.755894","theaterChainName":"AMC Theatres","ticketType":"STANDARD"},{"id":"4527","tribuneTheaterId":"9651","providerTheaterId":"607","name":"AMC Southcenter 16","address":"3600 Southcenter Mall","city":"Tukwila","state":"WA","zip":"98188","distance":11.079028959197,"lon":"-122.260988","lat":"47.459317","theaterChainName":"AMC Theatres","ticketType":"STANDARD"},{"id":"5335","tribuneTheaterId":"10771","providerTheaterId":"","name":"Issaquah Highlands Stadium 12 IMAX + RPX","address":"940 N.E. Park Drive","city":"Issaquah","state":"WA","zip":"98029","distance":10.204592124314,"lon":"-122.0162","lat":"47.5433","theaterChainName":"Regal Cinemas","ticketType":"STANDARD"},{"id":"317","tribuneTheaterId":"8499","providerTheaterId":"","name":"Regal East Valley Stadium 13","address":"3751 E. Valley Hwy","city":"Renton","state":"WA","zip":"98055","distance":11.767626193478,"lon":"-122.22039","lat":"47.445418","theaterChainName":"Regal Cinemas","ticketType":"STANDARD"},{"id":"2564","tribuneTheaterId":"7885","providerTheaterId":"","name":"Regal Parkway Plaza Stadium 12","address":"5910 South 180th St","city":"Tukwila","state":"WA","zip":"98188","distance":12.183442885944,"lon":"-122.258445","lat":"47.442595","theaterChainName":"Regal Cinemas","ticketType":"STANDARD"},{"id":"4780","tribuneTheaterId":"10022","providerTheaterId":"","name":"Cinebarre Mountlake Terrace","address":"6009 244th St. S.W.","city":"Mountlake Terrace","state":"WA","zip":"98043","distance":12.342874796495,"lon":"-122.314622","lat":"47.778856","theaterChainName":"Cinebarre","ticketType":"STANDARD"},{"id":"2710","tribuneTheaterId":"5182","providerTheaterId":"","name":"Bainbridge Cinemas","address":"403 North Madison Avenue","city":"Bainbridge Island","state":"WA","zip":"98110","distance":14.661311640557,"lon":"-122.521525","lat":"47.627379","theaterChainName":"Far Away Entertainment","ticketType":"STANDARD"},{"id":"1087","tribuneTheaterId":"2459","providerTheaterId":"","name":"Edmonds Theater","address":"415 Main Street","city":"Edmonds","state":"WA","zip":"98020","distance":15.65270909995,"lon":"-122.37777","lat":"47.810823","theaterChainName":"Independent Chains","ticketType":"STANDARD"},{"id":"34","tribuneTheaterId":"8402","providerTheaterId":"","name":"Regal Alderwood 7","address":"3501 184th Street S.W.","city":"Lynnwood","state":"WA","zip":"98037","distance":15.377783141855,"lon":"-122.280222","lat":"47.832577","theaterChainName":"Regal Cinemas","ticketType":"STANDARD"},{"id":"3963","tribuneTheaterId":"4163","providerTheaterId":"2629","name":"AMC Loews Alderwood Mall 16","address":"18601 33rd Avenue West","city":"Lynnwood","state":"WA","zip":"98037","distance":14.992999091032,"lon":"-122.27537","lat":"47.827595","theaterChainName":"AMC Theatres","ticketType":"STANDARD"},{"id":"1083","tribuneTheaterId":"2455","providerTheaterId":"","name":"Lynwood Theatre","address":"4569 Lynwood Center Road","city":"Bainbridge Island","state":"WA","zip":"98110","distance":15.872636144268,"lon":"-122.547523","lat":"47.603964","theaterChainName":"Far Away Entertainment","ticketType":"STANDARD"},{"id":"1091","tribuneTheaterId":"2461","providerTheaterId":"","name":"Vashon Theatre","address":"99 SW 178th","city":"Vashon","state":"WA","zip":"98070","distance":16.669477327819,"lon":"-122.460879","lat":"47.445592","theaterChainName":"Independent Chains","ticketType":"STANDARD"},{"id":"4149","tribuneTheaterId":"4247","providerTheaterId":"606","name":"AMC Kent Station","address":"426 Ramsay Way","city":"Kent","state":"WA","zip":"98032","distance":15.993611137228,"lon":"-122.234268","lat":"47.384745","theaterChainName":"AMC Theatres","ticketType":"STANDARD"},{"id":"667","tribuneTheaterId":"8042","providerTheaterId":"","name":"Regal South Sound Cinema 10","address":"1435 Olney Avenue SE","city":"Port Orchard","state":"WA","zip":"98366","distance":19.40092898332,"lon":"-122.605941","lat":"47.534974","theaterChainName":"Regal Cinemas","ticketType":"STANDARD"},{"id":"4763","tribuneTheaterId":"10000","providerTheaterId":"","name":"Firehouse Theater","address":"11171 NE St Hwy 104, Suite 111","city":"Kingston","state":"WA","zip":"98346","distance":18.657713831585,"lon":"-122.499415","lat":"47.800581","theaterChainName":"Independent Chains","ticketType":"STANDARD"},{"id":"4207","tribuneTheaterId":"4621","providerTheaterId":"","name":"Everett Stadium 16 & RPX","address":"1402 SE Everett Mall Way","city":"Everett","state":"WA","zip":"98208","distance":20.286343626314,"lon":"-122.213843","lat":"47.909074","theaterChainName":"Regal Cinemas","ticketType":"STANDARD"},{"id":"5207","tribuneTheaterId":"10631","providerTheaterId":"","name":"SEEfilm Bremerton Cinema","address":"655 4th St.","city":"Bremerton","state":"WA","zip":"98337","distance":20.002035090564,"lon":"-122.629949","lat":"47.565329","theaterChainName":"Independent Chains","ticketType":"STANDARD"},{"id":"4235","tribuneTheaterId":"1805","providerTheaterId":"","name":"Olympic Cinemas","address":"1520 N.E. Riddell Road","city":"Bremerton","state":"WA","zip":"98310","distance":19.798033842191,"lon":"-122.632055","lat":"47.607134","theaterChainName":"Far Away Entertainment","ticketType":"STANDARD"},{"id":"3014","tribuneTheaterId":"2600","providerTheaterId":"","name":"North Bend Theatre","address":"125 Bendigo Blvd. N.","city":"North Bend","state":"WA","zip":"98045","distance":21.270003011755,"lon":"-121.786799","lat":"47.496029","theaterChainName":"Independent Chains","ticketType":"STANDARD"},{"id":"5048","tribuneTheaterId":"10426","providerTheaterId":"","name":"Dragonfly Cinema","address":"822 Bay St.","city":"Port Orchard","state":"WA","zip":"98366","distance":20.611372767584,"lon":"-122.635494","lat":"47.541229","theaterChainName":"Independent Chains","ticketType":"STANDARD"},{"id":"3077","tribuneTheaterId":"5996","providerTheaterId":"","name":"Galaxy Monroe 12","address":"One Galaxy Way","city":"Monroe","state":"WA","zip":"98272","distance":20.329981116275,"lon":"-121.976174","lat":"47.865379","theaterChainName":"Galaxy Theatres","ticketType":"STANDARD"},{"id":"4342","tribuneTheaterId":"9326","providerTheaterId":"","name":"Century Federal Way","address":"2001 S. Commons","city":"Federal Way","state":"WA","zip":"98003","distance":21.401633149964,"lon":"-122.307637","lat":"47.313284","theaterChainName":"Cinemark","ticketType":"STANDARD"},{"id":"408","tribuneTheaterId":"6950","providerTheaterId":"","name":"Gateway Movies 8","address":"2501 Gateway Center Blvd. S.","city":"Federal Way","state":"WA","zip":"98003","distance":21.078911899744,"lon":"-122.300918","lat":"47.317072","theaterChainName":"Starplex Cinemas","ticketType":"STANDARD"},{"id":"756","tribuneTheaterId":"7968","providerTheaterId":"882","name":"AMC Kitsap Mall 8 Cinemas","address":"10055 NW Kitsap Mall","city":"Silverdale","state":"WA","zip":"98383","distance":22.865612063315,"lon":"-122.694861","lat":"47.654688","theaterChainName":"AMC Theatres","ticketType":"STANDARD"},{"id":"40","tribuneTheaterId":"9212","providerTheaterId":"","name":"Regal Silverdale 4 Theatres","address":"9923 Poplars Ave. NW","city":"Silverdale","state":"WA","zip":"98383","distance":22.829921307574,"lon":"-122.694232","lat":"47.65385","theaterChainName":"Regal Cinemas","ticketType":"STANDARD"},{"id":"306","tribuneTheaterId":"7411","providerTheaterId":"","name":"Regal Auburn Stadium 17","address":"1101 Super Mall Way, Ste. 901","city":"Auburn","state":"WA","zip":"98001","distance":21.894781189207,"lon":"-122.241021","lat":"47.299439","theaterChainName":"Regal Cinemas","ticketType":"STANDARD"},{"id":"2290","tribuneTheaterId":"6805","providerTheaterId":"","name":"Regal Poulsbo Stadium 10","address":"750 NW Edvard St.","city":"Poulsbo","state":"WA","zip":"98370","distance":22.814161082034,"lon":"-122.659167","lat":"47.743682","theaterChainName":"Regal Cinemas","ticketType":"STANDARD"}]