[{"id":"1086","tribuneTheaterId":"2457","providerTheaterId":"","name":"Chalet Theatre","address":"1721 Wells","city":"Enumclaw","state":"WA","zip":"98022","distance":7.4053545178488,"lon":"-121.989467","lat":"47.204761","theaterChainName":"Independent Chains","ticketType":"STANDARD"},{"id":"683","tribuneTheaterId":"8404","providerTheaterId":"","name":"Regal Tall Firs 10","address":"20751 State Route 410 E","city":"Bonney Lake","state":"WA","zip":"98391","distance":12.213525692921,"lon":"-122.15377","lat":"47.16619","theaterChainName":"Regal Cinemas","ticketType":"STANDARD"},{"id":"4149","tribuneTheaterId":"4247","providerTheaterId":"606","name":"AMC Kent Station","address":"426 Ramsay Way","city":"Kent","state":"WA","zip":"98032","distance":11.856402460933,"lon":"-122.234268","lat":"47.384745","theaterChainName":"AMC Theatres","ticketType":"STANDARD"},{"id":"306","tribuneTheaterId":"7411","providerTheaterId":"","name":"Regal Auburn Stadium 17","address":"1101 Super Mall Way, Ste. 901","city":"Auburn","state":"WA","zip":"98001","distance":11.074753322452,"lon":"-122.241021","lat":"47.299439","theaterChainName":"Regal Cinemas","ticketType":"STANDARD"},{"id":"317","tribuneTheaterId":"8499","providerTheaterId":"","name":"Regal East Valley Stadium 13","address":"3751 E. Valley Hwy","city":"Renton","state":"WA","zip":"98055","distance":13.675303261842,"lon":"-122.22039","lat":"47.445418","theaterChainName":"Regal Cinemas","ticketType":"STANDARD"},{"id":"408","tribuneTheaterId":"6950","providerTheaterId":"","name":"Gateway Movies 8","address":"2501 Gateway Center Blvd. S.","city":"Federal Way","state":"WA","zip":"98003","distance":13.853369026857,"lon":"-122.300918","lat":"47.317072","theaterChainName":"Starplex Cinemas","ticketType":"STANDARD"},{"id":"4342","tribuneTheaterId":"9326","providerTheaterId":"","name":"Century Federal Way","address":"2001 S. Commons","city":"Federal Way","state":"WA","zip":"98003","distance":14.163672602469,"lon":"-122.307637","lat":"47.313284","theaterChainName":"Cinemark","ticketType":"STANDARD"},{"id":"5335","tribuneTheaterId":"10771","providerTheaterId":"","name":"Issaquah Highlands Stadium 12 IMAX + RPX","address":"940 N.E. Park Drive","city":"Issaquah","state":"WA","zip":"98029","distance":16.03083556494,"lon":"-122.0162","lat":"47.5433","theaterChainName":"Regal Cinemas","ticketType":"STANDARD"},{"id":"3014","tribuneTheaterId":"2600","providerTheaterId":"","name":"North Bend Theatre","address":"125 Bendigo Blvd. N.","city":"North Bend","state":"WA","zip":"98045","distance":16.34440359625,"lon":"-121.786799","lat":"47.496029","theaterChainName":"Independent Chains","ticketType":"STANDARD"},{"id":"4527","tribuneTheaterId":"9651","providerTheaterId":"607","name":"AMC Southcenter 16","address":"3600 Southcenter Mall","city":"Tukwila","state":"WA","zip":"98188","distance":15.73278703876,"lon":"-122.260988","lat":"47.459317","theaterChainName":"AMC Theatres","ticketType":"STANDARD"},{"id":"2564","tribuneTheaterId":"7885","providerTheaterId":"","name":"Regal Parkway Plaza Stadium 12","address":"5910 South 180th St","city":"Tukwila","state":"WA","zip":"98188","distance":14.914832318341,"lon":"-122.258445","lat":"47.442595","theaterChainName":"Regal Cinemas","ticketType":"STANDARD"},{"id":"4558","tribuneTheaterId":"9696","providerTheaterId":"","name":"The Landing Stadium 14 & RPX","address":"900 North 10th Place","city":"Renton","state":"WA","zip":"98057","distance":15.921348307849,"lon":"-122.203406","lat":"47.498808","theaterChainName":"Regal Cinemas","ticketType":"STANDARD"},{"id":"5404","tribuneTheaterId":"10842","providerTheaterId":"","name":"Cinebarre Issaquah 8","address":"1490 NW 11th Ave.","city":"Issaquah","state":"WA","zip":"98027","distance":16.443609837079,"lon":"-122.054","lat":"47.5471","theaterChainName":"Cinebarre","ticketType":"STANDARD"},{"id":"239","tribuneTheaterId":"9031","providerTheaterId":"","name":"Regal South Hill Cinema 6","address":"3500 S Meridian","city":"Puyallup","state":"WA","zip":"98373","distance":17.26662376184,"lon":"-122.297101","lat":"47.159097","theaterChainName":"Regal Cinemas","ticketType":"STANDARD"},{"id":"2387","tribuneTheaterId":"5614","providerTheaterId":"","name":"Regal Longston Place Stadium 14","address":"13317 Meridian St East","city":"Puyallup","state":"WA","zip":"98373","distance":18.109174128936,"lon":"-122.291265","lat":"47.135396","theaterChainName":"Regal Cinemas","ticketType":"STANDARD"},{"id":"1088","tribuneTheaterId":"2804","providerTheaterId":"","name":"Grand Cinema","address":"606 S. Fawcett Ave.","city":"Tacoma","state":"WA","zip":"98402","distance":20.918202889996,"lon":"-122.444604","lat":"47.257987","theaterChainName":"Independent Chains","ticketType":"STANDARD"},{"id":"60","tribuneTheaterId":"7956","providerTheaterId":"2434","name":"AMC Loews Factoria 8","address":"3505 Factoria Blvd SE","city":"Bellevue","state":"WA","zip":"98006","distance":20.0360154163,"lon":"-122.170269","lat":"47.579064","theaterChainName":"AMC Theatres","ticketType":"STANDARD"},{"id":"35","tribuneTheaterId":"7558","providerTheaterId":"","name":"Regal Crossroads 8 Cinema","address":"1200 156th Ave. N.E.","city":"Bellevue","state":"WA","zip":"98008","distance":22.157896460884,"lon":"-122.129047","lat":"47.620992","theaterChainName":"Regal Cinemas","ticketType":"STANDARD"},{"id":"5269","tribuneTheaterId":"10702","providerTheaterId":"","name":"The Ark Lodge Cinemas","address":"4816 Rainier Ave. S.","city":"Seattle","state":"WA","zip":"98118","distance":21.560964219846,"lon":"-122.2857","lat":"47.5592","theaterChainName":"Independent Chains","ticketType":"STANDARD"},{"id":"4147","tribuneTheaterId":"2388","providerTheaterId":"","name":"Lincoln Square Cinemas","address":"700 Bellevue Way NE #310","city":"Bellevue","state":"WA","zip":"98004","distance":22.976433899256,"lon":"-122.201274","lat":"47.61641","theaterChainName":"Cinemark","ticketType":"STANDARD"},{"id":"1598","tribuneTheaterId":"8879","providerTheaterId":"","name":"Lakewood Stadium 15 & RPX","address":"2410 84th St. S","city":"Lakewood","state":"WA","zip":"98499","distance":23.544228729442,"lon":"-122.468226","lat":"47.179651","theaterChainName":"Regal Cinemas","ticketType":"STANDARD"},{"id":"1091","tribuneTheaterId":"2461","providerTheaterId":"","name":"Vashon Theatre","address":"99 SW 178th","city":"Vashon","state":"WA","zip":"98070","distance":23.244223661816,"lon":"-122.460879","lat":"47.445592","theaterChainName":"Independent Chains","ticketType":"STANDARD"},{"id":"1085","tribuneTheaterId":"2456","providerTheaterId":"","name":"Blue Mouse Theatre","address":"2611 N. Proctor St.","city":"Tacoma","state":"WA","zip":"98407","distance":22.819789421862,"lon":"-122.488695","lat":"47.271624","theaterChainName":"Independent Chains","ticketType":"STANDARD"},{"id":"5833","tribuneTheaterId":"11243","providerTheaterId":"","name":"Century Point Ruston and XD","address":"5057 Main Street","city":"Tacoma","state":"WA","zip":"98407","distance":23.324876349671,"lon":"-122.502707","lat":"47.297354","theaterChainName":"Cinemark","ticketType":"STANDARD"}]