[{"id":"4149","tribuneTheaterId":"4247","providerTheaterId":"606","name":"AMC Kent Station","address":"426 Ramsay Way","city":"Kent","state":"WA","zip":"98032","distance":1.1006502492228,"lon":"-122.234268","lat":"47.384745","theaterChainName":"AMC Theatres","ticketType":"STANDARD"},{"id":"317","tribuneTheaterId":"8499","providerTheaterId":"","name":"Regal East Valley Stadium 13","address":"3751 E. Valley Hwy","city":"Renton","state":"WA","zip":"98055","distance":4.088078580377,"lon":"-122.22039","lat":"47.445418","theaterChainName":"Regal Cinemas","ticketType":"STANDARD"},{"id":"2564","tribuneTheaterId":"7885","providerTheaterId":"","name":"Regal Parkway Plaza Stadium 12","address":"5910 South 180th St","city":"Tukwila","state":"WA","zip":"98188","distance":4.462032025194,"lon":"-122.258445","lat":"47.442595","theaterChainName":"Regal Cinemas","ticketType":"STANDARD"},{"id":"306","tribuneTheaterId":"7411","providerTheaterId":"","name":"Regal Auburn Stadium 17","address":"1101 Super Mall Way, Ste. 901","city":"Auburn","state":"WA","zip":"98001","distance":6.1851499830374,"lon":"-122.241021","lat":"47.299439","theaterChainName":"Regal Cinemas","ticketType":"STANDARD"},{"id":"4527","tribuneTheaterId":"9651","providerTheaterId":"607","name":"AMC Southcenter 16","address":"3600 Southcenter Mall","city":"Tukwila","state":"WA","zip":"98188","distance":5.5430735413207,"lon":"-122.260988","lat":"47.459317","theaterChainName":"AMC Theatres","ticketType":"STANDARD"},{"id":"4342","tribuneTheaterId":"9326","providerTheaterId":"","name":"Century Federal Way","address":"2001 S. Commons","city":"Federal Way","state":"WA","zip":"98003","distance":6.7946767965948,"lon":"-122.307637","lat":"47.313284","theaterChainName":"Cinemark","ticketType":"STANDARD"},{"id":"408","tribuneTheaterId":"6950","providerTheaterId":"","name":"Gateway Movies 8","address":"2501 Gateway Center Blvd. S.","city":"Federal Way","state":"WA","zip":"98003","distance":6.3901100691782,"lon":"-122.300918","lat":"47.317072","theaterChainName":"Starplex Cinemas","ticketType":"STANDARD"},{"id":"4558","tribuneTheaterId":"9696","providerTheaterId":"","name":"The Landing Stadium 14 & RPX","address":"900 North 10th Place","city":"Renton","state":"WA","zip":"98057","distance":7.760726303747,"lon":"-122.203406","lat":"47.498808","theaterChainName":"Regal Cinemas","ticketType":"STANDARD"},{"id":"1091","tribuneTheaterId":"2461","providerTheaterId":"","name":"Vashon Theatre","address":"99 SW 178th","city":"Vashon","state":"WA","zip":"98070","distance":12.377691328296,"lon":"-122.460879","lat":"47.445592","theaterChainName":"Independent Chains","ticketType":"STANDARD"},{"id":"5269","tribuneTheaterId":"10702","providerTheaterId":"","name":"The Ark Lodge Cinemas","address":"4816 Rainier Ave. S.","city":"Seattle","state":"WA","zip":"98118","distance":12.426635061638,"lon":"-122.2857","lat":"47.5592","theaterChainName":"Independent Chains","ticketType":"STANDARD"},{"id":"5404","tribuneTheaterId":"10842","providerTheaterId":"","name":"Cinebarre Issaquah 8","address":"1490 NW 11th Ave.","city":"Issaquah","state":"WA","zip":"98027","distance":13.292234205645,"lon":"-122.054","lat":"47.5471","theaterChainName":"Cinebarre","ticketType":"STANDARD"},{"id":"60","tribuneTheaterId":"7956","providerTheaterId":"2434","name":"AMC Loews Factoria 8","address":"3505 Factoria Blvd SE","city":"Bellevue","state":"WA","zip":"98006","distance":13.432629800613,"lon":"-122.170269","lat":"47.579064","theaterChainName":"AMC Theatres","ticketType":"STANDARD"},{"id":"5335","tribuneTheaterId":"10771","providerTheaterId":"","name":"Issaquah Highlands Stadium 12 IMAX + RPX","address":"940 N.E. Park Drive","city":"Issaquah","state":"WA","zip":"98029","distance":14.139674836368,"lon":"-122.0162","lat":"47.5433","theaterChainName":"Regal Cinemas","ticketType":"STANDARD"},{"id":"1088","tribuneTheaterId":"2804","providerTheaterId":"","name":"Grand Cinema","address":"606 S. Fawcett Ave.","city":"Tacoma","state":"WA","zip":"98402","distance":14.098877398209,"lon":"-122.444604","lat":"47.257987","theaterChainName":"Independent Chains","ticketType":"STANDARD"},{"id":"4809","tribuneTheaterId":"10068","providerTheaterId":"","name":"Central Cinema","address":"1411 21st Ave","city":"Seattle","state":"WA","zip":"98122","distance":16.263814890189,"lon":"-122.305089","lat":"47.613225","theaterChainName":"Independent Chains","ticketType":"STANDARD"},{"id":"35","tribuneTheaterId":"7558","providerTheaterId":"","name":"Regal Crossroads 8 Cinema","address":"1200 156th Ave. N.E.","city":"Bellevue","state":"WA","zip":"98008","distance":16.639460035769,"lon":"-122.129047","lat":"47.620992","theaterChainName":"Regal Cinemas","ticketType":"STANDARD"},{"id":"87","tribuneTheaterId":"8184","providerTheaterId":"","name":"Regal Meridian 16","address":"1501 7th Ave","city":"Seattle","state":"WA","zip":"98101","distance":16.579830531493,"lon":"-122.333748","lat":"47.611753","theaterChainName":"Regal Cinemas","ticketType":"STANDARD"},{"id":"1459","tribuneTheaterId":"8106","providerTheaterId":"880","name":"AMC Pacific Place 11","address":"600 Pine St Suite 400","city":"Seattle","state":"WA","zip":"98101","distance":16.677264327349,"lon":"-122.335268","lat":"47.612877","theaterChainName":"AMC Theatres","ticketType":"STANDARD"},{"id":"1084","tribuneTheaterId":"2683","providerTheaterId":"","name":"Admiral Twin Theatre","address":"2343 California Avenue S","city":"Seattle","state":"WA","zip":"98116","distance":15.828564541592,"lon":"-122.3864","lat":"47.5826","theaterChainName":"Far Away Entertainment","ticketType":"STANDARD"},{"id":"2711","tribuneTheaterId":"1208","providerTheaterId":"","name":"Northwest Film Forum","address":"1515 Twelfth Ave between Park and Pine","city":"Seattle","state":"WA","zip":"98122","distance":16.506098851747,"lon":"-122.317248","lat":"47.614436","theaterChainName":"Independent Chains","ticketType":"STANDARD"},{"id":"5448","tribuneTheaterId":"10888","providerTheaterId":"","name":"Water Gardens Keolu 4","address":"1090 Keolu Drive","city":"Kailua","state":"HI","zip":"96734","distance":16.505599887456,"lon":"-122.31725","lat":"47.614428","theaterChainName":"Water Gardens Theatres","ticketType":"STANDARD"},{"id":"4147","tribuneTheaterId":"2388","providerTheaterId":"","name":"Lincoln Square Cinemas","address":"700 Bellevue Way NE #310","city":"Bellevue","state":"WA","zip":"98004","distance":15.884687865428,"lon":"-122.201274","lat":"47.61641","theaterChainName":"Cinemark","ticketType":"STANDARD"},{"id":"239","tribuneTheaterId":"9031","providerTheaterId":"","name":"Regal South Hill Cinema 6","address":"3500 S Meridian","city":"Puyallup","state":"WA","zip":"98373","distance":16.230081093507,"lon":"-122.297101","lat":"47.159097","theaterChainName":"Regal Cinemas","ticketType":"STANDARD"},{"id":"683","tribuneTheaterId":"8404","providerTheaterId":"","name":"Regal Tall Firs 10","address":"20751 State Route 410 E","city":"Bonney Lake","state":"WA","zip":"98391","distance":15.462540933045,"lon":"-122.15377","lat":"47.16619","theaterChainName":"Regal Cinemas","ticketType":"STANDARD"},{"id":"1085","tribuneTheaterId":"2456","providerTheaterId":"","name":"Blue Mouse Theatre","address":"2611 N. Proctor St.","city":"Tacoma","state":"WA","zip":"98407","distance":15.243000467356,"lon":"-122.488695","lat":"47.271624","theaterChainName":"Independent Chains","ticketType":"STANDARD"},{"id":"5833","tribuneTheaterId":"11243","providerTheaterId":"","name":"Century Point Ruston and XD","address":"5057 Main Street","city":"Tacoma","state":"WA","zip":"98407","distance":14.989222650889,"lon":"-122.502707","lat":"47.297354","theaterChainName":"Cinemark","ticketType":"STANDARD"},{"id":"3520","tribuneTheaterId":"645","providerTheaterId":"","name":"Big Picture Seattle","address":"2505 1st Ave.","city":"Seattle","state":"WA","zip":"98121","distance":17.035867781871,"lon":"-122.349214","lat":"47.614771","theaterChainName":"Independent Chains","ticketType":"STANDARD"},{"id":"1086","tribuneTheaterId":"2457","providerTheaterId":"","name":"Chalet Theatre","address":"1721 Wells","city":"Enumclaw","state":"WA","zip":"98022","distance":16.29476049028,"lon":"-121.989467","lat":"47.204761","theaterChainName":"Independent Chains","ticketType":"STANDARD"},{"id":"4457","tribuneTheaterId":"9546","providerTheaterId":"","name":"Galaxy Theatre Uptown","address":"4649 Point Fosdick Dr NW","city":"Gig Harbor","state":"WA","zip":"98335","distance":18.083587814206,"lon":"-122.575707","lat":"47.300596","theaterChainName":"Galaxy Theatres","ticketType":"STANDARD"},{"id":"2387","tribuneTheaterId":"5614","providerTheaterId":"","name":"Regal Longston Place Stadium 14","address":"13317 Meridian St East","city":"Puyallup","state":"WA","zip":"98373","distance":17.760889173175,"lon":"-122.291265","lat":"47.135396","theaterChainName":"Regal Cinemas","ticketType":"STANDARD"},{"id":"1598","tribuneTheaterId":"8879","providerTheaterId":"","name":"Lakewood Stadium 15 & RPX","address":"2410 84th St. S","city":"Lakewood","state":"WA","zip":"98499","distance":18.706331687253,"lon":"-122.468226","lat":"47.179651","theaterChainName":"Regal Cinemas","ticketType":"STANDARD"},{"id":"5633","tribuneTheaterId":"11096","providerTheaterId":"","name":"Varsity Theatre","address":"4329 University Way Northeast","city":"Seattle","state":"WA","zip":"98105","distance":19.530450525669,"lon":"-122.313261","lat":"47.660686","theaterChainName":"Far Away Entertainment","ticketType":"STANDARD"},{"id":"667","tribuneTheaterId":"8042","providerTheaterId":"","name":"Regal South Sound Cinema 10","address":"1435 Olney Avenue SE","city":"Port Orchard","state":"WA","zip":"98366","distance":21.110119705475,"lon":"-122.605941","lat":"47.534974","theaterChainName":"Regal Cinemas","ticketType":"STANDARD"},{"id":"3014","tribuneTheaterId":"2600","providerTheaterId":"","name":"North Bend Theatre","address":"125 Bendigo Blvd. N.","city":"North Bend","state":"WA","zip":"98045","distance":21.211842973234,"lon":"-121.786799","lat":"47.496029","theaterChainName":"Independent Chains","ticketType":"STANDARD"},{"id":"162","tribuneTheaterId":"7559","providerTheaterId":"","name":"Regal Bella Bottega Stadium 11","address":"8890 NE 161st Ave","city":"Redmond","state":"WA","zip":"98052","distance":20.735156279328,"lon":"-122.122668","lat":"47.680732","theaterChainName":"Regal Cinemas","ticketType":"STANDARD"},{"id":"3092","tribuneTheaterId":"2850","providerTheaterId":"","name":"Majestic Bay Theatre","address":"2044 NW Market St.","city":"Seattle","state":"WA","zip":"98107","distance":21.114254758043,"lon":"-122.384102","lat":"47.668926","theaterChainName":"Independent Chains","ticketType":"STANDARD"},{"id":"58","tribuneTheaterId":"8816","providerTheaterId":"2447","name":"AMC Loews Lakewood Mall 12","address":"5721 Main Street SW","city":"Lakewood","state":"WA","zip":"98499","distance":20.985209664642,"lon":"-122.512619","lat":"47.162233","theaterChainName":"AMC Theatres","ticketType":"STANDARD"},{"id":"5048","tribuneTheaterId":"10426","providerTheaterId":"","name":"Dragonfly Cinema","address":"822 Bay St.","city":"Port Orchard","state":"WA","zip":"98366","distance":22.527661529024,"lon":"-122.635494","lat":"47.541229","theaterChainName":"Independent Chains","ticketType":"STANDARD"},{"id":"5207","tribuneTheaterId":"10631","providerTheaterId":"","name":"SEEfilm Bremerton Cinema","address":"655 4th St.","city":"Bremerton","state":"WA","zip":"98337","distance":23.140132024973,"lon":"-122.629949","lat":"47.565329","theaterChainName":"Independent Chains","ticketType":"STANDARD"},{"id":"61","tribuneTheaterId":"7955","providerTheaterId":"2438","name":"AMC Loews Oak Tree 6","address":"10006 Aurora Ave. N.","city":"Seattle","state":"WA","zip":"98133","distance":22.63752561559,"lon":"-122.342656","lat":"47.701935","theaterChainName":"AMC Theatres","ticketType":"STANDARD"},{"id":"2710","tribuneTheaterId":"5182","providerTheaterId":"","name":"Bainbridge Cinemas","address":"403 North Madison Avenue","city":"Bainbridge Island","state":"WA","zip":"98110","distance":22.066810294135,"lon":"-122.521525","lat":"47.627379","theaterChainName":"Far Away Entertainment","ticketType":"STANDARD"},{"id":"1083","tribuneTheaterId":"2455","providerTheaterId":"","name":"Lynwood Theatre","address":"4569 Lynwood Center Road","city":"Bainbridge Island","state":"WA","zip":"98110","distance":21.73701363967,"lon":"-122.547523","lat":"47.603964","theaterChainName":"Far Away Entertainment","ticketType":"STANDARD"},{"id":"4718","tribuneTheaterId":"9933","providerTheaterId":"","name":"Regal Thornton Place Stadium 14 + Imax","address":"301 N.E. 103rd Street","city":"Seattle","state":"WA","zip":"98125","distance":22.48891558339,"lon":"-122.32538","lat":"47.70278","theaterChainName":"Regal Cinemas","ticketType":"STANDARD"},{"id":"4235","tribuneTheaterId":"1805","providerTheaterId":"","name":"Olympic Cinemas","address":"1520 N.E. Riddell Road","city":"Bremerton","state":"WA","zip":"98310","distance":24.873641306859,"lon":"-122.632055","lat":"47.607134","theaterChainName":"Far Away Entertainment","ticketType":"STANDARD"}]