[{"id":"881","tribuneTheaterId":"7136","providerTheaterId":"","name":"Regal Marysville 14","address":"9811 State Ave","city":"Marysville","state":"WA","zip":"98270","distance":7.3299157623886,"lon":"-122.168519","lat":"48.08372","theaterChainName":"Regal Cinemas","ticketType":"STANDARD"},{"id":"2540","tribuneTheaterId":"2952","providerTheaterId":"","name":"Stanwood Cinemas","address":"6996 265th St. N.W.","city":"Stanwood","state":"WA","zip":"98292","distance":10.641983746434,"lon":"-122.3285","lat":"48.237","theaterChainName":"Far Away Entertainment","ticketType":"STANDARD"},{"id":"2541","tribuneTheaterId":"2545","providerTheaterId":"","name":"The Clyde, Langley","address":"217 1st St.","city":"Langley","state":"WA","zip":"98260","distance":16.855893940769,"lon":"-122.408957","lat":"48.040666","theaterChainName":"Independent Chains","ticketType":"STANDARD"},{"id":"4207","tribuneTheaterId":"4621","providerTheaterId":"","name":"Everett Stadium 16 & RPX","address":"1402 SE Everett Mall Way","city":"Everett","state":"WA","zip":"98208","distance":19.494497829957,"lon":"-122.213843","lat":"47.909074","theaterChainName":"Regal Cinemas","ticketType":"STANDARD"},{"id":"1593","tribuneTheaterId":"9041","providerTheaterId":"2448","name":"AMC Loews Cascade Mall 14","address":"200 Cascade Mall Dr.","city":"Burlington","state":"WA","zip":"98233","distance":22.035613166027,"lon":"-122.339383","lat":"48.463746","theaterChainName":"AMC Theatres","ticketType":"STANDARD"},{"id":"3077","tribuneTheaterId":"5996","providerTheaterId":"","name":"Galaxy Monroe 12","address":"One Galaxy Way","city":"Monroe","state":"WA","zip":"98272","distance":22.820049784024,"lon":"-121.976174","lat":"47.865379","theaterChainName":"Galaxy Theatres","ticketType":"STANDARD"}]