[{"id":"5237","tribuneTheaterId":"10660","providerTheaterId":"","name":"Barkley Village 16","address":"3005 Cinema Place","city":"Bellingham","state":"WA","zip":"98226","distance":16.429026739476,"lon":"-122.449515","lat":"48.770328","theaterChainName":"Regal Cinemas","ticketType":"STANDARD"},{"id":"5061","tribuneTheaterId":"10444","providerTheaterId":"","name":"PFC's Limelight Cinema","address":"1416 Cornwall Ave.","city":"Bellingham","state":"WA","zip":"98225","distance":17.889819107129,"lon":"-122.477131","lat":"48.751209","theaterChainName":"Independent Chains","ticketType":"STANDARD"},{"id":"2757","tribuneTheaterId":"1213","providerTheaterId":"","name":"Pickford Film Center","address":"1318 Bay St.","city":"Bellingham","state":"WA","zip":"98225","distance":18.02286836981,"lon":"-122.480223","lat":"48.751582","theaterChainName":"Independent Chains","ticketType":"STANDARD"},{"id":"5150","tribuneTheaterId":"10556","providerTheaterId":"","name":"Concrete Theatre","address":"45920 Main St.","city":"Concrete","state":"WA","zip":"98237","distance":24.06659379387,"lon":"-121.746228","lat":"48.538653","theaterChainName":"Independent Chains","ticketType":"STANDARD"}]