[{"id":"3077","tribuneTheaterId":"5996","providerTheaterId":"","name":"Galaxy Monroe 12","address":"One Galaxy Way","city":"Monroe","state":"WA","zip":"98272","distance":15.906908386418,"lon":"-121.976174","lat":"47.865379","theaterChainName":"Galaxy Theatres","ticketType":"STANDARD"},{"id":"3014","tribuneTheaterId":"2600","providerTheaterId":"","name":"North Bend Theatre","address":"125 Bendigo Blvd. N.","city":"North Bend","state":"WA","zip":"98045","distance":24.316777163217,"lon":"-121.786799","lat":"47.496029","theaterChainName":"Independent Chains","ticketType":"STANDARD"},{"id":"820","tribuneTheaterId":"7791","providerTheaterId":"2449","name":"AMC Loews Woodinville 12","address":"17640 Garden Way","city":"Woodinville","state":"WA","zip":"98072","distance":24.630148722917,"lon":"-122.154542","lat":"47.755894","theaterChainName":"AMC Theatres","ticketType":"STANDARD"},{"id":"162","tribuneTheaterId":"7559","providerTheaterId":"","name":"Regal Bella Bottega Stadium 11","address":"8890 NE 161st Ave","city":"Redmond","state":"WA","zip":"98052","distance":24.915739455587,"lon":"-122.122668","lat":"47.680732","theaterChainName":"Regal Cinemas","ticketType":"STANDARD"}]