[{"id":"881","tribuneTheaterId":"7136","providerTheaterId":"","name":"Regal Marysville 14","address":"9811 State Ave","city":"Marysville","state":"WA","zip":"98270","distance":10.424171686142,"lon":"-122.168519","lat":"48.08372","theaterChainName":"Regal Cinemas","ticketType":"STANDARD"},{"id":"3077","tribuneTheaterId":"5996","providerTheaterId":"","name":"Galaxy Monroe 12","address":"One Galaxy Way","city":"Monroe","state":"WA","zip":"98272","distance":14.840296582783,"lon":"-121.976174","lat":"47.865379","theaterChainName":"Galaxy Theatres","ticketType":"STANDARD"},{"id":"4207","tribuneTheaterId":"4621","providerTheaterId":"","name":"Everett Stadium 16 & RPX","address":"1402 SE Everett Mall Way","city":"Everett","state":"WA","zip":"98208","distance":17.172834341273,"lon":"-122.213843","lat":"47.909074","theaterChainName":"Regal Cinemas","ticketType":"STANDARD"},{"id":"2540","tribuneTheaterId":"2952","providerTheaterId":"","name":"Stanwood Cinemas","address":"6996 265th St. N.W.","city":"Stanwood","state":"WA","zip":"98292","distance":20.861484195085,"lon":"-122.3285","lat":"48.237","theaterChainName":"Far Away Entertainment","ticketType":"STANDARD"},{"id":"2541","tribuneTheaterId":"2545","providerTheaterId":"","name":"The Clyde, Langley","address":"217 1st St.","city":"Langley","state":"WA","zip":"98260","distance":21.688866388227,"lon":"-122.408957","lat":"48.040666","theaterChainName":"Independent Chains","ticketType":"STANDARD"},{"id":"3963","tribuneTheaterId":"4163","providerTheaterId":"2629","name":"AMC Loews Alderwood Mall 16","address":"18601 33rd Avenue West","city":"Lynnwood","state":"WA","zip":"98037","distance":23.206970999816,"lon":"-122.27537","lat":"47.827595","theaterChainName":"AMC Theatres","ticketType":"STANDARD"},{"id":"34","tribuneTheaterId":"8402","providerTheaterId":"","name":"Regal Alderwood 7","address":"3501 184th Street S.W.","city":"Lynnwood","state":"WA","zip":"98037","distance":23.101101219197,"lon":"-122.280222","lat":"47.832577","theaterChainName":"Regal Cinemas","ticketType":"STANDARD"},{"id":"820","tribuneTheaterId":"7791","providerTheaterId":"2449","name":"AMC Loews Woodinville 12","address":"17640 Garden Way","city":"Woodinville","state":"WA","zip":"98072","distance":24.382748222033,"lon":"-122.154542","lat":"47.755894","theaterChainName":"AMC Theatres","ticketType":"STANDARD"}]