[{"id":"881","tribuneTheaterId":"7136","providerTheaterId":"","name":"Regal Marysville 14","address":"9811 State Ave","city":"Marysville","state":"WA","zip":"98270","distance":5.047086093017,"lon":"-122.168519","lat":"48.08372","theaterChainName":"Regal Cinemas","ticketType":"STANDARD"},{"id":"2540","tribuneTheaterId":"2952","providerTheaterId":"","name":"Stanwood Cinemas","address":"6996 265th St. N.W.","city":"Stanwood","state":"WA","zip":"98292","distance":8.0994443510444,"lon":"-122.3285","lat":"48.237","theaterChainName":"Far Away Entertainment","ticketType":"STANDARD"},{"id":"2541","tribuneTheaterId":"2545","providerTheaterId":"","name":"The Clyde, Langley","address":"217 1st St.","city":"Langley","state":"WA","zip":"98260","distance":12.069923720987,"lon":"-122.408957","lat":"48.040666","theaterChainName":"Independent Chains","ticketType":"STANDARD"},{"id":"4207","tribuneTheaterId":"4621","providerTheaterId":"","name":"Everett Stadium 16 & RPX","address":"1402 SE Everett Mall Way","city":"Everett","state":"WA","zip":"98208","distance":16.787199511984,"lon":"-122.213843","lat":"47.909074","theaterChainName":"Regal Cinemas","ticketType":"STANDARD"},{"id":"1962","tribuneTheaterId":"2822","providerTheaterId":"","name":"Oak Harbor Plaza Cinema 3","address":"1321 S.W. Barlow St.","city":"Oak Harbor","state":"WA","zip":"98277","distance":22.863045198659,"lon":"-122.660371","lat":"48.287687","theaterChainName":"Far Away Entertainment","ticketType":"STANDARD"},{"id":"34","tribuneTheaterId":"8402","providerTheaterId":"","name":"Regal Alderwood 7","address":"3501 184th Street S.W.","city":"Lynnwood","state":"WA","zip":"98037","distance":22.325381120492,"lon":"-122.280222","lat":"47.832577","theaterChainName":"Regal Cinemas","ticketType":"STANDARD"},{"id":"3963","tribuneTheaterId":"4163","providerTheaterId":"2629","name":"AMC Loews Alderwood Mall 16","address":"18601 33rd Avenue West","city":"Lynnwood","state":"WA","zip":"98037","distance":22.633504340831,"lon":"-122.27537","lat":"47.827595","theaterChainName":"AMC Theatres","ticketType":"STANDARD"},{"id":"3077","tribuneTheaterId":"5996","providerTheaterId":"","name":"Galaxy Monroe 12","address":"One Galaxy Way","city":"Monroe","state":"WA","zip":"98272","distance":22.503815055396,"lon":"-121.976174","lat":"47.865379","theaterChainName":"Galaxy Theatres","ticketType":"STANDARD"},{"id":"1593","tribuneTheaterId":"9041","providerTheaterId":"2448","name":"AMC Loews Cascade Mall 14","address":"200 Cascade Mall Dr.","city":"Burlington","state":"WA","zip":"98233","distance":22.377248253869,"lon":"-122.339383","lat":"48.463746","theaterChainName":"AMC Theatres","ticketType":"STANDARD"},{"id":"1087","tribuneTheaterId":"2459","providerTheaterId":"","name":"Edmonds Theater","address":"415 Main Street","city":"Edmonds","state":"WA","zip":"98020","distance":24.855049283982,"lon":"-122.37777","lat":"47.810823","theaterChainName":"Independent Chains","ticketType":"STANDARD"}]