[{"id":"5150","tribuneTheaterId":"10556","providerTheaterId":"","name":"Concrete Theatre","address":"45920 Main St.","city":"Concrete","state":"WA","zip":"98237","distance":14.293753160846,"lon":"-121.746228","lat":"48.538653","theaterChainName":"Independent Chains","ticketType":"STANDARD"},{"id":"1593","tribuneTheaterId":"9041","providerTheaterId":"2448","name":"AMC Loews Cascade Mall 14","address":"200 Cascade Mall Dr.","city":"Burlington","state":"WA","zip":"98233","distance":13.753347496535,"lon":"-122.339383","lat":"48.463746","theaterChainName":"AMC Theatres","ticketType":"STANDARD"},{"id":"5237","tribuneTheaterId":"10660","providerTheaterId":"","name":"Barkley Village 16","address":"3005 Cinema Place","city":"Bellingham","state":"WA","zip":"98226","distance":24.163545461048,"lon":"-122.449515","lat":"48.770328","theaterChainName":"Regal Cinemas","ticketType":"STANDARD"},{"id":"2757","tribuneTheaterId":"1213","providerTheaterId":"","name":"Pickford Film Center","address":"1318 Bay St.","city":"Bellingham","state":"WA","zip":"98225","distance":24.402210826405,"lon":"-122.480223","lat":"48.751582","theaterChainName":"Independent Chains","ticketType":"STANDARD"},{"id":"2540","tribuneTheaterId":"2952","providerTheaterId":"","name":"Stanwood Cinemas","address":"6996 265th St. N.W.","city":"Stanwood","state":"WA","zip":"98292","distance":23.997789784794,"lon":"-122.3285","lat":"48.237","theaterChainName":"Far Away Entertainment","ticketType":"STANDARD"},{"id":"5061","tribuneTheaterId":"10444","providerTheaterId":"","name":"PFC's Limelight Cinema","address":"1416 Cornwall Ave.","city":"Bellingham","state":"WA","zip":"98225","distance":24.275170984902,"lon":"-122.477131","lat":"48.751209","theaterChainName":"Independent Chains","ticketType":"STANDARD"}]