[{"id":"4563","tribuneTheaterId":"9705","providerTheaterId":"","name":"Anacortes Cinemas","address":"415 O Avenue","city":"Anacortes","state":"WA","zip":"98221","distance":12.309253071293,"lon":"-122.613602","lat":"48.51861","theaterChainName":"Far Away Entertainment","ticketType":"STANDARD"},{"id":"5061","tribuneTheaterId":"10444","providerTheaterId":"","name":"PFC's Limelight Cinema","address":"1416 Cornwall Ave.","city":"Bellingham","state":"WA","zip":"98225","distance":18.709269797949,"lon":"-122.477131","lat":"48.751209","theaterChainName":"Independent Chains","ticketType":"STANDARD"},{"id":"2757","tribuneTheaterId":"1213","providerTheaterId":"","name":"Pickford Film Center","address":"1318 Bay St.","city":"Bellingham","state":"WA","zip":"98225","distance":18.598743583253,"lon":"-122.480223","lat":"48.751582","theaterChainName":"Independent Chains","ticketType":"STANDARD"},{"id":"5237","tribuneTheaterId":"10660","providerTheaterId":"","name":"Barkley Village 16","address":"3005 Cinema Place","city":"Bellingham","state":"WA","zip":"98226","distance":20.456731325142,"lon":"-122.449515","lat":"48.770328","theaterChainName":"Regal Cinemas","ticketType":"STANDARD"},{"id":"1962","tribuneTheaterId":"2822","providerTheaterId":"","name":"Oak Harbor Plaza Cinema 3","address":"1321 S.W. Barlow St.","city":"Oak Harbor","state":"WA","zip":"98277","distance":24.290059356277,"lon":"-122.660371","lat":"48.287687","theaterChainName":"Far Away Entertainment","ticketType":"STANDARD"}]