[{"id":"3077","tribuneTheaterId":"5996","providerTheaterId":"","name":"Galaxy Monroe 12","address":"One Galaxy Way","city":"Monroe","state":"WA","zip":"98272","distance":1.4159996874701,"lon":"-121.976174","lat":"47.865379","theaterChainName":"Galaxy Theatres","ticketType":"STANDARD"},{"id":"820","tribuneTheaterId":"7791","providerTheaterId":"2449","name":"AMC Loews Woodinville 12","address":"17640 Garden Way","city":"Woodinville","state":"WA","zip":"98072","distance":11.943944356971,"lon":"-122.154542","lat":"47.755894","theaterChainName":"AMC Theatres","ticketType":"STANDARD"},{"id":"4207","tribuneTheaterId":"4621","providerTheaterId":"","name":"Everett Stadium 16 & RPX","address":"1402 SE Everett Mall Way","city":"Everett","state":"WA","zip":"98208","distance":12.831004472131,"lon":"-122.213843","lat":"47.909074","theaterChainName":"Regal Cinemas","ticketType":"STANDARD"},{"id":"3963","tribuneTheaterId":"4163","providerTheaterId":"2629","name":"AMC Loews Alderwood Mall 16","address":"18601 33rd Avenue West","city":"Lynnwood","state":"WA","zip":"98037","distance":15.358084218958,"lon":"-122.27537","lat":"47.827595","theaterChainName":"AMC Theatres","ticketType":"STANDARD"},{"id":"34","tribuneTheaterId":"8402","providerTheaterId":"","name":"Regal Alderwood 7","address":"3501 184th Street S.W.","city":"Lynnwood","state":"WA","zip":"98037","distance":15.536762160358,"lon":"-122.280222","lat":"47.832577","theaterChainName":"Regal Cinemas","ticketType":"STANDARD"},{"id":"162","tribuneTheaterId":"7559","providerTheaterId":"","name":"Regal Bella Bottega Stadium 11","address":"8890 NE 161st Ave","city":"Redmond","state":"WA","zip":"98052","distance":14.734579784307,"lon":"-122.122668","lat":"47.680732","theaterChainName":"Regal Cinemas","ticketType":"STANDARD"},{"id":"4780","tribuneTheaterId":"10022","providerTheaterId":"","name":"Cinebarre Mountlake Terrace","address":"6009 244th St. S.W.","city":"Mountlake Terrace","state":"WA","zip":"98043","distance":17.903784198983,"lon":"-122.314622","lat":"47.778856","theaterChainName":"Cinebarre","ticketType":"STANDARD"},{"id":"35","tribuneTheaterId":"7558","providerTheaterId":"","name":"Regal Crossroads 8 Cinema","address":"1200 156th Ave. N.E.","city":"Bellevue","state":"WA","zip":"98008","distance":18.45352551458,"lon":"-122.129047","lat":"47.620992","theaterChainName":"Regal Cinemas","ticketType":"STANDARD"},{"id":"881","tribuneTheaterId":"7136","providerTheaterId":"","name":"Regal Marysville 14","address":"9811 State Ave","city":"Marysville","state":"WA","zip":"98270","distance":18.621874328462,"lon":"-122.168519","lat":"48.08372","theaterChainName":"Regal Cinemas","ticketType":"STANDARD"},{"id":"1087","tribuneTheaterId":"2459","providerTheaterId":"","name":"Edmonds Theater","address":"415 Main Street","city":"Edmonds","state":"WA","zip":"98020","distance":20.23070874617,"lon":"-122.37777","lat":"47.810823","theaterChainName":"Independent Chains","ticketType":"STANDARD"},{"id":"4147","tribuneTheaterId":"2388","providerTheaterId":"","name":"Lincoln Square Cinemas","address":"700 Bellevue Way NE #310","city":"Bellevue","state":"WA","zip":"98004","distance":20.468261699726,"lon":"-122.201274","lat":"47.61641","theaterChainName":"Cinemark","ticketType":"STANDARD"},{"id":"5335","tribuneTheaterId":"10771","providerTheaterId":"","name":"Issaquah Highlands Stadium 12 IMAX + RPX","address":"940 N.E. Park Drive","city":"Issaquah","state":"WA","zip":"98029","distance":22.01193052038,"lon":"-122.0162","lat":"47.5433","theaterChainName":"Regal Cinemas","ticketType":"STANDARD"},{"id":"5404","tribuneTheaterId":"10842","providerTheaterId":"","name":"Cinebarre Issaquah 8","address":"1490 NW 11th Ave.","city":"Issaquah","state":"WA","zip":"98027","distance":22.079221390933,"lon":"-122.054","lat":"47.5471","theaterChainName":"Cinebarre","ticketType":"STANDARD"},{"id":"61","tribuneTheaterId":"7955","providerTheaterId":"2438","name":"AMC Loews Oak Tree 6","address":"10006 Aurora Ave. N.","city":"Seattle","state":"WA","zip":"98133","distance":21.302376557833,"lon":"-122.342656","lat":"47.701935","theaterChainName":"AMC Theatres","ticketType":"STANDARD"},{"id":"4718","tribuneTheaterId":"9933","providerTheaterId":"","name":"Regal Thornton Place Stadium 14 + Imax","address":"301 N.E. 103rd Street","city":"Seattle","state":"WA","zip":"98125","distance":20.584715734966,"lon":"-122.32538","lat":"47.70278","theaterChainName":"Regal Cinemas","ticketType":"STANDARD"},{"id":"5633","tribuneTheaterId":"11096","providerTheaterId":"","name":"Varsity Theatre","address":"4329 University Way Northeast","city":"Seattle","state":"WA","zip":"98105","distance":21.807682371158,"lon":"-122.313261","lat":"47.660686","theaterChainName":"Far Away Entertainment","ticketType":"STANDARD"},{"id":"60","tribuneTheaterId":"7956","providerTheaterId":"2434","name":"AMC Loews Factoria 8","address":"3505 Factoria Blvd SE","city":"Bellevue","state":"WA","zip":"98006","distance":21.910981479787,"lon":"-122.170269","lat":"47.579064","theaterChainName":"AMC Theatres","ticketType":"STANDARD"},{"id":"2711","tribuneTheaterId":"1208","providerTheaterId":"","name":"Northwest Film Forum","address":"1515 Twelfth Ave between Park and Pine","city":"Seattle","state":"WA","zip":"98122","distance":24.077540155265,"lon":"-122.317248","lat":"47.614436","theaterChainName":"Independent Chains","ticketType":"STANDARD"},{"id":"4809","tribuneTheaterId":"10068","providerTheaterId":"","name":"Central Cinema","address":"1411 21st Ave","city":"Seattle","state":"WA","zip":"98122","distance":23.737358598807,"lon":"-122.305089","lat":"47.613225","theaterChainName":"Independent Chains","ticketType":"STANDARD"},{"id":"2541","tribuneTheaterId":"2545","providerTheaterId":"","name":"The Clyde, Langley","address":"217 1st St.","city":"Langley","state":"WA","zip":"98260","distance":24.792229709839,"lon":"-122.408957","lat":"48.040666","theaterChainName":"Independent Chains","ticketType":"STANDARD"},{"id":"87","tribuneTheaterId":"8184","providerTheaterId":"","name":"Regal Meridian 16","address":"1501 7th Ave","city":"Seattle","state":"WA","zip":"98101","distance":24.758283313549,"lon":"-122.333748","lat":"47.611753","theaterChainName":"Regal Cinemas","ticketType":"STANDARD"},{"id":"1459","tribuneTheaterId":"8106","providerTheaterId":"880","name":"AMC Pacific Place 11","address":"600 Pine St Suite 400","city":"Seattle","state":"WA","zip":"98101","distance":24.75610607186,"lon":"-122.335268","lat":"47.612877","theaterChainName":"AMC Theatres","ticketType":"STANDARD"},{"id":"5448","tribuneTheaterId":"10888","providerTheaterId":"","name":"Water Gardens Keolu 4","address":"1090 Keolu Drive","city":"Kailua","state":"HI","zip":"96734","distance":24.077994559724,"lon":"-122.31725","lat":"47.614428","theaterChainName":"Water Gardens Theatres","ticketType":"STANDARD"},{"id":"3092","tribuneTheaterId":"2850","providerTheaterId":"","name":"Majestic Bay Theatre","address":"2044 NW Market St.","city":"Seattle","state":"WA","zip":"98107","distance":24.143862287893,"lon":"-122.384102","lat":"47.668926","theaterChainName":"Independent Chains","ticketType":"STANDARD"}]