[{"id":"3077","tribuneTheaterId":"5996","providerTheaterId":"","name":"Galaxy Monroe 12","address":"One Galaxy Way","city":"Monroe","state":"WA","zip":"98272","distance":9.6318474400994,"lon":"-121.976174","lat":"47.865379","theaterChainName":"Galaxy Theatres","ticketType":"STANDARD"},{"id":"820","tribuneTheaterId":"7791","providerTheaterId":"2449","name":"AMC Loews Woodinville 12","address":"17640 Garden Way","city":"Woodinville","state":"WA","zip":"98072","distance":19.578838749097,"lon":"-122.154542","lat":"47.755894","theaterChainName":"AMC Theatres","ticketType":"STANDARD"},{"id":"4207","tribuneTheaterId":"4621","providerTheaterId":"","name":"Everett Stadium 16 & RPX","address":"1402 SE Everett Mall Way","city":"Everett","state":"WA","zip":"98208","distance":20.80644785547,"lon":"-122.213843","lat":"47.909074","theaterChainName":"Regal Cinemas","ticketType":"STANDARD"},{"id":"162","tribuneTheaterId":"7559","providerTheaterId":"","name":"Regal Bella Bottega Stadium 11","address":"8890 NE 161st Ave","city":"Redmond","state":"WA","zip":"98052","distance":21.023715776667,"lon":"-122.122668","lat":"47.680732","theaterChainName":"Regal Cinemas","ticketType":"STANDARD"},{"id":"881","tribuneTheaterId":"7136","providerTheaterId":"","name":"Regal Marysville 14","address":"9811 State Ave","city":"Marysville","state":"WA","zip":"98270","distance":23.659380307063,"lon":"-122.168519","lat":"48.08372","theaterChainName":"Regal Cinemas","ticketType":"STANDARD"},{"id":"3963","tribuneTheaterId":"4163","providerTheaterId":"2629","name":"AMC Loews Alderwood Mall 16","address":"18601 33rd Avenue West","city":"Lynnwood","state":"WA","zip":"98037","distance":23.686822378973,"lon":"-122.27537","lat":"47.827595","theaterChainName":"AMC Theatres","ticketType":"STANDARD"},{"id":"35","tribuneTheaterId":"7558","providerTheaterId":"","name":"Regal Crossroads 8 Cinema","address":"1200 156th Ave. N.E.","city":"Bellevue","state":"WA","zip":"98008","distance":24.027304309381,"lon":"-122.129047","lat":"47.620992","theaterChainName":"Regal Cinemas","ticketType":"STANDARD"},{"id":"34","tribuneTheaterId":"8402","providerTheaterId":"","name":"Regal Alderwood 7","address":"3501 184th Street S.W.","city":"Lynnwood","state":"WA","zip":"98037","distance":23.868894159386,"lon":"-122.280222","lat":"47.832577","theaterChainName":"Regal Cinemas","ticketType":"STANDARD"}]