[{"id":"2922","tribuneTheaterId":"2593","providerTheaterId":"","name":"Uptown Theatre","address":"1120 Lawrence Street","city":"Port Townsend","state":"WA","zip":"98368","distance":9.1199061333665,"lon":"-122.7618","lat":"48.1169","theaterChainName":"Independent Chains","ticketType":"STANDARD"},{"id":"2921","tribuneTheaterId":"2763","providerTheaterId":"","name":"Rose Theatre","address":"235 Taylor St.","city":"Port Townsend","state":"WA","zip":"98368","distance":9.009797242238,"lon":"-122.7569","lat":"48.1148","theaterChainName":"Independent Chains","ticketType":"STANDARD"},{"id":"2290","tribuneTheaterId":"6805","providerTheaterId":"","name":"Regal Poulsbo Stadium 10","address":"750 NW Edvard St.","city":"Poulsbo","state":"WA","zip":"98370","distance":17.786888411522,"lon":"-122.659167","lat":"47.743682","theaterChainName":"Regal Cinemas","ticketType":"STANDARD"},{"id":"2541","tribuneTheaterId":"2545","providerTheaterId":"","name":"The Clyde, Langley","address":"217 1st St.","city":"Langley","state":"WA","zip":"98260","distance":17.934143767286,"lon":"-122.408957","lat":"48.040666","theaterChainName":"Independent Chains","ticketType":"STANDARD"},{"id":"4763","tribuneTheaterId":"10000","providerTheaterId":"","name":"Firehouse Theater","address":"11171 NE St Hwy 104, Suite 111","city":"Kingston","state":"WA","zip":"98346","distance":18.531594178536,"lon":"-122.499415","lat":"47.800581","theaterChainName":"Independent Chains","ticketType":"STANDARD"},{"id":"1962","tribuneTheaterId":"2822","providerTheaterId":"","name":"Oak Harbor Plaza Cinema 3","address":"1321 S.W. Barlow St.","city":"Oak Harbor","state":"WA","zip":"98277","distance":21.656460742854,"lon":"-122.660371","lat":"48.287687","theaterChainName":"Far Away Entertainment","ticketType":"STANDARD"},{"id":"40","tribuneTheaterId":"9212","providerTheaterId":"","name":"Regal Silverdale 4 Theatres","address":"9923 Poplars Ave. NW","city":"Silverdale","state":"WA","zip":"98383","distance":23.367390638819,"lon":"-122.694232","lat":"47.65385","theaterChainName":"Regal Cinemas","ticketType":"STANDARD"},{"id":"1087","tribuneTheaterId":"2459","providerTheaterId":"","name":"Edmonds Theater","address":"415 Main Street","city":"Edmonds","state":"WA","zip":"98020","distance":22.545787277349,"lon":"-122.37777","lat":"47.810823","theaterChainName":"Independent Chains","ticketType":"STANDARD"},{"id":"756","tribuneTheaterId":"7968","providerTheaterId":"882","name":"AMC Kitsap Mall 8 Cinemas","address":"10055 NW Kitsap Mall","city":"Silverdale","state":"WA","zip":"98383","distance":23.305059602009,"lon":"-122.694861","lat":"47.654688","theaterChainName":"AMC Theatres","ticketType":"STANDARD"}]