[{"id":"4457","tribuneTheaterId":"9546","providerTheaterId":"","name":"Galaxy Theatre Uptown","address":"4649 Point Fosdick Dr NW","city":"Gig Harbor","state":"WA","zip":"98335","distance":4.4099676233361,"lon":"-122.575707","lat":"47.300596","theaterChainName":"Galaxy Theatres","ticketType":"STANDARD"},{"id":"1085","tribuneTheaterId":"2456","providerTheaterId":"","name":"Blue Mouse Theatre","address":"2611 N. Proctor St.","city":"Tacoma","state":"WA","zip":"98407","distance":6.7786210557251,"lon":"-122.488695","lat":"47.271624","theaterChainName":"Independent Chains","ticketType":"STANDARD"},{"id":"5833","tribuneTheaterId":"11243","providerTheaterId":"","name":"Century Point Ruston and XD","address":"5057 Main Street","city":"Tacoma","state":"WA","zip":"98407","distance":6.8324764038881,"lon":"-122.502707","lat":"47.297354","theaterChainName":"Cinemark","ticketType":"STANDARD"},{"id":"58","tribuneTheaterId":"8816","providerTheaterId":"2447","name":"AMC Loews Lakewood Mall 12","address":"5721 Main Street SW","city":"Lakewood","state":"WA","zip":"98499","distance":8.0598078490276,"lon":"-122.512619","lat":"47.162233","theaterChainName":"AMC Theatres","ticketType":"STANDARD"},{"id":"1088","tribuneTheaterId":"2804","providerTheaterId":"","name":"Grand Cinema","address":"606 S. Fawcett Ave.","city":"Tacoma","state":"WA","zip":"98402","distance":8.6752758390489,"lon":"-122.444604","lat":"47.257987","theaterChainName":"Independent Chains","ticketType":"STANDARD"},{"id":"1598","tribuneTheaterId":"8879","providerTheaterId":"","name":"Lakewood Stadium 15 & RPX","address":"2410 84th St. S","city":"Lakewood","state":"WA","zip":"98499","distance":8.9015046450729,"lon":"-122.468226","lat":"47.179651","theaterChainName":"Regal Cinemas","ticketType":"STANDARD"},{"id":"4342","tribuneTheaterId":"9326","providerTheaterId":"","name":"Century Federal Way","address":"2001 S. Commons","city":"Federal Way","state":"WA","zip":"98003","distance":15.724236312308,"lon":"-122.307637","lat":"47.313284","theaterChainName":"Cinemark","ticketType":"STANDARD"},{"id":"1091","tribuneTheaterId":"2461","providerTheaterId":"","name":"Vashon Theatre","address":"99 SW 178th","city":"Vashon","state":"WA","zip":"98070","distance":15.758494044981,"lon":"-122.460879","lat":"47.445592","theaterChainName":"Independent Chains","ticketType":"STANDARD"},{"id":"4088","tribuneTheaterId":"4619","providerTheaterId":"","name":"Regal Martin Village Stadium 16 & IMAX","address":"5400 East Martin Way","city":"Lacey","state":"WA","zip":"98516","distance":16.151777461136,"lon":"-122.813061","lat":"47.050572","theaterChainName":"Regal Cinemas","ticketType":"STANDARD"},{"id":"408","tribuneTheaterId":"6950","providerTheaterId":"","name":"Gateway Movies 8","address":"2501 Gateway Center Blvd. S.","city":"Federal Way","state":"WA","zip":"98003","distance":16.101293439501,"lon":"-122.300918","lat":"47.317072","theaterChainName":"Starplex Cinemas","ticketType":"STANDARD"},{"id":"2387","tribuneTheaterId":"5614","providerTheaterId":"","name":"Regal Longston Place Stadium 14","address":"13317 Meridian St East","city":"Puyallup","state":"WA","zip":"98373","distance":17.663168931575,"lon":"-122.291265","lat":"47.135396","theaterChainName":"Regal Cinemas","ticketType":"STANDARD"},{"id":"239","tribuneTheaterId":"9031","providerTheaterId":"","name":"Regal South Hill Cinema 6","address":"3500 S Meridian","city":"Puyallup","state":"WA","zip":"98373","distance":16.747071397269,"lon":"-122.297101","lat":"47.159097","theaterChainName":"Regal Cinemas","ticketType":"STANDARD"},{"id":"306","tribuneTheaterId":"7411","providerTheaterId":"","name":"Regal Auburn Stadium 17","address":"1101 Super Mall Way, Ste. 901","city":"Auburn","state":"WA","zip":"98001","distance":18.532261695706,"lon":"-122.241021","lat":"47.299439","theaterChainName":"Regal Cinemas","ticketType":"STANDARD"},{"id":"2712","tribuneTheaterId":"4111","providerTheaterId":"","name":"Capitol Theatre Olympia Film Society","address":"206 5th Ave. S.E.","city":"Olympia","state":"WA","zip":"98501","distance":18.976634167378,"lon":"-122.900257","lat":"47.044536","theaterChainName":"Independent Chains","ticketType":"STANDARD"},{"id":"5048","tribuneTheaterId":"10426","providerTheaterId":"","name":"Dragonfly Cinema","address":"822 Bay St.","city":"Port Orchard","state":"WA","zip":"98366","distance":20.262436755538,"lon":"-122.635494","lat":"47.541229","theaterChainName":"Independent Chains","ticketType":"STANDARD"},{"id":"4332","tribuneTheaterId":"9307","providerTheaterId":"","name":"Century Olympia","address":"625 Black Lake Blvd. SW","city":"Olympia","state":"WA","zip":"98502","distance":20.158506731356,"lon":"-122.9307","lat":"47.0406","theaterChainName":"Cinemark","ticketType":"STANDARD"},{"id":"3427","tribuneTheaterId":"2123","providerTheaterId":"","name":"Yelm Cinemas at Prairie Park","address":"201 Prairie Park St., N.E.","city":"Yelm","state":"WA","zip":"98597","distance":21.302699423069,"lon":"-122.599252","lat":"46.940348","theaterChainName":"Independent Chains","ticketType":"STANDARD"},{"id":"4149","tribuneTheaterId":"4247","providerTheaterId":"606","name":"AMC Kent Station","address":"426 Ramsay Way","city":"Kent","state":"WA","zip":"98032","distance":20.764020751199,"lon":"-122.234268","lat":"47.384745","theaterChainName":"AMC Theatres","ticketType":"STANDARD"},{"id":"667","tribuneTheaterId":"8042","providerTheaterId":"","name":"Regal South Sound Cinema 10","address":"1435 Olney Avenue SE","city":"Port Orchard","state":"WA","zip":"98366","distance":19.857295651756,"lon":"-122.605941","lat":"47.534974","theaterChainName":"Regal Cinemas","ticketType":"STANDARD"},{"id":"4527","tribuneTheaterId":"9651","providerTheaterId":"607","name":"AMC Southcenter 16","address":"3600 Southcenter Mall","city":"Tukwila","state":"WA","zip":"98188","distance":22.581320781678,"lon":"-122.260988","lat":"47.459317","theaterChainName":"AMC Theatres","ticketType":"STANDARD"},{"id":"5207","tribuneTheaterId":"10631","providerTheaterId":"","name":"SEEfilm Bremerton Cinema","address":"655 4th St.","city":"Bremerton","state":"WA","zip":"98337","distance":21.925353581613,"lon":"-122.629949","lat":"47.565329","theaterChainName":"Independent Chains","ticketType":"STANDARD"},{"id":"2991","tribuneTheaterId":"1239","providerTheaterId":"","name":"Shelton Cinemas","address":"517 W. Franklin St.","city":"Shelton","state":"WA","zip":"98584","distance":22.474476020509,"lon":"-123.105381","lat":"47.213888","theaterChainName":"Independent Chains","ticketType":"STANDARD"},{"id":"2564","tribuneTheaterId":"7885","providerTheaterId":"","name":"Regal Parkway Plaza Stadium 12","address":"5910 South 180th St","city":"Tukwila","state":"WA","zip":"98188","distance":21.948194984413,"lon":"-122.258445","lat":"47.442595","theaterChainName":"Regal Cinemas","ticketType":"STANDARD"},{"id":"683","tribuneTheaterId":"8404","providerTheaterId":"","name":"Regal Tall Firs 10","address":"20751 State Route 410 E","city":"Bonney Lake","state":"WA","zip":"98391","distance":23.011609114299,"lon":"-122.15377","lat":"47.16619","theaterChainName":"Regal Cinemas","ticketType":"STANDARD"},{"id":"317","tribuneTheaterId":"8499","providerTheaterId":"","name":"Regal East Valley Stadium 13","address":"3751 E. Valley Hwy","city":"Renton","state":"WA","zip":"98055","distance":23.494126554136,"lon":"-122.22039","lat":"47.445418","theaterChainName":"Regal Cinemas","ticketType":"STANDARD"},{"id":"4235","tribuneTheaterId":"1805","providerTheaterId":"","name":"Olympic Cinemas","address":"1520 N.E. Riddell Road","city":"Bremerton","state":"WA","zip":"98310","distance":24.814165084602,"lon":"-122.632055","lat":"47.607134","theaterChainName":"Far Away Entertainment","ticketType":"STANDARD"},{"id":"1083","tribuneTheaterId":"2455","providerTheaterId":"","name":"Lynwood Theatre","address":"4569 Lynwood Center Road","city":"Bainbridge Island","state":"WA","zip":"98110","distance":24.887866850135,"lon":"-122.547523","lat":"47.603964","theaterChainName":"Far Away Entertainment","ticketType":"STANDARD"}]