[{"id":"4763","tribuneTheaterId":"10000","providerTheaterId":"","name":"Firehouse Theater","address":"11171 NE St Hwy 104, Suite 111","city":"Kingston","state":"WA","zip":"98346","distance":7.9083135976077,"lon":"-122.499415","lat":"47.800581","theaterChainName":"Independent Chains","ticketType":"STANDARD"},{"id":"1087","tribuneTheaterId":"2459","providerTheaterId":"","name":"Edmonds Theater","address":"415 Main Street","city":"Edmonds","state":"WA","zip":"98020","distance":10.912288938847,"lon":"-122.37777","lat":"47.810823","theaterChainName":"Independent Chains","ticketType":"STANDARD"},{"id":"2541","tribuneTheaterId":"2545","providerTheaterId":"","name":"The Clyde, Langley","address":"217 1st St.","city":"Langley","state":"WA","zip":"98260","distance":11.784690030936,"lon":"-122.408957","lat":"48.040666","theaterChainName":"Independent Chains","ticketType":"STANDARD"},{"id":"2290","tribuneTheaterId":"6805","providerTheaterId":"","name":"Regal Poulsbo Stadium 10","address":"750 NW Edvard St.","city":"Poulsbo","state":"WA","zip":"98370","distance":12.033840350357,"lon":"-122.659167","lat":"47.743682","theaterChainName":"Regal Cinemas","ticketType":"STANDARD"},{"id":"34","tribuneTheaterId":"8402","providerTheaterId":"","name":"Regal Alderwood 7","address":"3501 184th Street S.W.","city":"Lynnwood","state":"WA","zip":"98037","distance":14.164718047458,"lon":"-122.280222","lat":"47.832577","theaterChainName":"Regal Cinemas","ticketType":"STANDARD"},{"id":"3963","tribuneTheaterId":"4163","providerTheaterId":"2629","name":"AMC Loews Alderwood Mall 16","address":"18601 33rd Avenue West","city":"Lynnwood","state":"WA","zip":"98037","distance":14.500691374437,"lon":"-122.27537","lat":"47.827595","theaterChainName":"AMC Theatres","ticketType":"STANDARD"},{"id":"4780","tribuneTheaterId":"10022","providerTheaterId":"","name":"Cinebarre Mountlake Terrace","address":"6009 244th St. S.W.","city":"Mountlake Terrace","state":"WA","zip":"98043","distance":14.582367495999,"lon":"-122.314622","lat":"47.778856","theaterChainName":"Cinebarre","ticketType":"STANDARD"},{"id":"2922","tribuneTheaterId":"2593","providerTheaterId":"","name":"Uptown Theatre","address":"1120 Lawrence Street","city":"Port Townsend","state":"WA","zip":"98368","distance":17.159883202043,"lon":"-122.7618","lat":"48.1169","theaterChainName":"Independent Chains","ticketType":"STANDARD"},{"id":"4207","tribuneTheaterId":"4621","providerTheaterId":"","name":"Everett Stadium 16 & RPX","address":"1402 SE Everett Mall Way","city":"Everett","state":"WA","zip":"98208","distance":16.288346542211,"lon":"-122.213843","lat":"47.909074","theaterChainName":"Regal Cinemas","ticketType":"STANDARD"},{"id":"61","tribuneTheaterId":"7955","providerTheaterId":"2438","name":"AMC Loews Oak Tree 6","address":"10006 Aurora Ave. N.","city":"Seattle","state":"WA","zip":"98133","distance":17.491188114386,"lon":"-122.342656","lat":"47.701935","theaterChainName":"AMC Theatres","ticketType":"STANDARD"},{"id":"2921","tribuneTheaterId":"2763","providerTheaterId":"","name":"Rose Theatre","address":"235 Taylor St.","city":"Port Townsend","state":"WA","zip":"98368","distance":16.917461774197,"lon":"-122.7569","lat":"48.1148","theaterChainName":"Independent Chains","ticketType":"STANDARD"},{"id":"756","tribuneTheaterId":"7968","providerTheaterId":"882","name":"AMC Kitsap Mall 8 Cinemas","address":"10055 NW Kitsap Mall","city":"Silverdale","state":"WA","zip":"98383","distance":18.379893836534,"lon":"-122.694861","lat":"47.654688","theaterChainName":"AMC Theatres","ticketType":"STANDARD"},{"id":"40","tribuneTheaterId":"9212","providerTheaterId":"","name":"Regal Silverdale 4 Theatres","address":"9923 Poplars Ave. NW","city":"Silverdale","state":"WA","zip":"98383","distance":18.425146771073,"lon":"-122.694232","lat":"47.65385","theaterChainName":"Regal Cinemas","ticketType":"STANDARD"},{"id":"3092","tribuneTheaterId":"2850","providerTheaterId":"","name":"Majestic Bay Theatre","address":"2044 NW Market St.","city":"Seattle","state":"WA","zip":"98107","distance":18.424174701807,"lon":"-122.384102","lat":"47.668926","theaterChainName":"Independent Chains","ticketType":"STANDARD"},{"id":"4718","tribuneTheaterId":"9933","providerTheaterId":"","name":"Regal Thornton Place Stadium 14 + Imax","address":"301 N.E. 103rd Street","city":"Seattle","state":"WA","zip":"98125","distance":17.931014874155,"lon":"-122.32538","lat":"47.70278","theaterChainName":"Regal Cinemas","ticketType":"STANDARD"},{"id":"2710","tribuneTheaterId":"5182","providerTheaterId":"","name":"Bainbridge Cinemas","address":"403 North Madison Avenue","city":"Bainbridge Island","state":"WA","zip":"98110","distance":19.365738869573,"lon":"-122.521525","lat":"47.627379","theaterChainName":"Far Away Entertainment","ticketType":"STANDARD"},{"id":"1083","tribuneTheaterId":"2455","providerTheaterId":"","name":"Lynwood Theatre","address":"4569 Lynwood Center Road","city":"Bainbridge Island","state":"WA","zip":"98110","distance":20.892269190871,"lon":"-122.547523","lat":"47.603964","theaterChainName":"Far Away Entertainment","ticketType":"STANDARD"},{"id":"4235","tribuneTheaterId":"1805","providerTheaterId":"","name":"Olympic Cinemas","address":"1520 N.E. Riddell Road","city":"Bremerton","state":"WA","zip":"98310","distance":20.886603169957,"lon":"-122.632055","lat":"47.607134","theaterChainName":"Far Away Entertainment","ticketType":"STANDARD"},{"id":"5633","tribuneTheaterId":"11096","providerTheaterId":"","name":"Varsity Theatre","address":"4329 University Way Northeast","city":"Seattle","state":"WA","zip":"98105","distance":20.607195424844,"lon":"-122.313261","lat":"47.660686","theaterChainName":"Far Away Entertainment","ticketType":"STANDARD"},{"id":"820","tribuneTheaterId":"7791","providerTheaterId":"2449","name":"AMC Loews Woodinville 12","address":"17640 Garden Way","city":"Woodinville","state":"WA","zip":"98072","distance":21.703828229313,"lon":"-122.154542","lat":"47.755894","theaterChainName":"AMC Theatres","ticketType":"STANDARD"},{"id":"881","tribuneTheaterId":"7136","providerTheaterId":"","name":"Regal Marysville 14","address":"9811 State Ave","city":"Marysville","state":"WA","zip":"98270","distance":22.079910448028,"lon":"-122.168519","lat":"48.08372","theaterChainName":"Regal Cinemas","ticketType":"STANDARD"},{"id":"3520","tribuneTheaterId":"645","providerTheaterId":"","name":"Big Picture Seattle","address":"2505 1st Ave.","city":"Seattle","state":"WA","zip":"98121","distance":22.496410433401,"lon":"-122.349214","lat":"47.614771","theaterChainName":"Independent Chains","ticketType":"STANDARD"},{"id":"5207","tribuneTheaterId":"10631","providerTheaterId":"","name":"SEEfilm Bremerton Cinema","address":"655 4th St.","city":"Bremerton","state":"WA","zip":"98337","distance":23.734697041996,"lon":"-122.629949","lat":"47.565329","theaterChainName":"Independent Chains","ticketType":"STANDARD"},{"id":"1084","tribuneTheaterId":"2683","providerTheaterId":"","name":"Admiral Twin Theatre","address":"2343 California Avenue S","city":"Seattle","state":"WA","zip":"98116","distance":23.850344147757,"lon":"-122.3864","lat":"47.5826","theaterChainName":"Far Away Entertainment","ticketType":"STANDARD"},{"id":"4809","tribuneTheaterId":"10068","providerTheaterId":"","name":"Central Cinema","address":"1411 21st Ave","city":"Seattle","state":"WA","zip":"98122","distance":23.575010699347,"lon":"-122.305089","lat":"47.613225","theaterChainName":"Independent Chains","ticketType":"STANDARD"},{"id":"1459","tribuneTheaterId":"8106","providerTheaterId":"880","name":"AMC Pacific Place 11","address":"600 Pine St Suite 400","city":"Seattle","state":"WA","zip":"98101","distance":22.90876782065,"lon":"-122.335268","lat":"47.612877","theaterChainName":"AMC Theatres","ticketType":"STANDARD"},{"id":"87","tribuneTheaterId":"8184","providerTheaterId":"","name":"Regal Meridian 16","address":"1501 7th Ave","city":"Seattle","state":"WA","zip":"98101","distance":23.01047313727,"lon":"-122.333748","lat":"47.611753","theaterChainName":"Regal Cinemas","ticketType":"STANDARD"},{"id":"2711","tribuneTheaterId":"1208","providerTheaterId":"","name":"Northwest Film Forum","address":"1515 Twelfth Ave between Park and Pine","city":"Seattle","state":"WA","zip":"98122","distance":23.21757856597,"lon":"-122.317248","lat":"47.614436","theaterChainName":"Independent Chains","ticketType":"STANDARD"},{"id":"5448","tribuneTheaterId":"10888","providerTheaterId":"","name":"Water Gardens Keolu 4","address":"1090 Keolu Drive","city":"Kailua","state":"HI","zip":"96734","distance":23.218012638314,"lon":"-122.31725","lat":"47.614428","theaterChainName":"Water Gardens Theatres","ticketType":"STANDARD"}]