[{"id":"2290","tribuneTheaterId":"6805","providerTheaterId":"","name":"Regal Poulsbo Stadium 10","address":"750 NW Edvard St.","city":"Poulsbo","state":"WA","zip":"98370","distance":12.41490327143,"lon":"-122.659167","lat":"47.743682","theaterChainName":"Regal Cinemas","ticketType":"STANDARD"},{"id":"4763","tribuneTheaterId":"10000","providerTheaterId":"","name":"Firehouse Theater","address":"11171 NE St Hwy 104, Suite 111","city":"Kingston","state":"WA","zip":"98346","distance":12.179434999427,"lon":"-122.499415","lat":"47.800581","theaterChainName":"Independent Chains","ticketType":"STANDARD"},{"id":"2922","tribuneTheaterId":"2593","providerTheaterId":"","name":"Uptown Theatre","address":"1120 Lawrence Street","city":"Port Townsend","state":"WA","zip":"98368","distance":13.86010367272,"lon":"-122.7618","lat":"48.1169","theaterChainName":"Independent Chains","ticketType":"STANDARD"},{"id":"2921","tribuneTheaterId":"2763","providerTheaterId":"","name":"Rose Theatre","address":"235 Taylor St.","city":"Port Townsend","state":"WA","zip":"98368","distance":13.666023310819,"lon":"-122.7569","lat":"48.1148","theaterChainName":"Independent Chains","ticketType":"STANDARD"},{"id":"2541","tribuneTheaterId":"2545","providerTheaterId":"","name":"The Clyde, Langley","address":"217 1st St.","city":"Langley","state":"WA","zip":"98260","distance":15.34483842425,"lon":"-122.408957","lat":"48.040666","theaterChainName":"Independent Chains","ticketType":"STANDARD"},{"id":"1087","tribuneTheaterId":"2459","providerTheaterId":"","name":"Edmonds Theater","address":"415 Main Street","city":"Edmonds","state":"WA","zip":"98020","distance":16.374818278018,"lon":"-122.37777","lat":"47.810823","theaterChainName":"Independent Chains","ticketType":"STANDARD"},{"id":"756","tribuneTheaterId":"7968","providerTheaterId":"882","name":"AMC Kitsap Mall 8 Cinemas","address":"10055 NW Kitsap Mall","city":"Silverdale","state":"WA","zip":"98383","distance":18.484901027982,"lon":"-122.694861","lat":"47.654688","theaterChainName":"AMC Theatres","ticketType":"STANDARD"},{"id":"40","tribuneTheaterId":"9212","providerTheaterId":"","name":"Regal Silverdale 4 Theatres","address":"9923 Poplars Ave. NW","city":"Silverdale","state":"WA","zip":"98383","distance":18.542434607823,"lon":"-122.694232","lat":"47.65385","theaterChainName":"Regal Cinemas","ticketType":"STANDARD"},{"id":"4780","tribuneTheaterId":"10022","providerTheaterId":"","name":"Cinebarre Mountlake Terrace","address":"6009 244th St. S.W.","city":"Mountlake Terrace","state":"WA","zip":"98043","distance":20.009351827647,"lon":"-122.314622","lat":"47.778856","theaterChainName":"Cinebarre","ticketType":"STANDARD"},{"id":"3963","tribuneTheaterId":"4163","providerTheaterId":"2629","name":"AMC Loews Alderwood Mall 16","address":"18601 33rd Avenue West","city":"Lynnwood","state":"WA","zip":"98037","distance":20.279553153238,"lon":"-122.27537","lat":"47.827595","theaterChainName":"AMC Theatres","ticketType":"STANDARD"},{"id":"34","tribuneTheaterId":"8402","providerTheaterId":"","name":"Regal Alderwood 7","address":"3501 184th Street S.W.","city":"Lynnwood","state":"WA","zip":"98037","distance":19.956483122329,"lon":"-122.280222","lat":"47.832577","theaterChainName":"Regal Cinemas","ticketType":"STANDARD"},{"id":"4235","tribuneTheaterId":"1805","providerTheaterId":"","name":"Olympic Cinemas","address":"1520 N.E. Riddell Road","city":"Bremerton","state":"WA","zip":"98310","distance":21.93238923955,"lon":"-122.632055","lat":"47.607134","theaterChainName":"Far Away Entertainment","ticketType":"STANDARD"},{"id":"4207","tribuneTheaterId":"4621","providerTheaterId":"","name":"Everett Stadium 16 & RPX","address":"1402 SE Everett Mall Way","city":"Everett","state":"WA","zip":"98208","distance":22.049977093064,"lon":"-122.213843","lat":"47.909074","theaterChainName":"Regal Cinemas","ticketType":"STANDARD"},{"id":"61","tribuneTheaterId":"7955","providerTheaterId":"2438","name":"AMC Loews Oak Tree 6","address":"10006 Aurora Ave. N.","city":"Seattle","state":"WA","zip":"98133","distance":22.153329275261,"lon":"-122.342656","lat":"47.701935","theaterChainName":"AMC Theatres","ticketType":"STANDARD"},{"id":"4718","tribuneTheaterId":"9933","providerTheaterId":"","name":"Regal Thornton Place Stadium 14 + Imax","address":"301 N.E. 103rd Street","city":"Seattle","state":"WA","zip":"98125","distance":22.70338241139,"lon":"-122.32538","lat":"47.70278","theaterChainName":"Regal Cinemas","ticketType":"STANDARD"},{"id":"2710","tribuneTheaterId":"5182","providerTheaterId":"","name":"Bainbridge Cinemas","address":"403 North Madison Avenue","city":"Bainbridge Island","state":"WA","zip":"98110","distance":21.814008658629,"lon":"-122.521525","lat":"47.627379","theaterChainName":"Far Away Entertainment","ticketType":"STANDARD"},{"id":"1083","tribuneTheaterId":"2455","providerTheaterId":"","name":"Lynwood Theatre","address":"4569 Lynwood Center Road","city":"Bainbridge Island","state":"WA","zip":"98110","distance":22.956765783555,"lon":"-122.547523","lat":"47.603964","theaterChainName":"Far Away Entertainment","ticketType":"STANDARD"},{"id":"3092","tribuneTheaterId":"2850","providerTheaterId":"","name":"Majestic Bay Theatre","address":"2044 NW Market St.","city":"Seattle","state":"WA","zip":"98107","distance":22.523292737131,"lon":"-122.384102","lat":"47.668926","theaterChainName":"Independent Chains","ticketType":"STANDARD"},{"id":"5207","tribuneTheaterId":"10631","providerTheaterId":"","name":"SEEfilm Bremerton Cinema","address":"655 4th St.","city":"Bremerton","state":"WA","zip":"98337","distance":24.812661565106,"lon":"-122.629949","lat":"47.565329","theaterChainName":"Independent Chains","ticketType":"STANDARD"}]