[{"id":"2922","tribuneTheaterId":"2593","providerTheaterId":"","name":"Uptown Theatre","address":"1120 Lawrence Street","city":"Port Townsend","state":"WA","zip":"98368","distance":1.7521927914203,"lon":"-122.7618","lat":"48.1169","theaterChainName":"Independent Chains","ticketType":"STANDARD"},{"id":"2921","tribuneTheaterId":"2763","providerTheaterId":"","name":"Rose Theatre","address":"235 Taylor St.","city":"Port Townsend","state":"WA","zip":"98368","distance":1.8883426062092,"lon":"-122.7569","lat":"48.1148","theaterChainName":"Independent Chains","ticketType":"STANDARD"},{"id":"1962","tribuneTheaterId":"2822","providerTheaterId":"","name":"Oak Harbor Plaza Cinema 3","address":"1321 S.W. Barlow St.","city":"Oak Harbor","state":"WA","zip":"98277","distance":14.115133521243,"lon":"-122.660371","lat":"48.287687","theaterChainName":"Far Away Entertainment","ticketType":"STANDARD"},{"id":"2541","tribuneTheaterId":"2545","providerTheaterId":"","name":"The Clyde, Langley","address":"217 1st St.","city":"Langley","state":"WA","zip":"98260","distance":18.3295810553,"lon":"-122.408957","lat":"48.040666","theaterChainName":"Independent Chains","ticketType":"STANDARD"},{"id":"2540","tribuneTheaterId":"2952","providerTheaterId":"","name":"Stanwood Cinemas","address":"6996 265th St. N.W.","city":"Stanwood","state":"WA","zip":"98292","distance":23.356657798821,"lon":"-122.3285","lat":"48.237","theaterChainName":"Far Away Entertainment","ticketType":"STANDARD"}]