[{"id":"683","tribuneTheaterId":"8404","providerTheaterId":"","name":"Regal Tall Firs 10","address":"20751 State Route 410 E","city":"Bonney Lake","state":"WA","zip":"98391","distance":3.298321183788,"lon":"-122.15377","lat":"47.16619","theaterChainName":"Regal Cinemas","ticketType":"STANDARD"},{"id":"1086","tribuneTheaterId":"2457","providerTheaterId":"","name":"Chalet Theatre","address":"1721 Wells","city":"Enumclaw","state":"WA","zip":"98022","distance":6.8192811899086,"lon":"-121.989467","lat":"47.204761","theaterChainName":"Independent Chains","ticketType":"STANDARD"},{"id":"2387","tribuneTheaterId":"5614","providerTheaterId":"","name":"Regal Longston Place Stadium 14","address":"13317 Meridian St East","city":"Puyallup","state":"WA","zip":"98373","distance":9.142189440561,"lon":"-122.291265","lat":"47.135396","theaterChainName":"Regal Cinemas","ticketType":"STANDARD"},{"id":"239","tribuneTheaterId":"9031","providerTheaterId":"","name":"Regal South Hill Cinema 6","address":"3500 S Meridian","city":"Puyallup","state":"WA","zip":"98373","distance":9.5212392729665,"lon":"-122.297101","lat":"47.159097","theaterChainName":"Regal Cinemas","ticketType":"STANDARD"},{"id":"306","tribuneTheaterId":"7411","providerTheaterId":"","name":"Regal Auburn Stadium 17","address":"1101 Super Mall Way, Ste. 901","city":"Auburn","state":"WA","zip":"98001","distance":13.029336974549,"lon":"-122.241021","lat":"47.299439","theaterChainName":"Regal Cinemas","ticketType":"STANDARD"},{"id":"408","tribuneTheaterId":"6950","providerTheaterId":"","name":"Gateway Movies 8","address":"2501 Gateway Center Blvd. S.","city":"Federal Way","state":"WA","zip":"98003","distance":15.629927764875,"lon":"-122.300918","lat":"47.317072","theaterChainName":"Starplex Cinemas","ticketType":"STANDARD"},{"id":"4342","tribuneTheaterId":"9326","providerTheaterId":"","name":"Century Federal Way","address":"2001 S. Commons","city":"Federal Way","state":"WA","zip":"98003","distance":15.621859645931,"lon":"-122.307637","lat":"47.313284","theaterChainName":"Cinemark","ticketType":"STANDARD"},{"id":"1598","tribuneTheaterId":"8879","providerTheaterId":"","name":"Lakewood Stadium 15 & RPX","address":"2410 84th St. S","city":"Lakewood","state":"WA","zip":"98499","distance":17.682342175836,"lon":"-122.468226","lat":"47.179651","theaterChainName":"Regal Cinemas","ticketType":"STANDARD"},{"id":"1088","tribuneTheaterId":"2804","providerTheaterId":"","name":"Grand Cinema","address":"606 S. Fawcett Ave.","city":"Tacoma","state":"WA","zip":"98402","distance":18.302847768965,"lon":"-122.444604","lat":"47.257987","theaterChainName":"Independent Chains","ticketType":"STANDARD"},{"id":"4149","tribuneTheaterId":"4247","providerTheaterId":"606","name":"AMC Kent Station","address":"426 Ramsay Way","city":"Kent","state":"WA","zip":"98032","distance":18.206927443317,"lon":"-122.234268","lat":"47.384745","theaterChainName":"AMC Theatres","ticketType":"STANDARD"},{"id":"58","tribuneTheaterId":"8816","providerTheaterId":"2447","name":"AMC Loews Lakewood Mall 12","address":"5721 Main Street SW","city":"Lakewood","state":"WA","zip":"98499","distance":19.608674225886,"lon":"-122.512619","lat":"47.162233","theaterChainName":"AMC Theatres","ticketType":"STANDARD"},{"id":"1085","tribuneTheaterId":"2456","providerTheaterId":"","name":"Blue Mouse Theatre","address":"2611 N. Proctor St.","city":"Tacoma","state":"WA","zip":"98407","distance":20.573250109754,"lon":"-122.488695","lat":"47.271624","theaterChainName":"Independent Chains","ticketType":"STANDARD"},{"id":"2049","tribuneTheaterId":"2513","providerTheaterId":"","name":"Roxy Theatre - Eatonville","address":"115 Marshell Ave.","city":"Eatonville","state":"WA","zip":"98328","distance":20.409046839079,"lon":"-122.266572","lat":"46.866552","theaterChainName":"Independent Chains","ticketType":"STANDARD"},{"id":"5833","tribuneTheaterId":"11243","providerTheaterId":"","name":"Century Point Ruston and XD","address":"5057 Main Street","city":"Tacoma","state":"WA","zip":"98407","distance":21.991518742359,"lon":"-122.502707","lat":"47.297354","theaterChainName":"Cinemark","ticketType":"STANDARD"},{"id":"2564","tribuneTheaterId":"7885","providerTheaterId":"","name":"Regal Parkway Plaza Stadium 12","address":"5910 South 180th St","city":"Tukwila","state":"WA","zip":"98188","distance":22.347859730027,"lon":"-122.258445","lat":"47.442595","theaterChainName":"Regal Cinemas","ticketType":"STANDARD"},{"id":"317","tribuneTheaterId":"8499","providerTheaterId":"","name":"Regal East Valley Stadium 13","address":"3751 E. Valley Hwy","city":"Renton","state":"WA","zip":"98055","distance":21.99602379798,"lon":"-122.22039","lat":"47.445418","theaterChainName":"Regal Cinemas","ticketType":"STANDARD"},{"id":"4527","tribuneTheaterId":"9651","providerTheaterId":"607","name":"AMC Southcenter 16","address":"3600 Southcenter Mall","city":"Tukwila","state":"WA","zip":"98188","distance":23.476495351456,"lon":"-122.260988","lat":"47.459317","theaterChainName":"AMC Theatres","ticketType":"STANDARD"}]