[{"id":"683","tribuneTheaterId":"8404","providerTheaterId":"","name":"Regal Tall Firs 10","address":"20751 State Route 410 E","city":"Bonney Lake","state":"WA","zip":"98391","distance":7.1671523741467,"lon":"-122.15377","lat":"47.16619","theaterChainName":"Regal Cinemas","ticketType":"STANDARD"},{"id":"2387","tribuneTheaterId":"5614","providerTheaterId":"","name":"Regal Longston Place Stadium 14","address":"13317 Meridian St East","city":"Puyallup","state":"WA","zip":"98373","distance":9.6434344019181,"lon":"-122.291265","lat":"47.135396","theaterChainName":"Regal Cinemas","ticketType":"STANDARD"},{"id":"239","tribuneTheaterId":"9031","providerTheaterId":"","name":"Regal South Hill Cinema 6","address":"3500 S Meridian","city":"Puyallup","state":"WA","zip":"98373","distance":10.769190505035,"lon":"-122.297101","lat":"47.159097","theaterChainName":"Regal Cinemas","ticketType":"STANDARD"},{"id":"1086","tribuneTheaterId":"2457","providerTheaterId":"","name":"Chalet Theatre","address":"1721 Wells","city":"Enumclaw","state":"WA","zip":"98022","distance":11.201636200958,"lon":"-121.989467","lat":"47.204761","theaterChainName":"Independent Chains","ticketType":"STANDARD"},{"id":"2049","tribuneTheaterId":"2513","providerTheaterId":"","name":"Roxy Theatre - Eatonville","address":"115 Marshell Ave.","city":"Eatonville","state":"WA","zip":"98328","distance":15.574998763216,"lon":"-122.266572","lat":"46.866552","theaterChainName":"Independent Chains","ticketType":"STANDARD"},{"id":"306","tribuneTheaterId":"7411","providerTheaterId":"","name":"Regal Auburn Stadium 17","address":"1101 Super Mall Way, Ste. 901","city":"Auburn","state":"WA","zip":"98001","distance":17.196828333144,"lon":"-122.241021","lat":"47.299439","theaterChainName":"Regal Cinemas","ticketType":"STANDARD"},{"id":"1598","tribuneTheaterId":"8879","providerTheaterId":"","name":"Lakewood Stadium 15 & RPX","address":"2410 84th St. S","city":"Lakewood","state":"WA","zip":"98499","distance":18.439859529783,"lon":"-122.468226","lat":"47.179651","theaterChainName":"Regal Cinemas","ticketType":"STANDARD"},{"id":"4342","tribuneTheaterId":"9326","providerTheaterId":"","name":"Century Federal Way","address":"2001 S. Commons","city":"Federal Way","state":"WA","zip":"98003","distance":19.3596653475,"lon":"-122.307637","lat":"47.313284","theaterChainName":"Cinemark","ticketType":"STANDARD"},{"id":"1088","tribuneTheaterId":"2804","providerTheaterId":"","name":"Grand Cinema","address":"606 S. Fawcett Ave.","city":"Tacoma","state":"WA","zip":"98402","distance":20.4445844447,"lon":"-122.444604","lat":"47.257987","theaterChainName":"Independent Chains","ticketType":"STANDARD"},{"id":"58","tribuneTheaterId":"8816","providerTheaterId":"2447","name":"AMC Loews Lakewood Mall 12","address":"5721 Main Street SW","city":"Lakewood","state":"WA","zip":"98499","distance":19.918574925498,"lon":"-122.512619","lat":"47.162233","theaterChainName":"AMC Theatres","ticketType":"STANDARD"},{"id":"408","tribuneTheaterId":"6950","providerTheaterId":"","name":"Gateway Movies 8","address":"2501 Gateway Center Blvd. S.","city":"Federal Way","state":"WA","zip":"98003","distance":19.445692823483,"lon":"-122.300918","lat":"47.317072","theaterChainName":"Starplex Cinemas","ticketType":"STANDARD"},{"id":"1085","tribuneTheaterId":"2456","providerTheaterId":"","name":"Blue Mouse Theatre","address":"2611 N. Proctor St.","city":"Tacoma","state":"WA","zip":"98407","distance":22.639478114263,"lon":"-122.488695","lat":"47.271624","theaterChainName":"Independent Chains","ticketType":"STANDARD"},{"id":"4149","tribuneTheaterId":"4247","providerTheaterId":"606","name":"AMC Kent Station","address":"426 Ramsay Way","city":"Kent","state":"WA","zip":"98032","distance":22.730627371066,"lon":"-122.234268","lat":"47.384745","theaterChainName":"AMC Theatres","ticketType":"STANDARD"},{"id":"3427","tribuneTheaterId":"2123","providerTheaterId":"","name":"Yelm Cinemas at Prairie Park","address":"201 Prairie Park St., N.E.","city":"Yelm","state":"WA","zip":"98597","distance":24.497266097293,"lon":"-122.599252","lat":"46.940348","theaterChainName":"Independent Chains","ticketType":"STANDARD"},{"id":"5833","tribuneTheaterId":"11243","providerTheaterId":"","name":"Century Point Ruston and XD","address":"5057 Main Street","city":"Tacoma","state":"WA","zip":"98407","distance":24.282912029496,"lon":"-122.502707","lat":"47.297354","theaterChainName":"Cinemark","ticketType":"STANDARD"}]