[{"id":"2712","tribuneTheaterId":"4111","providerTheaterId":"","name":"Capitol Theatre Olympia Film Society","address":"206 5th Ave. S.E.","city":"Olympia","state":"WA","zip":"98501","distance":4.361325547369,"lon":"-122.900257","lat":"47.044536","theaterChainName":"Independent Chains","ticketType":"STANDARD"},{"id":"4088","tribuneTheaterId":"4619","providerTheaterId":"","name":"Regal Martin Village Stadium 16 & IMAX","address":"5400 East Martin Way","city":"Lacey","state":"WA","zip":"98516","distance":4.5724640377342,"lon":"-122.813061","lat":"47.050572","theaterChainName":"Regal Cinemas","ticketType":"STANDARD"},{"id":"4332","tribuneTheaterId":"9307","providerTheaterId":"","name":"Century Olympia","address":"625 Black Lake Blvd. SW","city":"Olympia","state":"WA","zip":"98502","distance":5.2411046151475,"lon":"-122.9307","lat":"47.0406","theaterChainName":"Cinemark","ticketType":"STANDARD"},{"id":"2991","tribuneTheaterId":"1239","providerTheaterId":"","name":"Shelton Cinemas","address":"517 W. Franklin St.","city":"Shelton","state":"WA","zip":"98584","distance":13.406187793499,"lon":"-123.105381","lat":"47.213888","theaterChainName":"Independent Chains","ticketType":"STANDARD"},{"id":"3427","tribuneTheaterId":"2123","providerTheaterId":"","name":"Yelm Cinemas at Prairie Park","address":"201 Prairie Park St., N.E.","city":"Yelm","state":"WA","zip":"98597","distance":17.052812504505,"lon":"-122.599252","lat":"46.940348","theaterChainName":"Independent Chains","ticketType":"STANDARD"},{"id":"58","tribuneTheaterId":"8816","providerTheaterId":"2447","name":"AMC Loews Lakewood Mall 12","address":"5721 Main Street SW","city":"Lakewood","state":"WA","zip":"98499","distance":17.270204588741,"lon":"-122.512619","lat":"47.162233","theaterChainName":"AMC Theatres","ticketType":"STANDARD"},{"id":"4457","tribuneTheaterId":"9546","providerTheaterId":"","name":"Galaxy Theatre Uptown","address":"4649 Point Fosdick Dr NW","city":"Gig Harbor","state":"WA","zip":"98335","distance":19.364559115615,"lon":"-122.575707","lat":"47.300596","theaterChainName":"Galaxy Theatres","ticketType":"STANDARD"},{"id":"1598","tribuneTheaterId":"8879","providerTheaterId":"","name":"Lakewood Stadium 15 & RPX","address":"2410 84th St. S","city":"Lakewood","state":"WA","zip":"98499","distance":19.588271570207,"lon":"-122.468226","lat":"47.179651","theaterChainName":"Regal Cinemas","ticketType":"STANDARD"},{"id":"1085","tribuneTheaterId":"2456","providerTheaterId":"","name":"Blue Mouse Theatre","address":"2611 N. Proctor St.","city":"Tacoma","state":"WA","zip":"98407","distance":21.31621440564,"lon":"-122.488695","lat":"47.271624","theaterChainName":"Independent Chains","ticketType":"STANDARD"},{"id":"5833","tribuneTheaterId":"11243","providerTheaterId":"","name":"Century Point Ruston and XD","address":"5057 Main Street","city":"Tacoma","state":"WA","zip":"98407","distance":21.803670096669,"lon":"-122.502707","lat":"47.297354","theaterChainName":"Cinemark","ticketType":"STANDARD"},{"id":"1088","tribuneTheaterId":"2804","providerTheaterId":"","name":"Grand Cinema","address":"606 S. Fawcett Ave.","city":"Tacoma","state":"WA","zip":"98402","distance":22.62727308708,"lon":"-122.444604","lat":"47.257987","theaterChainName":"Independent Chains","ticketType":"STANDARD"}]