[{"id":"5048","tribuneTheaterId":"10426","providerTheaterId":"","name":"Dragonfly Cinema","address":"822 Bay St.","city":"Port Orchard","state":"WA","zip":"98366","distance":15.623889511151,"lon":"-122.635494","lat":"47.541229","theaterChainName":"Independent Chains","ticketType":"STANDARD"},{"id":"5207","tribuneTheaterId":"10631","providerTheaterId":"","name":"SEEfilm Bremerton Cinema","address":"655 4th St.","city":"Bremerton","state":"WA","zip":"98337","distance":16.702342093978,"lon":"-122.629949","lat":"47.565329","theaterChainName":"Independent Chains","ticketType":"STANDARD"},{"id":"2991","tribuneTheaterId":"1239","providerTheaterId":"","name":"Shelton Cinemas","address":"517 W. Franklin St.","city":"Shelton","state":"WA","zip":"98584","distance":17.218295990615,"lon":"-123.105381","lat":"47.213888","theaterChainName":"Independent Chains","ticketType":"STANDARD"},{"id":"667","tribuneTheaterId":"8042","providerTheaterId":"","name":"Regal South Sound Cinema 10","address":"1435 Olney Avenue SE","city":"Port Orchard","state":"WA","zip":"98366","distance":16.659406012279,"lon":"-122.605941","lat":"47.534974","theaterChainName":"Regal Cinemas","ticketType":"STANDARD"},{"id":"4457","tribuneTheaterId":"9546","providerTheaterId":"","name":"Galaxy Theatre Uptown","address":"4649 Point Fosdick Dr NW","city":"Gig Harbor","state":"WA","zip":"98335","distance":18.874549210988,"lon":"-122.575707","lat":"47.300596","theaterChainName":"Galaxy Theatres","ticketType":"STANDARD"},{"id":"756","tribuneTheaterId":"7968","providerTheaterId":"882","name":"AMC Kitsap Mall 8 Cinemas","address":"10055 NW Kitsap Mall","city":"Silverdale","state":"WA","zip":"98383","distance":18.836767169044,"lon":"-122.694861","lat":"47.654688","theaterChainName":"AMC Theatres","ticketType":"STANDARD"},{"id":"4235","tribuneTheaterId":"1805","providerTheaterId":"","name":"Olympic Cinemas","address":"1520 N.E. Riddell Road","city":"Bremerton","state":"WA","zip":"98310","distance":18.369596431542,"lon":"-122.632055","lat":"47.607134","theaterChainName":"Far Away Entertainment","ticketType":"STANDARD"},{"id":"40","tribuneTheaterId":"9212","providerTheaterId":"","name":"Regal Silverdale 4 Theatres","address":"9923 Poplars Ave. NW","city":"Silverdale","state":"WA","zip":"98383","distance":18.806718046511,"lon":"-122.694232","lat":"47.65385","theaterChainName":"Regal Cinemas","ticketType":"STANDARD"},{"id":"1083","tribuneTheaterId":"2455","providerTheaterId":"","name":"Lynwood Theatre","address":"4569 Lynwood Center Road","city":"Bainbridge Island","state":"WA","zip":"98110","distance":21.378690889534,"lon":"-122.547523","lat":"47.603964","theaterChainName":"Far Away Entertainment","ticketType":"STANDARD"},{"id":"1091","tribuneTheaterId":"2461","providerTheaterId":"","name":"Vashon Theatre","address":"99 SW 178th","city":"Vashon","state":"WA","zip":"98070","distance":21.8906548055,"lon":"-122.460879","lat":"47.445592","theaterChainName":"Independent Chains","ticketType":"STANDARD"},{"id":"5833","tribuneTheaterId":"11243","providerTheaterId":"","name":"Century Point Ruston and XD","address":"5057 Main Street","city":"Tacoma","state":"WA","zip":"98407","distance":22.022828637217,"lon":"-122.502707","lat":"47.297354","theaterChainName":"Cinemark","ticketType":"STANDARD"},{"id":"2710","tribuneTheaterId":"5182","providerTheaterId":"","name":"Bainbridge Cinemas","address":"403 North Madison Avenue","city":"Bainbridge Island","state":"WA","zip":"98110","distance":23.291329716136,"lon":"-122.521525","lat":"47.627379","theaterChainName":"Far Away Entertainment","ticketType":"STANDARD"},{"id":"1085","tribuneTheaterId":"2456","providerTheaterId":"","name":"Blue Mouse Theatre","address":"2611 N. Proctor St.","city":"Tacoma","state":"WA","zip":"98407","distance":23.412825709618,"lon":"-122.488695","lat":"47.271624","theaterChainName":"Independent Chains","ticketType":"STANDARD"},{"id":"2290","tribuneTheaterId":"6805","providerTheaterId":"","name":"Regal Poulsbo Stadium 10","address":"750 NW Edvard St.","city":"Poulsbo","state":"WA","zip":"98370","distance":24.905218320201,"lon":"-122.659167","lat":"47.743682","theaterChainName":"Regal Cinemas","ticketType":"STANDARD"}]