[{"id":"4648","tribuneTheaterId":"9847","providerTheaterId":"","name":"Midway Cinema","address":"181 NE Hampe Way","city":"Chehalis","state":"WA","zip":"98532","distance":19.91728109023,"lon":"-122.957804","lat":"46.687516","theaterChainName":"Coming Attractions","ticketType":"STANDARD"},{"id":"3619","tribuneTheaterId":"1310","providerTheaterId":"","name":"Olympic Club Theater","address":"112 N. Tower Ave.","city":"Centralia","state":"WA","zip":"98531","distance":20.593897265383,"lon":"-122.954045","lat":"46.716642","theaterChainName":"McMenamins","ticketType":"STANDARD"},{"id":"3427","tribuneTheaterId":"2123","providerTheaterId":"","name":"Yelm Cinemas at Prairie Park","address":"201 Prairie Park St., N.E.","city":"Yelm","state":"WA","zip":"98597","distance":24.987878556343,"lon":"-122.599252","lat":"46.940348","theaterChainName":"Independent Chains","ticketType":"STANDARD"},{"id":"2049","tribuneTheaterId":"2513","providerTheaterId":"","name":"Roxy Theatre - Eatonville","address":"115 Marshell Ave.","city":"Eatonville","state":"WA","zip":"98328","distance":24.468267903796,"lon":"-122.266572","lat":"46.866552","theaterChainName":"Independent Chains","ticketType":"STANDARD"}]