[{"id":"2991","tribuneTheaterId":"1239","providerTheaterId":"","name":"Shelton Cinemas","address":"517 W. Franklin St.","city":"Shelton","state":"WA","zip":"98584","distance":14.968504846964,"lon":"-123.105381","lat":"47.213888","theaterChainName":"Independent Chains","ticketType":"STANDARD"},{"id":"4332","tribuneTheaterId":"9307","providerTheaterId":"","name":"Century Olympia","address":"625 Black Lake Blvd. SW","city":"Olympia","state":"WA","zip":"98502","distance":16.136652645487,"lon":"-122.9307","lat":"47.0406","theaterChainName":"Cinemark","ticketType":"STANDARD"},{"id":"2712","tribuneTheaterId":"4111","providerTheaterId":"","name":"Capitol Theatre Olympia Film Society","address":"206 5th Ave. S.E.","city":"Olympia","state":"WA","zip":"98501","distance":17.581901276739,"lon":"-122.900257","lat":"47.044536","theaterChainName":"Independent Chains","ticketType":"STANDARD"},{"id":"4088","tribuneTheaterId":"4619","providerTheaterId":"","name":"Regal Martin Village Stadium 16 & IMAX","address":"5400 East Martin Way","city":"Lacey","state":"WA","zip":"98516","distance":21.704668606453,"lon":"-122.813061","lat":"47.050572","theaterChainName":"Regal Cinemas","ticketType":"STANDARD"}]