[{"id":"3427","tribuneTheaterId":"2123","providerTheaterId":"","name":"Yelm Cinemas at Prairie Park","address":"201 Prairie Park St., N.E.","city":"Yelm","state":"WA","zip":"98597","distance":2.0529963104682,"lon":"-122.599252","lat":"46.940348","theaterChainName":"Independent Chains","ticketType":"STANDARD"},{"id":"4088","tribuneTheaterId":"4619","providerTheaterId":"","name":"Regal Martin Village Stadium 16 & IMAX","address":"5400 East Martin Way","city":"Lacey","state":"WA","zip":"98516","distance":14.497650096186,"lon":"-122.813061","lat":"47.050572","theaterChainName":"Regal Cinemas","ticketType":"STANDARD"},{"id":"2049","tribuneTheaterId":"2513","providerTheaterId":"","name":"Roxy Theatre - Eatonville","address":"115 Marshell Ave.","city":"Eatonville","state":"WA","zip":"98328","distance":14.476724439904,"lon":"-122.266572","lat":"46.866552","theaterChainName":"Independent Chains","ticketType":"STANDARD"},{"id":"58","tribuneTheaterId":"8816","providerTheaterId":"2447","name":"AMC Loews Lakewood Mall 12","address":"5721 Main Street SW","city":"Lakewood","state":"WA","zip":"98499","distance":15.849309297197,"lon":"-122.512619","lat":"47.162233","theaterChainName":"AMC Theatres","ticketType":"STANDARD"},{"id":"2712","tribuneTheaterId":"4111","providerTheaterId":"","name":"Capitol Theatre Olympia Film Society","address":"206 5th Ave. S.E.","city":"Olympia","state":"WA","zip":"98501","distance":17.887827711535,"lon":"-122.900257","lat":"47.044536","theaterChainName":"Independent Chains","ticketType":"STANDARD"},{"id":"1598","tribuneTheaterId":"8879","providerTheaterId":"","name":"Lakewood Stadium 15 & RPX","address":"2410 84th St. S","city":"Lakewood","state":"WA","zip":"98499","distance":17.42036494212,"lon":"-122.468226","lat":"47.179651","theaterChainName":"Regal Cinemas","ticketType":"STANDARD"},{"id":"4332","tribuneTheaterId":"9307","providerTheaterId":"","name":"Century Olympia","address":"625 Black Lake Blvd. SW","city":"Olympia","state":"WA","zip":"98502","distance":19.091817822666,"lon":"-122.9307","lat":"47.0406","theaterChainName":"Cinemark","ticketType":"STANDARD"},{"id":"2387","tribuneTheaterId":"5614","providerTheaterId":"","name":"Regal Longston Place Stadium 14","address":"13317 Meridian St East","city":"Puyallup","state":"WA","zip":"98373","distance":18.657330949121,"lon":"-122.291265","lat":"47.135396","theaterChainName":"Regal Cinemas","ticketType":"STANDARD"},{"id":"239","tribuneTheaterId":"9031","providerTheaterId":"","name":"Regal South Hill Cinema 6","address":"3500 S Meridian","city":"Puyallup","state":"WA","zip":"98373","distance":19.731065623004,"lon":"-122.297101","lat":"47.159097","theaterChainName":"Regal Cinemas","ticketType":"STANDARD"},{"id":"3619","tribuneTheaterId":"1310","providerTheaterId":"","name":"Olympic Club Theater","address":"112 N. Tower Ave.","city":"Centralia","state":"WA","zip":"98531","distance":24.091755596904,"lon":"-122.954045","lat":"46.716642","theaterChainName":"McMenamins","ticketType":"STANDARD"},{"id":"1085","tribuneTheaterId":"2456","providerTheaterId":"","name":"Blue Mouse Theatre","address":"2611 N. Proctor St.","city":"Tacoma","state":"WA","zip":"98407","distance":23.489743982947,"lon":"-122.488695","lat":"47.271624","theaterChainName":"Independent Chains","ticketType":"STANDARD"},{"id":"1088","tribuneTheaterId":"2804","providerTheaterId":"","name":"Grand Cinema","address":"606 S. Fawcett Ave.","city":"Tacoma","state":"WA","zip":"98402","distance":22.941932904675,"lon":"-122.444604","lat":"47.257987","theaterChainName":"Independent Chains","ticketType":"STANDARD"},{"id":"683","tribuneTheaterId":"8404","providerTheaterId":"","name":"Regal Tall Firs 10","address":"20751 State Route 410 E","city":"Bonney Lake","state":"WA","zip":"98391","distance":24.800251670613,"lon":"-122.15377","lat":"47.16619","theaterChainName":"Regal Cinemas","ticketType":"STANDARD"}]