[{"id":"5549","tribuneTheaterId":"10990","providerTheaterId":"","name":"Regal Three Rivers Mall 12 & RPX","address":"341 Three Rivers Dr.","city":"Kelso","state":"WA","zip":"98626","distance":17.602433378605,"lon":"-122.9015","lat":"46.14","theaterChainName":"Regal Cinemas","ticketType":"STANDARD"},{"id":"2375","tribuneTheaterId":"391","providerTheaterId":"","name":"Kelso Theatre Pub","address":"214 S. Pacific Ave.","city":"Kelso","state":"WA","zip":"98626","distance":17.182006975902,"lon":"-122.911606","lat":"46.143736","theaterChainName":"Independent Chains","ticketType":"STANDARD"},{"id":"45","tribuneTheaterId":"7726","providerTheaterId":"","name":"Regal Triangle Quad Cinemas","address":"1228 Washington Way","city":"Longview","state":"WA","zip":"98632","distance":16.959895414363,"lon":"-122.933969","lat":"46.141621","theaterChainName":"Regal Cinemas","ticketType":"STANDARD"},{"id":"4648","tribuneTheaterId":"9847","providerTheaterId":"","name":"Midway Cinema","address":"181 NE Hampe Way","city":"Chehalis","state":"WA","zip":"98532","distance":21.956520082823,"lon":"-122.957804","lat":"46.687516","theaterChainName":"Coming Attractions","ticketType":"STANDARD"},{"id":"3619","tribuneTheaterId":"1310","providerTheaterId":"","name":"Olympic Club Theater","address":"112 N. Tower Ave.","city":"Centralia","state":"WA","zip":"98531","distance":23.967918708498,"lon":"-122.954045","lat":"46.716642","theaterChainName":"McMenamins","ticketType":"STANDARD"}]