[{"id":"2991","tribuneTheaterId":"1239","providerTheaterId":"","name":"Shelton Cinemas","address":"517 W. Franklin St.","city":"Shelton","state":"WA","zip":"98584","distance":16.39865311687,"lon":"-123.105381","lat":"47.213888","theaterChainName":"Independent Chains","ticketType":"STANDARD"},{"id":"5048","tribuneTheaterId":"10426","providerTheaterId":"","name":"Dragonfly Cinema","address":"822 Bay St.","city":"Port Orchard","state":"WA","zip":"98366","distance":19.292130458832,"lon":"-122.635494","lat":"47.541229","theaterChainName":"Independent Chains","ticketType":"STANDARD"},{"id":"40","tribuneTheaterId":"9212","providerTheaterId":"","name":"Regal Silverdale 4 Theatres","address":"9923 Poplars Ave. NW","city":"Silverdale","state":"WA","zip":"98383","distance":21.080433488051,"lon":"-122.694232","lat":"47.65385","theaterChainName":"Regal Cinemas","ticketType":"STANDARD"},{"id":"756","tribuneTheaterId":"7968","providerTheaterId":"882","name":"AMC Kitsap Mall 8 Cinemas","address":"10055 NW Kitsap Mall","city":"Silverdale","state":"WA","zip":"98383","distance":21.098799059145,"lon":"-122.694861","lat":"47.654688","theaterChainName":"AMC Theatres","ticketType":"STANDARD"},{"id":"5207","tribuneTheaterId":"10631","providerTheaterId":"","name":"SEEfilm Bremerton Cinema","address":"655 4th St.","city":"Bremerton","state":"WA","zip":"98337","distance":20.161265758229,"lon":"-122.629949","lat":"47.565329","theaterChainName":"Independent Chains","ticketType":"STANDARD"},{"id":"4235","tribuneTheaterId":"1805","providerTheaterId":"","name":"Olympic Cinemas","address":"1520 N.E. Riddell Road","city":"Bremerton","state":"WA","zip":"98310","distance":21.427633227843,"lon":"-122.632055","lat":"47.607134","theaterChainName":"Far Away Entertainment","ticketType":"STANDARD"},{"id":"667","tribuneTheaterId":"8042","providerTheaterId":"","name":"Regal South Sound Cinema 10","address":"1435 Olney Avenue SE","city":"Port Orchard","state":"WA","zip":"98366","distance":20.457162816264,"lon":"-122.605941","lat":"47.534974","theaterChainName":"Regal Cinemas","ticketType":"STANDARD"},{"id":"4457","tribuneTheaterId":"9546","providerTheaterId":"","name":"Galaxy Theatre Uptown","address":"4649 Point Fosdick Dr NW","city":"Gig Harbor","state":"WA","zip":"98335","distance":23.182720036781,"lon":"-122.575707","lat":"47.300596","theaterChainName":"Galaxy Theatres","ticketType":"STANDARD"},{"id":"1083","tribuneTheaterId":"2455","providerTheaterId":"","name":"Lynwood Theatre","address":"4569 Lynwood Center Road","city":"Bainbridge Island","state":"WA","zip":"98110","distance":24.775006019385,"lon":"-122.547523","lat":"47.603964","theaterChainName":"Far Away Entertainment","ticketType":"STANDARD"}]