[{"id":"45","tribuneTheaterId":"7726","providerTheaterId":"","name":"Regal Triangle Quad Cinemas","address":"1228 Washington Way","city":"Longview","state":"WA","zip":"98632","distance":20.848487288277,"lon":"-122.933969","lat":"46.141621","theaterChainName":"Regal Cinemas","ticketType":"STANDARD"},{"id":"1879","tribuneTheaterId":"1119","providerTheaterId":"","name":"Columbian Theatre","address":"1102 Marine Dr.","city":"Astoria","state":"OR","zip":"97103","distance":22.430716658458,"lon":"-123.831607","lat":"46.189724","theaterChainName":"Independent Chains","ticketType":"STANDARD"},{"id":"2644","tribuneTheaterId":"4998","providerTheaterId":"","name":"Astoria Gateway Cinema","address":"1875 Marine Dr","city":"Astoria","state":"OR","zip":"97103","distance":21.968632690768,"lon":"-123.821916","lat":"46.18884","theaterChainName":"Coming Attractions","ticketType":"STANDARD"},{"id":"5549","tribuneTheaterId":"10990","providerTheaterId":"","name":"Regal Three Rivers Mall 12 & RPX","address":"341 Three Rivers Dr.","city":"Kelso","state":"WA","zip":"98626","distance":22.398145341357,"lon":"-122.9015","lat":"46.14","theaterChainName":"Regal Cinemas","ticketType":"STANDARD"},{"id":"2375","tribuneTheaterId":"391","providerTheaterId":"","name":"Kelso Theatre Pub","address":"214 S. Pacific Ave.","city":"Kelso","state":"WA","zip":"98626","distance":21.877520484394,"lon":"-122.911606","lat":"46.143736","theaterChainName":"Independent Chains","ticketType":"STANDARD"}]