[{"id":"5549","tribuneTheaterId":"10990","providerTheaterId":"","name":"Regal Three Rivers Mall 12 & RPX","address":"341 Three Rivers Dr.","city":"Kelso","state":"WA","zip":"98626","distance":9.7854647243923,"lon":"-122.9015","lat":"46.14","theaterChainName":"Regal Cinemas","ticketType":"STANDARD"},{"id":"2376","tribuneTheaterId":"392","providerTheaterId":"","name":"Columbia Theatre St. Helens","address":"212 S. First Street","city":"Saint Helens","state":"OR","zip":"97051","distance":10.235486833914,"lon":"-122.798111","lat":"45.863619","theaterChainName":"Independent Chains","ticketType":"STANDARD"},{"id":"2375","tribuneTheaterId":"391","providerTheaterId":"","name":"Kelso Theatre Pub","address":"214 S. Pacific Ave.","city":"Kelso","state":"WA","zip":"98626","distance":10.227011513037,"lon":"-122.911606","lat":"46.143736","theaterChainName":"Independent Chains","ticketType":"STANDARD"},{"id":"45","tribuneTheaterId":"7726","providerTheaterId":"","name":"Regal Triangle Quad Cinemas","address":"1228 Washington Way","city":"Longview","state":"WA","zip":"98632","distance":10.622997486611,"lon":"-122.933969","lat":"46.141621","theaterChainName":"Regal Cinemas","ticketType":"STANDARD"},{"id":"4507","tribuneTheaterId":"9613","providerTheaterId":"","name":"Scappoose Cinema 7","address":"33520 SW Edward Lane","city":"Scappoose","state":"OR","zip":"97056","distance":18.91464345287,"lon":"-122.878776","lat":"45.740889","theaterChainName":"Independent Chains","ticketType":"STANDARD"},{"id":"4014","tribuneTheaterId":"2159","providerTheaterId":"","name":"Battle Ground Cinema","address":"1700 SW 9th Ave.","city":"Battle Ground","state":"WA","zip":"98604","distance":21.243435863252,"lon":"-122.5456","lat":"45.7684","theaterChainName":"Independent Chains","ticketType":"STANDARD"},{"id":"1595","tribuneTheaterId":"4617","providerTheaterId":"","name":"Regal Cinema 99 Stadium 11","address":"9010 N.E. Highway 99","city":"Vancouver","state":"WA","zip":"98665","distance":23.515289595931,"lon":"-122.662418","lat":"45.688247","theaterChainName":"Regal Cinemas","ticketType":"STANDARD"}]