[{"id":"1103","tribuneTheaterId":"2687","providerTheaterId":"","name":"Liberty Theater","address":"315 N.E. 4th Ave.","city":"Camas","state":"WA","zip":"98607","distance":21.258095556391,"lon":"-122.404816","lat":"45.585747","theaterChainName":"Independent Chains","ticketType":"STANDARD"},{"id":"4005","tribuneTheaterId":"7048","providerTheaterId":"","name":"Hood River Cinemas","address":"Columbia Street","city":"Hood River","state":"OR","zip":"97031","distance":22.575954969907,"lon":"-121.515318","lat":"45.710049","theaterChainName":"Independent Chains","ticketType":"STANDARD"},{"id":"2050","tribuneTheaterId":"1145","providerTheaterId":"","name":"Skylight","address":"107 Oak St","city":"Hood River","state":"OR","zip":"97031","distance":22.724090538396,"lon":"-121.511739","lat":"45.708687","theaterChainName":"Independent Chains","ticketType":"STANDARD"},{"id":"2550","tribuneTheaterId":"435","providerTheaterId":"","name":"Edgefield Powerstation Theater","address":"2126 S.W. Halsey St.","city":"Troutdale","state":"OR","zip":"97060","distance":22.204688038143,"lon":"-122.407315","lat":"45.536648","theaterChainName":"McMenamins","ticketType":"STANDARD"},{"id":"3504","tribuneTheaterId":"2126","providerTheaterId":"","name":"Sandy Cinemas","address":"16605 Champion Way","city":"Sandy","state":"OR","zip":"97055","distance":22.634757124563,"lon":"-122.298116","lat":"45.403092","theaterChainName":"Independent Chains","ticketType":"STANDARD"},{"id":"818","tribuneTheaterId":"7560","providerTheaterId":"","name":"Regal Stark Street Stadium 10","address":"2929 N.E. Kane Dr.","city":"Gresham","state":"OR","zip":"97030","distance":22.277783163377,"lon":"-122.39873","lat":"45.517249","theaterChainName":"Regal Cinemas","ticketType":"STANDARD"},{"id":"1116","tribuneTheaterId":"245","providerTheaterId":"","name":"Mt. Hood Theatre","address":"401 E. Powell Blvd.","city":"Gresham","state":"OR","zip":"97030","distance":24.034937174405,"lon":"-122.426874","lat":"45.498566","theaterChainName":"Independent Chains","ticketType":"STANDARD"}]