[{"id":"1597","tribuneTheaterId":"4620","providerTheaterId":"","name":"Regal Cascade Stadium 16 Cinemas","address":"1101 SE 160th Ave","city":"Vancouver","state":"WA","zip":"98683","distance":0.72210893892037,"lon":"-122.506697","lat":"45.612575","theaterChainName":"Regal Cinemas","ticketType":"STANDARD"},{"id":"4101","tribuneTheaterId":"2166","providerTheaterId":"","name":"Cinetopia Mill Plain 8","address":"11700 S.E. 7th St.","city":"Vancouver","state":"WA","zip":"98683","distance":2.0234522448838,"lon":"-122.550555","lat":"45.616559","theaterChainName":"Independent Chains","ticketType":"STANDARD"},{"id":"1118","tribuneTheaterId":"246","providerTheaterId":"","name":"Roseway Theatre","address":"7229 NE Sandy Blvd.","city":"Portland","state":"OR","zip":"97213","distance":5.2337233292704,"lon":"-122.588402","lat":"45.548662","theaterChainName":"Independent Chains","ticketType":"STANDARD"},{"id":"1103","tribuneTheaterId":"2687","providerTheaterId":"","name":"Liberty Theater","address":"315 N.E. 4th Ave.","city":"Camas","state":"WA","zip":"98607","distance":5.3816971979646,"lon":"-122.404816","lat":"45.585747","theaterChainName":"Independent Chains","ticketType":"STANDARD"},{"id":"5186","tribuneTheaterId":"10601","providerTheaterId":"","name":"Cinetopia Vancouver Mall 23","address":"8700 NE Vancouver Mall Dr.","city":"Vancouver","state":"WA","zip":"98662","distance":5.1002584095365,"lon":"-122.583738","lat":"45.65818","theaterChainName":"Independent Chains","ticketType":"STANDARD"},{"id":"27","tribuneTheaterId":"9032","providerTheaterId":"","name":"Regal Vancouver Plaza 10 Cinema","address":"7800 N.E. Fourth Plain Road","city":"Vancouver","state":"WA","zip":"98662","distance":5.0202830790657,"lon":"-122.595438","lat":"45.647694","theaterChainName":"Regal Cinemas","ticketType":"STANDARD"},{"id":"4177","tribuneTheaterId":"2213","providerTheaterId":"","name":"Academy Theater","address":"7818 S.E. Stark St.","city":"Portland","state":"OR","zip":"97215","distance":6.7267304426614,"lon":"-122.582964","lat":"45.518942","theaterChainName":"Independent Chains","ticketType":"STANDARD"},{"id":"622","tribuneTheaterId":"7263","providerTheaterId":"","name":"Regal Division Street Stadium 13","address":"16603 SE Division St.","city":"Portland","state":"OR","zip":"97236","distance":6.8028607091843,"lon":"-122.492607","lat":"45.505813","theaterChainName":"Regal Cinemas","ticketType":"STANDARD"},{"id":"2550","tribuneTheaterId":"435","providerTheaterId":"","name":"Edgefield Powerstation Theater","address":"2126 S.W. Halsey St.","city":"Troutdale","state":"OR","zip":"97060","distance":6.8864395431278,"lon":"-122.407315","lat":"45.536648","theaterChainName":"McMenamins","ticketType":"STANDARD"},{"id":"2718","tribuneTheaterId":"6734","providerTheaterId":"","name":"Hollywood Theatre","address":"4122 NE Sandy Blvd.","city":"Portland","state":"OR","zip":"97212","distance":6.9750087124295,"lon":"-122.620678","lat":"45.535816","theaterChainName":"Independent Chains","ticketType":"STANDARD"},{"id":"2566","tribuneTheaterId":"1196","providerTheaterId":"","name":"Kennedy School Theater","address":"5736 N.E. 33rd Ave.","city":"Portland","state":"OR","zip":"97211","distance":6.2450987501928,"lon":"-122.630005","lat":"45.56449","theaterChainName":"McMenamins","ticketType":"STANDARD"},{"id":"1303","tribuneTheaterId":"261","providerTheaterId":"","name":"Kiggins Theatre","address":"1011 Main St.","city":"Vancouver","state":"WA","zip":"98660","distance":7.8558497065669,"lon":"-122.67154","lat":"45.629216","theaterChainName":"Independent Chains","ticketType":"STANDARD"},{"id":"1105","tribuneTheaterId":"238","providerTheaterId":"","name":"Bagdad Theater and Pub","address":"3702 S.E. Hawthorne Blvd.","city":"Portland","state":"OR","zip":"97214","distance":8.324332952577,"lon":"-122.625532","lat":"45.511877","theaterChainName":"McMenamins","ticketType":"STANDARD"},{"id":"1596","tribuneTheaterId":"4618","providerTheaterId":"","name":"Regal City Center Stadium 12","address":"801 C St.","city":"Vancouver","state":"WA","zip":"98660","distance":7.7019714958103,"lon":"-122.668946","lat":"45.627143","theaterChainName":"Regal Cinemas","ticketType":"STANDARD"},{"id":"1116","tribuneTheaterId":"245","providerTheaterId":"","name":"Mt. Hood Theatre","address":"401 E. Powell Blvd.","city":"Gresham","state":"OR","zip":"97030","distance":8.3517725027289,"lon":"-122.426874","lat":"45.498566","theaterChainName":"Independent Chains","ticketType":"STANDARD"},{"id":"818","tribuneTheaterId":"7560","providerTheaterId":"","name":"Regal Stark Street Stadium 10","address":"2929 N.E. Kane Dr.","city":"Gresham","state":"OR","zip":"97030","distance":8.1232021613478,"lon":"-122.39873","lat":"45.517249","theaterChainName":"Regal Cinemas","ticketType":"STANDARD"},{"id":"5140","tribuneTheaterId":"10546","providerTheaterId":"","name":"Jubitz Cinema","address":"10350 North Vancouver Way","city":"Portland","state":"OR","zip":"97217","distance":7.5740814628008,"lon":"-122.669701","lat":"45.596699","theaterChainName":"Independent Chains","ticketType":"STANDARD"},{"id":"1605","tribuneTheaterId":"8432","providerTheaterId":"","name":"Century Eastport 16","address":"4040 S.E. 82nd Ave.","city":"Portland","state":"OR","zip":"97266","distance":8.1573860860293,"lon":"-122.57471","lat":"45.493248","theaterChainName":"Cinemark","ticketType":"STANDARD"},{"id":"25","tribuneTheaterId":"7729","providerTheaterId":"","name":"Regal Lloyd Mall 8 Cinema","address":"2320 Lloyd Center Mall","city":"Portland","state":"OR","zip":"97232","distance":8.3292255410757,"lon":"-122.653449","lat":"45.533155","theaterChainName":"Regal Cinemas","ticketType":"STANDARD"},{"id":"24","tribuneTheaterId":"8186","providerTheaterId":"","name":"807 Lloyd Center 10 and IMAX","address":"1510 N.E. Multnomah Blvd.","city":"Portland","state":"OR","zip":"97232","distance":8.3000293895892,"lon":"-122.651668","lat":"45.532154","theaterChainName":"Regal Cinemas","ticketType":"STANDARD"},{"id":"1111","tribuneTheaterId":"1657","providerTheaterId":"","name":"Laurelhurst Theatre","address":"2735 E. Burnside St.","city":"Portland","state":"OR","zip":"97214","distance":8.1623071891997,"lon":"-122.637491","lat":"45.523227","theaterChainName":"Independent Chains","ticketType":"STANDARD"},{"id":"4312","tribuneTheaterId":"3031","providerTheaterId":"","name":"Living Room Theaters","address":"341 S.W. Tenth Ave.","city":"Portland","state":"OR","zip":"97205","distance":9.8651847850724,"lon":"-122.681382","lat":"45.522342","theaterChainName":"Independent Chains","ticketType":"STANDARD"},{"id":"3629","tribuneTheaterId":"4625","providerTheaterId":"","name":"Pioneer Place Stadium 6","address":"340 S.W. Morrison St.","city":"Portland","state":"OR","zip":"97204","distance":9.8357633150197,"lon":"-122.676408","lat":"45.518211","theaterChainName":"Regal Cinemas","ticketType":"STANDARD"},{"id":"1107","tribuneTheaterId":"240","providerTheaterId":"","name":"Cinema 21","address":"616 N.W. 21st Ave.","city":"Portland","state":"OR","zip":"97209","distance":10.217008850777,"lon":"-122.6944","lat":"45.5271","theaterChainName":"Independent Chains","ticketType":"STANDARD"},{"id":"1595","tribuneTheaterId":"4617","providerTheaterId":"","name":"Regal Cinema 99 Stadium 11","address":"9010 N.E. Highway 99","city":"Vancouver","state":"WA","zip":"98665","distance":9.2956788249267,"lon":"-122.662418","lat":"45.688247","theaterChainName":"Regal Cinemas","ticketType":"STANDARD"},{"id":"3206","tribuneTheaterId":"545","providerTheaterId":"","name":"NW Film Center's Whitsell Auditorium","address":"1219 S.W. Park Ave.","city":"Portland","state":"OR","zip":"97205","distance":10.17488643745,"lon":"-122.682999","lat":"45.516201","theaterChainName":"Independent Chains","ticketType":"STANDARD"},{"id":"1114","tribuneTheaterId":"243","providerTheaterId":"","name":"Mission Theater and Pub","address":"1624 NW Glisan St.","city":"Portland","state":"OR","zip":"97209","distance":9.9919450137312,"lon":"-122.688146","lat":"45.526198","theaterChainName":"McMenamins","ticketType":"STANDARD"},{"id":"3086","tribuneTheaterId":"4627","providerTheaterId":"","name":"Regal Fox Tower Stadium 10","address":"846 S.W. Park Ave.","city":"Portland","state":"OR","zip":"97205","distance":10.016397931854,"lon":"-122.681145","lat":"45.518313","theaterChainName":"Regal Cinemas","ticketType":"STANDARD"},{"id":"3654","tribuneTheaterId":"2785","providerTheaterId":"","name":"St. Johns Pub and Theater","address":"8203 N. Ivanhoe St.","city":"Portland","state":"OR","zip":"97202","distance":11.748549784517,"lon":"-122.755646","lat":"45.59058","theaterChainName":"McMenamins","ticketType":"STANDARD"},{"id":"4014","tribuneTheaterId":"2159","providerTheaterId":"","name":"Battle Ground Cinema","address":"1700 SW 9th Ave.","city":"Battle Ground","state":"WA","zip":"98604","distance":11.520196597758,"lon":"-122.5456","lat":"45.7684","theaterChainName":"Independent Chains","ticketType":"STANDARD"},{"id":"1119","tribuneTheaterId":"1093","providerTheaterId":"","name":"St. Johns Twin Cinemas and Pub","address":"8704 N. Lombard St.","city":"Saint Johns","state":"OR","zip":"97203","distance":11.742374626248,"lon":"-122.755519","lat":"45.59059","theaterChainName":"Independent Chains","ticketType":"STANDARD"},{"id":"4372","tribuneTheaterId":"9412","providerTheaterId":"","name":"Century at Clackamas Town Center","address":"12000 SE 82nd Ave.","city":"Portland","state":"OR","zip":"97086","distance":11.944746519026,"lon":"-122.574058","lat":"45.435645","theaterChainName":"Cinemark","ticketType":"STANDARD"},{"id":"1110","tribuneTheaterId":"1091","providerTheaterId":"","name":"Lake Twin Cinema","address":"106 N. State St.","city":"Lake Oswego","state":"OR","zip":"97034","distance":14.835970691356,"lon":"-122.663695","lat":"45.416122","theaterChainName":"Independent Chains","ticketType":"STANDARD"},{"id":"26","tribuneTheaterId":"8406","providerTheaterId":"","name":"Regal Tigard 11 Cinemas","address":"11626 S.W. Pacific Highway","city":"Tigard","state":"OR","zip":"97223","distance":16.341545088633,"lon":"-122.752819","lat":"45.436542","theaterChainName":"Regal Cinemas","ticketType":"STANDARD"},{"id":"3909","tribuneTheaterId":"4849","providerTheaterId":"","name":"Century 16 Cedar Hills Crossing","address":"3200 S.W. Hocken Ave.","city":"Beaverton","state":"OR","zip":"97005","distance":16.195023927798,"lon":"-122.81215","lat":"45.497641","theaterChainName":"Cinemark","ticketType":"STANDARD"},{"id":"28","tribuneTheaterId":"8299","providerTheaterId":"","name":"Regal Evergreen Parkway Stadium 13","address":"2625 N.W. 188th Ave.","city":"Hillsboro","state":"OR","zip":"97124","distance":17.881572090214,"lon":"-122.871485","lat":"45.539092","theaterChainName":"Regal Cinemas","ticketType":"STANDARD"},{"id":"3504","tribuneTheaterId":"2126","providerTheaterId":"","name":"Sandy Cinemas","address":"16605 Champion Way","city":"Sandy","state":"OR","zip":"97055","distance":17.313157447521,"lon":"-122.298116","lat":"45.403092","theaterChainName":"Independent Chains","ticketType":"STANDARD"},{"id":"269","tribuneTheaterId":"8500","providerTheaterId":"","name":"Regal Hilltop 9 Cinema","address":"325 Beavercreek Road","city":"Oregon City","state":"OR","zip":"97045","distance":18.968691884218,"lon":"-122.593195","lat":"45.334441","theaterChainName":"Regal Cinemas","ticketType":"STANDARD"},{"id":"3999","tribuneTheaterId":"4629","providerTheaterId":"","name":"Regal Cinemas Bridgeport Village Stadium 18 & IMAX","address":"7329 SW Bridgeport Road","city":"Tigard","state":"OR","zip":"97224","distance":18.334989790436,"lon":"-122.752177","lat":"45.397321","theaterChainName":"Regal Cinemas","ticketType":"STANDARD"},{"id":"689","tribuneTheaterId":"7730","providerTheaterId":"","name":"Regal Movies On TV Stadium 16","address":"2929 S.W. 234th Ave.","city":"Hillsboro","state":"OR","zip":"97123","distance":20.98229823681,"lon":"-122.920028","lat":"45.497854","theaterChainName":"Regal Cinemas","ticketType":"STANDARD"},{"id":"4507","tribuneTheaterId":"9613","providerTheaterId":"","name":"Scappoose Cinema 7","address":"33520 SW Edward Lane","city":"Scappoose","state":"OR","zip":"97056","distance":20.046322286679,"lon":"-122.878776","lat":"45.740889","theaterChainName":"Independent Chains","ticketType":"STANDARD"},{"id":"2953","tribuneTheaterId":"4626","providerTheaterId":"","name":"Regal Sherwood Stadium 10","address":"15995 Tualatin-Sherwood Road","city":"Sherwood","state":"OR","zip":"97140","distance":22.571033338181,"lon":"-122.840163","lat":"45.370381","theaterChainName":"Regal Cinemas","ticketType":"STANDARD"},{"id":"2376","tribuneTheaterId":"392","providerTheaterId":"","name":"Columbia Theatre St. Helens","address":"212 S. First Street","city":"Saint Helens","state":"OR","zip":"97051","distance":22.636695616633,"lon":"-122.798111","lat":"45.863619","theaterChainName":"Independent Chains","ticketType":"STANDARD"},{"id":"305","tribuneTheaterId":"8501","providerTheaterId":"","name":"Regal Wilsonville Stadium 9 Cinema","address":"29300 SW Town Center Loop","city":"Wilsonville","state":"OR","zip":"97070","distance":23.775539239712,"lon":"-122.765651","lat":"45.308113","theaterChainName":"Regal Cinemas","ticketType":"STANDARD"},{"id":"4842","tribuneTheaterId":"10121","providerTheaterId":"","name":"Canby Cinema 8","address":"252 NE 2nd Ave.","city":"Canby","state":"OR","zip":"97013","distance":24.926630248704,"lon":"-122.690865","lat":"45.264633","theaterChainName":"Independent Chains","ticketType":"STANDARD"}]