[{"id":"448","name":"Regal Spokane Valley Stadium 12","address":"14706 E Indiana Ave.","city":"Spokane","state":"WA","zip":"99216","distance":"21.365840911865234","lon":"-117.209679","lat":"47.673382","theaterChainName":"Regal Cinemas","ticketType":"STANDARD"},{"id":"4413","name":"Magic Lantern Theatre","address":"25 W. Main Ave","city":"Spokane","state":"WA","zip":"99201","distance":"13.90601634979248","lon":"-117.411873","lat":"47.658962","theaterChainName":"Independent Chains","ticketType":"STANDARD"},{"id":"3085","name":"Northtown Mall Stadium 12","address":"4750 N. Division St.","city":"Spokane","state":"WA","zip":"99207","distance":"16.4675235748291","lon":"-117.409599","lat":"47.701817","theaterChainName":"Regal Cinemas","ticketType":"STANDARD"},{"id":"2569","name":"AMC River Park Square 20","address":"808 W. Main","city":"Spokane","state":"WA","zip":"99201","distance":"13.608437538146973","lon":"-117.423882","lat":"47.659248","theaterChainName":"AMC Theatres","ticketType":"STANDARD"},{"id":"4237","name":"Village Centre Cinemas Wandermere","address":"12622 North State Route 395","city":"Spokane","state":"WA","zip":"99218","distance":"20.985000610351562","lon":"-117.401360","lat":"47.772125","theaterChainName":"Independent Chains","ticketType":"STANDARD"},{"id":"4843","name":"Village Center Airway Heights","address":"10117 W. State Route 2","city":"Spokane","state":"WA","zip":"99224","distance":"10.296919822692871","lon":"-117.552238","lat":"47.641830","theaterChainName":"Independent Chains","ticketType":"STANDARD"}]