[{"id":"4237","tribuneTheaterId":"2356","providerTheaterId":"","name":"Village Centre Cinemas Wandermere","address":"12622 North State Route 395","city":"Spokane","state":"WA","zip":"99218","distance":11.354929313666,"lon":"-117.401363","lat":"47.772125","theaterChainName":"Independent Chains","ticketType":"STANDARD"},{"id":"3085","tribuneTheaterId":"5613","providerTheaterId":"","name":"Northtown Mall Stadium 12","address":"4750 N. Division St.","city":"Spokane","state":"WA","zip":"99207","distance":15.978765774481,"lon":"-117.409601","lat":"47.701816","theaterChainName":"Regal Cinemas","ticketType":"STANDARD"},{"id":"448","tribuneTheaterId":"7884","providerTheaterId":"","name":"Regal Spokane Valley Stadium 12","address":"14706 E Indiana Ave.","city":"Spokane","state":"WA","zip":"99216","distance":17.410000561141,"lon":"-117.20968","lat":"47.67338","theaterChainName":"Regal Cinemas","ticketType":"STANDARD"},{"id":"2569","tribuneTheaterId":"6755","providerTheaterId":"603","name":"AMC River Park Square 20","address":"808 W. Main","city":"Spokane","state":"WA","zip":"99201","distance":18.974186131604,"lon":"-117.42388","lat":"47.659247","theaterChainName":"AMC Theatres","ticketType":"STANDARD"},{"id":"4413","tribuneTheaterId":"9472","providerTheaterId":"","name":"Magic Lantern Theatre","address":"25 W. Main Ave","city":"Spokane","state":"WA","zip":"99201","distance":18.820616458312,"lon":"-117.411876","lat":"47.658964","theaterChainName":"Independent Chains","ticketType":"STANDARD"},{"id":"2841","tribuneTheaterId":"477","providerTheaterId":"","name":"Roxy Theater","address":"120 S. Washington Ave.","city":"Newport","state":"WA","zip":"99156","distance":21.415719842306,"lon":"-117.04401","lat":"48.181054","theaterChainName":"Independent Chains","ticketType":"STANDARD"},{"id":"4843","tribuneTheaterId":"10122","providerTheaterId":"","name":"Village Center Airway Heights","address":"10117 W. State Route 2","city":"Spokane","state":"WA","zip":"99224","distance":22.652687291306,"lon":"-117.5522376","lat":"47.6418315","theaterChainName":"Independent Chains","ticketType":"STANDARD"}]