[{"id":"2841","tribuneTheaterId":"477","providerTheaterId":"","name":"Roxy Theater","address":"120 S. Washington Ave.","city":"Newport","state":"WA","zip":"99156","distance":16.080290988849,"lon":"-117.04401","lat":"48.181054","theaterChainName":"Independent Chains","ticketType":"STANDARD"},{"id":"4237","tribuneTheaterId":"2356","providerTheaterId":"","name":"Village Centre Cinemas Wandermere","address":"12622 North State Route 395","city":"Spokane","state":"WA","zip":"99218","distance":17.837876434902,"lon":"-117.401363","lat":"47.772125","theaterChainName":"Independent Chains","ticketType":"STANDARD"},{"id":"3085","tribuneTheaterId":"5613","providerTheaterId":"","name":"Northtown Mall Stadium 12","address":"4750 N. Division St.","city":"Spokane","state":"WA","zip":"99207","distance":22.636678752014,"lon":"-117.409601","lat":"47.701816","theaterChainName":"Regal Cinemas","ticketType":"STANDARD"},{"id":"448","tribuneTheaterId":"7884","providerTheaterId":"","name":"Regal Spokane Valley Stadium 12","address":"14706 E Indiana Ave.","city":"Spokane","state":"WA","zip":"99216","distance":24.317658336377,"lon":"-117.20968","lat":"47.67338","theaterChainName":"Regal Cinemas","ticketType":"STANDARD"}]