[{"id":"448","name":"Regal Spokane Valley Stadium 12","address":"14706 E Indiana Ave.","city":"Spokane","state":"WA","zip":"99216","distance":"19.754179000854492","lon":"-117.209679","lat":"47.673382","theaterChainName":"Regal Cinemas","ticketType":"STANDARD"},{"id":"4413","name":"Magic Lantern Theatre","address":"25 W. Main Ave","city":"Spokane","state":"WA","zip":"99201","distance":"12.869485855102539","lon":"-117.411873","lat":"47.658962","theaterChainName":"Independent Chains","ticketType":"STANDARD"},{"id":"3085","name":"Northtown Mall Stadium 12","address":"4750 N. Division St.","city":"Spokane","state":"WA","zip":"99207","distance":"10.844249725341797","lon":"-117.409599","lat":"47.701817","theaterChainName":"Regal Cinemas","ticketType":"STANDARD"},{"id":"2569","name":"AMC River Park Square 20","address":"808 W. Main","city":"Spokane","state":"WA","zip":"99201","distance":"12.50339126586914","lon":"-117.423882","lat":"47.659248","theaterChainName":"AMC Theatres","ticketType":"STANDARD"},{"id":"4237","name":"Village Centre Cinemas Wandermere","address":"12622 North State Route 395","city":"Spokane","state":"WA","zip":"99218","distance":"8.96912956237793","lon":"-117.401360","lat":"47.772125","theaterChainName":"Independent Chains","ticketType":"STANDARD"},{"id":"4843","name":"Village Center Airway Heights","address":"10117 W. State Route 2","city":"Spokane","state":"WA","zip":"99224","distance":"11.194438934326172","lon":"-117.552238","lat":"47.641830","theaterChainName":"Independent Chains","ticketType":"STANDARD"}]