[{"id":"4165","name":"Lewiston Village Centre Cinemas","address":"2920 Nez Perce Drive","city":"Lewiston","state":"ID","zip":"83501","distance":"9.934664726257324","lon":"-116.990440","lat":"46.399731","theaterChainName":"Independent Chains","ticketType":"STANDARD"},{"id":"5483","name":"Village Centre Cinemas at Eastside Market Place","address":"1420 S. Blaine St.","city":"Moscow","state":"ID","zip":"83843","distance":"14.458077430725098","lon":"-116.983055","lat":"46.721519","theaterChainName":"Independent Chains","ticketType":"STANDARD"},{"id":"2201","name":"Kenworthy 1","address":"508 S Main","city":"Moscow","state":"ID","zip":"83843","distance":"14.783055305480957","lon":"-117.001221","lat":"46.730709","theaterChainName":"Independent Chains","ticketType":"STANDARD"},{"id":"4672","name":"Pullman Village Centre Cinemas","address":"1085 S.E. Bishop Blvd.","city":"Pullman","state":"WA","zip":"99163","distance":"13.352930068969727","lon":"-117.163918","lat":"46.712406","theaterChainName":"Independent Chains","ticketType":"STANDARD"}]