[{"id":"4085","tribuneTheaterId":"1800","providerTheaterId":"","name":"Reichert's Showhouse","address":"130 N. Broadway","city":"Othello","state":"WA","zip":"99344","distance":17.319304588117,"lon":"-119.1754","lat":"46.8275","theaterChainName":"Independent Chains","ticketType":"STANDARD"},{"id":"4371","tribuneTheaterId":"9402","providerTheaterId":"","name":"Fairchild Cinemas - Pasco","address":"5020 Convention Dr","city":"Pasco","state":"WA","zip":"99301","distance":21.222624519187,"lon":"-119.180472","lat":"46.272486","theaterChainName":"Independent Chains","ticketType":"STANDARD"},{"id":"603","tribuneTheaterId":"8403","providerTheaterId":"","name":"Regal Columbia Mall Stadium 8","address":"701 Columbia Center","city":"Kennewick","state":"WA","zip":"99336","distance":24.778630645397,"lon":"-119.227238","lat":"46.224978","theaterChainName":"Regal Cinemas","ticketType":"STANDARD"},{"id":"2829","tribuneTheaterId":"8427","providerTheaterId":"","name":"Carmike 12 Kennewick","address":"1380 N Louisiana St.","city":"Kennewick","state":"WA","zip":"99336","distance":24.843113713257,"lon":"-119.232366","lat":"46.224668","theaterChainName":"Carmike Cinemas","ticketType":"STANDARD"}]