[{"id":"343","tribuneTheaterId":"6806","providerTheaterId":"","name":"Regal Dimond Center 9 Cinemas","address":"800 E. Dimond Blvd. Ste 210","city":"Anchorage","state":"AK","zip":"99515","distance":0.41268898898688,"lon":"-149.867039","lat":"61.142231","theaterChainName":"Regal Cinemas","ticketType":"STANDARD"},{"id":"2984","tribuneTheaterId":"5985","providerTheaterId":"","name":"Bear Tooth Theatre Pub","address":"1230 W 27th Ave","city":"Anchorage","state":"AK","zip":"99503","distance":3.6900455388232,"lon":"-149.906816","lat":"61.196219","theaterChainName":"Independent Chains","ticketType":"STANDARD"},{"id":"1607","tribuneTheaterId":"9135","providerTheaterId":"","name":"Century 16 Anchorage","address":"301 E. 36th Ave","city":"Anchorage","state":"AK","zip":"99503","distance":3.0565732866879,"lon":"-149.879115","lat":"61.188837","theaterChainName":"Cinemark","ticketType":"STANDARD"},{"id":"31","tribuneTheaterId":"7412","providerTheaterId":"","name":"Regal Totem 8 Theatres","address":"3131 Muldoon Rd.","city":"Anchorage","state":"AK","zip":"99504","distance":5.9188256570719,"lon":"-149.731014","lat":"61.19242","theaterChainName":"Regal Cinemas","ticketType":"STANDARD"},{"id":"4892","tribuneTheaterId":"10203","providerTheaterId":"","name":"Regal Tikahtnu Stadium 16 & IMAX","address":"1102 N. Muldoon Rd.","city":"Anchorage","state":"AK","zip":"99504","distance":6.7187922680508,"lon":"-149.7334","lat":"61.2122","theaterChainName":"Regal Cinemas","ticketType":"STANDARD"}]