[{"id":"5037","tribuneTheaterId":"10413","providerTheaterId":"","name":"The Valley Cinema","address":"3331 East Old Matanuska Road","city":"Wasilla","state":"AK","zip":"99654","distance":12.293042409434,"lon":"-149.366491","lat":"61.566056","theaterChainName":"Coming Attractions","ticketType":"STANDARD"},{"id":"4892","tribuneTheaterId":"10203","providerTheaterId":"","name":"Regal Tikahtnu Stadium 16 & IMAX","address":"1102 N. Muldoon Rd.","city":"Anchorage","state":"AK","zip":"99504","distance":21.474738551246,"lon":"-149.7334","lat":"61.2122","theaterChainName":"Regal Cinemas","ticketType":"STANDARD"},{"id":"2984","tribuneTheaterId":"5985","providerTheaterId":"","name":"Bear Tooth Theatre Pub","address":"1230 W 27th Ave","city":"Anchorage","state":"AK","zip":"99503","distance":23.335330862908,"lon":"-149.906816","lat":"61.196219","theaterChainName":"Independent Chains","ticketType":"STANDARD"},{"id":"1607","tribuneTheaterId":"9135","providerTheaterId":"","name":"Century 16 Anchorage","address":"301 E. 36th Ave","city":"Anchorage","state":"AK","zip":"99503","distance":23.619080880631,"lon":"-149.879115","lat":"61.188837","theaterChainName":"Cinemark","ticketType":"STANDARD"},{"id":"31","tribuneTheaterId":"7412","providerTheaterId":"","name":"Regal Totem 8 Theatres","address":"3131 Muldoon Rd.","city":"Anchorage","state":"AK","zip":"99504","distance":22.840981722494,"lon":"-149.731014","lat":"61.19242","theaterChainName":"Regal Cinemas","ticketType":"STANDARD"}]